loggingTime(txt),locationTimestamp_since1970(s),locationLatitude(WGS84),locationLongitude(WGS84),locationAltitude(m),locationSpeed(m/s),locationSpeedAccuracy(m/s),locationCourse(°),locationCourseAccuracy(°),locationVerticalAccuracy(m),locationHorizontalAccuracy(m),locationFloor(Z),accelerometerTimestamp_sinceReboot(s),accelerometerAccelerationX(G),accelerometerAccelerationY(G),accelerometerAccelerationZ(G),motionTimestamp_sinceReboot(s),motionYaw(rad),motionRoll(rad),motionPitch(rad),motionRotationRateX(rad/s),motionRotationRateY(rad/s),motionRotationRateZ(rad/s),motionUserAccelerationX(G),motionUserAccelerationY(G),motionUserAccelerationZ(G),motionAttitudeReferenceFrame(txt),motionQuaternionX(R),motionQuaternionY(R),motionQuaternionZ(R),motionQuaternionW(R),motionGravityX(G),motionGravityY(G),motionGravityZ(G),motionMagneticFieldX(µT),motionMagneticFieldY(µT),motionMagneticFieldZ(µT),motionHeading(°),motionMagneticFieldCalibrationAccuracy(Z),activityTimestamp_sinceReboot(s),activity(txt),activityActivityConfidence(Z),activityActivityStartDate(txt),pedometerStartDate(txt),pedometerNumberofSteps(N),pedometerAverageActivePace(s/m),pedometerCurrentPace(s/m),pedometerCurrentCadence(steps/s),pedometerDistance(m),pedometerFloorAscended(N),pedometerFloorDescended(N),pedometerEndDate(txt),altimeterTimestamp_sinceReboot(s),altimeterReset(bool),altimeterRelativeAltitude(m),altimeterPressure(kPa),batteryState(N),batteryLevel(R),heartRateBPMTimestamp(txt),heartRateBPM(N),heartRateBPS(R),heartRateVariabilityTimestamp(txt),heartRateVariability(ms),label
2025-04-18T10:18:13.827+03:00,1744960693.019994,40.95362655444679,29.14099305211143,92.02811,-1,-1,-1,-1,30,21.49291283600189,-9999,60703.60227804167,-0.726593017578125,0.6322479248046875,-0.2512054443359375,60703.59220204167,1.486167991612886,-1.265187530754877,-0.6899164504583744,0.08287444710731506,-0.3250196874141693,-0.1075884699821472,0.03161132335662842,0.02409547567367554,0.007652774453163147,XArbitraryZVertical,0.1756157803167869,-0.5942450894123744,0.6607277473090787,0.4236398788767903,-0.7355602979660034,0.636472761631012,-0.2320637404918671,0,0,0,-1,-1,60702.52296725001,unknown,2,2025-04-18T10:18:12.715+03:00,2025-04-17T15:44:39.500+03:00,7077,1.059162,0,0,5844.344,4,10,2025-04-18T10:17:57.239+03:00,766653492.8140407,0,105.42,100.5905,1,0.75,2025-04-18T10:17:43.542+03:00,108,1.8,2025-04-18T08:51:18.885+03:00,0.03057091307199995,1
2025-04-18T10:18:13.830+03:00,1744960693.019994,40.95362655444679,29.14099305211143,92.02811,-1,-1,-1,-1,30,21.49291283600189,-9999,60703.61235304167,-0.7516021728515625,0.6529998779296875,-0.2313232421875,60703.60227804167,1.486339651886094,-1.267684664188685,-0.6886653005709923,0.004038748797029257,-0.2215545773506165,-0.1227501183748245,0.01570552587509155,-0.00483095645904541,-0.01990234851837158,XArbitraryZVertical,0.1769256590447032,-0.5945295881223253,0.6604027325530568,0.4232023100177597,-0.7368969917297363,0.6355072259902954,-0.2304637581110001,0,0,0,-1,-1,60702.52296725001,unknown,2,2025-04-18T10:18:12.715+03:00,2025-04-17T15:44:39.500+03:00,7077,1.059162,0,0,5844.344,4,10,2025-04-18T10:17:57.239+03:00,766653492.8140407,0,105.42,100.5905,1,0.75,2025-04-18T10:17:43.542+03:00,108,1.8,2025-04-18T08:51:18.885+03:00,0.03057091307199995,1
2025-04-18T10:18:13.831+03:00,1744960693.019994,40.95362655444679,29.14099305211143,92.02811,-1,-1,-1,-1,30,21.49291283600189,-9999,60703.62242804167,-0.7701873779296875,0.5428466796875,-0.2191925048828125,60703.61235304167,1.484376420096877,-1.270730699678047,-0.6853898849226157,-0.1826208829879761,-0.1573343127965927,-0.9366560578346252,-0.009885907173156738,0.01910948753356934,-0.0059700608253479,XArbitraryZVertical,0.1784828823975612,-0.5947501984727426,0.659343256549434,0.4238898588584076,-0.7395801544189453,0.6329749226570129,-0.2288321256637573,0,0,0,-1,-1,60702.52296725001,unknown,2,2025-04-18T10:18:12.715+03:00,2025-04-17T15:44:39.500+03:00,7077,1.059162,0,0,5844.344,4,10,2025-04-18T10:17:57.239+03:00,766653492.8140407,0,105.42,100.5905,1,0.75,2025-04-18T10:17:43.542+03:00,108,1.8,2025-04-18T08:51:18.885+03:00,0.03057091307199995,1
2025-04-18T10:18:13.833+03:00,1744960693.019994,40.95362655444679,29.14099305211143,92.02811,-1,-1,-1,-1,30,21.49291283600189,-9999,60703.63250404167,-0.720062255859375,0.37921142578125,-0.1991729736328125,60703.62242804167,1.479229246542175,-1.276435687772513,-0.6779974234655745,-0.1333630532026291,-0.2982552051544189,-0.5261414647102356,-0.02194178104400635,-0.05364143848419189,0.005349040031433105,XArbitraryZVertical,0.1813916270708978,-0.5950771432936037,0.6568784306455022,0.4260176369333692,-0.7453312277793884,0.6272346377372742,-0.2259605377912521,0,0,0,-1,-1,60702.52296725001,unknown,2,2025-04-18T10:18:12.715+03:00,2025-04-17T15:44:39.500+03:00,7077,1.059162,0,0,5844.344,4,10,2025-04-18T10:17:57.239+03:00,766653492.8140407,0,105.42,100.5905,1,0.75,2025-04-18T10:17:43.542+03:00,108,1.8,2025-04-18T08:51:18.885+03:00,0.03057091307199995,1
2025-04-18T10:18:13.839+03:00,1744960693.019994,40.95362655444679,29.14099305211143,92.02811,-1,-1,-1,-1,30,21.49291283600189,-9999,60703.64258004167,-0.73638916015625,0.73297119140625,-0.20440673828125,60703.63250404167,1.475729551515028,-1.281732308509797,-0.6745437616665482,-0.1841843575239182,-0.311268150806427,-0.3117223978042603,0.01680845022201538,-0.2592609524726868,0.02023330330848694,XArbitraryZVertical,0.1832836532480636,-0.5958978028078943,0.6552402623151184,0.4265830564102521,-0.7485894560813904,0.6245410442352295,-0.2226258218288422,0,0,0,-1,-1,60702.52296725001,unknown,2,2025-04-18T10:18:12.715+03:00,2025-04-17T15:44:39.500+03:00,7077,1.059162,0,0,5844.344,4,10,2025-04-18T10:17:57.239+03:00,766653492.8140407,0,105.42,100.5905,1,0.75,2025-04-18T10:17:43.542+03:00,108,1.8,2025-04-18T08:51:18.885+03:00,0.03057091307199995,1
2025-04-18T10:18:13.851+03:00,1744960693.019994,40.95362655444679,29.14099305211143,92.02811,-1,-1,-1,-1,30,21.49291283600189,-9999,60703.65265504167,-0.7713470458984375,0.7922210693359375,-0.24688720703125,60703.64258004167,1.473409128766004,-1.285860378215147,-0.6727623344563995,-0.04744195193052292,-0.20232754945755,-0.09056258946657181,0.02539467811584473,0.06825745105743408,0.01960510015487671,XArbitraryZVertical,0.1845600911143575,-0.5966695213183368,0.6541515999972031,0.4266248744878664,-0.750568687915802,0.6231487989425659,-0.2198461145162582,0,0,0,-1,-1,60702.52296725001,unknown,2,2025-04-18T10:18:12.715+03:00,2025-04-17T15:44:39.500+03:00,7077,1.059162,0,0,5844.344,4,10,2025-04-18T10:17:57.239+03:00,766653492.8140407,0,105.42,100.5905,1,0.75,2025-04-18T10:17:43.542+03:00,108,1.8,2025-04-18T08:51:18.885+03:00,0.03057091307199995,1
2025-04-18T10:18:13.860+03:00,1744960693.019994,40.95362655444679,29.14099305211143,92.02811,-1,-1,-1,-1,30,21.49291283600189,-9999,60703.66273104167,-0.7821197509765625,0.6765594482421875,-0.24627685546875,60703.65265504167,1.473339148976712,-1.287111810765108,-0.672222955765901,0.04138978198170662,-0.05753188207745552,-0.02460294216871262,-0.02199703454971313,0.1818233728408813,-0.02452945709228516,XArbitraryZVertical,0.18513515644225,-0.5968455483692614,0.6539557531622879,0.4264298339181209,-0.7511659264564514,0.6227268576622009,-0.2190007269382477,0,0,0,-1,-1,60702.52296725001,unknown,2,2025-04-18T10:18:12.715+03:00,2025-04-17T15:44:39.500+03:00,7077,1.059162,0,0,5844.344,4,10,2025-04-18T10:17:57.239+03:00,766653492.8140407,0,105.42,100.5905,1,0.75,2025-04-18T10:17:43.542+03:00,108,1.8,2025-04-18T08:51:18.885+03:00,0.03057091307199995,1
2025-04-18T10:18:13.869+03:00,1744960693.019994,40.95362655444679,29.14099305211143,92.02811,-1,-1,-1,-1,30,21.49291283600189,-9999,60703.67280604167,-0.76312255859375,0.6014404296875,-0.22314453125,60703.66273104167,1.473741321517749,-1.28730486573084,-0.6720148656084838,0.02259212546050549,-0.03181213513016701,0.0103723518550396,-0.02784240245819092,0.06585150957107544,-0.02962791919708252,XArbitraryZVertical,0.1853903701938701,-0.5968119049831443,0.6539983842509288,0.4263005197442931,-0.7513324618339539,0.6225640177726746,-0.2188919186592102,0,0,0,-1,-1,60702.52296725001,unknown,2,2025-04-18T10:18:12.715+03:00,2025-04-17T15:44:39.500+03:00,7077,1.059162,0,0,5844.344,4,10,2025-04-18T10:17:57.239+03:00,766653492.8140407,0,105.42,100.5905,1,0.75,2025-04-18T10:17:43.542+03:00,108,1.8,2025-04-18T08:51:18.885+03:00,0.03057091307199995,1
2025-04-18T10:18:13.879+03:00,1744960693.019994,40.95362655444679,29.14099305211143,92.02811,-1,-1,-1,-1,30,21.49291283600189,-9999,60703.68288204167,-0.739013671875,0.555816650390625,-0.2218170166015625,60703.67280604167,1.473539991763503,-1.287746872908929,-0.6720669005176152,-0.05449167266488075,-0.0363176055252552,-0.009724227711558342,-0.01735508441925049,-0.01306188106536865,-0.006211161613464355,XArbitraryZVertical,0.1854567921349384,-0.5969341633813662,0.6539208054575009,0.4262194853764825,-0.7513980269432068,0.6226047277450562,-0.2185507714748383,0,0,0,-1,-1,60702.52296725001,unknown,2,2025-04-18T10:18:12.715+03:00,2025-04-17T15:44:39.500+03:00,7077,1.059162,0,0,5844.344,4,10,2025-04-18T10:17:57.239+03:00,766653492.8140407,0,105.42,100.5905,1,0.75,2025-04-18T10:17:43.542+03:00,108,1.8,2025-04-18T08:51:18.885+03:00,0.03057091307199995,1
2025-04-18T10:18:13.890+03:00,1744960693.019994,40.95362655444679,29.14099305211143,92.02811,-1,-1,-1,-1,30,21.49291283600189,-9999,60703.69295704167,-0.7574310302734375,0.5718536376953125,-0.2185516357421875,60703.68288204167,1.472394606987907,-1.288875556551127,-0.6721556018438154,-0.114994965493679,-0.03715916350483894,-0.0160196740180254,0.01344716548919678,-0.06449240446090698,-0.003946706652641296,XArbitraryZVertical,0.185453127113467,-0.5972968881542965,0.6535828109795194,0.4262311731945128,-0.7515910863876343,0.6226741671562195,-0.2176871299743652,0,0,0,-1,-1,60702.52296725001,unknown,2,2025-04-18T10:18:12.715+03:00,2025-04-17T15:44:39.500+03:00,7077,1.059162,0,0,5844.344,4,10,2025-04-18T10:17:57.239+03:00,766653492.8140407,0,105.42,100.5905,1,0.75,2025-04-18T10:17:43.542+03:00,108,1.8,2025-04-18T08:51:18.885+03:00,0.03057091307199995,1
2025-04-18T10:18:13.900+03:00,1744960693.019994,40.95362655444679,29.14099305211143,92.02811,-1,-1,-1,-1,30,21.49291283600189,-9999,60703.70303304167,-0.7620697021484375,0.6196746826171875,-0.215911865234375,60703.69295704167,1.470668677727111,-1.290191353158128,-0.6722325964723822,-0.1405423283576965,-0.01133309304714203,-0.04273806884884834,-0.003784358501434326,-0.0555042028427124,-0.002278789877891541,XArbitraryZVertical,0.1853406206544089,-0.5977511843175787,0.6531023413372464,0.4263798190877751,-0.7518308758735657,0.6227343678474426,-0.2166847586631775,0,0,0,-1,-1,60702.52296725001,unknown,2,2025-04-18T10:18:12.715+03:00,2025-04-17T15:44:39.500+03:00,7077,1.059162,0,0,5844.344,4,10,2025-04-18T10:17:57.239+03:00,766653492.8140407,0,105.42,100.5905,1,0.75,2025-04-18T10:17:43.542+03:00,108,1.8,2025-04-18T08:51:18.885+03:00,0.03057091307199995,1
2025-04-18T10:18:13.910+03:00,1744960693.019994,40.95362655444679,29.14099305211143,92.02811,-1,-1,-1,-1,30,21.49291283600189,-9999,60703.71310804167,-0.7599029541015625,0.6718292236328125,-0.2066192626953125,60703.70303304167,1.468834180853814,-1.291431165500337,-0.6720815286734306,-0.1186341047286987,-0.01588629931211472,-0.06322763115167618,-0.01013970375061035,-0.009228110313415527,-0.0003165006637573242,XArbitraryZVertical,0.1852491185913589,-0.5981584688235535,0.6525777809336519,0.4266515971195047,-0.7521894574165344,0.622616171836853,-0.2157784253358841,0,0,0,-1,-1,60702.52296725001,unknown,2,2025-04-18T10:18:12.715+03:00,2025-04-17T15:44:39.500+03:00,7077,1.059162,0,0,5844.344,4,10,2025-04-18T10:17:57.239+03:00,766653492.8140407,0,105.42,100.5905,1,0.75,2025-04-18T10:17:43.542+03:00,108,1.8,2025-04-18T08:51:18.885+03:00,0.03057091307199995,1
2025-04-18T10:18:13.920+03:00,1744960693.019994,40.95362655444679,29.14099305211143,92.02811,-1,-1,-1,-1,30,21.49291283600189,-9999,60703.72318404167,-0.7475433349609375,0.6888885498046875,-0.2063446044921875,60703.71310804167,1.467544200003461,-1.292470254879646,-0.6716299667182788,-0.04299826920032501,-0.01831490360200405,-0.06488800793886185,-0.008058786392211914,0.04387491941452026,0.007020369172096252,XArbitraryZVertical,0.1853586111842408,-0.5984189495500168,0.6521507785006208,0.4268914237156926,-0.7526833415031433,0.6222627758979797,-0.215073898434639,0,0,0,-1,-1,60702.52296725001,unknown,2,2025-04-18T10:18:12.715+03:00,2025-04-17T15:44:39.500+03:00,7077,1.059162,0,0,5844.344,4,10,2025-04-18T10:17:57.239+03:00,766653492.8140407,0,105.42,100.5905,1,0.75,2025-04-18T10:17:43.542+03:00,108,1.8,2025-04-18T08:51:18.885+03:00,0.03057091307199995,1
2025-04-18T10:18:13.930+03:00,1744960693.019994,40.95362655444679,29.14099305211143,92.02811,-1,-1,-1,-1,30,21.49291283600189,-9999,60703.73325904167,-0.7428131103515625,0.671295166015625,-0.2079010009765625,60703.72318404167,1.467344477231874,-1.292573619765641,-0.671166161350679,0.03251326829195023,0.015646792948246,-0.04542137309908867,0.003639161586761475,0.06781286001205444,0.008974984288215637,XArbitraryZVertical,0.1854931852437864,-0.5983766466378837,0.6520414693350485,0.4270592163758232,-0.752983033657074,0.6218996047973633,-0.2150753289461136,0,0,0,-1,-1,60702.52296725001,unknown,2,2025-04-18T10:18:12.715+03:00,2025-04-17T15:44:39.500+03:00,7077,1.059162,0,0,5844.344,4,10,2025-04-18T10:17:57.239+03:00,766653492.8140407,0,105.42,100.5905,1,0.75,2025-04-18T10:17:43.542+03:00,108,1.8,2025-04-18T08:51:18.885+03:00,0.03057091307199995,1
2025-04-18T10:18:13.940+03:00,1744960693.019994,40.95362655444679,29.14099305211143,92.02811,-1,-1,-1,-1,30,21.49291283600189,-9999,60703.74333504167,-0.748931884765625,0.661590576171875,-0.211761474609375,60703.73325904167,1.467751096382718,-1.292198739436343,-0.6704551794291436,0.06384142488241196,0.006379858125001192,-0.07146652042865753,0.01055991649627686,0.05173772573471069,0.007990196347236633,XArbitraryZVertical,0.1857388176580074,-0.5981316943832792,0.6520755513190252,0.4272435039744891,-0.7533272504806519,0.6213427186012268,-0.2154791355133057,0,0,0,-1,-1,60702.52296725001,unknown,2,2025-04-18T10:18:12.715+03:00,2025-04-17T15:44:39.500+03:00,7077,1.059162,0,0,5844.344,4,10,2025-04-18T10:17:57.239+03:00,766653492.8140407,0,105.42,100.5905,1,0.75,2025-04-18T10:17:43.542+03:00,108,1.8,2025-04-18T08:51:18.885+03:00,0.03057091307199995,1
2025-04-18T10:18:13.950+03:00,1744960693.019994,40.95362655444679,29.14099305211143,92.02811,-1,-1,-1,-1,30,21.49291283600189,-9999,60703.75341004167,-0.749725341796875,0.641387939453125,-0.220306396484375,60703.74333504167,1.468289402817183,-1.291925154729021,-0.6694400001197346,0.07156592607498169,-0.02384755201637745,-0.1038239300251007,0.005293428897857666,0.04266107082366943,0.004890799522399902,XArbitraryZVertical,0.1861620061278691,-0.5978413777993726,0.6520909896567522,0.4274422184048788,-0.7538744211196899,0.6205469369888306,-0.2158587872982025,0,0,0,-1,-1,60702.52296725001,unknown,2,2025-04-18T10:18:12.715+03:00,2025-04-17T15:44:39.500+03:00,7077,1.059162,0,0,5844.344,4,10,2025-04-18T10:17:57.239+03:00,766653492.8140407,0,105.42,100.5905,1,0.75,2025-04-18T10:17:43.542+03:00,108,1.8,2025-04-18T08:51:18.885+03:00,0.03057091307199995,1
2025-04-18T10:18:13.960+03:00,1744960693.019994,40.95362655444679,29.14099305211143,92.02811,-1,-1,-1,-1,30,21.49291283600189,-9999,60703.76348604167,-0.751190185546875,0.614013671875,-0.22076416015625,60703.75341004167,1.468742419942368,-1.291942685012061,-0.6681356549305403,0.06583839654922485,-0.0349554643034935,-0.1267708539962769,0.004533529281616211,0.02512979507446289,-0.002575010061264038,XArbitraryZVertical,0.186754587816838,-0.5975689297970429,0.6520254358946448,0.427664699176036,-0.7546557784080505,0.6195235848426819,-0.2160681933164597,0,0,0,-1,-1,60702.52296725001,unknown,2,2025-04-18T10:18:12.715+03:00,2025-04-17T15:44:39.500+03:00,7077,1.059162,0,0,5844.344,4,10,2025-04-18T10:17:57.239+03:00,766653492.8140407,0,105.42,100.5905,1,0.75,2025-04-18T10:17:43.542+03:00,108,1.8,2025-04-18T08:51:18.885+03:00,0.03057091307199995,1
2025-04-18T10:18:13.970+03:00,1744960693.019994,40.95362655444679,29.14099305211143,92.02811,-1,-1,-1,-1,30,21.49291283600189,-9999,60703.77356104167,-0.757354736328125,0.6071319580078125,-0.2163543701171875,60703.76348604167,1.469018409097214,-1.292185027003359,-0.6666243408689749,0.05492689460515976,-0.03945434466004372,-0.142037957906723,0.004752814769744873,-0.00162208080291748,-0.005048796534538269,XArbitraryZVertical,0.1874390590520054,-0.59732347592566,0.6518752121543675,0.4279369433147212,-0.7556073069572449,0.61833655834198,-0.2161425352096558,0,0,0,-1,-1,60702.52296725001,unknown,2,2025-04-18T10:18:12.715+03:00,2025-04-17T15:44:39.500+03:00,7077,1.059162,0,0,5844.344,4,10,2025-04-18T10:17:57.239+03:00,766653492.8140407,0,105.42,100.5905,1,0.75,2025-04-18T10:17:43.542+03:00,108,1.8,2025-04-18T08:51:18.885+03:00,0.03057091307199995,1
2025-04-18T10:18:13.980+03:00,1744960693.019994,40.95362655444679,29.14099305211143,92.02811,-1,-1,-1,-1,30,21.49291283600189,-9999,60703.78363704167,-0.7625579833984375,0.614898681640625,-0.2172698974609375,60703.77356104167,1.469103419975137,-1.292390029025918,-0.6650810002418386,0.03891770541667938,-0.01171605475246906,-0.147347703576088,-8.45789909362793e-05,-0.0110589861869812,-0.0004861354827880859,XArbitraryZVertical,0.1880651414430409,-0.5970818038820395,0.6516832311877063,0.4282918303858277,-0.7565683126449585,0.6171228885650635,-0.2162496447563171,0,0,0,-1,-1,60702.52296725001,unknown,2,2025-04-18T10:18:12.715+03:00,2025-04-17T15:44:39.500+03:00,7077,1.059162,0,0,5844.344,4,10,2025-04-18T10:17:57.239+03:00,766653492.8140407,0,105.42,100.5905,1,0.75,2025-04-18T10:17:43.542+03:00,108,1.8,2025-04-18T08:51:18.885+03:00,0.03057091307199995,1
2025-04-18T10:18:13.990+03:00,1744960693.019994,40.95362655444679,29.14099305211143,92.02811,-1,-1,-1,-1,30,21.49291283600189,-9999,60703.79371204167,-0.7551727294921875,0.6184844970703125,-0.219268798828125,60703.78363704167,1.46890760075102,-1.29256117171166,-0.663563464113734,0.01323417760431767,0.002828266238793731,-0.1451071947813034,-0.005465149879455566,-0.002067029476165771,-0.0004197210073471069,XArbitraryZVertical,0.1885873691571383,-0.596863684884109,0.6514369653050711,0.4287404656606008,-0.7575048208236694,0.615928053855896,-0.2163770943880081,0,0,0,-1,-1,60702.52296725001,unknown,2,2025-04-18T10:18:12.715+03:00,2025-04-17T15:44:39.500+03:00,7077,1.059162,0,0,5844.344,4,10,2025-04-18T10:17:57.239+03:00,766653492.8140407,0,105.42,100.5905,1,0.75,2025-04-18T10:17:43.542+03:00,108,1.8,2025-04-18T08:51:18.885+03:00,0.03057091307199995,1
2025-04-18T10:18:14.000+03:00,1744960693.019994,40.95362655444679,29.14099305211143,92.02811,-1,-1,-1,-1,30,21.49291283600189,-9999,60703.80378804167,-0.75164794921875,0.612762451171875,-0.2225799560546875,60703.79371204167,1.468479761922633,-1.292710918253632,-0.662302991009627,-0.004363591317087412,0.0209895595908165,-0.1214824840426445,0.001431941986083984,0.002527534961700439,-0.002914175391197205,XArbitraryZVertical,0.188944358755989,-0.5967090781747173,0.6511743847588934,0.4291971597635844,-0.7582831382751465,0.6149345636367798,-0.2164766043424606,0,0,0,-1,-1,60702.52296725001,unknown,2,2025-04-18T10:18:12.715+03:00,2025-04-17T15:44:39.500+03:00,7077,1.059162,0,0,5844.344,4,10,2025-04-18T10:17:57.239+03:00,766653492.8140407,0,105.42,100.5905,1,0.75,2025-04-18T10:17:43.542+03:00,108,1.8,2025-04-18T08:51:18.885+03:00,0.03057091307199995,1
2025-04-18T10:18:14.011+03:00,1744960693.019994,40.95362655444679,29.14099305211143,92.02811,-1,-1,-1,-1,30,21.49291283600189,-9999,60703.81386304167,-0.74945068359375,0.599609375,-0.22845458984375,60703.80378804167,1.468036967397989,-1.292675469372304,-0.6612950311538602,-0.005920741241425276,0.03950279206037521,-0.09642240405082703,0.007436752319335938,0.0003319978713989258,-0.00557062029838562,XArbitraryZVertical,0.1891493049758364,-0.5965616246859394,0.6509571047995946,0.4296411609686034,-0.7588710188865662,0.6141393780708313,-0.2166735380887985,0,0,0,-1,-1,60702.52296725001,unknown,2,2025-04-18T10:18:12.715+03:00,2025-04-17T15:44:39.500+03:00,7077,1.059162,0,0,5844.344,4,10,2025-04-18T10:17:57.239+03:00,766653492.8140407,0,105.42,100.5905,1,0.75,2025-04-18T10:17:43.542+03:00,108,1.8,2025-04-18T08:51:18.885+03:00,0.03057091307199995,1
2025-04-18T10:18:14.021+03:00,1744960693.019994,40.95362655444679,29.14099305211143,92.02811,-1,-1,-1,-1,30,21.49291283600189,-9999,60703.82393904167,-0.74127197265625,0.597412109375,-0.21905517578125,60703.81386304167,1.467641341876109,-1.292429440228528,-0.6607781705732793,-0.01969920471310616,0.06632741540670395,-0.03816459327936172,0.009306013584136963,-0.01297765970230103,-0.01175121963024139,XArbitraryZVertical,0.1891299257456319,-0.5964529655874778,0.6508308933232804,0.4299917562311154,-0.759122908115387,0.6137314438819885,-0.216947466135025,0,0,0,-1,-1,60702.52296725001,unknown,2,2025-04-18T10:18:12.715+03:00,2025-04-17T15:44:39.500+03:00,7077,1.059162,0,0,5844.344,4,10,2025-04-18T10:17:57.239+03:00,766653492.8140407,0,105.42,100.5905,1,0.75,2025-04-18T10:17:43.542+03:00,108,1.8,2025-04-18T08:51:18.885+03:00,0.03057091307199995,1
2025-04-18T10:18:14.031+03:00,1744960693.019994,40.95362655444679,29.14099305211143,92.02811,-1,-1,-1,-1,30,21.49291283600189,-9999,60703.83401404167,-0.7398529052734375,0.5951995849609375,-0.2132568359375,60703.82393904167,1.467287439063057,-1.291822629894279,-0.6608066245747172,-0.02500795014202595,0.1034998148679733,0.01201016269624233,0.01687836647033691,-0.0162043571472168,-0.003330320119857788,XArbitraryZVertical,0.1888170245858999,-0.5963610333960759,0.6508156760999779,0.4302798941544257,-0.7589744925498962,0.6137538552284241,-0.2174032926559448,0,0,0,-1,-1,60702.52296725001,unknown,2,2025-04-18T10:18:12.715+03:00,2025-04-17T15:44:39.500+03:00,7077,1.059162,0,0,5844.344,4,10,2025-04-18T10:17:57.239+03:00,766653492.8140407,0,105.42,100.5905,1,0.75,2025-04-18T10:17:43.542+03:00,108,1.8,2025-04-18T08:51:18.885+03:00,0.03057091307199995,1
2025-04-18T10:18:14.041+03:00,1744960693.019994,40.95362655444679,29.14099305211143,92.02811,-1,-1,-1,-1,30,21.49291283600189,-9999,60703.84409004167,-0.756500244140625,0.591827392578125,-0.2173004150390625,60703.83401404167,1.467189958317381,-1.290401441724677,-0.6613075622002227,-0.01025656703859568,0.1967606544494629,0.06799600273370743,0.0193248987197876,-0.01830881834030151,0.004819393157958984,XArbitraryZVertical,0.1881521558385113,-0.5961547344416364,0.6509910230831883,0.430591583517027,-0.7583691477775574,0.614149272441864,-0.2183966040611267,0,0,0,-1,-1,60702.52296725001,unknown,2,2025-04-18T10:18:12.715+03:00,2025-04-17T15:44:39.500+03:00,7077,1.059162,0,0,5844.344,4,10,2025-04-18T10:17:57.239+03:00,766653492.8140407,0,105.42,100.5905,1,0.75,2025-04-18T10:17:43.542+03:00,108,1.8,2025-04-18T08:51:18.885+03:00,0.03057091307199995,1
2025-04-18T10:18:14.051+03:00,1744960693.019994,40.95362655444679,29.14099305211143,92.02811,-1,-1,-1,-1,30,21.49291283600189,-9999,60703.85416504167,-0.77642822265625,0.5988922119140625,-0.223175048828125,60703.84409004167,1.467412045360419,-1.287885627317602,-0.6621000463234629,-0.01037401240319014,0.2664981782436371,0.0803043320775032,0.004404723644256592,-0.02210789918899536,0.003966167569160461,XArbitraryZVertical,0.187124944457525,-0.5957351077206376,0.65137323889098,0.4310416622654483,-0.7573496699333191,0.6147745251655579,-0.220167875289917,0,0,0,-1,-1,60702.52296725001,unknown,2,2025-04-18T10:18:12.715+03:00,2025-04-17T15:44:39.500+03:00,7077,1.059162,0,0,5844.344,4,10,2025-04-18T10:17:57.239+03:00,766653492.8140407,0,105.42,100.5905,1,0.75,2025-04-18T10:17:43.542+03:00,108,1.8,2025-04-18T08:51:18.885+03:00,0.03057091307199995,1
2025-04-18T10:18:14.061+03:00,1744960693.019994,40.95362655444679,29.14099305211143,92.02811,-1,-1,-1,-1,30,21.49291283600189,-9999,60703.86424104167,-0.7408294677734375,0.6478271484375,-0.21942138671875,60703.85416504167,1.467175376351927,-1.285775312919919,-0.6625837272760546,-0.04125303402543068,0.1707437634468079,0.01374411303550005,-0.01920479536056519,-0.01933068037033081,-0.0004553794860839844,XArbitraryZVertical,0.1861995756681033,-0.5953895559137664,0.6515789374969958,0.4316085581753192,-0.7565978765487671,0.6151559352874756,-0.2216819822788239,0,0,0,-1,-1,60702.52296725001,unknown,2,2025-04-18T10:18:12.715+03:00,2025-04-17T15:44:39.500+03:00,7077,1.059162,0,0,5844.344,4,10,2025-04-18T10:17:57.239+03:00,766653492.8140407,0,105.42,100.5905,1,0.75,2025-04-18T10:17:43.542+03:00,108,1.8,2025-04-18T08:51:18.885+03:00,0.03057091307199995,1
2025-04-18T10:18:14.071+03:00,1744960693.019994,40.95362655444679,29.14099305211143,92.02811,-1,-1,-1,-1,30,21.49291283600189,-9999,60703.87431604167,-0.680694580078125,0.673797607421875,-0.207733154296875,60703.86424104167,1.466880384633183,-1.285197580841463,-0.6627930459076909,-0.01059978175908327,-0.01236560009419918,0.01119972951710224,0.007582008838653564,0.02496838569641113,0.001425504684448242,XArbitraryZVertical,0.1858510344819013,-0.5953301626656952,0.6515948166233433,0.43181668213902,-0.7563461065292358,0.6153209209442139,-0.2220827788114548,0,0,0,-1,-1,60702.52296725001,unknown,2,2025-04-18T10:18:12.715+03:00,2025-04-17T15:44:39.500+03:00,7077,1.059162,0,0,5844.344,4,10,2025-04-18T10:17:57.239+03:00,766653492.8140407,0,105.42,100.5905,1,0.75,2025-04-18T10:17:43.542+03:00,108,1.8,2025-04-18T08:51:18.885+03:00,0.03057091307199995,1
2025-04-18T10:18:14.085+03:00,1744960693.019994,40.95362655444679,29.14099305211143,92.02811,-1,-1,-1,-1,30,21.49291283600189,-9999,60703.88439204167,-0.7141876220703125,0.634918212890625,-0.2144317626953125,60703.87431604167,1.46691479749237,-1.285770384547871,-0.6628290308447917,0.01445343904197216,-0.0816657766699791,-0.001847729086875916,0.07212573289871216,0.06040143966674805,0.01308619976043701,XArbitraryZVertical,0.1860354120037197,-0.5954571191767584,0.6515534313598716,0.4316246806329743,-0.7564520239830017,0.615349292755127,-0.2216432839632034,0,0,0,-1,-1,60702.52296725001,unknown,2,2025-04-18T10:18:12.715+03:00,2025-04-17T15:44:39.500+03:00,7077,1.059162,0,0,5844.344,4,10,2025-04-18T10:17:57.239+03:00,766653492.8140407,0,105.42,100.5905,1,0.75,2025-04-18T10:17:43.542+03:00,108,1.8,2025-04-18T08:51:18.885+03:00,0.03057091307199995,1
2025-04-18T10:18:14.106+03:00,1744960693.019994,40.95362655444679,29.14099305211143,92.02811,-1,-1,-1,-1,30,21.49291283600189,-9999,60703.89446704167,-0.770843505859375,0.618377685546875,-0.233978271484375,60703.88439204167,1.467153401925113,-1.286158530853085,-0.6628032463795137,0.02001838199794292,-0.01682792603969574,0.006136693991720676,0.05071204900741577,0.02431941032409668,0.009318068623542786,XArbitraryZVertical,0.1862418643371617,-0.595513996918964,0.6515656026563026,0.4314386838171565,-0.7565531134605408,0.6153289675712585,-0.2213540971279144,0,0,0,-1,-1,60702.52296725001,unknown,2,2025-04-18T10:18:12.715+03:00,2025-04-17T15:44:39.500+03:00,7077,1.059162,0,0,5844.344,4,10,2025-04-18T10:17:57.239+03:00,766653492.8140407,0,105.42,100.5905,1,0.75,2025-04-18T10:17:43.542+03:00,108,1.8,2025-04-18T08:51:18.885+03:00,0.03057091307199995,1
2025-04-18T10:18:14.108+03:00,1744960693.019994,40.95362655444679,29.14099305211143,92.02811,-1,-1,-1,-1,30,21.49291283600189,-9999,60703.90454304167,-0.7803802490234375,0.6274871826171875,-0.2388458251953125,60703.89446704167,1.46754959131647,-1.285696563474283,-0.6627539260993602,0.03577051311731339,0.04492791369557381,0.01354524120688438,-0.009267151355743408,0.003347039222717285,-0.01035875082015991,XArbitraryZVertical,0.1862263620473798,-0.5953685242218351,0.6516880073562621,0.4314613359294667,-0.7564799785614014,0.615290105342865,-0.221712127327919,0,0,0,-1,-1,60702.52296725001,unknown,2,2025-04-18T10:18:12.715+03:00,2025-04-17T15:44:39.500+03:00,7077,1.059162,0,0,5844.344,4,10,2025-04-18T10:17:57.239+03:00,766653492.8140407,0,105.42,100.5905,1,0.75,2025-04-18T10:17:43.542+03:00,108,1.8,2025-04-18T08:51:18.885+03:00,0.03057091307199995,1
2025-04-18T10:18:14.113+03:00,1744960693.019994,40.95362655444679,29.14099305211143,92.02811,-1,-1,-1,-1,30,21.49291283600189,-9999,60703.91461804167,-0.7480010986328125,0.6407318115234375,-0.2326812744140625,60703.90454304167,1.46806814885334,-1.284963047069435,-0.6627057233972315,0.04300498962402344,0.02598165720701218,0.006391991395503283,-0.02585053443908691,0.01044988632202148,-0.01661619544029236,XArbitraryZVertical,0.186158303559937,-0.5951532666993957,0.651862241533035,0.4315246120232276,-0.7563456892967224,0.6152520775794983,-0.2222753465175629,0,0,0,-1,-1,60702.52296725001,unknown,2,2025-04-18T10:18:12.715+03:00,2025-04-17T15:44:39.500+03:00,7077,1.059162,0,0,5844.344,4,10,2025-04-18T10:17:57.239+03:00,766653492.8140407,0,105.42,100.5905,1,0.75,2025-04-18T10:17:43.542+03:00,108,1.8,2025-04-18T08:51:18.885+03:00,0.03057091307199995,1
2025-04-18T10:18:14.121+03:00,1744960693.019994,40.95362655444679,29.14099305211143,92.02811,-1,-1,-1,-1,30,21.49291283600189,-9999,60703.92469404167,-0.72637939453125,0.6338043212890625,-0.2223358154296875,60703.91461804167,1.468614695159796,-1.284645791880777,-0.6626147959808077,0.04331877455115318,-0.02496588043868542,0.004677747841924429,0.00362783670425415,0.02465111017227173,-0.01121829450130463,XArbitraryZVertical,0.1862490709623974,-0.5950174500717776,0.6519984943273841,0.4314666916619221,-0.7563286423683167,0.6151804327964783,-0.2225310355424881,0,0,0,-1,-1,60702.52296725001,unknown,2,2025-04-18T10:18:12.715+03:00,2025-04-17T15:44:39.500+03:00,7077,1.059162,0,0,5844.344,4,10,2025-04-18T10:17:57.239+03:00,766653492.8140407,0,105.42,100.5905,1,0.75,2025-04-18T10:17:43.542+03:00,108,1.8,2025-04-18T08:51:18.885+03:00,0.03057091307199995,1
2025-04-18T10:18:14.131+03:00,1744960693.019994,40.95362655444679,29.14099305211143,92.02811,-1,-1,-1,-1,30,21.49291283600189,-9999,60703.93476904167,-0.7406768798828125,0.61175537109375,-0.2185821533203125,60703.92469404167,1.469061339827052,-1.284748775842146,-0.6624867529299692,0.02643300406634808,-0.04055043309926987,0.006585636641830206,0.0292389988899231,0.02099841833114624,-0.00140148401260376,XArbitraryZVertical,0.1864598504909555,-0.5949748202403227,0.6520694949117053,0.4313271487347266,-0.7564271688461304,0.6150794625282288,-0.2224753797054291,0,0,0,-1,-1,60702.52296725001,unknown,2,2025-04-18T10:18:12.715+03:00,2025-04-17T15:44:39.500+03:00,7077,1.059162,0,0,5844.344,4,10,2025-04-18T10:17:57.239+03:00,766653492.8140407,0,105.42,100.5905,1,0.75,2025-04-18T10:17:43.542+03:00,108,1.8,2025-04-18T08:51:18.885+03:00,0.03057091307199995,1
2025-04-18T10:18:14.141+03:00,1744960693.019994,40.95362655444679,29.14099305211143,92.02811,-1,-1,-1,-1,30,21.49291283600189,-9999,60703.94484504167,-0.7576751708984375,0.5985870361328125,-0.2183990478515625,60703.93476904167,1.469279239414821,-1.284931461565727,-0.6624012640356501,0.007949667051434517,-0.01743040047585964,0.01243011001497507,0.01924407482147217,-0.001089930534362793,0.003678381443023682,XArbitraryZVertical,0.1866137996136216,-0.5949783802776438,0.6520889374394737,0.4312263548421241,-0.7565183043479919,0.6150120496749878,-0.2223520278930664,0,0,0,-1,-1,60702.52296725001,unknown,2,2025-04-18T10:18:12.715+03:00,2025-04-17T15:44:39.500+03:00,7077,1.059162,0,0,5844.344,4,10,2025-04-18T10:17:57.239+03:00,766653492.8140407,0,105.42,100.5905,1,0.75,2025-04-18T10:17:43.542+03:00,108,1.8,2025-04-18T08:51:18.885+03:00,0.03057091307199995,1
2025-04-18T10:18:14.151+03:00,1744960693.019994,40.95362655444679,29.14099305211143,92.02811,-1,-1,-1,-1,30,21.49291283600189,-9999,60703.95492004167,-0.7610626220703125,0.6044921875,-0.2199249267578125,60703.94484504167,1.469322701037791,-1.284966074837586,-0.6626751811868111,-0.006452708039432764,0.004552396945655346,0.01758998446166515,0.000550687313079834,-0.01595431566238403,0.003711521625518799,XArbitraryZVertical,0.1865431852383407,-0.595031487787655,0.6521287560002464,0.4311233876575703,-0.7563643455505371,0.6152280569076538,-0.2222783416509628,0,0,0,-1,-1,60702.52296725001,unknown,2,2025-04-18T10:18:12.715+03:00,2025-04-17T15:44:39.500+03:00,7077,1.059162,0,0,5844.344,4,10,2025-04-18T10:17:57.239+03:00,766653492.8140407,0,105.42,100.5905,1,0.75,2025-04-18T10:17:43.542+03:00,108,1.8,2025-04-18T08:51:18.885+03:00,0.03057091307199995,1
2025-04-18T10:18:14.162+03:00,1744960693.019994,40.95362655444679,29.14099305211143,92.02811,-1,-1,-1,-1,30,21.49291283600189,-9999,60703.96499604167,-0.7540130615234375,0.61376953125,-0.2201690673828125,60703.95492004167,1.46926768843486,-1.284935148037562,-0.6633613576797045,-0.0107602383941412,0.003907512407749891,0.01804704964160919,-0.005278229713439941,-0.01261937618255615,0.002074658870697021,XArbitraryZVertical,0.1862791351071074,-0.5951544014184046,0.6522040987019792,0.4309539287048021,-0.7559522986412048,0.6157688498497009,-0.2221826463937759,0,0,0,-1,-1,60702.52296725001,unknown,2,2025-04-18T10:18:12.715+03:00,2025-04-17T15:44:39.500+03:00,7077,1.059162,0,0,5844.344,4,10,2025-04-18T10:17:57.239+03:00,766653492.8140407,0,105.42,100.5905,1,0.75,2025-04-18T10:17:43.542+03:00,108,1.8,2025-04-18T08:51:18.885+03:00,0.03057091307199995,1
2025-04-18T10:18:14.172+03:00,1744960693.019994,40.95362655444679,29.14099305211143,92.02811,-1,-1,-1,-1,30,21.49291283600189,-9999,60703.97507104167,-0.7476654052734375,0.6206817626953125,-0.22235107421875,60703.96499604167,1.469208218734514,-1.284952506650197,-0.6638243502738334,-0.01200180407613516,-0.006180275231599808,0.0148837473243475,0.001379489898681641,-0.003340601921081543,0.002087906002998352,XArbitraryZVertical,0.1861068221070883,-0.5952476052022749,0.6522465121059501,0.4308353096521037,-0.7556824088096619,0.6161335706710815,-0.2220890820026398,0,0,0,-1,-1,60702.52296725001,unknown,2,2025-04-18T10:18:12.715+03:00,2025-04-17T15:44:39.500+03:00,7077,1.059162,0,0,5844.344,4,10,2025-04-18T10:17:57.239+03:00,766653492.8140407,0,105.42,100.5905,1,0.75,2025-04-18T10:17:43.542+03:00,108,1.8,2025-04-18T08:51:18.885+03:00,0.03057091307199995,1
2025-04-18T10:18:14.182+03:00,1744960693.019994,40.95362655444679,29.14099305211143,92.02811,-1,-1,-1,-1,30,21.49291283600189,-9999,60703.98514704167,-0.7444000244140625,0.6208343505859375,-0.2239532470703125,60703.97507104167,1.469082072446612,-1.285140725505394,-0.6639819154888703,-0.01612923666834831,-0.02160963043570518,0.01328102312982082,0.007950365543365479,0.003630638122558594,-0.0003857910633087158,XArbitraryZVertical,0.186076128698006,-0.5953284348954926,0.65222116488207,0.4307751521522607,-0.7556309700012207,0.6162576675415039,-0.2219194620847702,0,0,0,-1,-1,60702.52296725001,unknown,2,2025-04-18T10:18:12.715+03:00,2025-04-17T15:44:39.500+03:00,7077,1.059162,0,0,5844.344,4,10,2025-04-18T10:17:57.239+03:00,766653492.8140407,0,105.42,100.5905,1,0.75,2025-04-18T10:17:43.542+03:00,108,1.8,2025-04-18T08:51:18.885+03:00,0.03057091307199995,1
2025-04-18T10:18:14.192+03:00,1744960693.019994,40.95362655444679,29.14099305211143,92.02811,-1,-1,-1,-1,30,21.49291283600189,-9999,60703.99522204167,-0.747650146484375,0.6251373291015625,-0.221343994140625,60703.98514704167,1.469064169153218,-1.285385319388562,-0.6640281561057563,0.002674810588359833,-0.03146173059940338,0.006100874394178391,0.01150214672088623,0.005333781242370605,-0.002043426036834717,XArbitraryZVertical,0.1861344758185831,-0.5953911564175522,0.6522002402709083,0.4306951430165516,-0.7556580305099487,0.6162940859794617,-0.221726655960083,0,0,0,-1,-1,60702.52296725001,unknown,2,2025-04-18T10:18:12.715+03:00,2025-04-17T15:44:39.500+03:00,7077,1.059162,0,0,5844.344,4,10,2025-04-18T10:17:57.239+03:00,766653492.8140407,0,105.42,100.5905,1,0.75,2025-04-18T10:17:43.542+03:00,108,1.8,2025-04-18T08:51:18.885+03:00,0.03057091307199995,1
2025-04-18T10:18:14.202+03:00,1744960693.019994,40.95362655444679,29.14099305211143,92.02811,-1,-1,-1,-1,30,21.49291283600189,-9999,60704.00529804167,-0.751068115234375,0.6349334716796875,-0.2191162109375,60703.99522204167,1.469239221421322,-1.285559168013984,-0.6641589491269254,0.01029684487730265,-0.03167764842510223,0.009255422279238701,0.008731961250305176,0.007122814655303955,-4.601478576660156e-05,XArbitraryZVertical,0.1861979913657382,-0.5954359814220139,0.6522378117643551,0.4305488057293789,-0.7556192278862,0.6163970828056335,-0.2215725928544998,0,0,0,-1,-1,60702.52296725001,unknown,2,2025-04-18T10:18:12.715+03:00,2025-04-17T15:44:39.500+03:00,7077,1.059162,0,0,5844.344,4,10,2025-04-18T10:17:57.239+03:00,766653492.8140407,0,105.42,100.5905,1,0.75,2025-04-18T10:17:43.542+03:00,108,1.8,2025-04-18T08:51:18.885+03:00,0.03057091307199995,1
2025-04-18T10:18:14.212+03:00,1744960693.019994,40.95362655444679,29.14099305211143,92.02811,-1,-1,-1,-1,30,21.49291283600189,-9999,60704.01537304167,-0.752471923828125,0.627593994140625,-0.2205657958984375,60704.00529804167,1.469507741065499,-1.285659964461761,-0.6643701366123616,0.02186428382992744,-0.02785627543926239,0.0104325395077467,0.004799425601959229,0.01750046014785767,0.001626521348953247,XArbitraryZVertical,0.1862376442464642,-0.5954709220063185,0.6523121560001895,0.4303707832560222,-0.7555167078971863,0.6165633797645569,-0.221459835767746,0,0,0,-1,-1,60702.52296725001,unknown,2,2025-04-18T10:18:12.715+03:00,2025-04-17T15:44:39.500+03:00,7077,1.059162,0,0,5844.344,4,10,2025-04-18T10:17:57.239+03:00,766653492.8140407,0,105.42,100.5905,1,0.75,2025-04-18T10:17:43.542+03:00,108,1.8,2025-04-18T08:51:18.885+03:00,0.03057091307199995,1
2025-04-18T10:18:14.222+03:00,1744960693.019994,40.95362655444679,29.14099305211143,92.02811,-1,-1,-1,-1,30,21.49291283600189,-9999,60704.02544904167,-0.75311279296875,0.6154632568359375,-0.2209625244140625,60704.01537304167,1.469822276480388,-1.285678606162345,-0.6644783523903145,0.01899992115795612,-0.01755716651678085,0.01286567002534866,0.00333559513092041,0.01282227039337158,0.001395300030708313,XArbitraryZVertical,0.1863000116816837,-0.5954652358788066,0.6523913535633933,0.430231285258638,-0.7554565668106079,0.6166485548019409,-0.2214269191026688,0,0,0,-1,-1,60702.52296725001,unknown,2,2025-04-18T10:18:12.715+03:00,2025-04-17T15:44:39.500+03:00,7077,1.059162,0,0,5844.344,4,10,2025-04-18T10:17:57.239+03:00,766653492.8140407,0,105.42,100.5905,1,0.75,2025-04-18T10:17:43.542+03:00,108,1.8,2025-04-18T08:51:18.885+03:00,0.03057091307199995,1
2025-04-18T10:18:14.232+03:00,1744960693.019994,40.95362655444679,29.14099305211143,92.02811,-1,-1,-1,-1,30,21.49291283600189,-9999,60704.03552404167,-0.7550048828125,0.611541748046875,-0.22113037109375,60704.02544904167,1.47006537462204,-1.28572454695523,-0.6644853904224465,0.01311966218054295,-0.0193508043885231,0.01610993407666683,0.0031280517578125,-4.64320182800293e-05,0.0009473562240600586,XArbitraryZVertical,0.186384889270224,-0.5954537439798943,0.6524402337350461,0.4301364351564146,-0.7554627060890198,0.616654098033905,-0.2213910222053528,0,0,0,-1,-1,60702.52296725001,unknown,2,2025-04-18T10:18:12.715+03:00,2025-04-17T15:44:39.500+03:00,7077,1.059162,0,0,5844.344,4,10,2025-04-18T10:17:57.239+03:00,766653492.8140407,0,105.42,100.5905,1,0.75,2025-04-18T10:17:43.542+03:00,108,1.8,2025-04-18T08:51:18.885+03:00,0.03057091307199995,1
2025-04-18T10:18:14.243+03:00,1744960693.019994,40.95362655444679,29.14099305211143,92.02811,-1,-1,-1,-1,30,21.49291283600189,-9999,60704.04560004167,-0.755035400390625,0.6103973388671875,-0.2252960205078125,60704.03552404167,1.470226590884214,-1.285822339604907,-0.6645280381171186,0.007253383751958609,-0.01618577167391777,0.01816103234887123,0.0008661746978759766,-0.00549691915512085,0.0008355528116226196,XArbitraryZVertical,0.1864500432410158,-0.5954674733251508,0.6524710153192216,0.4300424439237734,-0.7554590702056885,0.6166876554489136,-0.2213097363710403,0,0,0,-1,-1,60702.52296725001,unknown,2,2025-04-18T10:18:12.715+03:00,2025-04-17T15:44:39.500+03:00,7077,1.059162,0,0,5844.344,4,10,2025-04-18T10:17:57.239+03:00,766653492.8140407,0,105.42,100.5905,1,0.75,2025-04-18T10:17:43.542+03:00,108,1.8,2025-04-18T08:51:18.885+03:00,0.03057091307199995,1
2025-04-18T10:18:14.253+03:00,1744960693.019994,40.95362655444679,29.14099305211143,92.02811,-1,-1,-1,-1,30,21.49291283600189,-9999,60704.05567604167,-0.7519378662109375,0.6164093017578125,-0.2287139892578125,60704.04560004167,1.470306967113193,-1.285928873828677,-0.6646923736375756,-0.004300740547478199,-0.01376628968864679,0.02102579548954964,0.0001820921897888184,-0.006907939910888672,-0.003591656684875488,XArbitraryZVertical,0.1864518370892305,-0.595512656962344,0.6524985185883835,0.4299373721751305,-0.7553853988647461,0.6168169975280762,-0.2212007790803909,0,0,0,-1,-1,60702.52296725001,unknown,2,2025-04-18T10:18:12.715+03:00,2025-04-17T15:44:39.500+03:00,7077,1.059162,0,0,5844.344,4,10,2025-04-18T10:17:57.239+03:00,766653492.8140407,0,105.42,100.5905,1,0.75,2025-04-18T10:17:43.542+03:00,108,1.8,2025-04-18T08:51:18.885+03:00,0.03057091307199995,1
2025-04-18T10:18:14.263+03:00,1744960693.019994,40.95362655444679,29.14099305211143,92.02811,-1,-1,-1,-1,30,21.49291283600189,-9999,60704.06575104167,-0.74517822265625,0.6207427978515625,-0.228546142578125,60704.05567604167,1.470366548245374,-1.286064446067828,-0.6649477978371866,0.0007919557974673808,-0.02523951977491379,0.01895954832434654,0.002578556537628174,-0.001234352588653564,-0.006988406181335449,XArbitraryZVertical,0.1864253836268728,-0.595582507592977,0.6525300063260288,0.4298042966245789,-0.7552641630172729,0.6170180439949036,-0.2210541069507599,0,0,0,-1,-1,60702.52296725001,unknown,2,2025-04-18T10:18:12.715+03:00,2025-04-17T15:44:39.500+03:00,7077,1.059162,0,0,5844.344,4,10,2025-04-18T10:17:57.239+03:00,766653492.8140407,0,105.42,100.5905,1,0.75,2025-04-18T10:17:43.542+03:00,108,1.8,2025-04-18T08:51:18.885+03:00,0.03057091307199995,1
2025-04-18T10:18:14.273+03:00,1744960693.019994,40.95362655444679,29.14099305211143,92.02811,-1,-1,-1,-1,30,21.49291283600189,-9999,60704.07582704167,-0.7404937744140625,0.6255035400390625,-0.22845458984375,60704.06575104167,1.470451563610903,-1.28631960936554,-0.6651721229404207,-0.0004570667515508831,-0.03621973469853401,0.01670172065496445,0.009032785892486572,0.003197371959686279,-0.007830351591110229,XArbitraryZVertical,0.1864562642699495,-0.5956700286804275,0.6525519946616879,0.4296363046872118,-0.7551877498626709,0.6171945929527283,-0.2208225578069687,0,0,0,-1,-1,60702.52296725001,unknown,2,2025-04-18T10:18:12.715+03:00,2025-04-17T15:44:39.500+03:00,7077,1.059162,0,0,5844.344,4,10,2025-04-18T10:17:57.239+03:00,766653492.8140407,0,105.42,100.5905,1,0.75,2025-04-18T10:17:43.542+03:00,108,1.8,2025-04-18T08:51:18.885+03:00,0.03057091307199995,1
2025-04-18T10:18:14.283+03:00,1744960693.019994,40.95362655444679,29.14099305211143,92.02811,-1,-1,-1,-1,30,21.49291283600189,-9999,60704.08590204167,-0.73553466796875,0.6074066162109375,-0.2221527099609375,60704.07582704167,1.470684346142258,-1.286599313967904,-0.6654620704431445,0.01379796862602234,-0.053606778383255,0.03773932904005051,0.0140802264213562,0.007653713226318359,-0.007206767797470093,XArbitraryZVertical,0.1865164965366466,-0.5957608815297705,0.652611448436285,0.4293938305164037,-0.7550777196884155,0.6174226999282837,-0.2205611318349838,0,0,0,-1,-1,60702.52296725001,unknown,2,2025-04-18T10:18:12.715+03:00,2025-04-17T15:44:39.500+03:00,7077,1.059162,0,0,5844.344,4,10,2025-04-18T10:17:57.239+03:00,766653492.8140407,0,105.42,100.5905,1,0.75,2025-04-18T10:17:43.542+03:00,108,1.8,2025-04-18T08:51:18.885+03:00,0.03057091307199995,1
2025-04-18T10:18:14.310+03:00,1744960693.019994,40.95362655444679,29.14099305211143,92.02811,-1,-1,-1,-1,30,21.49291283600189,-9999,60704.09597775,-0.7574005126953125,0.5900726318359375,-0.2194061279296875,60704.08590204167,1.470859237102577,-1.286859427604979,-0.6658410961658081,-0.006872155703604221,-0.01309184357523918,0.02299686707556248,0.01940596103668213,-0.005889058113098145,-0.00362357497215271,XArbitraryZVertical,0.186522307803432,-0.5958689955686102,0.6526711714386191,0.4291503936845913,-0.7549102902412415,0.6177207827568054,-0.2202991396188736,0,0,0,-1,-1,60702.52296725001,unknown,2,2025-04-18T10:18:12.715+03:00,2025-04-17T15:44:39.500+03:00,7077,1.059162,0,0,5844.344,4,10,2025-04-18T10:17:57.239+03:00,766653492.8140407,0,105.42,100.5905,1,0.75,2025-04-18T10:17:43.542+03:00,108,1.8,2025-04-18T08:51:18.885+03:00,0.03057091307199995,1
2025-04-18T10:18:14.313+03:00,1744960693.019994,40.95362655444679,29.14099305211143,92.02811,-1,-1,-1,-1,30,21.49291283600189,-9999,60704.10605275,-0.7759552001953125,0.61700439453125,-0.2188568115234375,60704.09597775,1.470777861257327,-1.286667156815958,-0.6662188921275626,-0.02370366640388966,0.04297668486833572,0.03497999534010887,0.001363098621368408,-0.02881497144699097,0.001644149422645569,XArbitraryZVertical,0.1863045911137668,-0.5959036762090899,0.6527178961304728,0.4291256214460927,-0.7546437382698059,0.618017852306366,-0.2203788161277771,0,0,0,-1,-1,60702.52296725001,unknown,2,2025-04-18T10:18:12.715+03:00,2025-04-17T15:44:39.500+03:00,7077,1.059162,0,0,5844.344,4,10,2025-04-18T10:17:57.239+03:00,766653492.8140407,0,105.42,100.5905,1,0.75,2025-04-18T10:17:43.542+03:00,108,1.8,2025-04-18T08:51:18.885+03:00,0.03057091307199995,1
2025-04-18T10:18:14.315+03:00,1744960693.019994,40.95362655444679,29.14099305211143,92.02811,-1,-1,-1,-1,30,21.49291283600189,-9999,60704.11612875001,-0.75732421875,0.626068115234375,-0.2115936279296875,60704.10605275,1.470580546813582,-1.286295284964378,-0.6666370969288781,-0.03283165022730827,0.05047614872455597,0.04009699076414108,-0.02225184440612793,-0.004470169544219971,0.0007383227348327637,XArbitraryZVertical,0.185979605784976,-0.5959178923739914,0.6527613588800681,0.4291808809386012,-0.7543137073516846,0.6183465719223022,-0.2205869108438492,0,0,0,-1,-1,60702.52296725001,unknown,2,2025-04-18T10:18:12.715+03:00,2025-04-17T15:44:39.500+03:00,7077,1.059162,0,0,5844.344,4,10,2025-04-18T10:17:57.239+03:00,766653492.8140407,0,105.42,100.5905,1,0.75,2025-04-18T10:17:43.542+03:00,108,1.8,2025-04-18T08:51:18.885+03:00,0.03057091307199995,1
2025-04-18T10:18:14.323+03:00,1744960693.019994,40.95362655444679,29.14099305211143,92.02811,-1,-1,-1,-1,30,21.49291283600189,-9999,60704.12620375001,-0.739105224609375,0.617401123046875,-0.2180633544921875,60704.11612875001,1.470360404428413,-1.285950818039138,-0.6670895007947331,-0.0307256244122982,0.04219398275017738,0.0352802649140358,-0.006986796855926514,0.006740570068359375,0.009372860193252563,XArbitraryZVertical,0.1856449246477219,-0.5959462311809959,0.6528014425194384,0.4292254994975724,-0.7539691925048828,0.6187020540237427,-0.2207681089639664,0,0,0,-1,-1,60702.52296725001,unknown,2,2025-04-18T10:18:12.715+03:00,2025-04-17T15:44:39.500+03:00,7077,1.059162,0,0,5844.344,4,10,2025-04-18T10:17:57.239+03:00,766653492.8140407,0,105.42,100.5905,1,0.75,2025-04-18T10:17:43.542+03:00,108,1.8,2025-04-18T08:51:18.885+03:00,0.03057091307199995,1
2025-04-18T10:18:14.334+03:00,1744960693.019994,40.95362655444679,29.14099305211143,92.02811,-1,-1,-1,-1,30,21.49291283600189,-9999,60704.13627975,-0.7317352294921875,0.612548828125,-0.2203369140625,60704.12620375001,1.470044670357984,-1.285939526970781,-0.6673812832133654,-0.03754038363695145,-0.01430231705307961,0.01343222428113222,0.01270437240600586,0.0002703666687011719,0.002921953797340393,XArbitraryZVertical,0.1854461762974365,-0.5960258389574301,0.6527703805078507,0.4292479289337878,-0.7537932395935059,0.6189312338829041,-0.2207258343696594,0,0,0,-1,-1,60702.52296725001,unknown,2,2025-04-18T10:18:12.715+03:00,2025-04-17T15:44:39.500+03:00,7077,1.059162,0,0,5844.344,4,10,2025-04-18T10:17:57.239+03:00,766653492.8140407,0,105.42,100.5905,1,0.75,2025-04-18T10:17:43.542+03:00,108,1.8,2025-04-18T08:51:18.885+03:00,0.03057091307199995,1
2025-04-18T10:18:14.343+03:00,1744960693.019994,40.95362655444679,29.14099305211143,92.02811,-1,-1,-1,-1,30,21.49291283600189,-9999,60704.14635475,-0.73681640625,0.634246826171875,-0.219329833984375,60704.13627975,1.469624968541953,-1.286703029926764,-0.667387054001524,-0.02811512723565102,-0.08971018344163895,-0.02206395193934441,0.02135318517684937,-0.006875216960906982,-0.0002028346061706543,XArbitraryZVertical,0.1855682032289276,-0.5962296596747882,0.6526102076888122,0.4291557914924158,-0.7539582252502441,0.618935763835907,-0.2201492637395859,0,0,0,-1,-1,60702.52296725001,unknown,2,2025-04-18T10:18:12.715+03:00,2025-04-17T15:44:39.500+03:00,7077,1.059162,0,0,5844.344,4,10,2025-04-18T10:17:57.239+03:00,766653492.8140407,0,105.42,100.5905,1,0.75,2025-04-18T10:17:43.542+03:00,108,1.8,2025-04-18T08:51:18.885+03:00,0.03057091307199995,1
2025-04-18T10:18:14.353+03:00,1744960693.019994,40.95362655444679,29.14099305211143,92.02811,-1,-1,-1,-1,30,21.49291283600189,-9999,60704.15643075,-0.749481201171875,0.64678955078125,-0.205078125,60704.14635475,1.469430653590293,-1.287637250541245,-0.6672664662866233,-0.006049239076673985,-0.0728989839553833,-0.01575039513409138,0.01859360933303833,0.01227778196334839,-0.0005050003528594971,XArbitraryZVertical,0.1858568166584244,-0.5964263644097102,0.6524670001678147,0.4289753203356164,-0.7542352676391602,0.6188410520553589,-0.2194656729698181,0,0,0,-1,-1,60702.52296725001,unknown,2,2025-04-18T10:18:12.715+03:00,2025-04-17T15:44:39.500+03:00,7077,1.059162,0,0,5844.344,4,10,2025-04-18T10:17:57.239+03:00,766653492.8140407,0,105.42,100.5905,1,0.75,2025-04-18T10:17:43.542+03:00,108,1.8,2025-04-18T08:51:18.885+03:00,0.03057091307199995,1
2025-04-18T10:18:14.364+03:00,1744960693.019994,40.95362655444679,29.14099305211143,92.02811,-1,-1,-1,-1,30,21.49291283600189,-9999,60704.16650575001,-0.760772705078125,0.6148529052734375,-0.1966094970703125,60704.15643075,1.469374500076702,-1.288196952760882,-0.667249492856039,-0.006366954185068607,-0.03690130263566971,-0.01044284831732512,0.006672024726867676,0.0287553071975708,0.009863734245300293,XArbitraryZVertical,0.186028558241304,-0.5965485525492469,0.6524008345294326,0.4288315053717788,-0.754368007183075,0.618827760219574,-0.2190463989973068,0,0,0,-1,-1,60702.52296725001,unknown,2,2025-04-18T10:18:12.715+03:00,2025-04-17T15:44:39.500+03:00,7077,1.059162,0,0,5844.344,4,10,2025-04-18T10:17:57.239+03:00,766653492.8140407,0,105.42,100.5905,1,0.75,2025-04-18T10:17:43.542+03:00,108,1.8,2025-04-18T08:51:18.885+03:00,0.03057091307199995,1
2025-04-18T10:18:14.374+03:00,1744960693.019994,40.95362655444679,29.14099305211143,92.02811,-1,-1,-1,-1,30,21.49291283600189,-9999,60704.17658175001,-0.776885986328125,0.6030120849609375,-0.23748779296875,60704.16650575001,1.469141156727394,-1.288190738192247,-0.6671901371673813,-0.03143475577235222,0.05995014309883118,-0.01613402366638184,-0.005958855152130127,0.001046180725097656,0.02542740106582642,XArbitraryZVertical,0.1859774631846302,-0.5965582215900631,0.6523440913612424,0.4289265810947347,-0.7544019818305969,0.6187810897827148,-0.2190613448619843,0,0,0,-1,-1,60702.52296725001,unknown,2,2025-04-18T10:18:12.715+03:00,2025-04-17T15:44:39.500+03:00,7077,1.059162,0,0,5844.344,4,10,2025-04-18T10:17:57.239+03:00,766653492.8140407,0,105.42,100.5905,1,0.75,2025-04-18T10:17:43.542+03:00,108,1.8,2025-04-18T08:51:18.885+03:00,0.03057091307199995,1
2025-04-18T10:18:14.384+03:00,1744960693.019994,40.95362655444679,29.14099305211143,92.02811,-1,-1,-1,-1,30,21.49291283600189,-9999,60704.18665675,-0.7942352294921875,0.62890625,-0.2380218505859375,60704.17658175001,1.468679389575287,-1.287214211852103,-0.6671572892262027,-0.03898708149790764,0.1891050636768341,0.01343738380819559,-0.0195508599281311,-0.01780319213867188,-0.01386943459510803,XArbitraryZVertical,0.1855326814645045,-0.5963856460977598,0.6523316607872397,0.4293776548422259,-0.7542070150375366,0.6187552809715271,-0.2198035717010498,0,0,0,-1,-1,60702.52296725001,unknown,2,2025-04-18T10:18:12.715+03:00,2025-04-17T15:44:39.500+03:00,7077,1.059162,0,0,5844.344,4,10,2025-04-18T10:17:57.239+03:00,766653492.8140407,0,105.42,100.5905,1,0.75,2025-04-18T10:17:43.542+03:00,108,1.8,2025-04-18T08:51:18.885+03:00,0.03057091307199995,1
2025-04-18T10:18:14.394+03:00,1744960693.019994,40.95362655444679,29.14099305211143,92.02811,-1,-1,-1,-1,30,21.49291283600189,-9999,60704.19673275,-0.7745361328125,0.634307861328125,-0.2243194580078125,60704.18665675,1.468172225102508,-1.285479253211748,-0.6672592221598256,-0.03915033489465714,0.2030046284198761,0.006032730918377638,-0.03897583484649658,0.007141172885894775,-0.01927761733531952,XArbitraryZVertical,0.1847802514586264,-0.5960782272360534,0.6523958095085609,0.4300310710355574,-0.7537640333175659,0.6188353896141052,-0.221094012260437,0,0,0,-1,-1,60702.52296725001,unknown,2,2025-04-18T10:18:12.715+03:00,2025-04-17T15:44:39.500+03:00,7077,1.059162,0,0,5844.344,4,10,2025-04-18T10:17:57.239+03:00,766653492.8140407,0,105.42,100.5905,1,0.75,2025-04-18T10:17:43.542+03:00,108,1.8,2025-04-18T08:51:18.885+03:00,0.03057091307199995,1
2025-04-18T10:18:14.404+03:00,1744960693.019994,40.95362655444679,29.14099305211143,92.02811,-1,-1,-1,-1,30,21.49291283600189,-9999,60704.20680775,-0.7274627685546875,0.6424713134765625,-0.2051544189453125,60704.19673275,1.467706017798943,-1.284354229464246,-0.6673511337183651,-0.02855667844414711,0.07930839061737061,-0.005019986536353827,-0.02647751569747925,0.014759361743927,-0.004133075475692749,XArbitraryZVertical,0.1842425227490078,-0.5958957995455625,0.652410544420181,0.4304919177156298,-0.753460168838501,0.6189075708389282,-0.2219257801771164,0,0,0,-1,-1,60702.52296725001,unknown,2,2025-04-18T10:18:12.715+03:00,2025-04-17T15:44:39.500+03:00,7077,1.059162,0,0,5844.344,4,10,2025-04-18T10:17:57.239+03:00,766653492.8140407,0,105.42,100.5905,1,0.75,2025-04-18T10:17:43.542+03:00,108,1.8,2025-04-18T08:51:18.885+03:00,0.03057091307199995,1
2025-04-18T10:18:14.414+03:00,1744960693.019994,40.95362655444679,29.14099305211143,92.02811,-1,-1,-1,-1,30,21.49291283600189,-9999,60704.21688375001,-0.699859619140625,0.62591552734375,-0.2076263427734375,60704.20680775,1.467364483553534,-1.284502181579994,-0.6673523124146905,-0.02045401185750961,-0.06167243421077728,-0.02113131247460842,0.02065849304199219,0.02322709560394287,0.01455403864383698,XArbitraryZVertical,0.1841885832772713,-0.5959593194211401,0.6523235458242655,0.4305589740312677,-0.7534923553466797,0.6189085245132446,-0.2218141108751297,0,0,0,-1,-1,60702.52296725001,unknown,2,2025-04-18T10:18:12.715+03:00,2025-04-17T15:44:39.500+03:00,7077,1.059162,0,0,5844.344,4,10,2025-04-18T10:17:57.239+03:00,766653492.8140407,0,105.42,100.5905,1,0.75,2025-04-18T10:17:43.542+03:00,108,1.8,2025-04-18T08:51:18.885+03:00,0.03057091307199995,1
2025-04-18T10:18:14.424+03:00,1744960693.019994,40.95362655444679,29.14099305211143,92.02811,-1,-1,-1,-1,30,21.49291283600189,-9999,60704.22695875,-0.71923828125,0.6095733642578125,-0.2272491455078125,60704.21688375001,1.467047506710032,-1.285547525119661,-0.6671886703427247,-0.02158179320394993,-0.09681703895330429,-0.02850983291864395,0.05243551731109619,0.01096552610397339,0.01498493552207947,XArbitraryZVertical,0.1844917555146283,-0.596184018640416,0.652138922363624,0.4303976934066402,-0.7538209557533264,0.6187799572944641,-0.2210548222064972,0,0,0,-1,-1,60702.52296725001,unknown,2,2025-04-18T10:18:12.715+03:00,2025-04-17T15:44:39.500+03:00,7077,1.059162,0,0,5844.344,4,10,2025-04-18T10:17:57.239+03:00,766653492.8140407,0,105.42,100.5905,1,0.75,2025-04-18T10:17:43.542+03:00,108,1.8,2025-04-18T08:51:18.885+03:00,0.03057091307199995,1
2025-04-18T10:18:14.434+03:00,1744960693.019994,40.95362655444679,29.14099305211143,92.02811,-1,-1,-1,-1,30,21.49291283600189,-9999,60704.23703475,-0.7474822998046875,0.6159515380859375,-0.2352447509765625,60704.22695875,1.466767928851492,-1.286427125918734,-0.6672041291899383,-0.01780143566429615,-0.04022938758134842,0.001780694932676852,0.03833824396133423,-0.008928775787353516,-0.004616975784301758,XArbitraryZVertical,0.1846897743774152,-0.5964018595517073,0.6519994919662666,0.4302223031026111,-0.754006028175354,0.6187921166419983,-0.2203890234231949,0,0,0,-1,-1,60702.52296725001,unknown,2,2025-04-18T10:18:12.715+03:00,2025-04-17T15:44:39.500+03:00,7077,1.059162,0,0,5844.344,4,10,2025-04-18T10:17:57.239+03:00,766653492.8140407,0,105.42,100.5905,1,0.75,2025-04-18T10:17:43.542+03:00,108,1.8,2025-04-18T08:51:18.885+03:00,0.03057091307199995,1
2025-04-18T10:18:14.444+03:00,1744960693.019994,40.95362655444679,29.14099305211143,92.02811,-1,-1,-1,-1,30,21.49291283600189,-9999,60704.24710975,-0.7595062255859375,0.6106414794921875,-0.2256317138671875,60704.23703475,1.466547549403729,-1.286700517064258,-0.6674971295574423,-0.02616642415523529,0.01780355349183083,0.01677988469600677,0.009095430374145508,-0.003391087055206299,-0.01538723707199097,XArbitraryZVertical,0.1846115985192987,-0.5965337603557964,0.6519628426784646,0.4301285878521314,-0.7538922429084778,0.6190222501754761,-0.2201320677995682,0,0,0,-1,-1,60702.52296725001,unknown,2,2025-04-18T10:18:12.715+03:00,2025-04-17T15:44:39.500+03:00,7077,1.059162,0,0,5844.344,4,10,2025-04-18T10:17:57.239+03:00,766653492.8140407,0,105.42,100.5905,1,0.75,2025-04-18T10:17:43.542+03:00,108,1.8,2025-04-18T08:51:18.885+03:00,0.03057091307199995,1
2025-04-18T10:18:14.454+03:00,1744960693.019994,40.95362655444679,29.14099305211143,92.02811,-1,-1,-1,-1,30,21.49291283600189,-9999,60704.25718575,-0.759552001953125,0.615966796875,-0.22222900390625,60704.24710975,1.466048869225285,-1.286634528354781,-0.667914091129685,-0.05489261448383331,0.0757046639919281,0.04424532875418663,-0.004991352558135986,-0.00762474536895752,-0.006987035274505615,XArbitraryZVertical,0.1842967876653984,-0.596640573421643,0.6519128944730077,0.4301911923429898,-0.7536299228668213,0.6193496584892273,-0.2201094478368759,0,0,0,-1,-1,60702.52296725001,unknown,2,2025-04-18T10:18:12.715+03:00,2025-04-17T15:44:39.500+03:00,7077,1.059162,0,0,5844.344,4,10,2025-04-18T10:17:57.239+03:00,766653492.8140407,0,105.42,100.5905,1,0.75,2025-04-18T10:17:43.542+03:00,108,1.8,2025-04-18T08:51:18.885+03:00,0.03057091307199995,1
2025-04-18T10:18:14.464+03:00,1744960693.019994,40.95362655444679,29.14099305211143,92.02811,-1,-1,-1,-1,30,21.49291283600189,-9999,60704.26726175001,-0.756195068359375,0.6280364990234375,-0.2235565185546875,60704.25718575,1.465530030537734,-1.286064826949805,-0.6683957477115821,-0.06214899197220802,0.09124734252691269,0.0503280870616436,-0.006089985370635986,-0.005546212196350098,-0.001423120498657227,XArbitraryZVertical,0.1837893593131159,-0.5966523476185513,0.6519128247485867,0.4303918748799962,-0.7532179355621338,0.6197277307510376,-0.2204549014568329,0,0,0,-1,-1,60702.52296725001,unknown,2,2025-04-18T10:18:12.715+03:00,2025-04-17T15:44:39.500+03:00,7077,1.059162,0,0,5844.344,4,10,2025-04-18T10:17:57.239+03:00,766653492.8140407,0,105.42,100.5905,1,0.75,2025-04-18T10:17:43.542+03:00,108,1.8,2025-04-18T08:51:18.885+03:00,0.03057091307199995,1
2025-04-18T10:18:14.474+03:00,1744960693.019994,40.95362655444679,29.14099305211143,92.02811,-1,-1,-1,-1,30,21.49291283600189,-9999,60704.27733675,-0.7497711181640625,0.6287841796875,-0.225341796875,60704.26726175001,1.465019434981564,-1.285419242389184,-0.6689504101212523,-0.0556119978427887,0.0956447571516037,0.04867906123399734,-0.003205478191375732,0.007217466831207275,-0.002605319023132324,XArbitraryZVertical,0.1832342376506556,-0.5966599202057979,0.6519301952584483,0.4305916971066698,-0.752745509147644,0.6201629638671875,-0.2208443135023117,0,0,0,-1,-1,60702.52296725001,unknown,2,2025-04-18T10:18:12.715+03:00,2025-04-17T15:44:39.500+03:00,7077,1.059162,0,0,5844.344,4,10,2025-04-18T10:17:57.239+03:00,766653492.8140407,0,105.42,100.5905,1,0.75,2025-04-18T10:17:43.542+03:00,108,1.8,2025-04-18T08:51:18.885+03:00,0.03057091307199995,1
