loggingTime(txt),locationTimestamp_since1970(s),locationLatitude(WGS84),locationLongitude(WGS84),locationAltitude(m),locationSpeed(m/s),locationSpeedAccuracy(m/s),locationCourse(°),locationCourseAccuracy(°),locationVerticalAccuracy(m),locationHorizontalAccuracy(m),locationFloor(Z),accelerometerTimestamp_sinceReboot(s),accelerometerAccelerationX(G),accelerometerAccelerationY(G),accelerometerAccelerationZ(G),motionTimestamp_sinceReboot(s),motionYaw(rad),motionRoll(rad),motionPitch(rad),motionRotationRateX(rad/s),motionRotationRateY(rad/s),motionRotationRateZ(rad/s),motionUserAccelerationX(G),motionUserAccelerationY(G),motionUserAccelerationZ(G),motionAttitudeReferenceFrame(txt),motionQuaternionX(R),motionQuaternionY(R),motionQuaternionZ(R),motionQuaternionW(R),motionGravityX(G),motionGravityY(G),motionGravityZ(G),motionMagneticFieldX(µT),motionMagneticFieldY(µT),motionMagneticFieldZ(µT),motionHeading(°),motionMagneticFieldCalibrationAccuracy(Z),activityTimestamp_sinceReboot(s),activity(txt),activityActivityConfidence(Z),activityActivityStartDate(txt),pedometerStartDate(txt),pedometerNumberofSteps(N),pedometerAverageActivePace(s/m),pedometerCurrentPace(s/m),pedometerCurrentCadence(steps/s),pedometerDistance(m),pedometerFloorAscended(N),pedometerFloorDescended(N),pedometerEndDate(txt),altimeterTimestamp_sinceReboot(s),altimeterReset(bool),altimeterRelativeAltitude(m),altimeterPressure(kPa),batteryState(N),batteryLevel(R),heartRateBPMTimestamp(txt),heartRateBPM(N),heartRateBPS(R),heartRateVariabilityTimestamp(txt),heartRateVariability(ms),label
2025-04-18T11:21:05.794+03:00,1744964462.199189,40.95362603403405,29.14098763848171,93.88576,-1,-1,-1,-1,30,25.37075649530924,-9999,63698.28171629167,-0.6194305419921875,0.581085205078125,-0.528472900390625,63698.27164129167,1.61891295313797,-0.8768525742059835,-0.6126559157784018,0.03640745580196381,-0.0681055411696434,-0.01298660784959793,0.01168268918991089,0.0007938742637634277,0.005077362060546875,XArbitraryZVertical,-0.1046384971681578,0.4768915005502991,-0.7132502179397314,-0.5028913023234545,-0.6289160251617432,0.5750423669815063,-0.5232505798339844,0,0,0,-1,-1,63693.73145854168,unknown,2,2025-04-18T11:21:01.217+03:00,2025-04-17T15:44:39.500+03:00,7261,1.117892,0,0,5985.878,4,10,2025-04-18T11:19:56.733+03:00,766657263.8941927,0,107.4,100.5677,1,0.6,2025-04-18T11:19:19.294+03:00,75,1.25,2025-04-18T08:51:18.885+03:00,0.03057091307199995,1
2025-04-18T11:21:05.796+03:00,1744964462.199189,40.95362603403405,29.14098763848171,93.88576,-1,-1,-1,-1,30,25.37075649530924,-9999,63698.29179229167,-0.6323394775390625,0.58856201171875,-0.5265350341796875,63698.28171629167,1.619220304104637,-0.877176825442558,-0.6123943581359205,0.04428155347704887,-0.03462061658501625,-0.009831727482378483,-0.002482235431671143,0.00810319185256958,-0.003895878791809082,XArbitraryZVertical,-0.1049175224746377,0.4768867730998965,-0.7132998047483211,-0.5027670058079718,-0.6292011737823486,0.5748283267021179,-0.5231426358222961,0,0,0,-1,-1,63693.73145854168,unknown,2,2025-04-18T11:21:01.217+03:00,2025-04-17T15:44:39.500+03:00,7261,1.117892,0,0,5985.878,4,10,2025-04-18T11:19:56.733+03:00,766657263.8941927,0,107.4,100.5677,1,0.6,2025-04-18T11:19:19.294+03:00,75,1.25,2025-04-18T08:51:18.885+03:00,0.03057091307199995,1
2025-04-18T11:21:05.797+03:00,1744964462.199189,40.95362603403405,29.14098763848171,93.88576,-1,-1,-1,-1,30,25.37075649530924,-9999,63698.30186729167,-0.63372802734375,0.586700439453125,-0.5222320556640625,63698.29179229167,1.619591542807824,-0.8772014896405526,-0.6121441759466565,0.03794216364622116,-0.007244118023663759,0.004780238494277,0.01001620292663574,0.008048474788665771,-0.005284249782562256,XArbitraryZVertical,-0.1051009038020194,0.476806333017448,-0.713381603790755,-0.5026889295244795,-0.6293246150016785,0.5746235847473145,-0.5232190489768982,0,0,0,-1,-1,63693.73145854168,unknown,2,2025-04-18T11:21:01.217+03:00,2025-04-17T15:44:39.500+03:00,7261,1.117892,0,0,5985.878,4,10,2025-04-18T11:19:56.733+03:00,766657263.8941927,0,107.4,100.5677,1,0.6,2025-04-18T11:19:19.294+03:00,75,1.25,2025-04-18T08:51:18.885+03:00,0.03057091307199995,1
2025-04-18T11:21:05.804+03:00,1744964462.199189,40.95362603403405,29.14098763848171,93.88576,-1,-1,-1,-1,30,25.37075649530924,-9999,63698.31194329167,-0.63116455078125,0.5805511474609375,-0.522064208984375,63698.30186729167,1.620066519435679,-0.8769121277616366,-0.6119652203491666,0.04797901958227158,0.003651606850326061,0.01263919286429882,-0.007832705974578857,0.01669406890869141,-0.001053869724273682,XArbitraryZVertical,-0.1051724522112403,0.4766605854742605,-0.7135088866424247,-0.5026315507462493,-0.6292522549629211,0.5744771361351013,-0.5234668850898743,0,0,0,-1,-1,63693.73145854168,unknown,2,2025-04-18T11:21:01.217+03:00,2025-04-17T15:44:39.500+03:00,7261,1.117892,0,0,5985.878,4,10,2025-04-18T11:19:56.733+03:00,766657263.8941927,0,107.4,100.5677,1,0.6,2025-04-18T11:19:19.294+03:00,75,1.25,2025-04-18T08:51:18.885+03:00,0.03057091307199995,1
2025-04-18T11:21:05.812+03:00,1744964462.199189,40.95362603403405,29.14098763848171,93.88576,-1,-1,-1,-1,30,25.37075649530924,-9999,63698.32201716667,-0.630767822265625,0.5790863037109375,-0.5213470458984375,63698.31194329167,1.620620026157305,-0.8765521182669881,-0.6117475820292454,0.04892976954579353,0.008354483172297478,0.01429061964154243,-0.001287519931793213,0.007717013359069824,0.001236200332641602,XArbitraryZVertical,-0.1052506927455184,0.4764825067768574,-0.7136580664672926,-0.5025723797492307,-0.6291599273681641,0.5742989778518677,-0.5237734317779541,0,0,0,-1,-1,63693.73145854168,unknown,2,2025-04-18T11:21:01.217+03:00,2025-04-17T15:44:39.500+03:00,7261,1.117892,0,0,5985.878,4,10,2025-04-18T11:19:56.733+03:00,766657263.8941927,0,107.4,100.5677,1,0.6,2025-04-18T11:19:19.294+03:00,75,1.25,2025-04-18T08:51:18.885+03:00,0.03057091307199995,1
2025-04-18T11:21:05.822+03:00,1744964462.199189,40.95362603403405,29.14098763848171,93.88576,-1,-1,-1,-1,30,25.37075649530924,-9999,63698.33209216667,-0.627685546875,0.56610107421875,-0.5259246826171875,63698.32201716667,1.621177957696377,-0.8761292491564953,-0.6115422372357535,0.04887930303812027,0.007993757724761963,0.01388455461710691,-0.003234326839447021,0.007412135601043701,0.002569496631622314,XArbitraryZVertical,-0.1053033014683801,0.4762916851088854,-0.713812169889452,-0.502523335016629,-0.6290289163589478,0.5741308927536011,-0.5241149067878723,0,0,0,-1,-1,63693.73145854168,unknown,2,2025-04-18T11:21:01.217+03:00,2025-04-17T15:44:39.500+03:00,7261,1.117892,0,0,5985.878,4,10,2025-04-18T11:19:56.733+03:00,766657263.8941927,0,107.4,100.5677,1,0.6,2025-04-18T11:19:19.294+03:00,75,1.25,2025-04-18T08:51:18.885+03:00,0.03057091307199995,1
2025-04-18T11:21:05.832+03:00,1744964462.199189,40.95362603403405,29.14098763848171,93.88576,-1,-1,-1,-1,30,25.37075649530924,-9999,63698.34216816667,-0.62176513671875,0.5657196044921875,-0.5234375,63698.33209216667,1.621635804337328,-0.8758885081837452,-0.6113559343937424,0.03280952200293541,-0.01167768146842718,0.001742404070682824,-0.0006843209266662598,-0.0008429288864135742,0.001049935817718506,XArbitraryZVertical,-0.105390419876128,0.4761569653975251,-0.7139323299099062,-0.5024620903377155,-0.6289849281311035,0.5739783048629761,-0.5243347883224487,0,0,0,-1,-1,63693.73145854168,unknown,2,2025-04-18T11:21:01.217+03:00,2025-04-17T15:44:39.500+03:00,7261,1.117892,0,0,5985.878,4,10,2025-04-18T11:19:56.733+03:00,766657263.8941927,0,107.4,100.5677,1,0.6,2025-04-18T11:19:19.294+03:00,75,1.25,2025-04-18T08:51:18.885+03:00,0.03057091307199995,1
2025-04-18T11:21:05.843+03:00,1744964462.199189,40.95362603403405,29.14098763848171,93.88576,-1,-1,-1,-1,30,25.37075649530924,-9999,63698.35224316667,-0.6245269775390625,0.5586090087890625,-0.521759033203125,63698.34216816667,1.621943915638772,-0.875810909239104,-0.6112336625617659,0.02216147258877754,-0.01295300386846066,0.003712510922923684,0.003265619277954102,-0.008707880973815918,-0.0009162425994873047,XArbitraryZVertical,-0.1054780897388955,0.4760883253712063,-0.7140088703017182,-0.5023999865721054,-0.6289981007575989,0.5738781690597534,-0.5244285464286804,0,0,0,-1,-1,63693.73145854168,unknown,2,2025-04-18T11:21:01.217+03:00,2025-04-17T15:44:39.500+03:00,7261,1.117892,0,0,5985.878,4,10,2025-04-18T11:19:56.733+03:00,766657263.8941927,0,107.4,100.5677,1,0.6,2025-04-18T11:19:19.294+03:00,75,1.25,2025-04-18T08:51:18.885+03:00,0.03057091307199995,1
2025-04-18T11:21:05.852+03:00,1744964462.199189,40.95362603403405,29.14098763848171,93.88576,-1,-1,-1,-1,30,25.37075649530924,-9999,63698.36231916667,-0.6320037841796875,0.561981201171875,-0.5179901123046875,63698.35224316667,1.622219545796582,-0.8757806561612855,-0.6111758568445249,0.02374472096562386,-0.01773790456354618,0.00742389215156436,0.007334053516387939,-0.01052206754684448,0.002175748348236084,XArbitraryZVertical,-0.1055527473447678,0.4760506198436073,-0.7140773627996931,-0.5023227364798775,-0.6290077567100525,0.5738308429718018,-0.5244688391685486,0,0,0,-1,-1,63693.73145854168,unknown,2,2025-04-18T11:21:01.217+03:00,2025-04-17T15:44:39.500+03:00,7261,1.117892,0,0,5985.878,4,10,2025-04-18T11:19:56.733+03:00,766657263.8941927,0,107.4,100.5677,1,0.6,2025-04-18T11:19:19.294+03:00,75,1.25,2025-04-18T08:51:18.885+03:00,0.03057091307199995,1
2025-04-18T11:21:05.863+03:00,1744964462.199189,40.95362603403405,29.14098763848171,93.88576,-1,-1,-1,-1,30,25.37075649530924,-9999,63698.37239416667,-0.626922607421875,0.568634033203125,-0.51312255859375,63698.36231916667,1.622487484043485,-0.8758309459984811,-0.6111523820588814,0.01793170720338821,-0.01935324445366859,0.007559380494058132,0.001007914543151855,-0.01540094614028931,0.003510832786560059,XArbitraryZVertical,-0.1056425667288396,0.4760427907538693,-0.7141410421011976,-0.5022206741602796,-0.6290444731712341,0.5738116502761841,-0.5244458317756653,0,0,0,-1,-1,63693.73145854168,unknown,2,2025-04-18T11:21:01.217+03:00,2025-04-17T15:44:39.500+03:00,7261,1.117892,0,0,5985.878,4,10,2025-04-18T11:19:56.733+03:00,766657263.8941927,0,107.4,100.5677,1,0.6,2025-04-18T11:19:19.294+03:00,75,1.25,2025-04-18T08:51:18.885+03:00,0.03057091307199995,1
2025-04-18T11:21:05.872+03:00,1744964462.199189,40.95362603403405,29.14098763848171,93.88576,-1,-1,-1,-1,30,25.37075649530924,-9999,63698.38247016667,-0.6236572265625,0.569488525390625,-0.5160675048828125,63698.37239416667,1.622821347116868,-0.875788349814853,-0.6110956941526683,0.03154551982879639,-0.01978867128491402,0.006053096149116755,-0.002132773399353027,-0.007542014122009277,0.00870060920715332,XArbitraryZVertical,-0.1057263179569942,0.4759991974666048,-0.7142248247268144,-0.5021251530774401,-0.6290470361709595,0.5737652182579041,-0.524493396282196,0,0,0,-1,-1,63693.73145854168,unknown,2,2025-04-18T11:21:01.217+03:00,2025-04-17T15:44:39.500+03:00,7261,1.117892,0,0,5985.878,4,10,2025-04-18T11:19:56.733+03:00,766657263.8941927,0,107.4,100.5677,1,0.6,2025-04-18T11:19:19.294+03:00,75,1.25,2025-04-18T08:51:18.885+03:00,0.03057091307199995,1
2025-04-18T11:21:05.883+03:00,1744964462.199189,40.95362603403405,29.14098763848171,93.88576,-1,-1,-1,-1,30,25.37075649530924,-9999,63698.39254516667,-0.6287994384765625,0.5714111328125,-0.520172119140625,63698.38247016667,1.623161356558723,-0.875770879208406,-0.6109565962435418,0.0312870591878891,-0.01315673440694809,0.002760696923360229,0.004648447036743164,-0.005169808864593506,0.01108205318450928,XArbitraryZVertical,-0.105848785877304,0.4759393649448175,-0.7143054842634053,-0.5020413136810514,-0.6290991902351379,0.5736512541770935,-0.524555504322052,0,0,0,-1,-1,63693.73145854168,unknown,2,2025-04-18T11:21:01.217+03:00,2025-04-17T15:44:39.500+03:00,7261,1.117892,0,0,5985.878,4,10,2025-04-18T11:19:56.733+03:00,766657263.8941927,0,107.4,100.5677,1,0.6,2025-04-18T11:19:19.294+03:00,75,1.25,2025-04-18T08:51:18.885+03:00,0.03057091307199995,1
2025-04-18T11:21:05.893+03:00,1744964462.199189,40.95362603403405,29.14098763848171,93.88576,-1,-1,-1,-1,30,25.37075649530924,-9999,63698.40262116667,-0.6303558349609375,0.5725555419921875,-0.5185699462890625,63698.39254516667,1.62343053310082,-0.8757710480015032,-0.6108142977289266,0.02308505587279797,-0.01523187011480331,-0.000605538603849709,0.00472646951675415,-0.003267943859100342,0.006831228733062744,XArbitraryZVertical,-0.1059617901524986,0.4758868224271774,-0.7143672896758732,-0.5019793044688705,-0.6291619539260864,0.5735347270965576,-0.5246076583862305,0,0,0,-1,-1,63693.73145854168,unknown,2,2025-04-18T11:21:01.217+03:00,2025-04-17T15:44:39.500+03:00,7261,1.117892,0,0,5985.878,4,10,2025-04-18T11:19:56.733+03:00,766657263.8941927,0,107.4,100.5677,1,0.6,2025-04-18T11:19:19.294+03:00,75,1.25,2025-04-18T08:51:18.885+03:00,0.03057091307199995,1
2025-04-18T11:21:05.903+03:00,1744964462.199189,40.95362603403405,29.14098763848171,93.88576,-1,-1,-1,-1,30,25.37075649530924,-9999,63698.41269616667,-0.62811279296875,0.5731658935546875,-0.5175628662109375,63698.40262116667,1.623586483620634,-0.875862662316743,-0.6106998609632073,0.01363729313015938,-0.01412073150277138,-0.0005152241792529821,-0.0005766153335571289,-0.001755118370056152,0.005076110363006592,XArbitraryZVertical,-0.1060708940583981,0.4758707022235376,-0.7143969574819814,-0.5019294179789551,-0.6292604804039001,0.5734409689903259,-0.5245921015739441,0,0,0,-1,-1,63693.73145854168,unknown,2,2025-04-18T11:21:01.217+03:00,2025-04-17T15:44:39.500+03:00,7261,1.117892,0,0,5985.878,4,10,2025-04-18T11:19:56.733+03:00,766657263.8941927,0,107.4,100.5677,1,0.6,2025-04-18T11:19:19.294+03:00,75,1.25,2025-04-18T08:51:18.885+03:00,0.03057091307199995,1
2025-04-18T11:21:05.913+03:00,1744964462.199189,40.95362603403405,29.14098763848171,93.88576,-1,-1,-1,-1,30,25.37075649530924,-9999,63698.42277116667,-0.6288909912109375,0.5767364501953125,-0.5161285400390625,63698.41269616667,1.62373357417147,-0.8758877085155966,-0.6106093351763635,0.01606742665171623,-0.009072444401681423,0.002278964500874281,0.0006360411643981934,-0.001116394996643066,0.006451606750488281,XArbitraryZVertical,-0.1061459494439347,0.4758447967164209,-0.7144288793120555,-0.5018926118144319,-0.6293134093284607,0.5733668208122253,-0.5246095061302185,0,0,0,-1,-1,63693.73145854168,unknown,2,2025-04-18T11:21:01.217+03:00,2025-04-17T15:44:39.500+03:00,7261,1.117892,0,0,5985.878,4,10,2025-04-18T11:19:56.733+03:00,766657263.8941927,0,107.4,100.5677,1,0.6,2025-04-18T11:19:19.294+03:00,75,1.25,2025-04-18T08:51:18.885+03:00,0.03057091307199995,1
2025-04-18T11:21:05.923+03:00,1744964462.199189,40.95362603403405,29.14098763848171,93.88576,-1,-1,-1,-1,30,25.37075649530924,-9999,63698.43284716667,-0.62603759765625,0.577117919921875,-0.51605224609375,63698.42277116667,1.623929737281137,-0.8758473885017144,-0.6104999649191079,0.01817006058990955,-0.005777515470981598,0.004501538816839457,0.0006783008575439453,0.002238571643829346,0.008226156234741211,XArbitraryZVertical,-0.1062157813041697,0.475794789054661,-0.7144758243322146,-0.5018584018147791,-0.6293404698371887,0.5732771754264832,-0.5246750712394714,0,0,0,-1,-1,63693.73145854168,unknown,2,2025-04-18T11:21:01.217+03:00,2025-04-17T15:44:39.500+03:00,7261,1.117892,0,0,5985.878,4,10,2025-04-18T11:19:56.733+03:00,766657263.8941927,0,107.4,100.5677,1,0.6,2025-04-18T11:19:19.294+03:00,75,1.25,2025-04-18T08:51:18.885+03:00,0.03057091307199995,1
2025-04-18T11:21:05.933+03:00,1744964462.199189,40.95362603403405,29.14098763848171,93.88576,-1,-1,-1,-1,30,25.37075649530924,-9999,63698.44292216667,-0.626495361328125,0.5728759765625,-0.518646240234375,63698.43284716667,1.624109062921758,-0.8758076562949473,-0.6104355765682933,0.009352066554129124,-0.008566644042730331,0.003512707073241472,0.0005942583084106445,0.004152953624725342,0.00943446159362793,XArbitraryZVertical,-0.1062663112847688,0.4757579197523388,-0.7145203406517622,-0.501819416112071,-0.6293479800224304,0.5732244253158569,-0.5247237682342529,0,0,0,-1,-1,63693.73145854168,unknown,2,2025-04-18T11:21:01.217+03:00,2025-04-17T15:44:39.500+03:00,7261,1.117892,0,0,5985.878,4,10,2025-04-18T11:19:56.733+03:00,766657263.8941927,0,107.4,100.5677,1,0.6,2025-04-18T11:19:19.294+03:00,75,1.25,2025-04-18T08:51:18.885+03:00,0.03057091307199995,1
2025-04-18T11:21:05.943+03:00,1744964462.199189,40.95362603403405,29.14098763848171,93.88576,-1,-1,-1,-1,30,25.37075649530924,-9999,63698.45299816667,-0.6269073486328125,0.5701446533203125,-0.51629638671875,63698.44292216667,1.624175996836208,-0.8759217387549167,-0.6103944281297918,0.001497472636401653,-0.01942288689315319,0.001876660622656345,0.004013895988464355,0.002309739589691162,0.007256805896759033,XArbitraryZVertical,-0.1063371726862337,0.4757719111749808,-0.7145293971983473,-0.5017780863003475,-0.6294258832931519,0.5731906890869141,-0.524666965007782,0,0,0,-1,-1,63693.73145854168,unknown,2,2025-04-18T11:21:01.217+03:00,2025-04-17T15:44:39.500+03:00,7261,1.117892,0,0,5985.878,4,10,2025-04-18T11:19:56.733+03:00,766657263.8941927,0,107.4,100.5677,1,0.6,2025-04-18T11:19:19.294+03:00,75,1.25,2025-04-18T08:51:18.885+03:00,0.03057091307199995,1
2025-04-18T11:21:05.953+03:00,1744964462.199189,40.95362603403405,29.14098763848171,93.88576,-1,-1,-1,-1,30,25.37075649530924,-9999,63698.46307316667,-0.62493896484375,0.5696868896484375,-0.5192718505859375,63698.45299816667,1.624187202211559,-0.8761824231546658,-0.6103693086853489,0.003406692761927843,-0.02489648200571537,-0.003497598459944129,0.002101719379425049,-0.0008434653282165527,0.006659388542175293,XArbitraryZVertical,-0.1064416015300785,0.4758299443158931,-0.7145173246825938,-0.5017180873758265,-0.6295737028121948,0.5731701254844666,-0.5245121121406555,0,0,0,-1,-1,63693.73145854168,unknown,2,2025-04-18T11:21:01.217+03:00,2025-04-17T15:44:39.500+03:00,7261,1.117892,0,0,5985.878,4,10,2025-04-18T11:19:56.733+03:00,766657263.8941927,0,107.4,100.5677,1,0.6,2025-04-18T11:19:19.294+03:00,75,1.25,2025-04-18T08:51:18.885+03:00,0.03057091307199995,1
2025-04-18T11:21:05.963+03:00,1744964462.199189,40.95362603403405,29.14098763848171,93.88576,-1,-1,-1,-1,30,25.37075649530924,-9999,63698.47314916667,-0.6273956298828125,0.5664825439453125,-0.523223876953125,63698.46307316667,1.624188770570107,-0.87641000439936,-0.6103688785713705,0.003500303020700812,-0.02019426971673965,0.0008582012378610671,0.004128694534301758,-0.002994656562805176,0.00813370943069458,XArbitraryZVertical,-0.1065234194230447,0.4758868297919708,-0.7145055856705012,-0.5016635071312004,-0.6296932697296143,0.5731697678565979,-0.5243690013885498,0,0,0,-1,-1,63693.73145854168,unknown,2,2025-04-18T11:21:01.217+03:00,2025-04-17T15:44:39.500+03:00,7261,1.117892,0,0,5985.878,4,10,2025-04-18T11:19:56.733+03:00,766657263.8941927,0,107.4,100.5677,1,0.6,2025-04-18T11:19:19.294+03:00,75,1.25,2025-04-18T08:51:18.885+03:00,0.03057091307199995,1
2025-04-18T11:21:05.973+03:00,1744964462.199189,40.95362603403405,29.14098763848171,93.88576,-1,-1,-1,-1,30,25.37075649530924,-9999,63698.48322416667,-0.62945556640625,0.5738983154296875,-0.520172119140625,63698.47314916667,1.624213290357128,-0.8766058390751016,-0.6103088422965061,0.004548256751149893,-0.02174156904220581,-0.007806126959621906,0.004212021827697754,-0.005676746368408203,0.002646028995513916,XArbitraryZVertical,-0.1066198452406635,0.4759184666342524,-0.7144988651655286,-0.501622534013222,-0.6298223733901978,0.5731205940246582,-0.5242676138877869,0,0,0,-1,-1,63693.73145854168,unknown,2,2025-04-18T11:21:01.217+03:00,2025-04-17T15:44:39.500+03:00,7261,1.117892,0,0,5985.878,4,10,2025-04-18T11:19:56.733+03:00,766657263.8941927,0,107.4,100.5677,1,0.6,2025-04-18T11:19:19.294+03:00,75,1.25,2025-04-18T08:51:18.885+03:00,0.03057091307199995,1
2025-04-18T11:21:05.983+03:00,1744964462.199189,40.95362603403405,29.14098763848171,93.88576,-1,-1,-1,-1,30,25.37075649530924,-9999,63698.49330016667,-0.6305694580078125,0.568450927734375,-0.5248565673828125,63698.48322416667,1.624239981299243,-0.8767994862360567,-0.610174030974583,0.0171048603951931,-0.02034174278378487,-0.01371604762971401,0.0009701848030090332,-0.003567337989807129,0.00211566686630249,XArbitraryZVertical,-0.1067416472051133,0.4759292697100161,-0.7144897663059664,-0.5015993879728189,-0.6299833059310913,0.5730100870132446,-0.5241950750350952,0,0,0,-1,-1,63693.73145854168,unknown,2,2025-04-18T11:21:01.217+03:00,2025-04-17T15:44:39.500+03:00,7261,1.117892,0,0,5985.878,4,10,2025-04-18T11:19:56.733+03:00,766657263.8941927,0,107.4,100.5677,1,0.6,2025-04-18T11:19:19.294+03:00,75,1.25,2025-04-18T08:51:18.885+03:00,0.03057091307199995,1
2025-04-18T11:21:05.994+03:00,1744964462.199189,40.95362603403405,29.14098763848171,93.88576,-1,-1,-1,-1,30,25.37075649530924,-9999,63698.50337516667,-0.6319427490234375,0.5703887939453125,-0.5234527587890625,63698.49330016667,1.624307562306065,-0.8769664480202679,-0.6100295214604835,0.0121327405795455,-0.02067011222243309,-0.0002428493462502956,0.0007703900337219238,0.0001979470252990723,0.003574073314666748,XArbitraryZVertical,-0.1068669738781621,0.475928578152927,-0.7144919345356501,-0.5015703171092762,-0.6301344633102417,0.5728916525840759,-0.524142861366272,0,0,0,-1,-1,63693.73145854168,unknown,2,2025-04-18T11:21:01.217+03:00,2025-04-17T15:44:39.500+03:00,7261,1.117892,0,0,5985.878,4,10,2025-04-18T11:19:56.733+03:00,766657263.8941927,0,107.4,100.5677,1,0.6,2025-04-18T11:19:19.294+03:00,75,1.25,2025-04-18T08:51:18.885+03:00,0.03057091307199995,1
2025-04-18T11:21:06.004+03:00,1744964462.199189,40.95362603403405,29.14098763848171,93.88576,-1,-1,-1,-1,30,25.37075649530924,-9999,63698.51345116667,-0.6284027099609375,0.5730133056640625,-0.5113983154296875,63698.50337516667,1.624338231168857,-0.8771925651816121,-0.6100174303382149,0.00297938846051693,-0.02311575785279274,-0.004813799168914557,-0.001501381397247314,-0.005025863647460938,-0.002713322639465332,XArbitraryZVertical,-0.1069592165167875,0.4759803882382169,-0.7144870433558805,-0.5015084128021442,-0.6302582621574402,0.5728817582130432,-0.5240048170089722,0,0,0,-1,-1,63693.73145854168,unknown,2,2025-04-18T11:21:01.217+03:00,2025-04-17T15:44:39.500+03:00,7261,1.117892,0,0,5985.878,4,10,2025-04-18T11:19:56.733+03:00,766657263.8941927,0,107.4,100.5677,1,0.6,2025-04-18T11:19:19.294+03:00,75,1.25,2025-04-18T08:51:18.885+03:00,0.03057091307199995,1
2025-04-18T11:21:06.014+03:00,1744964462.199189,40.95362603403405,29.14098763848171,93.88576,-1,-1,-1,-1,30,25.37075649530924,-9999,63698.52352616667,-0.632476806640625,0.568145751953125,-0.531402587890625,63698.51345116667,1.624363256589033,-0.8773139887391583,-0.6099502229976501,0.01416839379817247,-0.002796105574816465,-0.003610583022236824,-0.0003400444984436035,-0.001400232315063477,0.006054401397705078,XArbitraryZVertical,-0.1070316143552045,0.4759913799479741,-0.7144840903688983,-0.5014867669163268,-0.6303515434265137,0.5728266835212708,-0.5239529013633728,0,0,0,-1,-1,63693.73145854168,unknown,2,2025-04-18T11:21:01.217+03:00,2025-04-17T15:44:39.500+03:00,7261,1.117892,0,0,5985.878,4,10,2025-04-18T11:19:56.733+03:00,766657263.8941927,0,107.4,100.5677,1,0.6,2025-04-18T11:19:19.294+03:00,75,1.25,2025-04-18T08:51:18.885+03:00,0.03057091307199995,1
2025-04-18T11:21:06.024+03:00,1744964462.199189,40.95362603403405,29.14098763848171,93.88576,-1,-1,-1,-1,30,25.37075649530924,-9999,63698.53360116667,-0.6249542236328125,0.5664215087890625,-0.5244293212890625,63698.52352616667,1.624443825354814,-0.8773243920906004,-0.6098733912315055,0.006642766296863556,-0.009128637611865997,-0.003610882675275207,0.001103043556213379,-0.0008795261383056641,0.008166372776031494,XArbitraryZVertical,-0.107080887703443,0.4759689701497369,-0.7145006069818353,-0.5014739678255788,-0.6303908228874207,0.5727636814117432,-0.5239744186401367,0,0,0,-1,-1,63693.73145854168,unknown,2,2025-04-18T11:21:01.217+03:00,2025-04-17T15:44:39.500+03:00,7261,1.117892,0,0,5985.878,4,10,2025-04-18T11:19:56.733+03:00,766657263.8941927,0,107.4,100.5677,1,0.6,2025-04-18T11:19:19.294+03:00,75,1.25,2025-04-18T08:51:18.885+03:00,0.03057091307199995,1
2025-04-18T11:21:06.034+03:00,1744964462.199189,40.95362603403405,29.14098763848171,93.88576,-1,-1,-1,-1,30,25.37075649530924,-9999,63698.54367716667,-0.62103271484375,0.5672149658203125,-0.5131072998046875,63698.53360116667,1.624354660357887,-0.8774453230135602,-0.6098241243227782,-0.006350796204060316,0.003763192798942327,-0.01308747567236423,-0.001085400581359863,-0.007553040981292725,-0.009836137294769287,XArbitraryZVertical,-0.1071197868382262,0.4759907905211085,-0.7144697665005822,-0.5014888752130451,-0.6304758787155151,0.5727232694625854,-0.5239162445068359,0,0,0,-1,-1,63693.73145854168,unknown,2,2025-04-18T11:21:01.217+03:00,2025-04-17T15:44:39.500+03:00,7261,1.117892,0,0,5985.878,4,10,2025-04-18T11:19:56.733+03:00,766657263.8941927,0,107.4,100.5677,1,0.6,2025-04-18T11:19:19.294+03:00,75,1.25,2025-04-18T08:51:18.885+03:00,0.03057091307199995,1
2025-04-18T11:21:06.044+03:00,1744964462.199189,40.95362603403405,29.14098763848171,93.88576,-1,-1,-1,-1,30,25.37075649530924,-9999,63698.55375216667,-0.6278839111328125,0.56304931640625,-0.5275115966796875,63698.54367716667,1.624211521785415,-0.8773980153610647,-0.6098289351317124,-0.009043851867318153,0.0224236287176609,-0.0008452230831608176,0.00891268253326416,-0.0042610764503479,0.007800579071044922,XArbitraryZVertical,-0.1070671975070539,0.4759878989514736,-0.7144365960910268,-0.5015500189437544,-0.6304489374160767,0.5727272629737854,-0.5239442586898804,0,0,0,-1,-1,63693.73145854168,unknown,2,2025-04-18T11:21:01.217+03:00,2025-04-17T15:44:39.500+03:00,7261,1.117892,0,0,5985.878,4,10,2025-04-18T11:19:56.733+03:00,766657263.8941927,0,107.4,100.5677,1,0.6,2025-04-18T11:19:19.294+03:00,75,1.25,2025-04-18T08:51:18.885+03:00,0.03057091307199995,1
2025-04-18T11:21:06.055+03:00,1744964462.199189,40.95362603403405,29.14098763848171,93.88576,-1,-1,-1,-1,30,25.37075649530924,-9999,63698.56382816667,-0.6331787109375,0.566925048828125,-0.5302581787109375,63698.55375216667,1.624145301132735,-0.8771677109834385,-0.6098477162877532,-0.005735139828175306,0.03071697987616062,0.0006184501689858735,0.00641864538192749,-0.0083962082862854,0.007084369659423828,XArbitraryZVertical,-0.1069626332716097,0.4759387128528413,-0.7144330959143008,-0.5016242517598444,-0.6303200721740723,0.5727426409721375,-0.5240826606750488,0,0,0,-1,-1,63693.73145854168,unknown,2,2025-04-18T11:21:01.217+03:00,2025-04-17T15:44:39.500+03:00,7261,1.117892,0,0,5985.878,4,10,2025-04-18T11:19:56.733+03:00,766657263.8941927,0,107.4,100.5677,1,0.6,2025-04-18T11:19:19.294+03:00,75,1.25,2025-04-18T08:51:18.885+03:00,0.03057091307199995,1
2025-04-18T11:21:06.064+03:00,1744964462.199189,40.95362603403405,29.14098763848171,93.88576,-1,-1,-1,-1,30,25.37075649530924,-9999,63698.57390316667,-0.6342926025390625,0.569183349609375,-0.531341552734375,63698.56382816667,1.624111670225974,-0.8768404368821013,-0.6098606172445314,-0.002756993751972914,0.03497637435793877,0.003472925862297416,0.0009161233901977539,-0.008773088455200195,-0.005333065986633301,XArbitraryZVertical,-0.1068332995059265,0.4758618984522107,-0.7144426760684671,-0.501711016589856,-0.630142867565155,0.5727531909942627,-0.5242841839790344,0,0,0,-1,-1,63693.73145854168,unknown,2,2025-04-18T11:21:01.217+03:00,2025-04-17T15:44:39.500+03:00,7261,1.117892,0,0,5985.878,4,10,2025-04-18T11:19:56.733+03:00,766657263.8941927,0,107.4,100.5677,1,0.6,2025-04-18T11:19:19.294+03:00,75,1.25,2025-04-18T08:51:18.885+03:00,0.03057091307199995,1
2025-04-18T11:21:06.074+03:00,1744964462.199189,40.95362603403405,29.14098763848171,93.88576,-1,-1,-1,-1,30,25.37075649530924,-9999,63698.58397916667,-0.62738037109375,0.5691375732421875,-0.5303497314453125,63698.57390316667,1.624066495291542,-0.8765758163812721,-0.6099073629585031,-0.006444673053920269,0.02311199158430099,-0.002010522410273552,-0.005255222320556641,-0.003699660301208496,-0.005626022815704346,XArbitraryZVertical,-0.1067119681654332,0.4758105224942758,-0.7144473707056523,-0.5017788888455891,-0.6299835443496704,0.5727915167808533,-0.5244337916374207,0,0,0,-1,-1,63693.73145854168,unknown,2,2025-04-18T11:21:01.217+03:00,2025-04-17T15:44:39.500+03:00,7261,1.117892,0,0,5985.878,4,10,2025-04-18T11:19:56.733+03:00,766657263.8941927,0,107.4,100.5677,1,0.6,2025-04-18T11:19:19.294+03:00,75,1.25,2025-04-18T08:51:18.885+03:00,0.03057091307199995,1
2025-04-18T11:21:06.089+03:00,1744964462.199189,40.95362603403405,29.14098763848171,93.88576,-1,-1,-1,-1,30,25.37075649530924,-9999,63698.59405416667,-0.62139892578125,0.5749969482421875,-0.5187225341796875,63698.58397916667,1.623894369169746,-0.8765029666947244,-0.6099340091665709,-0.01992286369204521,0.01024739071726799,-0.008196346461772919,-0.002924799919128418,-0.004469215869903564,-0.008015990257263184,XArbitraryZVertical,-0.1066358660723793,0.4758086141982004,-0.7144091463577777,-0.5018512351558813,-0.6299335360527039,0.5728133916854858,-0.5244699120521545,0,0,0,-1,-1,63693.73145854168,unknown,2,2025-04-18T11:21:01.217+03:00,2025-04-17T15:44:39.500+03:00,7261,1.117892,0,0,5985.878,4,10,2025-04-18T11:19:56.733+03:00,766657263.8941927,0,107.4,100.5677,1,0.6,2025-04-18T11:19:19.294+03:00,75,1.25,2025-04-18T08:51:18.885+03:00,0.03057091307199995,1
2025-04-18T11:21:06.094+03:00,1744964462.199189,40.95362603403405,29.14098763848171,93.88576,-1,-1,-1,-1,30,25.37075649530924,-9999,63698.60413016667,-0.622161865234375,0.5757598876953125,-0.5181732177734375,63698.59405416667,1.62358220391741,-0.8766249700774318,-0.6099951690303245,-0.0229700542986393,0.005187651608139277,-0.01516796927899122,0.0046347975730896,-0.001665830612182617,-0.001965761184692383,XArbitraryZVertical,-0.1065841373101439,0.4758723399285346,-0.7143268003254231,-0.5019191138106808,-0.6299706697463989,0.5728635191917419,-0.5243706703186035,0,0,0,-1,-1,63693.73145854168,unknown,2,2025-04-18T11:21:01.217+03:00,2025-04-17T15:44:39.500+03:00,7261,1.117892,0,0,5985.878,4,10,2025-04-18T11:19:56.733+03:00,766657263.8941927,0,107.4,100.5677,1,0.6,2025-04-18T11:19:19.294+03:00,75,1.25,2025-04-18T08:51:18.885+03:00,0.03057091307199995,1
2025-04-18T11:21:06.104+03:00,1744964462.199189,40.95362603403405,29.14098763848171,93.88576,-1,-1,-1,-1,30,25.37075649530924,-9999,63698.61420516667,-0.6239166259765625,0.576629638671875,-0.5230865478515625,63698.60413016667,1.6232180817558,-0.8768251263311221,-0.610027440498874,-0.02583581395447254,9.65530052781105e-05,-0.01643520034849644,0.008555591106414795,0.003449797630310059,0.007417559623718262,XArbitraryZVertical,-0.1065579256288377,0.4759506836145822,-0.7142260542827714,-0.5019936598606176,-0.6300613284111023,0.5728899240493774,-0.5242326855659485,0,0,0,-1,-1,63693.73145854168,unknown,2,2025-04-18T11:21:01.217+03:00,2025-04-17T15:44:39.500+03:00,7261,1.117892,0,0,5985.878,4,10,2025-04-18T11:19:56.733+03:00,766657263.8941927,0,107.4,100.5677,1,0.6,2025-04-18T11:19:19.294+03:00,75,1.25,2025-04-18T08:51:18.885+03:00,0.03057091307199995,1
2025-04-18T11:21:06.114+03:00,1744964462.199189,40.95362603403405,29.14098763848171,93.88576,-1,-1,-1,-1,30,25.37075649530924,-9999,63698.62428016667,-0.624969482421875,0.5761566162109375,-0.523895263671875,63698.61420516667,1.622893622365825,-0.8770399417417428,-0.6099946978910047,-0.0207545030862093,-0.008268436416983604,-0.01441173162311316,0.007019400596618652,0.002637386322021484,0.003555774688720703,XArbitraryZVertical,-0.1065686532661126,0.4760130715312206,-0.7141318312227467,-0.5020662990860774,-0.6301884055137634,0.5728631019592285,-0.5241093635559082,0,0,0,-1,-1,63693.73145854168,unknown,2,2025-04-18T11:21:01.217+03:00,2025-04-17T15:44:39.500+03:00,7261,1.117892,0,0,5985.878,4,10,2025-04-18T11:19:56.733+03:00,766657263.8941927,0,107.4,100.5677,1,0.6,2025-04-18T11:19:19.294+03:00,75,1.25,2025-04-18T08:51:18.885+03:00,0.03057091307199995,1
2025-04-18T11:21:06.124+03:00,1744964462.199189,40.95362603403405,29.14098763848171,93.88576,-1,-1,-1,-1,30,25.37075649530924,-9999,63698.63435616667,-0.626983642578125,0.572021484375,-0.5243682861328125,63698.62428016667,1.622599429864598,-0.8773528948843023,-0.6100102161996528,-0.01606960408389568,-0.01858778670430183,-0.01347742788493633,0.005971133708953857,0.004287898540496826,0.0005147457122802734,XArbitraryZVertical,-0.1066050291819128,0.4761114904638407,-0.7140419338147477,-0.5020931272547644,-0.6303455233573914,0.5728758573532104,-0.523906409740448,0,0,0,-1,-1,63693.73145854168,unknown,2,2025-04-18T11:21:01.217+03:00,2025-04-17T15:44:39.500+03:00,7261,1.117892,0,0,5985.878,4,10,2025-04-18T11:19:56.733+03:00,766657263.8941927,0,107.4,100.5677,1,0.6,2025-04-18T11:19:19.294+03:00,75,1.25,2025-04-18T08:51:18.885+03:00,0.03057091307199995,1
2025-04-18T11:21:06.134+03:00,1744964462.199189,40.95362603403405,29.14098763848171,93.88576,-1,-1,-1,-1,30,25.37075649530924,-9999,63698.64443116667,-0.630126953125,0.571380615234375,-0.5230712890625,63698.63435616667,1.622362849406875,-0.8776743497662969,-0.61000118065926,-0.01509169023483992,-0.01800322160124779,-0.01179218012839556,0.004144549369812012,0.001625001430511475,-0.0006153583526611328,XArbitraryZVertical,-0.106666575393655,0.4762023758678538,-0.713965029747016,-0.5021032065751097,-0.6305178999900818,0.5728684067726135,-0.5237070918083191,0,0,0,-1,-1,63693.73145854168,unknown,2,2025-04-18T11:21:01.217+03:00,2025-04-17T15:44:39.500+03:00,7261,1.117892,0,0,5985.878,4,10,2025-04-18T11:19:56.733+03:00,766657263.8941927,0,107.4,100.5677,1,0.6,2025-04-18T11:19:19.294+03:00,75,1.25,2025-04-18T08:51:18.885+03:00,0.03057091307199995,1
2025-04-18T11:21:06.144+03:00,1744964462.199189,40.95362603403405,29.14098763848171,93.88576,-1,-1,-1,-1,30,25.37075649530924,-9999,63698.65450716667,-0.6318511962890625,0.5720977783203125,-0.5175933837890625,63698.64443116667,1.622164573765982,-0.8779448950056824,-0.6099773315028031,-0.008340244181454182,-0.01656291820108891,-0.007688615005463362,0.002404630184173584,-0.001178264617919922,-0.0008688569068908691,XArbitraryZVertical,-0.1067241114703299,0.4762744502106002,-0.71389984472867,-0.5021153648697981,-0.6306700706481934,0.5728488564491272,-0.5235452055931091,0,0,0,-1,-1,63693.73145854168,unknown,2,2025-04-18T11:21:01.217+03:00,2025-04-17T15:44:39.500+03:00,7261,1.117892,0,0,5985.878,4,10,2025-04-18T11:19:56.733+03:00,766657263.8941927,0,107.4,100.5677,1,0.6,2025-04-18T11:19:19.294+03:00,75,1.25,2025-04-18T08:51:18.885+03:00,0.03057091307199995,1
2025-04-18T11:21:06.155+03:00,1744964462.199189,40.95362603403405,29.14098763848171,93.88576,-1,-1,-1,-1,30,25.37075649530924,-9999,63698.66458216667,-0.6340179443359375,0.5765228271484375,-0.5155792236328125,63698.65450716667,1.622064082122175,-0.8780482969889642,-0.6099512926818828,-0.005515961907804012,0.005187118425965309,-0.003299192991107702,-0.0005052089691162109,-0.001874208450317383,0.001852571964263916,XArbitraryZVertical,-0.106746118498814,0.476298798220168,-0.7138680089094881,-0.5021326040056729,-0.6307355761528015,0.5728275179862976,-0.5234894156455994,0,0,0,-1,-1,63693.73145854168,unknown,2,2025-04-18T11:21:01.217+03:00,2025-04-17T15:44:39.500+03:00,7261,1.117892,0,0,5985.878,4,10,2025-04-18T11:19:56.733+03:00,766657263.8941927,0,107.4,100.5677,1,0.6,2025-04-18T11:19:19.294+03:00,75,1.25,2025-04-18T08:51:18.885+03:00,0.03057091307199995,1
2025-04-18T11:21:06.165+03:00,1744964462.199189,40.95362603403405,29.14098763848171,93.88576,-1,-1,-1,-1,30,25.37075649530924,-9999,63698.67465816667,-0.6337127685546875,0.572906494140625,-0.5185089111328125,63698.66458216667,1.622038221532387,-0.8779745535421217,-0.6099416953801845,-0.002285880502313375,0.007617186289280653,0.003377318847924471,-0.0005549192428588867,0.001658499240875244,0.008341789245605469,XArbitraryZVertical,-0.1067169309166092,0.4762790794093009,-0.713865058104255,-0.502161721722209,-0.6307012438774109,0.5728196501731873,-0.5235394835472107,0,0,0,-1,-1,63693.73145854168,unknown,2,2025-04-18T11:21:01.217+03:00,2025-04-17T15:44:39.500+03:00,7261,1.117892,0,0,5985.878,4,10,2025-04-18T11:19:56.733+03:00,766657263.8941927,0,107.4,100.5677,1,0.6,2025-04-18T11:19:19.294+03:00,75,1.25,2025-04-18T08:51:18.885+03:00,0.03057091307199995,1
2025-04-18T11:21:06.175+03:00,1744964462.199189,40.95362603403405,29.14098763848171,93.88576,-1,-1,-1,-1,30,25.37075649530924,-9999,63698.68473316667,-0.6298828125,0.5728302001953125,-0.516448974609375,63698.67465816667,1.622064933037276,-0.8778737713165234,-0.6100106056880821,-0.004369537346065044,0.006466967053711414,0.006030626129359007,-0.004269659519195557,0.002700626850128174,0.006137073040008545,XArbitraryZVertical,-0.1066636233413392,0.4762708829909876,-0.7138799754515732,-0.5021596686881704,-0.6306180953979492,0.5728761553764343,-0.5235778093338013,0,0,0,-1,-1,63693.73145854168,unknown,2,2025-04-18T11:21:01.217+03:00,2025-04-17T15:44:39.500+03:00,7261,1.117892,0,0,5985.878,4,10,2025-04-18T11:19:56.733+03:00,766657263.8941927,0,107.4,100.5677,1,0.6,2025-04-18T11:19:19.294+03:00,75,1.25,2025-04-18T08:51:18.885+03:00,0.03057091307199995,1
2025-04-18T11:21:06.185+03:00,1744964462.199189,40.95362603403405,29.14098763848171,93.88576,-1,-1,-1,-1,30,25.37075649530924,-9999,63698.69480916667,-0.62713623046875,0.57086181640625,-0.518310546875,63698.68473316667,1.622011754607745,-0.8778617509338453,-0.6101337364624981,-0.01232985965907574,0.003464119974523783,0.002172304783016443,-0.0003170967102050781,-0.001001417636871338,0.0059775710105896,XArbitraryZVertical,-0.1066043598465109,0.4763038262049344,-0.7138723188482891,-0.5021518919537937,-0.6305575370788574,0.5729770660400391,-0.5235403776168823,0,0,0,-1,-1,63693.73145854168,unknown,2,2025-04-18T11:21:01.217+03:00,2025-04-17T15:44:39.500+03:00,7261,1.117892,0,0,5985.878,4,10,2025-04-18T11:19:56.733+03:00,766657263.8941927,0,107.4,100.5677,1,0.6,2025-04-18T11:19:19.294+03:00,75,1.25,2025-04-18T08:51:18.885+03:00,0.03057091307199995,1
2025-04-18T11:21:06.197+03:00,1744964462.199189,40.95362603403405,29.14098763848171,93.88576,-1,-1,-1,-1,30,25.37075649530924,-9999,63698.70488416667,-0.62884521484375,0.569915771484375,-0.517791748046875,63698.69480916667,1.621924323701103,-0.8778361469502769,-0.610257950861965,-0.0118800513446331,0.007961133494973183,0.004342780914157629,0.001232147216796875,-0.0004622936248779297,0.006833195686340332,XArbitraryZVertical,-0.1065316892514614,0.4763354611267819,-0.713856833733615,-0.5021593994699997,-0.6304894089698792,0.5730788707733154,-0.5235110521316528,0,0,0,-1,-1,63693.73145854168,unknown,2,2025-04-18T11:21:01.217+03:00,2025-04-17T15:44:39.500+03:00,7261,1.117892,0,0,5985.878,4,10,2025-04-18T11:19:56.733+03:00,766657263.8941927,0,107.4,100.5677,1,0.6,2025-04-18T11:19:19.294+03:00,75,1.25,2025-04-18T08:51:18.885+03:00,0.03057091307199995,1
2025-04-18T11:21:06.207+03:00,1744964462.199189,40.95362603403405,29.14098763848171,93.88576,-1,-1,-1,-1,30,25.37075649530924,-9999,63698.71496016667,-0.6302947998046875,0.5749053955078125,-0.5195465087890625,63698.70488416667,1.621838122417916,-0.8778007368275468,-0.6103909332767402,-0.01625129766762257,0.005290315952152014,0.0007475469610653818,0.004084646701812744,-0.003516197204589844,0.005494594573974609,XArbitraryZVertical,-0.1064528523010698,0.4763669408933802,-0.7138425232027279,-0.5021665075287847,-0.630412220954895,0.5731878280639648,-0.5234846472740173,0,0,0,-1,-1,63693.73145854168,unknown,2,2025-04-18T11:21:01.217+03:00,2025-04-17T15:44:39.500+03:00,7261,1.117892,0,0,5985.878,4,10,2025-04-18T11:19:56.733+03:00,766657263.8941927,0,107.4,100.5677,1,0.6,2025-04-18T11:19:19.294+03:00,75,1.25,2025-04-18T08:51:18.885+03:00,0.03057091307199995,1
2025-04-18T11:21:06.215+03:00,1744964462.199189,40.95362603403405,29.14098763848171,93.88576,-1,-1,-1,-1,30,25.37075649530924,-9999,63698.72503516667,-0.624969482421875,0.5750579833984375,-0.5203704833984375,63698.71496016667,1.621695172867707,-0.8778659300565838,-0.6105167154316091,-0.01391091104596853,0.000725125428289175,0.0007142574177123606,-0.001048386096954346,-0.0009947419166564941,0.005804181098937988,XArbitraryZVertical,-0.1063988174377527,0.476424735018508,-0.7138083255969063,-0.5021718236244571,-0.6303908824920654,0.5732908844947815,-0.5233975052833557,0,0,0,-1,-1,63693.73145854168,unknown,2,2025-04-18T11:21:01.217+03:00,2025-04-17T15:44:39.500+03:00,7261,1.117892,0,0,5985.878,4,10,2025-04-18T11:19:56.733+03:00,766657263.8941927,0,107.4,100.5677,1,0.6,2025-04-18T11:19:19.294+03:00,75,1.25,2025-04-18T08:51:18.885+03:00,0.03057091307199995,1
2025-04-18T11:21:06.225+03:00,1744964462.199189,40.95362603403405,29.14098763848171,93.88576,-1,-1,-1,-1,30,25.37075649530924,-9999,63698.73511016667,-0.629302978515625,0.5746917724609375,-0.5228729248046875,63698.72503516667,1.621575686448823,-0.8778672104369216,-0.610595282428595,-0.01205828320235014,0.007287819869816303,0.0005801006336696446,0.002747595310211182,0.002206265926361084,0.003714680671691895,XArbitraryZVertical,-0.1063438040440252,0.4764525367078992,-0.713781478608266,-0.5021952741059391,-0.6303569078445435,0.5733552575111389,-0.5233679413795471,0,0,0,-1,-1,63693.73145854168,unknown,2,2025-04-18T11:21:01.217+03:00,2025-04-17T15:44:39.500+03:00,7261,1.117892,0,0,5985.878,4,10,2025-04-18T11:19:56.733+03:00,766657263.8941927,0,107.4,100.5677,1,0.6,2025-04-18T11:19:19.294+03:00,75,1.25,2025-04-18T08:51:18.885+03:00,0.03057091307199995,1
2025-04-18T11:21:06.235+03:00,1744964462.199189,40.95362603403405,29.14098763848171,93.88576,-1,-1,-1,-1,30,25.37075649530924,-9999,63698.74518616667,-0.6263885498046875,0.572998046875,-0.52069091796875,63698.73511016667,1.621496238512425,-0.8778534833538085,-0.6106592397422076,-0.008075259625911713,0.008448958396911621,0.002547644078731537,0.0039481520652771,0.001680850982666016,0.001426339149475098,XArbitraryZVertical,-0.1062979967799376,0.4764705101890033,-0.7137648816246573,-0.5022115078064074,-0.6303215026855469,0.5734077095985413,-0.5233531594276428,0,0,0,-1,-1,63693.73145854168,unknown,2,2025-04-18T11:21:01.217+03:00,2025-04-17T15:44:39.500+03:00,7261,1.117892,0,0,5985.878,4,10,2025-04-18T11:19:56.733+03:00,766657263.8941927,0,107.4,100.5677,1,0.6,2025-04-18T11:19:19.294+03:00,75,1.25,2025-04-18T08:51:18.885+03:00,0.03057091307199995,1
2025-04-18T11:21:06.245+03:00,1744964462.199189,40.95362603403405,29.14098763848171,93.88576,-1,-1,-1,-1,30,25.37075649530924,-9999,63698.75526116667,-0.6284027099609375,0.572998046875,-0.5183258056640625,63698.74518616667,1.621412699841752,-0.8778468411915037,-0.6107234911072261,-0.004573535639792681,0.007696016225963831,-0.001333813299424946,0.001673221588134766,0.0008652806282043457,0.0003388524055480957,XArbitraryZVertical,-0.1062536716524043,0.4764905672134565,-0.7137468851596506,-0.5022273418100676,-0.630289614200592,0.5734603404998779,-0.5233337879180908,0,0,0,-1,-1,63693.73145854168,unknown,2,2025-04-18T11:21:01.217+03:00,2025-04-17T15:44:39.500+03:00,7261,1.117892,0,0,5985.878,4,10,2025-04-18T11:19:56.733+03:00,766657263.8941927,0,107.4,100.5677,1,0.6,2025-04-18T11:19:19.294+03:00,75,1.25,2025-04-18T08:51:18.885+03:00,0.03057091307199995,1
2025-04-18T11:21:06.256+03:00,1744964462.199189,40.95362603403405,29.14098763848171,93.88576,-1,-1,-1,-1,30,25.37075649530924,-9999,63698.76533716667,-0.631195068359375,0.575225830078125,-0.51904296875,63698.75526116667,1.621335198645542,-0.8778246395007173,-0.6107246290092244,0.0005019165109843016,0.01429133489727974,-0.00576185155659914,0.003446400165557861,-0.0007073283195495605,0.004136562347412109,XArbitraryZVertical,-0.1062269149382833,0.4764894226133898,-0.7137286442211954,-0.5022599444795959,-0.6302775144577026,0.5734612345695496,-0.5233473181724548,0,0,0,-1,-1,63693.73145854168,unknown,2,2025-04-18T11:21:01.217+03:00,2025-04-17T15:44:39.500+03:00,7261,1.117892,0,0,5985.878,4,10,2025-04-18T11:19:56.733+03:00,766657263.8941927,0,107.4,100.5677,1,0.6,2025-04-18T11:19:19.294+03:00,75,1.25,2025-04-18T08:51:18.885+03:00,0.03057091307199995,1
2025-04-18T11:21:06.266+03:00,1744964462.199189,40.95362603403405,29.14098763848171,93.88576,-1,-1,-1,-1,30,25.37075649530924,-9999,63698.77541216667,-0.6357421875,0.5749053955078125,-0.5186767578125,63698.76533716667,1.621238157895004,-0.8777206886069828,-0.610681612100094,-0.006849539466202259,0.01901677995920181,-0.01240527350455523,0.001030623912811279,-0.0002753734588623047,0.005316555500030518,XArbitraryZVertical,-0.1061814988236613,0.4764569085684018,-0.7137080258965797,-0.5023296500416216,-0.6302420496940613,0.5734260082244873,-0.5234286189079285,0,0,0,-1,-1,63693.73145854168,unknown,2,2025-04-18T11:21:01.217+03:00,2025-04-17T15:44:39.500+03:00,7261,1.117892,0,0,5985.878,4,10,2025-04-18T11:19:56.733+03:00,766657263.8941927,0,107.4,100.5677,1,0.6,2025-04-18T11:19:19.294+03:00,75,1.25,2025-04-18T08:51:18.885+03:00,0.03057091307199995,1
2025-04-18T11:21:06.276+03:00,1744964462.199189,40.95362603403405,29.14098763848171,93.88576,-1,-1,-1,-1,30,25.37075649530924,-9999,63698.78548816667,-0.6353759765625,0.5771636962890625,-0.518096923828125,63698.77541216667,1.621033300091609,-0.8776799316962888,-0.6106292402026398,-0.008711355738341808,0.0165802538394928,-0.01497096288949251,-0.003026425838470459,0.002483546733856201,0.004125416278839111,XArbitraryZVertical,-0.1061361623672841,0.4764434681462683,-0.7136565812710532,-0.5024250395615335,-0.6302437782287598,0.573383092880249,-0.5234735012054443,0,0,0,-1,-1,63693.73145854168,unknown,2,2025-04-18T11:21:01.217+03:00,2025-04-17T15:44:39.500+03:00,7261,1.117892,0,0,5985.878,4,10,2025-04-18T11:19:56.733+03:00,766657263.8941927,0,107.4,100.5677,1,0.6,2025-04-18T11:19:19.294+03:00,75,1.25,2025-04-18T08:51:18.885+03:00,0.03057091307199995,1
2025-04-18T11:21:06.286+03:00,1744964462.199189,40.95362603403405,29.14098763848171,93.88576,-1,-1,-1,-1,30,25.37075649530924,-9999,63698.79556316667,-0.63311767578125,0.5781402587890625,-0.5203094482421875,63698.78548816667,1.620889864098776,-0.8775700773481916,-0.610567660882287,-0.002226891461759806,0.02304927259683609,-0.00663090730085969,-0.005772888660430908,0.001847445964813232,0.006078779697418213,XArbitraryZVertical,-0.1060839098293775,0.4764069053511899,-0.7136238579047167,-0.5025173833497554,-0.6302134990692139,0.573332667350769,-0.5235653519630432,0,0,0,-1,-1,63693.73145854168,unknown,2,2025-04-18T11:21:01.217+03:00,2025-04-17T15:44:39.500+03:00,7261,1.117892,0,0,5985.878,4,10,2025-04-18T11:19:56.733+03:00,766657263.8941927,0,107.4,100.5677,1,0.6,2025-04-18T11:19:19.294+03:00,75,1.25,2025-04-18T08:51:18.885+03:00,0.03057091307199995,1
2025-04-18T11:21:06.296+03:00,1744964462.199189,40.95362603403405,29.14098763848171,93.88576,-1,-1,-1,-1,30,25.37075649530924,-9999,63698.80563916667,-0.633636474609375,0.5784454345703125,-0.51715087890625,63698.79556316667,1.620836890948445,-0.8773442749906543,-0.6105494414679175,0.0003284115227870643,0.03033434972167015,-0.002707005711272359,-0.00406724214553833,0.003739118576049805,0.003893196582794189,XArbitraryZVertical,-0.10599698987828,0.4763480781551474,-0.713621770785807,-0.5025944415578357,-0.6301032900810242,0.5733177065849304,-0.5237143039703369,0,0,0,-1,-1,63693.73145854168,unknown,2,2025-04-18T11:21:01.217+03:00,2025-04-17T15:44:39.500+03:00,7261,1.117892,0,0,5985.878,4,10,2025-04-18T11:19:56.733+03:00,766657263.8941927,0,107.4,100.5677,1,0.6,2025-04-18T11:19:19.294+03:00,75,1.25,2025-04-18T08:51:18.885+03:00,0.03057091307199995,1
2025-04-18T11:21:06.306+03:00,1744964462.199189,40.95362603403405,29.14098763848171,93.88576,-1,-1,-1,-1,30,25.37075649530924,-9999,63698.81571416667,-0.6240386962890625,0.57257080078125,-0.524505615234375,63698.80563916667,1.620860425262239,-0.8770874399885433,-0.610561240724127,0.005282756872475147,0.01881970837712288,0.001096154795959592,-0.003688156604766846,0.006064116954803467,0.005759656429290771,XArbitraryZVertical,-0.1059068768522544,0.4762854516735811,-0.7136417789775468,-0.5026444341104338,-0.6299636363983154,0.573327362537384,-0.5238717794418335,0,0,0,-1,-1,63693.73145854168,unknown,2,2025-04-18T11:21:01.217+03:00,2025-04-17T15:44:39.500+03:00,7261,1.117892,0,0,5985.878,4,10,2025-04-18T11:19:56.733+03:00,766657263.8941927,0,107.4,100.5677,1,0.6,2025-04-18T11:19:19.294+03:00,75,1.25,2025-04-18T08:51:18.885+03:00,0.03057091307199995,1
2025-04-18T11:21:06.316+03:00,1744964462.199189,40.95362603403405,29.14098763848171,93.88576,-1,-1,-1,-1,30,25.37075649530924,-9999,63698.82579016667,-0.62322998046875,0.5717926025390625,-0.5210113525390625,63698.81571416667,1.620966961987479,-0.8768443758740676,-0.6105455450317561,0.008237800560891628,0.01646440848708153,0.003615238703787327,-0.0007111430168151855,0.003147304058074951,0.005140304565429688,XArbitraryZVertical,-0.1058509410071255,0.4762145140705022,-0.7136807728421437,-0.5026679693844316,-0.6298431158065796,0.5733145475387573,-0.5240306258201599,0,0,0,-1,-1,63693.73145854168,unknown,2,2025-04-18T11:21:01.217+03:00,2025-04-17T15:44:39.500+03:00,7261,1.117892,0,0,5985.878,4,10,2025-04-18T11:19:56.733+03:00,766657263.8941927,0,107.4,100.5677,1,0.6,2025-04-18T11:19:19.294+03:00,75,1.25,2025-04-18T08:51:18.885+03:00,0.03057091307199995,1
2025-04-18T11:21:06.326+03:00,1744964462.199189,40.95362603403405,29.14098763848171,93.88576,-1,-1,-1,-1,30,25.37075649530924,-9999,63698.83586516667,-0.6207122802734375,0.56976318359375,-0.5190887451171875,63698.82579016667,1.62101181863678,-0.8766883716328882,-0.6105068741429691,0.003810294903814793,0.007047203369438648,-0.0039298958145082,0.00639575719833374,-0.001871705055236816,-0.0003625154495239258,XArbitraryZVertical,-0.1058192648258262,0.4761625370922752,-0.7136987167044641,-0.5026983443316787,-0.6297783851623535,0.5732828378677368,-0.5241430401802063,0,0,0,-1,-1,63693.73145854168,unknown,2,2025-04-18T11:21:01.217+03:00,2025-04-17T15:44:39.500+03:00,7261,1.117892,0,0,5985.878,4,10,2025-04-18T11:19:56.733+03:00,766657263.8941927,0,107.4,100.5677,1,0.6,2025-04-18T11:19:19.294+03:00,75,1.25,2025-04-18T08:51:18.885+03:00,0.03057091307199995,1
2025-04-18T11:21:06.336+03:00,1744964462.199189,40.95362603403405,29.14098763848171,93.88576,-1,-1,-1,-1,30,25.37075649530924,-9999,63698.84594016667,-0.62152099609375,0.5651092529296875,-0.5235137939453125,63698.83586516667,1.620950803958811,-0.8766413552770922,-0.6104948110455474,-0.009006434120237827,0.01391869131475687,-0.005862285383045673,0.006529092788696289,-0.000809013843536377,0.004356026649475098,XArbitraryZVertical,-0.1057920971175873,0.4761506986969955,-0.7136853765345672,-0.5027342468148831,-0.6297590732574463,0.5732729434967041,-0.524177074432373,0,0,0,-1,-1,63693.73145854168,unknown,2,2025-04-18T11:21:01.217+03:00,2025-04-17T15:44:39.500+03:00,7261,1.117892,0,0,5985.878,4,10,2025-04-18T11:19:56.733+03:00,766657263.8941927,0,107.4,100.5677,1,0.6,2025-04-18T11:19:19.294+03:00,75,1.25,2025-04-18T08:51:18.885+03:00,0.03057091307199995,1
2025-04-18T11:21:06.346+03:00,1744964462.199189,40.95362603403405,29.14098763848171,93.88576,-1,-1,-1,-1,30,25.37075649530924,-9999,63698.85601616667,-0.6270751953125,0.566741943359375,-0.523162841796875,63698.84594016667,1.620784825099223,-0.8766093351060733,-0.6105385166088996,-0.0149737112224102,0.01526445336639881,-0.003227986628189683,0.01067394018173218,-0.006322681903839111,0.0035971999168396,XArbitraryZVertical,-0.1057261046566893,0.4761631709108493,-0.7136471384850148,-0.5027906684247689,-0.629723072052002,0.5733087658882141,-0.5241812467575073,0,0,0,-1,-1,63693.73145854168,unknown,2,2025-04-18T11:21:01.217+03:00,2025-04-17T15:44:39.500+03:00,7261,1.117892,0,0,5985.878,4,10,2025-04-18T11:19:56.733+03:00,766657263.8941927,0,107.4,100.5677,1,0.6,2025-04-18T11:19:19.294+03:00,75,1.25,2025-04-18T08:51:18.885+03:00,0.03057091307199995,1
2025-04-18T11:21:06.356+03:00,1744964462.199189,40.95362603403405,29.14098763848171,93.88576,-1,-1,-1,-1,30,25.37075649530924,-9999,63698.86609116667,-0.6283111572265625,0.5670013427734375,-0.521270751953125,63698.85601616667,1.62062999223197,-0.8765235593222187,-0.6106189101082686,-0.01000452041625977,0.02172554843127728,-0.0009736208012327552,0.004902005195617676,-0.007548213005065918,0.0004631280899047852,XArbitraryZVertical,-0.1056309945991246,0.4761714052866862,-0.7136160319151156,-0.5028470058159146,-0.6296426653862,0.5733746290206909,-0.52420574426651,0,0,0,-1,-1,63693.73145854168,unknown,2,2025-04-18T11:21:01.217+03:00,2025-04-17T15:44:39.500+03:00,7261,1.117892,0,0,5985.878,4,10,2025-04-18T11:19:56.733+03:00,766657263.8941927,0,107.4,100.5677,1,0.6,2025-04-18T11:19:19.294+03:00,75,1.25,2025-04-18T08:51:18.885+03:00,0.03057091307199995,1
2025-04-18T11:21:06.366+03:00,1744964462.199189,40.95362603403405,29.14098763848171,93.88576,-1,-1,-1,-1,30,25.37075649530924,-9999,63698.87616716667,-0.6314697265625,0.570159912109375,-0.524322509765625,63698.86609116667,1.620540270231275,-0.8763909308712399,-0.610681558372813,-0.004739717114716768,0.0205465666949749,-0.001687747426331043,0.001859962940216064,-0.007248640060424805,0.002064764499664307,XArbitraryZVertical,-0.1055408133535695,0.4761596555759431,-0.7136030259724352,-0.502895390821519,-0.6295454502105713,0.5734259486198425,-0.524266242980957,0,0,0,-1,-1,63693.73145854168,unknown,2,2025-04-18T11:21:01.217+03:00,2025-04-17T15:44:39.500+03:00,7261,1.117892,0,0,5985.878,4,10,2025-04-18T11:19:56.733+03:00,766657263.8941927,0,107.4,100.5677,1,0.6,2025-04-18T11:19:19.294+03:00,75,1.25,2025-04-18T08:51:18.885+03:00,0.03057091307199995,1
2025-04-18T11:21:06.377+03:00,1744964462.199189,40.95362603403405,29.14098763848171,93.88576,-1,-1,-1,-1,30,25.37075649530924,-9999,63698.88624216667,-0.62994384765625,0.5695343017578125,-0.524078369140625,63698.87616716667,1.620446645712474,-0.8763093296471036,-0.6107053817562492,-0.004352493211627007,0.006205977406352758,-0.003435579827055335,-5.483627319335938e-05,-0.004887700080871582,0.002305865287780762,XArbitraryZVertical,-0.1054811200519503,0.4761504454997207,-0.7135847822764485,-0.5029428092028204,-0.6294923424720764,0.5734454989433289,-0.524308979511261,0,0,0,-1,-1,63693.73145854168,unknown,2,2025-04-18T11:21:01.217+03:00,2025-04-17T15:44:39.500+03:00,7261,1.117892,0,0,5985.878,4,10,2025-04-18T11:19:56.733+03:00,766657263.8941927,0,107.4,100.5677,1,0.6,2025-04-18T11:19:19.294+03:00,75,1.25,2025-04-18T08:51:18.885+03:00,0.03057091307199995,1
2025-04-18T11:21:06.386+03:00,1744964462.199189,40.95362603403405,29.14098763848171,93.88576,-1,-1,-1,-1,30,25.37075649530924,-9999,63698.89631816667,-0.6322784423828125,0.5723876953125,-0.52130126953125,63698.88624216667,1.620317719139631,-0.876346824822917,-0.6107354858254646,-0.00823851116001606,0.005068075377494097,-0.007096594199538231,-0.001772701740264893,-0.003264427185058594,-0.0001702308654785156,XArbitraryZVertical,-0.1054534873047741,0.476174780612681,-0.7135516051273302,-0.50297252449431,-0.6294986605644226,0.5734701156616211,-0.5242742896080017,0,0,0,-1,-1,63693.73145854168,unknown,2,2025-04-18T11:21:01.217+03:00,2025-04-17T15:44:39.500+03:00,7261,1.117892,0,0,5985.878,4,10,2025-04-18T11:19:56.733+03:00,766657263.8941927,0,107.4,100.5677,1,0.6,2025-04-18T11:19:19.294+03:00,75,1.25,2025-04-18T08:51:18.885+03:00,0.03057091307199995,1
2025-04-18T11:21:06.396+03:00,1744964462.199189,40.95362603403405,29.14098763848171,93.88576,-1,-1,-1,-1,30,25.37075649530924,-9999,63698.90639316667,-0.62847900390625,0.5745697021484375,-0.52386474609375,63698.89631816667,1.620178596573741,-0.8763843194705709,-0.6107524402730162,-0.005431805737316608,0.00774721521884203,-0.004094945266842842,-0.001104414463043213,-0.00416332483291626,0.0007001757621765137,XArbitraryZVertical,-0.1054279158149463,0.4761961050201098,-0.7135153315579643,-0.5030091349560721,-0.6295108795166016,0.5734840631484985,-0.5242444276809692,0,0,0,-1,-1,63693.73145854168,unknown,2,2025-04-18T11:21:01.217+03:00,2025-04-17T15:44:39.500+03:00,7261,1.117892,0,0,5985.878,4,10,2025-04-18T11:19:56.733+03:00,766657263.8941927,0,107.4,100.5677,1,0.6,2025-04-18T11:19:19.294+03:00,75,1.25,2025-04-18T08:51:18.885+03:00,0.03057091307199995,1
2025-04-18T11:21:06.407+03:00,1744964462.199189,40.95362603403405,29.14098763848171,93.88576,-1,-1,-1,-1,30,25.37075649530924,-9999,63698.91646916667,-0.6274261474609375,0.577545166015625,-0.5235748291015625,63698.90639316667,1.620168560159844,-0.8762683896116861,-0.6107504128717159,0.002144354395568371,0.0149806272238493,-0.00295191677287221,-0.002125561237335205,0.0002176165580749512,0.002635478973388672,XArbitraryZVertical,-0.1053848384772386,0.4761669216053783,-0.7135188398240302,-0.5030408894472114,-0.6294509768486023,0.5734823942184448,-0.5243182182312012,0,0,0,-1,-1,63693.73145854168,unknown,2,2025-04-18T11:21:01.217+03:00,2025-04-17T15:44:39.500+03:00,7261,1.117892,0,0,5985.878,4,10,2025-04-18T11:19:56.733+03:00,766657263.8941927,0,107.4,100.5677,1,0.6,2025-04-18T11:19:19.294+03:00,75,1.25,2025-04-18T08:51:18.885+03:00,0.03057091307199995,1
2025-04-18T11:21:06.417+03:00,1744964462.199189,40.95362603403405,29.14098763848171,93.88576,-1,-1,-1,-1,30,25.37075649530924,-9999,63698.92654416667,-0.6287078857421875,0.579132080078125,-0.5191192626953125,63698.91646916667,1.620130218306999,-0.8761763480245698,-0.6107221456067008,-0.003617927199229598,0.005121605005115271,-0.006842528469860554,0.00247722864151001,0.002071738243103027,4.875659942626953e-05,XArbitraryZVertical,-0.1053526567060125,0.476138213990922,-0.7135128762165559,-0.5030830759576131,-0.6294150948524475,0.5734592080116272,-0.524386465549469,0,0,0,-1,-1,63693.73145854168,unknown,2,2025-04-18T11:21:01.217+03:00,2025-04-17T15:44:39.500+03:00,7261,1.117892,0,0,5985.878,4,10,2025-04-18T11:19:56.733+03:00,766657263.8941927,0,107.4,100.5677,1,0.6,2025-04-18T11:19:19.294+03:00,75,1.25,2025-04-18T08:51:18.885+03:00,0.03057091307199995,1
2025-04-18T11:21:06.427+03:00,1744964462.199189,40.95362603403405,29.14098763848171,93.88576,-1,-1,-1,-1,30,25.37075649530924,-9999,63698.93662016667,-0.62835693359375,0.58209228515625,-0.520843505859375,63698.92654416667,1.620095236916016,-0.876154972702088,-0.6106921576675662,0.0043494519777596,0.0001747831702232361,-0.003755658864974976,0.0004497766494750977,0.004919230937957764,0.00291132926940918,XArbitraryZVertical,-0.1053470024325552,0.476126612919367,-0.7135039799270171,-0.5031078986419606,-0.6294171214103699,0.5734346508979797,-0.5244109034538269,0,0,0,-1,-1,63693.73145854168,unknown,2,2025-04-18T11:21:01.217+03:00,2025-04-17T15:44:39.500+03:00,7261,1.117892,0,0,5985.878,4,10,2025-04-18T11:19:56.733+03:00,766657263.8941927,0,107.4,100.5677,1,0.6,2025-04-18T11:19:19.294+03:00,75,1.25,2025-04-18T08:51:18.885+03:00,0.03057091307199995,1
2025-04-18T11:21:06.437+03:00,1744964462.199189,40.95362603403405,29.14098763848171,93.88576,-1,-1,-1,-1,30,25.37075649530924,-9999,63698.94669516667,-0.630218505859375,0.58074951171875,-0.526519775390625,63698.93662016667,1.620175895782882,-0.8761121609435704,-0.6105738563980481,0.01814169622957706,-0.002151754219084978,-0.003005180042237043,0.001089870929718018,0.006938695907592773,0.005560457706451416,XArbitraryZVertical,-0.1053916343815458,0.4760797959971478,-0.7135216855488796,-0.5031176886362148,-0.6294467449188232,0.573337733745575,-0.5244812369346619,0,0,0,-1,-1,63693.73145854168,unknown,2,2025-04-18T11:21:01.217+03:00,2025-04-17T15:44:39.500+03:00,7261,1.117892,0,0,5985.878,4,10,2025-04-18T11:19:56.733+03:00,766657263.8941927,0,107.4,100.5677,1,0.6,2025-04-18T11:19:19.294+03:00,75,1.25,2025-04-18T08:51:18.885+03:00,0.03057091307199995,1
2025-04-18T11:21:06.447+03:00,1744964462.199189,40.95362603403405,29.14098763848171,93.88576,-1,-1,-1,-1,30,25.37075649530924,-9999,63698.95677116667,-0.6280975341796875,0.5763702392578125,-0.5245819091796875,63698.94669516667,1.620329317999299,-0.876071915470117,-0.6104217184044107,0.01744075119495392,-0.005646620877087116,-0.004605207126587629,0.000433802604675293,0.008863985538482666,0.001689553260803223,XArbitraryZVertical,-0.1054661014420148,0.4760206718828229,-0.7135561843380531,-0.5031091380795163,-0.6294927000999451,0.5732130408287048,-0.5245624184608459,0,0,0,-1,-1,63693.73145854168,unknown,2,2025-04-18T11:21:01.217+03:00,2025-04-17T15:44:39.500+03:00,7261,1.117892,0,0,5985.878,4,10,2025-04-18T11:19:56.733+03:00,766657263.8941927,0,107.4,100.5677,1,0.6,2025-04-18T11:19:19.294+03:00,75,1.25,2025-04-18T08:51:18.885+03:00,0.03057091307199995,1
