loggingTime(txt),locationTimestamp_since1970(s),locationLatitude(WGS84),locationLongitude(WGS84),locationAltitude(m),locationSpeed(m/s),locationSpeedAccuracy(m/s),locationCourse(°),locationCourseAccuracy(°),locationVerticalAccuracy(m),locationHorizontalAccuracy(m),locationFloor(Z),accelerometerTimestamp_sinceReboot(s),accelerometerAccelerationX(G),accelerometerAccelerationY(G),accelerometerAccelerationZ(G),motionTimestamp_sinceReboot(s),motionYaw(rad),motionRoll(rad),motionPitch(rad),motionRotationRateX(rad/s),motionRotationRateY(rad/s),motionRotationRateZ(rad/s),motionUserAccelerationX(G),motionUserAccelerationY(G),motionUserAccelerationZ(G),motionAttitudeReferenceFrame(txt),motionQuaternionX(R),motionQuaternionY(R),motionQuaternionZ(R),motionQuaternionW(R),motionGravityX(G),motionGravityY(G),motionGravityZ(G),motionMagneticFieldX(µT),motionMagneticFieldY(µT),motionMagneticFieldZ(µT),motionHeading(°),motionMagneticFieldCalibrationAccuracy(Z),activityTimestamp_sinceReboot(s),activity(txt),activityActivityConfidence(Z),activityActivityStartDate(txt),pedometerStartDate(txt),pedometerNumberofSteps(N),pedometerAverageActivePace(s/m),pedometerCurrentPace(s/m),pedometerCurrentCadence(steps/s),pedometerDistance(m),pedometerFloorAscended(N),pedometerFloorDescended(N),pedometerEndDate(txt),altimeterTimestamp_sinceReboot(s),altimeterReset(bool),altimeterRelativeAltitude(m),altimeterPressure(kPa),batteryState(N),batteryLevel(R),heartRateBPMTimestamp(txt),heartRateBPM(N),heartRateBPS(R),heartRateVariabilityTimestamp(txt),heartRateVariability(ms),label
2025-04-18T11:02:54.290+03:00,1744963372.750369,40.95361464921299,29.14100394799852,93.71502,-1,-1,-1,-1,30,27.41004683147841,-9999,62860.093878375,-0.7548828125,0.5052642822265625,-0.4074859619140625,62860.083803375,1.833049464411727,-1.058619334566317,-0.5744464851164894,0.04695749655365944,-0.1372346729040146,-0.02629518136382103,0.006396889686584473,-0.005833566188812256,0.004265308380126953,XArbitraryZVertical,-0.2354375346308757,0.4887344835617493,-0.743902924084489,-0.390277236730745,-0.7317692041397095,0.5433701872825623,-0.4114155471324921,0,0,0,-1,-1,62853.41249675,unknown,2,2025-04-18T11:02:47.583+03:00,2025-04-17T15:44:39.500+03:00,7191,1.094987,0,0,5932.107,4,10,2025-04-18T11:02:11.472+03:00,766656172.849466,0,107.08,100.5709,1,0.65,2025-04-18T11:02:44.169+03:00,93,1.55,2025-04-18T08:51:18.885+03:00,0.03057091307199995,1
2025-04-18T11:02:54.291+03:00,1744963372.750369,40.95361464921299,29.14100394799852,93.71502,-1,-1,-1,-1,30,27.41004683147841,-9999,62860.103954375,-0.6923370361328125,0.50811767578125,-0.4056396484375,62860.093878375,1.833291981604797,-1.060780124107886,-0.5741382668182378,0.01242268923670053,-0.3078333139419556,-0.02119043283164501,-0.02684098482131958,-0.03474956750869751,0.00183415412902832,XArbitraryZVertical,-0.2363955201843564,0.4890394627148602,-0.7436797603871336,-0.3897410402718802,-0.7328026294708252,0.5431114435195923,-0.4099151194095612,0,0,0,-1,-1,62853.41249675,unknown,2,2025-04-18T11:02:47.583+03:00,2025-04-17T15:44:39.500+03:00,7191,1.094987,0,0,5932.107,4,10,2025-04-18T11:02:11.472+03:00,766656172.849466,0,107.08,100.5709,1,0.65,2025-04-18T11:02:44.169+03:00,93,1.55,2025-04-18T08:51:18.885+03:00,0.03057091307199995,1
2025-04-18T11:02:54.292+03:00,1744963372.750369,40.95361464921299,29.14100394799852,93.71502,-1,-1,-1,-1,30,27.41004683147841,-9999,62860.11403037501,-0.70184326171875,0.506561279296875,-0.398773193359375,62860.103954375,1.833108743995551,-1.06435620205352,-0.5740154558584352,-0.02114985138177872,-0.369797021150589,-0.02274169214069843,0.03624778985977173,-0.03650802373886108,0.001516878604888916,XArbitraryZVertical,-0.2377178609135045,0.4897224292505034,-0.7432139734786188,-0.3889669859131742,-0.734322190284729,0.5430083274841309,-0.4073243141174316,0,0,0,-1,-1,62853.41249675,unknown,2,2025-04-18T11:02:47.583+03:00,2025-04-17T15:44:39.500+03:00,7191,1.094987,0,0,5932.107,4,10,2025-04-18T11:02:11.472+03:00,766656172.849466,0,107.08,100.5709,1,0.65,2025-04-18T11:02:44.169+03:00,93,1.55,2025-04-18T08:51:18.885+03:00,0.03057091307199995,1
2025-04-18T11:02:54.300+03:00,1744963372.750369,40.95361464921299,29.14100394799852,93.71502,-1,-1,-1,-1,30,27.41004683147841,-9999,62860.12410537501,-0.7491302490234375,0.5030975341796875,-0.3988800048828125,62860.11403037501,1.832358510985864,-1.068502538736325,-0.5737957442458282,-0.06234895437955856,-0.3854601383209229,-0.09110237658023834,0.03928607702255249,-0.03408056497573853,0.005468815565109253,XArbitraryZVertical,-0.2391419674939645,0.4905551896147216,-0.7425624889358787,-0.3882881215746907,-0.73610919713974,0.5428237915039062,-0.4043334424495697,0,0,0,-1,-1,62853.41249675,unknown,2,2025-04-18T11:02:47.583+03:00,2025-04-17T15:44:39.500+03:00,7191,1.094987,0,0,5932.107,4,10,2025-04-18T11:02:11.472+03:00,766656172.849466,0,107.08,100.5709,1,0.65,2025-04-18T11:02:44.169+03:00,93,1.55,2025-04-18T08:51:18.885+03:00,0.03057091307199995,1
2025-04-18T11:02:54.309+03:00,1744963372.750369,40.95361464921299,29.14100394799852,93.71502,-1,-1,-1,-1,30,27.41004683147841,-9999,62860.134181375,-0.7664794921875,0.5458831787109375,-0.4138031005859375,62860.12410537501,1.831490250761441,-1.070612127649801,-0.5732650745110589,0.02660255692899227,0.2440659254789352,-0.06858064979314804,-0.007934451103210449,-0.0412183403968811,0.004434585571289062,XArbitraryZVertical,-0.2398755906059674,0.4909183252266003,-0.7421135492926388,-0.3882350934217636,-0.7372133135795593,0.5423780083656311,-0.4029178023338318,0,0,0,-1,-1,62853.41249675,unknown,2,2025-04-18T11:02:47.583+03:00,2025-04-17T15:44:39.500+03:00,7191,1.094987,0,0,5932.107,4,10,2025-04-18T11:02:11.472+03:00,766656172.849466,0,107.08,100.5709,1,0.65,2025-04-18T11:02:44.169+03:00,93,1.55,2025-04-18T08:51:18.885+03:00,0.03057091307199995,1
2025-04-18T11:02:54.319+03:00,1744963372.750369,40.95361464921299,29.14100394799852,93.71502,-1,-1,-1,-1,30,27.41004683147841,-9999,62860.144257375,-0.808624267578125,0.5821685791015625,-0.41204833984375,62860.134181375,1.83181276000966,-1.068383942493361,-0.5734936358481413,0.02938183210790157,0.2760300040245056,0.05708326771855354,-0.02592575550079346,-0.005048632621765137,-0.00750279426574707,XArbitraryZVertical,-0.2390572371754335,0.4905117414521554,-0.7424549481275562,-0.3886008563527706,-0.7362050414085388,0.5425700545310974,-0.404499739408493,0,0,0,-1,-1,62853.41249675,unknown,2,2025-04-18T11:02:47.583+03:00,2025-04-17T15:44:39.500+03:00,7191,1.094987,0,0,5932.107,4,10,2025-04-18T11:02:11.472+03:00,766656172.849466,0,107.08,100.5709,1,0.65,2025-04-18T11:02:44.169+03:00,93,1.55,2025-04-18T08:51:18.885+03:00,0.03057091307199995,1
2025-04-18T11:02:54.329+03:00,1744963372.750369,40.95361464921299,29.14100394799852,93.71502,-1,-1,-1,-1,30,27.41004683147841,-9999,62860.154332375,-0.7133636474609375,0.530548095703125,-0.4124603271484375,62860.144257375,1.832227789746277,-1.065930905801825,-0.5735769915447938,0.03537607565522194,0.1422519534826279,0.002056365832686424,-0.07507079839706421,0.040901780128479,-0.006025105714797974,XArbitraryZVertical,-0.2382224276418818,0.4900089827244775,-0.7428326351043827,-0.3890256405198917,-0.7351709008216858,0.5426400899887085,-0.4062825441360474,0,0,0,-1,-1,62853.41249675,unknown,2,2025-04-18T11:02:47.583+03:00,2025-04-17T15:44:39.500+03:00,7191,1.094987,0,0,5932.107,4,10,2025-04-18T11:02:11.472+03:00,766656172.849466,0,107.08,100.5709,1,0.65,2025-04-18T11:02:44.169+03:00,93,1.55,2025-04-18T08:51:18.885+03:00,0.03057091307199995,1
2025-04-18T11:02:54.340+03:00,1744963372.750369,40.95361464921299,29.14100394799852,93.71502,-1,-1,-1,-1,30,27.41004683147841,-9999,62860.16440837501,-0.6540069580078125,0.5311279296875,-0.3922271728515625,62860.154332375,1.832584427868335,-1.065473534557841,-0.5734918592687971,0.02822122536599636,-0.08622995764017105,-0.01328530628234148,0.006738722324371338,-0.006618857383728027,-0.006704121828079224,XArbitraryZVertical,-0.238166160486739,0.4898533686990636,-0.7429520811719901,-0.3890279931277551,-0.7350254058837891,0.542568564414978,-0.4066411256790161,0,0,0,-1,-1,62853.41249675,unknown,2,2025-04-18T11:02:47.583+03:00,2025-04-17T15:44:39.500+03:00,7191,1.094987,0,0,5932.107,4,10,2025-04-18T11:02:11.472+03:00,766656172.849466,0,107.08,100.5709,1,0.65,2025-04-18T11:02:44.169+03:00,93,1.55,2025-04-18T08:51:18.885+03:00,0.03057091307199995,1
2025-04-18T11:02:54.350+03:00,1744963372.750369,40.95361464921299,29.14100394799852,93.71502,-1,-1,-1,-1,30,27.41004683147841,-9999,62860.17448437501,-0.7112579345703125,0.5411834716796875,-0.40032958984375,62860.16440837501,1.832721221825282,-1.066539624721275,-0.5732368652615615,0.01358768995851278,-0.1096386089920998,-0.009760346263647079,0.08175575733184814,-0.0139119029045105,0.01156079769134521,XArbitraryZVertical,-0.2386743058063681,0.4899719519906653,-0.7428384088205722,-0.3887842737920267,-0.7355796694755554,0.5423543453216553,-0.4059241116046906,0,0,0,-1,-1,62853.41249675,unknown,2,2025-04-18T11:02:47.583+03:00,2025-04-17T15:44:39.500+03:00,7191,1.094987,0,0,5932.107,4,10,2025-04-18T11:02:11.472+03:00,766656172.849466,0,107.08,100.5709,1,0.65,2025-04-18T11:02:44.169+03:00,93,1.55,2025-04-18T08:51:18.885+03:00,0.03057091307199995,1
2025-04-18T11:02:54.360+03:00,1744963372.750369,40.95361464921299,29.14100394799852,93.71502,-1,-1,-1,-1,30,27.41004683147841,-9999,62860.184559375,-0.773590087890625,0.5308380126953125,-0.4171142578125,62860.17448437501,1.832774006883576,-1.066998574022592,-0.5730699752316758,0.002962742000818253,0.0246126726269722,0.009244237095117569,0.03465795516967773,-0.0002830028533935547,0.008352398872375488,XArbitraryZVertical,-0.2389091911244183,0.4900074724654275,-0.7427851952225502,-0.3886967982437853,-0.7358450889587402,0.5422140955924988,-0.4056301414966583,0,0,0,-1,-1,62853.41249675,unknown,2,2025-04-18T11:02:47.583+03:00,2025-04-17T15:44:39.500+03:00,7191,1.094987,0,0,5932.107,4,10,2025-04-18T11:02:11.472+03:00,766656172.849466,0,107.08,100.5709,1,0.65,2025-04-18T11:02:44.169+03:00,93,1.55,2025-04-18T08:51:18.885+03:00,0.03057091307199995,1
2025-04-18T11:02:54.370+03:00,1744963372.750369,40.95361464921299,29.14100394799852,93.71502,-1,-1,-1,-1,30,27.41004683147841,-9999,62860.194635375,-0.7662200927734375,0.5155181884765625,-0.41326904296875,62860.184559375,1.832813716467888,-1.06622837458986,-0.5731814565898664,-0.01518676802515984,0.1018541380763054,0.01741837710142136,-0.03331923484802246,-0.009501397609710693,-0.009909003973007202,XArbitraryZVertical,-0.2385984459393457,0.4898846723970632,-0.742890656381874,-0.3888409798539051,-0.7354795932769775,0.5423077940940857,-0.4061675667762756,0,0,0,-1,-1,62853.41249675,unknown,2,2025-04-18T11:02:47.583+03:00,2025-04-17T15:44:39.500+03:00,7191,1.094987,0,0,5932.107,4,10,2025-04-18T11:02:11.472+03:00,766656172.849466,0,107.08,100.5709,1,0.65,2025-04-18T11:02:44.169+03:00,93,1.55,2025-04-18T08:51:18.885+03:00,0.03057091307199995,1
2025-04-18T11:02:54.380+03:00,1744963372.750369,40.95361464921299,29.14100394799852,93.71502,-1,-1,-1,-1,30,27.41004683147841,-9999,62860.204711375,-0.723114013671875,0.512481689453125,-0.401824951171875,62860.194635375,1.832619642187882,-1.065460998470277,-0.5734457267600477,-0.04360562562942505,0.0510663166642189,0.01622714474797249,-0.03470265865325928,-0.02534842491149902,-0.007033735513687134,XArbitraryZVertical,-0.2381843705547418,0.4898336335923431,-0.7429580337436169,-0.3890302834258067,-0.7350422143936157,0.542529821395874,-0.4066624343395233,0,0,0,-1,-1,62853.41249675,unknown,2,2025-04-18T11:02:47.583+03:00,2025-04-17T15:44:39.500+03:00,7191,1.094987,0,0,5932.107,4,10,2025-04-18T11:02:11.472+03:00,766656172.849466,0,107.08,100.5709,1,0.65,2025-04-18T11:02:44.169+03:00,93,1.55,2025-04-18T08:51:18.885+03:00,0.03057091307199995,1
2025-04-18T11:02:54.390+03:00,1744963372.750369,40.95361464921299,29.14100394799852,93.71502,-1,-1,-1,-1,30,27.41004683147841,-9999,62860.21478637501,-0.7035369873046875,0.518341064453125,-0.397247314453125,62860.204711375,1.832139359109357,-1.065620478655223,-0.5737105022258913,-0.05782670527696609,-0.01993015967309475,0.00782364048063755,0.007182896137237549,-0.03030103445053101,0.00326228141784668,XArbitraryZVertical,-0.2380442227035787,0.4899970281518725,-0.742859329554707,-0.3890989734961178,-0.7349814176559448,0.542752206325531,-0.4064757227897644,0,0,0,-1,-1,62853.41249675,unknown,2,2025-04-18T11:02:47.583+03:00,2025-04-17T15:44:39.500+03:00,7191,1.094987,0,0,5932.107,4,10,2025-04-18T11:02:11.472+03:00,766656172.849466,0,107.08,100.5709,1,0.65,2025-04-18T11:02:44.169+03:00,93,1.55,2025-04-18T08:51:18.885+03:00,0.03057091307199995,1
2025-04-18T11:02:54.400+03:00,1744963372.750369,40.95361464921299,29.14100394799852,93.71502,-1,-1,-1,-1,30,27.41004683147841,-9999,62860.22486237501,-0.7213897705078125,0.53240966796875,-0.402069091796875,62860.21478637501,1.831496065473437,-1.066233635844208,-0.5740119404635105,-0.06593070924282074,-0.0215229969471693,0.002260297304019332,0.03177911043167114,-0.02550351619720459,0.008896946907043457,XArbitraryZVertical,-0.2380212818382036,0.4902784306877151,-0.7426767854960061,-0.3891069381971702,-0.7350872159004211,0.5430053472518921,-0.4059458673000336,0,0,0,-1,-1,62853.41249675,unknown,2,2025-04-18T11:02:47.583+03:00,2025-04-17T15:44:39.500+03:00,7191,1.094987,0,0,5932.107,4,10,2025-04-18T11:02:11.472+03:00,766656172.849466,0,107.08,100.5709,1,0.65,2025-04-18T11:02:44.169+03:00,93,1.55,2025-04-18T08:51:18.885+03:00,0.03057091307199995,1
2025-04-18T11:02:54.410+03:00,1744963372.750369,40.95361464921299,29.14100394799852,93.71502,-1,-1,-1,-1,30,27.41004683147841,-9999,62860.234938375,-0.738983154296875,0.5412750244140625,-0.4053955078125,62860.22486237501,1.83083342110034,-1.066714022630679,-0.5743381035328596,-0.05797404423356056,0.01035710610449314,0.002718327799811959,0.01701784133911133,-0.01230388879776001,0.003712743520736694,XArbitraryZVertical,-0.2379365214757886,0.4905432416628537,-0.7425075821135771,-0.389147782473237,-0.7351269721984863,0.543279230594635,-0.4055070877075195,0,0,0,-1,-1,62853.41249675,unknown,2,2025-04-18T11:02:47.583+03:00,2025-04-17T15:44:39.500+03:00,7191,1.094987,0,0,5932.107,4,10,2025-04-18T11:02:11.472+03:00,766656172.849466,0,107.08,100.5709,1,0.65,2025-04-18T11:02:44.169+03:00,93,1.55,2025-04-18T08:51:18.885+03:00,0.03057091307199995,1
2025-04-18T11:02:54.420+03:00,1744963372.750369,40.95361464921299,29.14100394799852,93.71502,-1,-1,-1,-1,30,27.41004683147841,-9999,62860.245013375,-0.735748291015625,0.5445556640625,-0.4039306640625,62860.234938375,1.830291543714656,-1.066819973661626,-0.5746119321801866,-0.0527486577630043,0.0195735078305006,0.0006205558311194181,-0.002615988254547119,-0.002676606178283691,0.0005264580249786377,XArbitraryZVertical,-0.2377583686208882,0.4907059108462108,-0.7424037515516049,-0.3892496678464312,-0.7350396513938904,0.5435090661048889,-0.4053573310375214,0,0,0,-1,-1,62853.41249675,unknown,2,2025-04-18T11:02:47.583+03:00,2025-04-17T15:44:39.500+03:00,7191,1.094987,0,0,5932.107,4,10,2025-04-18T11:02:11.472+03:00,766656172.849466,0,107.08,100.5709,1,0.65,2025-04-18T11:02:44.169+03:00,93,1.55,2025-04-18T08:51:18.885+03:00,0.03057091307199995,1
2025-04-18T11:02:54.430+03:00,1744963372.750369,40.95361464921299,29.14100394799852,93.71502,-1,-1,-1,-1,30,27.41004683147841,-9999,62860.255089375,-0.7263946533203125,0.5444488525390625,-0.4033203125,62860.245013375,1.829825548337858,-1.066888683605403,-0.5749450139874477,-0.05005853250622749,0.002602579770609736,-0.003617032896727324,-0.001861691474914551,8.034706115722656e-05,0.001288861036300659,XArbitraryZVertical,-0.2375666159656074,0.4908690197379706,-0.7423222033514413,-0.3893166929258798,-0.7349089384078979,0.5437886714935303,-0.4052194058895111,0,0,0,-1,-1,62853.41249675,unknown,2,2025-04-18T11:02:47.583+03:00,2025-04-17T15:44:39.500+03:00,7191,1.094987,0,0,5932.107,4,10,2025-04-18T11:02:11.472+03:00,766656172.849466,0,107.08,100.5709,1,0.65,2025-04-18T11:02:44.169+03:00,93,1.55,2025-04-18T08:51:18.885+03:00,0.03057091307199995,1
2025-04-18T11:02:54.440+03:00,1744963372.750369,40.95361464921299,29.14100394799852,93.71502,-1,-1,-1,-1,30,27.41004683147841,-9999,62860.26516537501,-0.729522705078125,0.5353851318359375,-0.4048309326171875,62860.255089375,1.829238950034326,-1.067209640332389,-0.5752154852849271,-0.06046456471085548,-0.006409024819731712,-0.004891887772828341,0.007844090461730957,0.0007231235504150391,0.002263695001602173,XArbitraryZVertical,-0.2374581642362857,0.4910777483949242,-0.7421839539952956,-0.3893831972297248,-0.7349101305007935,0.5440155863761902,-0.404912531375885,0,0,0,-1,-1,62853.41249675,unknown,2,2025-04-18T11:02:47.583+03:00,2025-04-17T15:44:39.500+03:00,7191,1.094987,0,0,5932.107,4,10,2025-04-18T11:02:11.472+03:00,766656172.849466,0,107.08,100.5709,1,0.65,2025-04-18T11:02:44.169+03:00,93,1.55,2025-04-18T08:51:18.885+03:00,0.03057091307199995,1
2025-04-18T11:02:54.450+03:00,1744963372.750369,40.95361464921299,29.14100394799852,93.71502,-1,-1,-1,-1,30,27.41004683147841,-9999,62860.27524037501,-0.7364501953125,0.5243072509765625,-0.40386962890625,62860.26516537501,1.828438611010926,-1.067718071920513,-0.575412637277419,-0.08494434505701065,-0.001938109751790762,-0.009179577231407166,0.006140053272247314,-0.007559895515441895,-0.0002064108848571777,XArbitraryZVertical,-0.237389288563504,0.4913275463864056,-0.7419780452850367,-0.3895025753742336,-0.7350219488143921,0.5441810488700867,-0.404487133026123,0,0,0,-1,-1,62853.41249675,unknown,2,2025-04-18T11:02:47.583+03:00,2025-04-17T15:44:39.500+03:00,7191,1.094987,0,0,5932.107,4,10,2025-04-18T11:02:11.472+03:00,766656172.849466,0,107.08,100.5709,1,0.65,2025-04-18T11:02:44.169+03:00,93,1.55,2025-04-18T08:51:18.885+03:00,0.03057091307199995,1
2025-04-18T11:02:54.460+03:00,1744963372.750369,40.95361464921299,29.14100394799852,93.71502,-1,-1,-1,-1,30,27.41004683147841,-9999,62860.285316375,-0.7391815185546875,0.5159912109375,-0.403656005859375,62860.27524037501,1.827293287010228,-1.06831650678227,-0.5757337573005918,-0.1255415678024292,0.00852864608168602,-0.003696128726005554,-0.0005766153335571289,-0.01957863569259644,-0.0002117455005645752,XArbitraryZVertical,-0.2372305368929949,0.4916708014997055,-0.741700695060414,-0.3896942298015617,-0.7351106405258179,0.5444504022598267,-0.4039629995822906,0,0,0,-1,-1,62853.41249675,unknown,2,2025-04-18T11:02:47.583+03:00,2025-04-17T15:44:39.500+03:00,7191,1.094987,0,0,5932.107,4,10,2025-04-18T11:02:11.472+03:00,766656172.849466,0,107.08,100.5709,1,0.65,2025-04-18T11:02:44.169+03:00,93,1.55,2025-04-18T08:51:18.885+03:00,0.03057091307199995,1
2025-04-18T11:02:54.471+03:00,1744963372.750369,40.95361464921299,29.14100394799852,93.71502,-1,-1,-1,-1,30,27.41004683147841,-9999,62860.295392375,-0.7404022216796875,0.50762939453125,-0.4027862548828125,62860.285316375,1.825722012947764,-1.069100809954878,-0.5763660594423421,-0.1703630387783051,0.006789934821426868,0.0007581746322102845,-0.004163086414337158,-0.02811968326568604,9.876489639282227e-05,XArbitraryZVertical,-0.2369392032716364,0.4921884520367221,-0.7413346604562989,-0.3899144715716356,-0.7351253032684326,0.5449806451797485,-0.4032206833362579,0,0,0,-1,-1,62853.41249675,unknown,2,2025-04-18T11:02:47.583+03:00,2025-04-17T15:44:39.500+03:00,7191,1.094987,0,0,5932.107,4,10,2025-04-18T11:02:11.472+03:00,766656172.849466,0,107.08,100.5709,1,0.65,2025-04-18T11:02:44.169+03:00,93,1.55,2025-04-18T08:51:18.885+03:00,0.03057091307199995,1
2025-04-18T11:02:54.481+03:00,1744963372.750369,40.95361464921299,29.14100394799852,93.71502,-1,-1,-1,-1,30,27.41004683147841,-9999,62860.305467375,-0.741485595703125,0.5137176513671875,-0.4046478271484375,62860.295392375,1.823693627012366,-1.070071035708825,-0.5772905639171594,-0.2165899276733398,0.01566625013947487,0.002500680973753333,-0.004565417766571045,-0.03756159543991089,-0.0008108615875244141,XArbitraryZVertical,-0.2365128559964919,0.4928783260331577,-0.7408729934489905,-0.3901794152045771,-0.7350739240646362,0.5457555651664734,-0.4022652506828308,0,0,0,-1,-1,62853.41249675,unknown,2,2025-04-18T11:02:47.583+03:00,2025-04-17T15:44:39.500+03:00,7191,1.094987,0,0,5932.107,4,10,2025-04-18T11:02:11.472+03:00,766656172.849466,0,107.08,100.5709,1,0.65,2025-04-18T11:02:44.169+03:00,93,1.55,2025-04-18T08:51:18.885+03:00,0.03057091307199995,1
2025-04-18T11:02:54.491+03:00,1744963372.750369,40.95361464921299,29.14100394799852,93.71502,-1,-1,-1,-1,30,27.41004683147841,-9999,62860.31554337501,-0.7418365478515625,0.5227508544921875,-0.404327392578125,62860.305467375,1.821255811635287,-1.071179901952871,-0.5784831786690928,-0.2476005107164383,0.02386858686804771,0.008985644206404686,-0.006827890872955322,-0.03489840030670166,-0.003250598907470703,XArbitraryZVertical,-0.2359524073832518,0.4937180899356782,-0.7403294311560009,-0.3904887535037772,-0.7349477410316467,0.5467545390129089,-0.4011378288269043,0,0,0,-1,-1,62853.41249675,unknown,2,2025-04-18T11:02:47.583+03:00,2025-04-17T15:44:39.500+03:00,7191,1.094987,0,0,5932.107,4,10,2025-04-18T11:02:11.472+03:00,766656172.849466,0,107.08,100.5709,1,0.65,2025-04-18T11:02:44.169+03:00,93,1.55,2025-04-18T08:51:18.885+03:00,0.03057091307199995,1
2025-04-18T11:02:54.501+03:00,1744963372.750369,40.95361464921299,29.14100394799852,93.71502,-1,-1,-1,-1,30,27.41004683147841,-9999,62860.32561937501,-0.746246337890625,0.532684326171875,-0.3906097412109375,62860.31554337501,1.818825768676774,-1.072178659139966,-0.5796249952733293,-0.2250214219093323,0.04035115614533424,0.007588283624500036,-0.00657963752746582,-0.02563071250915527,-0.005901098251342773,XArbitraryZVertical,-0.2353672105605712,0.4945198713092217,-0.7397978607574155,-0.3908345273266574,-0.7347992062568665,0.5477102398872375,-0.4001047313213348,0,0,0,-1,-1,62853.41249675,unknown,2,2025-04-18T11:02:47.583+03:00,2025-04-17T15:44:39.500+03:00,7191,1.094987,0,0,5932.107,4,10,2025-04-18T11:02:11.472+03:00,766656172.849466,0,107.08,100.5709,1,0.65,2025-04-18T11:02:44.169+03:00,93,1.55,2025-04-18T08:51:18.885+03:00,0.03057091307199995,1
2025-04-18T11:02:54.511+03:00,1744963372.750369,40.95361464921299,29.14100394799852,93.71502,-1,-1,-1,-1,30,27.41004683147841,-9999,62860.335694375,-0.740478515625,0.556793212890625,-0.3935546875,62860.32561937501,1.816556465315653,-1.072911048714427,-0.5807399652812932,-0.2170559167861938,0.05611227452754974,0.01540865655988455,-0.0111878514289856,-0.01864391565322876,0.007581472396850586,XArbitraryZVertical,-0.2347300271080412,0.4952418939256754,-0.7393277410335916,-0.3911928176480105,-0.7345550060272217,0.5486427545547485,-0.3992745578289032,0,0,0,-1,-1,62853.41249675,unknown,2,2025-04-18T11:02:47.583+03:00,2025-04-17T15:44:39.500+03:00,7191,1.094987,0,0,5932.107,4,10,2025-04-18T11:02:11.472+03:00,766656172.849466,0,107.08,100.5709,1,0.65,2025-04-18T11:02:44.169+03:00,93,1.55,2025-04-18T08:51:18.885+03:00,0.03057091307199995,1
2025-04-18T11:02:54.521+03:00,1744963372.750369,40.95361464921299,29.14100394799852,93.71502,-1,-1,-1,-1,30,27.41004683147841,-9999,62860.345770375,-0.7351837158203125,0.5604705810546875,-0.4022216796875,62860.335694375,1.814448321848768,-1.073389731692501,-0.5818491639277081,-0.2009730786085129,0.07029867172241211,0.008131035603582859,-0.007030665874481201,0.00429379940032959,0.006038963794708252,XArbitraryZVertical,-0.2340394194638583,0.4958925243983229,-0.7389186559453708,-0.3915552349090494,-0.7342107892036438,0.5495697259902954,-0.3986323177814484,0,0,0,-1,-1,62853.41249675,unknown,2,2025-04-18T11:02:47.583+03:00,2025-04-17T15:44:39.500+03:00,7191,1.094987,0,0,5932.107,4,10,2025-04-18T11:02:11.472+03:00,766656172.849466,0,107.08,100.5709,1,0.65,2025-04-18T11:02:44.169+03:00,93,1.55,2025-04-18T08:51:18.885+03:00,0.03057091307199995,1
2025-04-18T11:02:54.531+03:00,1744963372.750369,40.95361464921299,29.14100394799852,93.71502,-1,-1,-1,-1,30,27.41004683147841,-9999,62860.355846375,-0.7321929931640625,0.5511322021484375,-0.4056549072265625,62860.345770375,1.812406611716374,-1.073694469951912,-0.5827936316971115,-0.2028551399707794,0.07720185071229935,0.006954318843781948,-0.001918375492095947,0.01035618782043457,-0.003923475742340088,XArbitraryZVertical,-0.2333512595883052,0.4964541876775082,-0.7385339503747405,-0.3919798446788714,-0.7338757514953613,0.5503585934638977,-0.398160845041275,0,0,0,-1,-1,62853.41249675,unknown,2,2025-04-18T11:02:47.583+03:00,2025-04-17T15:44:39.500+03:00,7191,1.094987,0,0,5932.107,4,10,2025-04-18T11:02:11.472+03:00,766656172.849466,0,107.08,100.5709,1,0.65,2025-04-18T11:02:44.169+03:00,93,1.55,2025-04-18T08:51:18.885+03:00,0.03057091307199995,1
2025-04-18T11:02:54.541+03:00,1744963372.750369,40.95361464921299,29.14100394799852,93.71502,-1,-1,-1,-1,30,27.41004683147841,-9999,62860.36592137501,-0.7286529541015625,0.53973388671875,-0.411224365234375,62860.355846375,1.810211875079923,-1.07410402044053,-0.5836349771639476,-0.2211252152919769,0.07417649775743484,0.001492707757279277,0.001621484756469727,0.001658320426940918,-0.00722193717956543,XArbitraryZVertical,-0.2326949841971195,0.4970244470196329,-0.738101258320918,-0.3924620634999197,-0.7336313724517822,0.5510608553886414,-0.3976394832134247,0,0,0,-1,-1,62853.41249675,unknown,2,2025-04-18T11:02:47.583+03:00,2025-04-17T15:44:39.500+03:00,7191,1.094987,0,0,5932.107,4,10,2025-04-18T11:02:11.472+03:00,766656172.849466,0,107.08,100.5709,1,0.65,2025-04-18T11:02:44.169+03:00,93,1.55,2025-04-18T08:51:18.885+03:00,0.03057091307199995,1
2025-04-18T11:02:54.551+03:00,1744963372.750369,40.95361464921299,29.14100394799852,93.71502,-1,-1,-1,-1,30,27.41004683147841,-9999,62860.37599737501,-0.72802734375,0.5260772705078125,-0.4152374267578125,62860.36592137501,1.807799206275037,-1.074685874470765,-0.584435445303364,-0.2381051927804947,0.06809896975755692,-0.004391246940940619,0.004684031009674072,-0.01008743047714233,-0.01347425580024719,XArbitraryZVertical,-0.2320598870144707,0.4976414555617371,-0.737603255117779,-0.3929918674698497,-0.7334743738174438,0.5517286062240601,-0.3970023691654205,0,0,0,-1,-1,62853.41249675,unknown,2,2025-04-18T11:02:47.583+03:00,2025-04-17T15:44:39.500+03:00,7191,1.094987,0,0,5932.107,4,10,2025-04-18T11:02:11.472+03:00,766656172.849466,0,107.08,100.5709,1,0.65,2025-04-18T11:02:44.169+03:00,93,1.55,2025-04-18T08:51:18.885+03:00,0.03057091307199995,1
2025-04-18T11:02:54.563+03:00,1744963372.750369,40.95361464921299,29.14100394799852,93.71502,-1,-1,-1,-1,30,27.41004683147841,-9999,62860.386073375,-0.7264404296875,0.52105712890625,-0.409027099609375,62860.37599737501,1.804971631999694,-1.075553857986352,-0.5853881483646097,-0.3058211505413055,0.0668715164065361,0.01336564496159554,0.005984663963317871,-0.02458405494689941,-0.01933532953262329,XArbitraryZVertical,-0.2313779359168148,0.4984038771755246,-0.7369986694610953,-0.3935618217781431,-0.7333559393882751,0.5525229573249817,-0.3961156606674194,0,0,0,-1,-1,62853.41249675,unknown,2,2025-04-18T11:02:47.583+03:00,2025-04-17T15:44:39.500+03:00,7191,1.094987,0,0,5932.107,4,10,2025-04-18T11:02:11.472+03:00,766656172.849466,0,107.08,100.5709,1,0.65,2025-04-18T11:02:44.169+03:00,93,1.55,2025-04-18T08:51:18.885+03:00,0.03057091307199995,1
2025-04-18T11:02:54.580+03:00,1744963372.750369,40.95361464921299,29.14100394799852,93.71502,-1,-1,-1,-1,30,27.41004683147841,-9999,62860.396148375,-0.726287841796875,0.5079498291015625,-0.402313232421875,62860.386073375,1.801461016240324,-1.076817587410311,-0.5867897864425576,-0.3713242411613464,0.06181097775697708,0.01024881470948458,0.006564974784851074,-0.03289294242858887,-0.01528942584991455,XArbitraryZVertical,-0.230528876482922,0.499445650751997,-0.736238330046726,-0.39416190025283,-0.7331733107566833,0.5536906719207764,-0.3948209583759308,0,0,0,-1,-1,62853.41249675,unknown,2,2025-04-18T11:02:47.583+03:00,2025-04-17T15:44:39.500+03:00,7191,1.094987,0,0,5932.107,4,10,2025-04-18T11:02:11.472+03:00,766656172.849466,0,107.08,100.5709,1,0.65,2025-04-18T11:02:44.169+03:00,93,1.55,2025-04-18T08:51:18.885+03:00,0.03057091307199995,1
2025-04-18T11:02:54.590+03:00,1744963372.750369,40.95361464921299,29.14100394799852,93.71502,-1,-1,-1,-1,30,27.41004683147841,-9999,62860.406224375,-0.730865478515625,0.4945220947265625,-0.4188385009765625,62860.396148375,1.797217714750947,-1.078499291997216,-0.5884500677047554,-0.4437792599201202,0.06295773386955261,0.002132299123331904,0.008064746856689453,-0.04448288679122925,-0.008809834718704224,XArbitraryZVertical,-0.2295658593098201,0.5007228178558341,-0.7352998208103083,-0.3948547568675733,-0.7330250144004822,0.5550724267959595,-0.3931523561477661,0,0,0,-1,-1,62853.41249675,unknown,2,2025-04-18T11:02:47.583+03:00,2025-04-17T15:44:39.500+03:00,7191,1.094987,0,0,5932.107,4,10,2025-04-18T11:02:11.472+03:00,766656172.849466,0,107.08,100.5709,1,0.65,2025-04-18T11:02:44.169+03:00,93,1.55,2025-04-18T08:51:18.885+03:00,0.03057091307199995,1
2025-04-18T11:02:54.592+03:00,1744963372.750369,40.95361464921299,29.14100394799852,93.71502,-1,-1,-1,-1,30,27.41004683147841,-9999,62860.41630037501,-0.73382568359375,0.502166748046875,-0.424713134765625,62860.406224375,1.792008099008588,-1.080705591562862,-0.590549635294944,-0.5314903259277344,0.08733324706554413,0.006267056334763765,0.001980185508728027,-0.06200557947158813,-0.02541226148605347,XArbitraryZVertical,-0.2284099338205526,0.5023310801333746,-0.7341352440318333,-0.395648831897979,-0.7328609824180603,0.5568176507949829,-0.3909847736358643,0,0,0,-1,-1,62853.41249675,unknown,2,2025-04-18T11:02:47.583+03:00,2025-04-17T15:44:39.500+03:00,7191,1.094987,0,0,5932.107,4,10,2025-04-18T11:02:11.472+03:00,766656172.849466,0,107.08,100.5709,1,0.65,2025-04-18T11:02:44.169+03:00,93,1.55,2025-04-18T08:51:18.885+03:00,0.03057091307199995,1
2025-04-18T11:02:54.601+03:00,1744963372.750369,40.95361464921299,29.14100394799852,93.71502,-1,-1,-1,-1,30,27.41004683147841,-9999,62860.42637537501,-0.7392425537109375,0.5106048583984375,-0.4221038818359375,62860.41630037501,1.785831406645045,-1.083093967827854,-0.5933609341577697,-0.6327458620071411,0.123661957681179,0.0195264033973217,-0.0008847713470458984,-0.0582350492477417,-0.03684043884277344,XArbitraryZVertical,-0.226845402704772,0.5042737886583223,-0.7327993885223734,-0.3965529685238164,-0.7324068546295166,0.5591506361961365,-0.3884982168674469,0,0,0,-1,-1,62853.41249675,unknown,2,2025-04-18T11:02:47.583+03:00,2025-04-17T15:44:39.500+03:00,7191,1.094987,0,0,5932.107,4,10,2025-04-18T11:02:11.472+03:00,766656172.849466,0,107.08,100.5709,1,0.65,2025-04-18T11:02:44.169+03:00,93,1.55,2025-04-18T08:51:18.885+03:00,0.03057091307199995,1
2025-04-18T11:02:54.611+03:00,1744963372.750369,40.95361464921299,29.14100394799852,93.71502,-1,-1,-1,-1,30,27.41004683147841,-9999,62860.4364495,-0.7425994873046875,0.517242431640625,-0.4226837158203125,62860.42637537501,1.778446951844671,-1.085801879085223,-0.5968086422815437,-0.7542205452919006,0.15699203312397,0.01950433291494846,-0.007130026817321777,-0.05182802677154541,-0.03623199462890625,XArbitraryZVertical,-0.2248801525167412,0.5065793941390633,-0.7312253330591025,-0.3976378286180285,-0.7317463755607605,0.5620056390762329,-0.3856124579906464,0,0,0,-1,-1,62853.41249675,unknown,2,2025-04-18T11:02:47.583+03:00,2025-04-17T15:44:39.500+03:00,7191,1.094987,0,0,5932.107,4,10,2025-04-18T11:02:11.472+03:00,766656172.849466,0,107.08,100.5709,1,0.65,2025-04-18T11:02:44.169+03:00,93,1.55,2025-04-18T08:51:18.885+03:00,0.03057091307199995,1
2025-04-18T11:02:54.622+03:00,1744963372.750369,40.95361464921299,29.14100394799852,93.71502,-1,-1,-1,-1,30,27.41004683147841,-9999,62860.4465255,-0.744140625,0.5273590087890625,-0.43670654296875,62860.4364495,1.77011324308669,-1.088825081887994,-0.6007270461764572,-0.8089775443077087,0.1749377399682999,0.03520872443914413,-0.01152557134628296,-0.04885441064834595,-0.03989690542221069,XArbitraryZVertical,-0.2226242275746153,0.5091670328549104,-0.7294559252472391,-0.3988502034044002,-0.7309518456459045,0.5652424097061157,-0.3823747634887695,0,0,0,-1,-1,62853.41249675,unknown,2,2025-04-18T11:02:47.583+03:00,2025-04-17T15:44:39.500+03:00,7191,1.094987,0,0,5932.107,4,10,2025-04-18T11:02:11.472+03:00,766656172.849466,0,107.08,100.5709,1,0.65,2025-04-18T11:02:44.169+03:00,93,1.55,2025-04-18T08:51:18.885+03:00,0.03057091307199995,1
2025-04-18T11:02:54.632+03:00,1744963372.750369,40.95361464921299,29.14100394799852,93.71502,-1,-1,-1,-1,30,27.41004683147841,-9999,62860.4566005,-0.742279052734375,0.5388946533203125,-0.4552154541015625,62860.4465255,1.76143503726078,-1.091852324032097,-0.6048867883333177,-0.8446735739707947,0.1996816247701645,0.03923898562788963,-0.01336467266082764,-0.04279005527496338,-0.05459657311439514,XArbitraryZVertical,-0.2201862640234097,0.5118411032083682,-0.7276334612672222,-0.4001077726016682,-0.7300130128860474,0.5686689615249634,-0.3790733814239502,0,0,0,-1,-1,62853.41249675,unknown,2,2025-04-18T11:02:47.583+03:00,2025-04-17T15:44:39.500+03:00,7191,1.094987,0,0,5932.107,4,10,2025-04-18T11:02:11.472+03:00,766656172.849466,0,107.08,100.5709,1,0.65,2025-04-18T11:02:44.169+03:00,93,1.55,2025-04-18T08:51:18.885+03:00,0.03057091307199995,1
2025-04-18T11:02:54.642+03:00,1744963372.750369,40.95361464921299,29.14100394799852,93.71502,-1,-1,-1,-1,30,27.41004683147841,-9999,62860.4666765,-0.735504150390625,0.547393798828125,-0.45458984375,62860.4566005,1.75236522460033,-1.095037003824212,-0.6092046294606704,-0.8509365320205688,0.1887378990650177,0.04067389667034149,-0.01348096132278442,-0.03460246324539185,-0.07894077897071838,XArbitraryZVertical,-0.2176342941467138,0.5146125495763212,-0.7257269006031004,-0.4014095913395906,-0.7290269732475281,0.5722153782844543,-0.3756184875965118,0,0,0,-1,-1,62853.41249675,unknown,2,2025-04-18T11:02:47.583+03:00,2025-04-17T15:44:39.500+03:00,7191,1.094987,0,0,5932.107,4,10,2025-04-18T11:02:11.472+03:00,766656172.849466,0,107.08,100.5709,1,0.65,2025-04-18T11:02:44.169+03:00,93,1.55,2025-04-18T08:51:18.885+03:00,0.03057091307199995,1
2025-04-18T11:02:54.652+03:00,1744963372.750369,40.95361464921299,29.14100394799852,93.71502,-1,-1,-1,-1,30,27.41004683147841,-9999,62860.47675250001,-0.7278289794921875,0.5570220947265625,-0.457916259765625,62860.4666765,1.743647641342264,-1.098333176070789,-0.6134283477981178,-0.7850726246833801,0.1430243998765945,0.05887870118021965,-0.007752597332000732,-0.02872276306152344,-0.08289149403572083,XArbitraryZVertical,-0.215222699218085,0.5173239152720073,-0.7238758856786026,-0.4025655492478468,-0.7281026244163513,0.5756741166114807,-0.3721103072166443,0,0,0,-1,-1,62853.41249675,unknown,2,2025-04-18T11:02:47.583+03:00,2025-04-17T15:44:39.500+03:00,7191,1.094987,0,0,5932.107,4,10,2025-04-18T11:02:11.472+03:00,766656172.849466,0,107.08,100.5709,1,0.65,2025-04-18T11:02:44.169+03:00,93,1.55,2025-04-18T08:51:18.885+03:00,0.03057091307199995,1
2025-04-18T11:02:54.662+03:00,1744963372.750369,40.95361464921299,29.14100394799852,93.71502,-1,-1,-1,-1,30,27.41004683147841,-9999,62860.4868275,-0.7268524169921875,0.571868896484375,-0.45465087890625,62860.47675250001,1.735616995972335,-1.101790543525462,-0.6174105700447158,-0.7458541393280029,0.08656512200832367,0.05261414870619774,-0.0005559921264648438,-0.0243602991104126,-0.08927303552627563,XArbitraryZVertical,-0.2131058612517504,0.5199135205882656,-0.722134227948345,-0.4034824825910944,-0.7273340821266174,0.5789257287979126,-0.368551641702652,0,0,0,-1,-1,62853.41249675,unknown,2,2025-04-18T11:02:47.583+03:00,2025-04-17T15:44:39.500+03:00,7191,1.094987,0,0,5932.107,4,10,2025-04-18T11:02:11.472+03:00,766656172.849466,0,107.08,100.5709,1,0.65,2025-04-18T11:02:44.169+03:00,93,1.55,2025-04-18T08:51:18.885+03:00,0.03057091307199995,1
2025-04-18T11:02:54.672+03:00,1744963372.750369,40.95361464921299,29.14100394799852,93.71502,-1,-1,-1,-1,30,27.41004683147841,-9999,62860.4969035,-0.7317352294921875,0.562652587890625,-0.436614990234375,62860.4868275,1.727402740503327,-1.105910398653009,-0.6215109749354366,-0.8300318717956543,0.03491091728210449,0.07694182544946671,0.0002472400665283203,-0.01190590858459473,-0.09143263101577759,XArbitraryZVertical,-0.2111234146301303,0.5226705941050932,-0.7202968099150262,-0.4042462004661804,-0.7267182469367981,0.582264244556427,-0.3644846975803375,0,0,0,-1,-1,62853.41249675,unknown,2,2025-04-18T11:02:47.583+03:00,2025-04-17T15:44:39.500+03:00,7191,1.094987,0,0,5932.107,4,10,2025-04-18T11:02:11.472+03:00,766656172.849466,0,107.08,100.5709,1,0.65,2025-04-18T11:02:44.169+03:00,93,1.55,2025-04-18T08:51:18.885+03:00,0.03057091307199995,1
2025-04-18T11:02:54.682+03:00,1744963372.750369,40.95361464921299,29.14100394799852,93.71502,-1,-1,-1,-1,30,27.41004683147841,-9999,62860.5069795,-0.735107421875,0.5286407470703125,-0.419464111328125,62860.4969035,1.717405861782006,-1.111570522350503,-0.6262091887142983,-1.03231143951416,0.01207271404564381,0.04115293547511101,-0.004693508148193359,-0.02054095268249512,-0.08067026734352112,XArbitraryZVertical,-0.2090112701244706,0.5260606388844588,-0.717981402921728,-0.4050644220008088,-0.7263092994689941,0.5860774517059326,-0.3591489791870117,0,0,0,-1,-1,62853.41249675,unknown,2,2025-04-18T11:02:47.583+03:00,2025-04-17T15:44:39.500+03:00,7191,1.094987,0,0,5932.107,4,10,2025-04-18T11:02:11.472+03:00,766656172.849466,0,107.08,100.5709,1,0.65,2025-04-18T11:02:44.169+03:00,93,1.55,2025-04-18T08:51:18.885+03:00,0.03057091307199995,1
2025-04-18T11:02:54.693+03:00,1744963372.750369,40.95361464921299,29.14100394799852,93.71502,-1,-1,-1,-1,30,27.41004683147841,-9999,62860.51705450001,-0.7300872802734375,0.5135650634765625,-0.4170684814453125,62860.5069795,1.704875293329155,-1.118997861490387,-0.6313784221128911,-1.224796175956726,-0.02592173777520657,-0.001682246336713433,-0.00803142786026001,-0.05668866634368896,-0.06767243146896362,XArbitraryZVertical,-0.2066762485546651,0.5301662985955976,-0.7150092296623641,-0.4061656668442863,-0.7262215614318848,0.590258002281189,-0.3524172604084015,0,0,0,-1,-1,62853.41249675,unknown,2,2025-04-18T11:02:47.583+03:00,2025-04-17T15:44:39.500+03:00,7191,1.094987,0,0,5932.107,4,10,2025-04-18T11:02:11.472+03:00,766656172.849466,0,107.08,100.5709,1,0.65,2025-04-18T11:02:44.169+03:00,93,1.55,2025-04-18T08:51:18.885+03:00,0.03057091307199995,1
2025-04-18T11:02:54.712+03:00,1744963372.750369,40.95361464921299,29.14100394799852,93.71502,-1,-1,-1,-1,30,27.41004683147841,-9999,62860.52713050001,-0.721588134765625,0.548004150390625,-0.4093780517578125,62860.51705450001,1.690404671287608,-1.128145019578458,-0.6369328830964907,-1.313794493675232,-0.08733076602220535,-0.007993938401341438,-0.005157053470611572,-0.08280009031295776,-0.07309985160827637,XArbitraryZVertical,-0.2042633545899572,0.5348845233617661,-0.711505391600349,-0.4073514068414865,-0.7264409065246582,0.5947325229644775,-0.3443500697612762,0,0,0,-1,-1,62853.41249675,unknown,2,2025-04-18T11:02:47.583+03:00,2025-04-17T15:44:39.500+03:00,7191,1.094987,0,0,5932.107,4,10,2025-04-18T11:02:11.472+03:00,766656172.849466,0,107.08,100.5709,1,0.65,2025-04-18T11:02:44.169+03:00,93,1.55,2025-04-18T08:51:18.885+03:00,0.03057091307199995,1
2025-04-18T11:02:54.714+03:00,1744963372.750369,40.95361464921299,29.14100394799852,93.71502,-1,-1,-1,-1,30,27.41004683147841,-9999,62860.5372065,-0.72381591796875,0.58941650390625,-0.4121551513671875,62860.52713050001,1.675406947561911,-1.138219895622705,-0.6424686052745768,-1.290451049804688,-0.134938970208168,-0.008387653157114983,0.003987908363342285,-0.05618965625762939,-0.07468020915985107,XArbitraryZVertical,-0.2019831290911889,0.5398041475909434,-0.7078157343685842,-0.4084253509542506,-0.7268730998039246,0.5991736650466919,-0.3356285989284515,0,0,0,-1,-1,62853.41249675,unknown,2,2025-04-18T11:02:47.583+03:00,2025-04-17T15:44:39.500+03:00,7191,1.094987,0,0,5932.107,4,10,2025-04-18T11:02:11.472+03:00,766656172.849466,0,107.08,100.5709,1,0.65,2025-04-18T11:02:44.169+03:00,93,1.55,2025-04-18T08:51:18.885+03:00,0.03057091307199995,1
2025-04-18T11:02:54.723+03:00,1744963372.750369,40.95361464921299,29.14100394799852,93.71502,-1,-1,-1,-1,30,27.41004683147841,-9999,62860.5472815,-0.730560302734375,0.616455078125,-0.4165191650390625,62860.5372065,1.661212239987796,-1.148205886829677,-0.6475459816398389,-1.187556385993958,-0.1487695574760437,-0.01284178998321295,0.004061460494995117,-0.01788854598999023,-0.08473312854766846,XArbitraryZVertical,-0.1999777729558985,0.5444796862888941,-0.7042841354322104,-0.4093100614525946,-0.7274043560028076,0.6032309532165527,-0.3271015286445618,0,0,0,-1,-1,62853.41249675,unknown,2,2025-04-18T11:02:47.583+03:00,2025-04-17T15:44:39.500+03:00,7191,1.094987,0,0,5932.107,4,10,2025-04-18T11:02:11.472+03:00,766656172.849466,0,107.08,100.5709,1,0.65,2025-04-18T11:02:44.169+03:00,93,1.55,2025-04-18T08:51:18.885+03:00,0.03057091307199995,1
2025-04-18T11:02:54.733+03:00,1744963372.750369,40.95361464921299,29.14100394799852,93.71502,-1,-1,-1,-1,30,27.41004683147841,-9999,62860.5573575,-0.74053955078125,0.626190185546875,-0.4219818115234375,62860.5472815,1.647807490005801,-1.157909007060061,-0.6520027171647367,-1.101439118385315,-0.1605667024850845,-0.03546927124261856,-0.001967310905456543,0.006593286991119385,-0.09781700372695923,XArbitraryZVertical,-0.1982387087660165,0.548842696128379,-0.7009123442740323,-0.4101159679646678,-0.7280742526054382,0.6067795157432556,-0.3189462125301361,0,0,0,-1,-1,62853.41249675,unknown,2,2025-04-18T11:02:47.583+03:00,2025-04-17T15:44:39.500+03:00,7191,1.094987,0,0,5932.107,4,10,2025-04-18T11:02:11.472+03:00,766656172.849466,0,107.08,100.5709,1,0.65,2025-04-18T11:02:44.169+03:00,93,1.55,2025-04-18T08:51:18.885+03:00,0.03057091307199995,1
2025-04-18T11:02:54.743+03:00,1744963372.750369,40.95361464921299,29.14100394799852,93.71502,-1,-1,-1,-1,30,27.41004683147841,-9999,62860.5674335,-0.741058349609375,0.6138916015625,-0.438079833984375,62860.5573575,1.635158602936083,-1.16696908847291,-0.6561021620428081,-1.047233104705811,-0.1232962906360626,-0.01229124888777733,-0.01054108142852783,0.01634037494659424,-0.1090075373649597,XArbitraryZVertical,-0.1965523417351807,0.5528913064075788,-0.6977457582132184,-0.4108884831549239,-0.7286404371261597,0.6100329160690308,-0.3113567531108856,0,0,0,-1,-1,62853.41249675,unknown,2,2025-04-18T11:02:47.583+03:00,2025-04-17T15:44:39.500+03:00,7191,1.094987,0,0,5932.107,4,10,2025-04-18T11:02:11.472+03:00,766656172.849466,0,107.08,100.5709,1,0.65,2025-04-18T11:02:44.169+03:00,93,1.55,2025-04-18T08:51:18.885+03:00,0.03057091307199995,1
2025-04-18T11:02:54.753+03:00,1744963372.750369,40.95361464921299,29.14100394799852,93.71502,-1,-1,-1,-1,30,27.41004683147841,-9999,62860.57750850001,-0.7257843017578125,0.6190185546875,-0.452850341796875,62860.5674335,1.623534009299348,-1.175352393505882,-0.6598843462969362,-0.9221340417861938,-0.1211765483021736,0.002425846178084612,-0.01219671964645386,0.002056360244750977,-0.1320548057556152,XArbitraryZVertical,-0.1949776073272836,0.5566062219489647,-0.6948432409674582,-0.4115412591655854,-0.7290905714035034,0.6130254864692688,-0.30434650182724,0,0,0,-1,-1,62853.41249675,unknown,2,2025-04-18T11:02:47.583+03:00,2025-04-17T15:44:39.500+03:00,7191,1.094987,0,0,5932.107,4,10,2025-04-18T11:02:11.472+03:00,766656172.849466,0,107.08,100.5709,1,0.65,2025-04-18T11:02:44.169+03:00,93,1.55,2025-04-18T08:51:18.885+03:00,0.03057091307199995,1
2025-04-18T11:02:54.763+03:00,1744963372.750369,40.95361464921299,29.14100394799852,93.71502,-1,-1,-1,-1,30,27.41004683147841,-9999,62860.5875845,-0.6817779541015625,0.658447265625,-0.498443603515625,62860.57750850001,1.616110754700684,-1.181232290218592,-0.6634759685879575,-0.5041402578353882,-0.2092467546463013,0.1704611778259277,-0.000361025333404541,-0.0002738237380981445,-0.1504450738430023,XArbitraryZVertical,-0.1937383282299641,0.5593365673754962,-0.6930439964177172,-0.4114585140926377,-0.7288259267807007,0.6158591508865356,-0.2992161214351654,0,0,0,-1,-1,62853.41249675,unknown,2,2025-04-18T11:02:47.583+03:00,2025-04-17T15:44:39.500+03:00,7191,1.094987,0,0,5932.107,4,10,2025-04-18T11:02:11.472+03:00,766656172.849466,0,107.08,100.5709,1,0.65,2025-04-18T11:02:44.169+03:00,93,1.55,2025-04-18T08:51:18.885+03:00,0.03057091307199995,1
2025-04-18T11:02:54.773+03:00,1744963372.750369,40.95361464921299,29.14100394799852,93.71502,-1,-1,-1,-1,30,27.41004683147841,-9999,62860.5976605,-0.72222900390625,0.644866943359375,-0.451416015625,62860.5875845,1.611470898851745,-1.187477947809612,-0.6660691160918016,-0.3396062552928925,-0.433753490447998,0.02993450127542019,0.04282605648040771,0.03554230928421021,-0.2005840539932251,XArbitraryZVertical,-0.1937262267164379,0.5616405657303278,-0.6917051876257885,-0.4105776052530763,-0.7291969656944275,0.6179000735282898,-0.2940600514411926,0,0,0,-1,-1,62853.41249675,unknown,2,2025-04-18T11:02:47.583+03:00,2025-04-17T15:44:39.500+03:00,7191,1.094987,0,0,5932.107,4,10,2025-04-18T11:02:11.472+03:00,766656172.849466,0,107.08,100.5709,1,0.65,2025-04-18T11:02:44.169+03:00,93,1.55,2025-04-18T08:51:18.885+03:00,0.03057091307199995,1
2025-04-18T11:02:54.783+03:00,1744963372.750369,40.95361464921299,29.14100394799852,93.71502,-1,-1,-1,-1,30,27.41004683147841,-9999,62860.6077355,-0.7706298828125,0.59136962890625,-0.408203125,62860.5976605,1.607880830103744,-1.194011748700565,-0.6674465872465423,-0.3088552951812744,-0.4087464213371277,0.04921099543571472,0.01757258176803589,0.03316283226013184,-0.1729837954044342,XArbitraryZVertical,-0.1945093042774053,0.5636294427059563,-0.6904534503372678,-0.4095877131995532,-0.7303106188774109,0.6189825534820557,-0.2889759540557861,0,0,0,-1,-1,62853.41249675,unknown,2,2025-04-18T11:02:47.583+03:00,2025-04-17T15:44:39.500+03:00,7191,1.094987,0,0,5932.107,4,10,2025-04-18T11:02:11.472+03:00,766656172.849466,0,107.08,100.5709,1,0.65,2025-04-18T11:02:44.169+03:00,93,1.55,2025-04-18T08:51:18.885+03:00,0.03057091307199995,1
2025-04-18T11:02:54.793+03:00,1744963372.750369,40.95361464921299,29.14100394799852,93.71502,-1,-1,-1,-1,30,27.41004683147841,-9999,62860.6178115,-0.7724609375,0.5825042724609375,-0.375946044921875,62860.6077355,1.604347662000699,-1.200233425540994,-0.6695201987966806,-0.352638840675354,-0.397068589925766,0.1213544979691505,-0.03735309839248657,-0.02629518508911133,-0.1276139914989471,XArbitraryZVertical,-0.1949579646594821,0.565694932242534,-0.6893062151649396,-0.408457865899912,-0.7308965921401978,0.6206098198890686,-0.2839612662792206,0,0,0,-1,-1,62853.41249675,unknown,2,2025-04-18T11:02:47.583+03:00,2025-04-17T15:44:39.500+03:00,7191,1.094987,0,0,5932.107,4,10,2025-04-18T11:02:11.472+03:00,766656172.849466,0,107.08,100.5709,1,0.65,2025-04-18T11:02:44.169+03:00,93,1.55,2025-04-18T08:51:18.885+03:00,0.03057091307199995,1
2025-04-18T11:02:54.803+03:00,1744963372.750369,40.95361464921299,29.14100394799852,93.71502,-1,-1,-1,-1,30,27.41004683147841,-9999,62860.62788750001,-0.7723388671875,0.5571746826171875,-0.359893798828125,62860.6178115,1.600142064099531,-1.206874631309562,-0.6719526419886379,-0.4381148517131805,-0.4021959602832794,0.0930701270699501,-0.04025328159332275,-0.03836309909820557,-0.1011368632316589,XArbitraryZVertical,-0.1952313102743881,0.5679818109664446,-0.688016124301457,-0.4073269881159424,-0.731353223323822,0.6225153207778931,-0.2785627841949463,0,0,0,-1,-1,62853.41249675,unknown,2,2025-04-18T11:02:47.583+03:00,2025-04-17T15:44:39.500+03:00,7191,1.094987,0,0,5932.107,4,10,2025-04-18T11:02:11.472+03:00,766656172.849466,0,107.08,100.5709,1,0.65,2025-04-18T11:02:44.169+03:00,93,1.55,2025-04-18T08:51:18.885+03:00,0.03057091307199995,1
2025-04-18T11:02:54.813+03:00,1744963372.750369,40.95361464921299,29.14100394799852,93.71502,-1,-1,-1,-1,30,27.41004683147841,-9999,62860.6379625,-0.736602783203125,0.5542144775390625,-0.363677978515625,62860.62788750001,1.594716354892858,-1.214469531819079,-0.6745484553135874,-0.5331577062606812,-0.4360989928245544,0.1024355664849281,-0.04159820079803467,-0.06434881687164307,-0.08761069178581238,XArbitraryZVertical,-0.1954189807674543,0.5706080939508694,-0.6864045252113358,-0.4062840416992607,-0.7319308519363403,0.6245447397232056,-0.2724356353282928,0,0,0,-1,-1,62853.41249675,unknown,2,2025-04-18T11:02:47.583+03:00,2025-04-17T15:44:39.500+03:00,7191,1.094987,0,0,5932.107,4,10,2025-04-18T11:02:11.472+03:00,766656172.849466,0,107.08,100.5709,1,0.65,2025-04-18T11:02:44.169+03:00,93,1.55,2025-04-18T08:51:18.885+03:00,0.03057091307199995,1
2025-04-18T11:02:54.824+03:00,1744963372.750369,40.95361464921299,29.14100394799852,93.71502,-1,-1,-1,-1,30,27.41004683147841,-9999,62860.6480385,-0.6933746337890625,0.58465576171875,-0.3592987060546875,62860.6379625,1.588035693515627,-1.223277083920186,-0.6777305216865287,-0.6603657007217407,-0.4873768389225006,0.1332294195890427,-0.009941041469573975,-0.07461285591125488,-0.09749245643615723,XArbitraryZVertical,-0.1954493342593551,0.5737153895252004,-0.6844807796546037,-0.4051372010086814,-0.7324295043945312,0.6270267367362976,-0.2653004229068756,0,0,0,-1,-1,62853.41249675,unknown,2,2025-04-18T11:02:47.583+03:00,2025-04-17T15:44:39.500+03:00,7191,1.094987,0,0,5932.107,4,10,2025-04-18T11:02:11.472+03:00,766656172.849466,0,107.08,100.5709,1,0.65,2025-04-18T11:02:44.169+03:00,93,1.55,2025-04-18T08:51:18.885+03:00,0.03057091307199995,1
2025-04-18T11:02:54.834+03:00,1744963372.750369,40.95361464921299,29.14100394799852,93.71502,-1,-1,-1,-1,30,27.41004683147841,-9999,62860.6581145,-0.6753082275390625,0.6122283935546875,-0.3393402099609375,62860.6480385,1.579372751350499,-1.233962622237407,-0.6815908360179251,-0.8726344704627991,-0.5519083738327026,0.135560542345047,0.03505676984786987,-0.05083608627319336,-0.1036638021469116,XArbitraryZVertical,-0.1952978548590585,0.5775206911715397,-0.6820475136895677,-0.4039058304735665,-0.7329328060150146,0.6300292015075684,-0.256657212972641,0,0,0,-1,-1,62853.41249675,unknown,2,2025-04-18T11:02:47.583+03:00,2025-04-17T15:44:39.500+03:00,7191,1.094987,0,0,5932.107,4,10,2025-04-18T11:02:11.472+03:00,766656172.849466,0,107.08,100.5709,1,0.65,2025-04-18T11:02:44.169+03:00,93,1.55,2025-04-18T08:51:18.885+03:00,0.03057091307199995,1
2025-04-18T11:02:54.844+03:00,1744963372.750369,40.95361464921299,29.14100394799852,93.71502,-1,-1,-1,-1,30,27.41004683147841,-9999,62860.6681905,-0.673858642578125,0.609161376953125,-0.3026123046875,62860.6581145,1.567575205157454,-1.247298619438148,-0.6860291070113113,-1.128672957420349,-0.6210898160934448,0.1109236255288124,0.05743855237960815,-0.02320957183837891,-0.09703332185745239,XArbitraryZVertical,-0.1949067093832397,0.5822601588121307,-0.6787968597693311,-0.4027647350126733,-0.7336318492889404,0.6334696412086487,-0.2459689676761627,0,0,0,-1,-1,62853.41249675,unknown,2,2025-04-18T11:02:47.583+03:00,2025-04-17T15:44:39.500+03:00,7191,1.094987,0,0,5932.107,4,10,2025-04-18T11:02:11.472+03:00,766656172.849466,0,107.08,100.5709,1,0.65,2025-04-18T11:02:44.169+03:00,93,1.55,2025-04-18T08:51:18.885+03:00,0.03057091307199995,1
2025-04-18T11:02:54.854+03:00,1744963372.750369,40.95361464921299,29.14100394799852,93.71502,-1,-1,-1,-1,30,27.41004683147841,-9999,62860.67826550001,-0.692779541015625,0.6055450439453125,-0.2620697021484375,62860.6681905,1.552491175315309,-1.263661461967722,-0.6907964291344491,-1.351621270179749,-0.7290166020393372,0.06564442813396454,0.06088882684707642,-0.02647918462753296,-0.07457005977630615,XArbitraryZVertical,-0.1944070343021044,0.587960550073237,-0.6746495773814152,-0.4016918696711173,-0.7346711754798889,0.6371512413024902,-0.2330165952444077,0,0,0,-1,-1,62853.41249675,unknown,2,2025-04-18T11:02:47.583+03:00,2025-04-17T15:44:39.500+03:00,7191,1.094987,0,0,5932.107,4,10,2025-04-18T11:02:11.472+03:00,766656172.849466,0,107.08,100.5709,1,0.65,2025-04-18T11:02:44.169+03:00,93,1.55,2025-04-18T08:51:18.885+03:00,0.03057091307199995,1
2025-04-18T11:02:54.864+03:00,1744963372.750369,40.95361464921299,29.14100394799852,93.71502,-1,-1,-1,-1,30,27.41004683147841,-9999,62860.6883415,-0.7332916259765625,0.6353302001953125,-0.24676513671875,62860.67826550001,1.534796820470585,-1.282658961772459,-0.6954121130697726,-1.482505559921265,-0.7825061678886414,0.02157151140272617,0.04662328958511353,-0.03625547885894775,-0.04805487394332886,XArbitraryZVertical,-0.1939859997169412,0.5943729654269869,-0.6697405393174203,-0.4006717777520081,-0.7361375093460083,0.6407018899917603,-0.2181804180145264,0,0,0,-1,-1,62853.41249675,unknown,2,2025-04-18T11:02:47.583+03:00,2025-04-17T15:44:39.500+03:00,7191,1.094987,0,0,5932.107,4,10,2025-04-18T11:02:11.472+03:00,766656172.849466,0,107.08,100.5709,1,0.65,2025-04-18T11:02:44.169+03:00,93,1.55,2025-04-18T08:51:18.885+03:00,0.03057091307199995,1
2025-04-18T11:02:54.874+03:00,1744963372.750369,40.95361464921299,29.14100394799852,93.71502,-1,-1,-1,-1,30,27.41004683147841,-9999,62860.6984175,-0.76873779296875,0.6730804443359375,-0.2603912353515625,62860.6883415,1.516132522319116,-1.302371457257393,-0.6996147674748028,-1.466750860214233,-0.7440719604492188,-0.0002791931619867682,0.009252965450286865,-0.01365870237350464,-0.04327327013015747,XArbitraryZVertical,-0.1935457332705496,0.6009027163354542,-0.6645593169143483,-0.3997711482171867,-0.7376923561096191,0.6439229846000671,-0.2029119431972504,0,0,0,-1,-1,62853.41249675,unknown,2,2025-04-18T11:02:47.583+03:00,2025-04-17T15:44:39.500+03:00,7191,1.094987,0,0,5932.107,4,10,2025-04-18T11:02:11.472+03:00,766656172.849466,0,107.08,100.5709,1,0.65,2025-04-18T11:02:44.169+03:00,93,1.55,2025-04-18T08:51:18.885+03:00,0.03057091307199995,1
2025-04-18T11:02:54.884+03:00,1744963372.750369,40.95361464921299,29.14100394799852,93.71502,-1,-1,-1,-1,30,27.41004683147841,-9999,62860.7084925,-0.792083740234375,0.6801300048828125,-0.2576751708984375,62860.6984175,1.497855459300996,-1.321350745487038,-0.7031278598820734,-1.38488233089447,-0.6809601187705994,-0.03358016163110733,-0.02592307329177856,0.02243000268936157,-0.07115994393825531,XArbitraryZVertical,-0.1931032131003732,0.6070858929691606,-0.6594810913054858,-0.3990520943946887,-0.7392136454582214,0.6466068625450134,-0.1883157342672348,0,0,0,-1,-1,62853.41249675,unknown,2,2025-04-18T11:02:47.583+03:00,2025-04-17T15:44:39.500+03:00,7191,1.094987,0,0,5932.107,4,10,2025-04-18T11:02:11.472+03:00,766656172.849466,0,107.08,100.5709,1,0.65,2025-04-18T11:02:44.169+03:00,93,1.55,2025-04-18T08:51:18.885+03:00,0.03057091307199995,1
2025-04-18T11:02:54.894+03:00,1744963372.750369,40.95361464921299,29.14100394799852,93.71502,-1,-1,-1,-1,30,27.41004683147841,-9999,62860.7185685,-0.7924652099609375,0.6612396240234375,-0.2498321533203125,62860.7084925,1.480675824054802,-1.338960489765872,-0.7059500036053514,-1.272732377052307,-0.6047278046607971,-0.04390067234635353,-0.05022692680358887,0.03256309032440186,-0.08366446197032928,XArbitraryZVertical,-0.1926797995794025,0.6127393894999765,-0.654698586990821,-0.3984905387444638,-0.7406361103057861,0.6487571001052856,-0.1748498678207397,0,0,0,-1,-1,62853.41249675,unknown,2,2025-04-18T11:02:47.583+03:00,2025-04-17T15:44:39.500+03:00,7191,1.094987,0,0,5932.107,4,10,2025-04-18T11:02:11.472+03:00,766656172.849466,0,107.08,100.5709,1,0.65,2025-04-18T11:02:44.169+03:00,93,1.55,2025-04-18T08:51:18.885+03:00,0.03057091307199995,1
2025-04-18T11:02:54.904+03:00,1744963372.750369,40.95361464921299,29.14100394799852,93.71502,-1,-1,-1,-1,30,27.41004683147841,-9999,62860.72864450001,-0.7825775146484375,0.6370849609375,-0.2418975830078125,62860.7185685,1.464705633411541,-1.355196864929522,-0.7082121380465107,-1.17698872089386,-0.5608216524124146,-0.05192824080586433,-0.05215609073638916,0.01392132043838501,-0.08777159452438354,XArbitraryZVertical,-0.1922847293036614,0.6178856763746997,-0.6502405624551898,-0.3980341455356105,-0.7419418692588806,0.65047687292099,-0.1624877452850342,0,0,0,-1,-1,62853.41249675,unknown,2,2025-04-18T11:02:47.583+03:00,2025-04-17T15:44:39.500+03:00,7191,1.094987,0,0,5932.107,4,10,2025-04-18T11:02:11.472+03:00,766656172.849466,0,107.08,100.5709,1,0.65,2025-04-18T11:02:44.169+03:00,93,1.55,2025-04-18T08:51:18.885+03:00,0.03057091307199995,1
2025-04-18T11:02:54.914+03:00,1744963372.750369,40.95361464921299,29.14100394799852,93.71502,-1,-1,-1,-1,30,27.41004683147841,-9999,62860.7387195,-0.773406982421875,0.6082916259765625,-0.2391510009765625,62860.72864450001,1.449716788875871,-1.370421735840466,-0.710121468547723,-1.118467450141907,-0.5236330628395081,-0.04161078855395317,-0.04135853052139282,-0.01056843996047974,-0.09214657545089722,XArbitraryZVertical,-0.1919122738680014,0.6226610059895027,-0.6460460509121897,-0.3976022000806617,-0.7431111335754395,0.6519258618354797,-0.1509259045124054,0,0,0,-1,-1,62853.41249675,unknown,2,2025-04-18T11:02:47.583+03:00,2025-04-17T15:44:39.500+03:00,7191,1.094987,0,0,5932.107,4,10,2025-04-18T11:02:11.472+03:00,766656172.849466,0,107.08,100.5709,1,0.65,2025-04-18T11:02:44.169+03:00,93,1.55,2025-04-18T08:51:18.885+03:00,0.03057091307199995,1
2025-04-18T11:02:54.924+03:00,1744963372.750369,40.95361464921299,29.14100394799852,93.71502,-1,-1,-1,-1,30,27.41004683147841,-9999,62860.7487955,-0.7608184814453125,0.5978546142578125,-0.2371673583984375,62860.7387195,1.435329112716648,-1.385006487429356,-0.7119551551717465,-1.070525288581848,-0.51042640209198,-0.01273865904659033,-0.0306011438369751,-0.04148358106613159,-0.0991625040769577,XArbitraryZVertical,-0.1914809024655078,0.6272236654193046,-0.6420370688323231,-0.3971321577685663,-0.7440570592880249,0.6533152461051941,-0.1398510783910751,0,0,0,-1,-1,62853.41249675,unknown,2,2025-04-18T11:02:47.583+03:00,2025-04-17T15:44:39.500+03:00,7191,1.094987,0,0,5932.107,4,10,2025-04-18T11:02:11.472+03:00,766656172.849466,0,107.08,100.5709,1,0.65,2025-04-18T11:02:44.169+03:00,93,1.55,2025-04-18T08:51:18.885+03:00,0.03057091307199995,1
2025-04-18T11:02:54.934+03:00,1744963372.750369,40.95361464921299,29.14100394799852,93.71502,-1,-1,-1,-1,30,27.41004683147841,-9999,62860.7588715,-0.7429351806640625,0.6186981201171875,-0.240692138671875,62860.7487955,1.421835745841159,-1.398999975991918,-0.7139289862658256,-0.9973124861717224,-0.5171578526496887,0.03527467325329781,-0.01877385377883911,-0.05725890398025513,-0.1073670834302902,XArbitraryZVertical,-0.1910326662136311,0.6315884653157292,-0.6382966710226917,-0.3964591688343412,-0.7446690797805786,0.6548083424568176,-0.1292050629854202,0,0,0,-1,-1,62853.41249675,unknown,2,2025-04-18T11:02:47.583+03:00,2025-04-17T15:44:39.500+03:00,7191,1.094987,0,0,5932.107,4,10,2025-04-18T11:02:11.472+03:00,766656172.849466,0,107.08,100.5709,1,0.65,2025-04-18T11:02:44.169+03:00,93,1.55,2025-04-18T08:51:18.885+03:00,0.03057091307199995,1
2025-04-18T11:02:54.945+03:00,1744963372.750369,40.95361464921299,29.14100394799852,93.71502,-1,-1,-1,-1,30,27.41004683147841,-9999,62860.7689465,-0.73236083984375,0.6472320556640625,-0.205841064453125,62860.7588715,1.40903678275359,-1.412758636341686,-0.7160341136791821,-0.9709059000015259,-0.5501362681388855,0.05663615465164185,0.0007050037384033203,-0.04166704416275024,-0.1224957704544067,XArbitraryZVertical,-0.1906295899498053,0.6358421153451133,-0.6347512855304611,-0.3955453138389149,-0.7450134754180908,0.6563979387283325,-0.118730328977108,0,0,0,-1,-1,62853.41249675,unknown,2,2025-04-18T11:02:47.583+03:00,2025-04-17T15:44:39.500+03:00,7191,1.094987,0,0,5932.107,4,10,2025-04-18T11:02:11.472+03:00,766656172.849466,0,107.08,100.5709,1,0.65,2025-04-18T11:02:44.169+03:00,93,1.55,2025-04-18T08:51:18.885+03:00,0.03057091307199995,1
