loggingTime(txt),locationTimestamp_since1970(s),locationLatitude(WGS84),locationLongitude(WGS84),locationAltitude(m),locationSpeed(m/s),locationSpeedAccuracy(m/s),locationCourse(°),locationCourseAccuracy(°),locationVerticalAccuracy(m),locationHorizontalAccuracy(m),locationFloor(Z),accelerometerTimestamp_sinceReboot(s),accelerometerAccelerationX(G),accelerometerAccelerationY(G),accelerometerAccelerationZ(G),motionTimestamp_sinceReboot(s),motionYaw(rad),motionRoll(rad),motionPitch(rad),motionRotationRateX(rad/s),motionRotationRateY(rad/s),motionRotationRateZ(rad/s),motionUserAccelerationX(G),motionUserAccelerationY(G),motionUserAccelerationZ(G),motionAttitudeReferenceFrame(txt),motionQuaternionX(R),motionQuaternionY(R),motionQuaternionZ(R),motionQuaternionW(R),motionGravityX(G),motionGravityY(G),motionGravityZ(G),motionMagneticFieldX(µT),motionMagneticFieldY(µT),motionMagneticFieldZ(µT),motionHeading(°),motionMagneticFieldCalibrationAccuracy(Z),activityTimestamp_sinceReboot(s),activity(txt),activityActivityConfidence(Z),activityActivityStartDate(txt),pedometerStartDate(txt),pedometerNumberofSteps(N),pedometerAverageActivePace(s/m),pedometerCurrentPace(s/m),pedometerCurrentCadence(steps/s),pedometerDistance(m),pedometerFloorAscended(N),pedometerFloorDescended(N),pedometerEndDate(txt),altimeterTimestamp_sinceReboot(s),altimeterReset(bool),altimeterRelativeAltitude(m),altimeterPressure(kPa),batteryState(N),batteryLevel(R),heartRateBPMTimestamp(txt),heartRateBPM(N),heartRateBPS(R),heartRateVariabilityTimestamp(txt),heartRateVariability(ms),label
2025-04-18T11:35:55.706+03:00,1744965352.97818,40.95357940565665,29.14101123988411,93.69504,-1,-1,-1,-1,30,22.06683002708428,-9999,64391.32256529167,-0.731842041015625,0.6365966796875,-0.19622802734375,64391.31249029167,1.075361031726619,-1.333738582017779,-0.6884819541695693,-0.003646899480372667,-0.05756069347262383,-0.02914827689528465,-0.03846269845962524,0.01685595512390137,-0.01904462277889252,XArbitraryZVertical,0.07042852010824124,-0.6358972704301661,0.5581034952898792,0.5283890389441012,-0.750615119934082,0.6353656649589539,-0.1813489645719528,0,0,0,-1,-1,64378.94930104167,unknown,2,2025-04-18T11:35:43.308+03:00,2025-04-17T15:44:39.500+03:00,7490,1.122643,0,0,6178.962,4,10,2025-04-18T11:35:40.728+03:00,766658153.7219963,0,107.81,100.5609,1,0.55,2025-04-18T11:25:57.919+03:00,77.00000000000001,1.283333333333333,2025-04-18T08:51:18.885+03:00,0.03057091307199995,1
2025-04-18T11:35:55.708+03:00,1744965352.97818,40.95357940565665,29.14101123988411,93.69504,-1,-1,-1,-1,30,22.06683002708428,-9999,64391.33264029167,-0.7502899169921875,0.6363677978515625,-0.196533203125,64391.32256529167,1.075082154157806,-1.334383520916911,-0.6882499195761761,-0.03754321485757828,-0.03840417787432671,-0.02224636077880859,0.01682066917419434,0.002920806407928467,-0.01653401553630829,XArbitraryZVertical,0.07060587308463837,-0.6360543421590833,0.5579647917648245,0.528322845658428,-0.7508752346038818,0.635186493396759,-0.180899366736412,0,0,0,-1,-1,64378.94930104167,unknown,2,2025-04-18T11:35:43.308+03:00,2025-04-17T15:44:39.500+03:00,7490,1.122643,0,0,6178.962,4,10,2025-04-18T11:35:40.728+03:00,766658153.7219963,0,107.81,100.5609,1,0.55,2025-04-18T11:25:57.919+03:00,77.00000000000001,1.283333333333333,2025-04-18T08:51:18.885+03:00,0.03057091307199995,1
2025-04-18T11:35:55.709+03:00,1744965352.97818,40.95357940565665,29.14101123988411,93.69504,-1,-1,-1,-1,30,22.06683002708428,-9999,64391.34271529167,-0.756927490234375,0.6358184814453125,-0.1982574462890625,64391.33264029167,1.074408210044348,-1.335090572906598,-0.6881560820599755,-0.06384965032339096,-0.02299512550234795,-0.01657409407198429,0.003487050533294678,0.0009486675262451172,-0.01508265733718872,XArbitraryZVertical,0.07062354675900773,-0.6362555694466115,0.557744682038177,0.5283105807867832,-0.7510609030723572,0.6351140141487122,-0.1803823262453079,0,0,0,-1,-1,64378.94930104167,unknown,2,2025-04-18T11:35:43.308+03:00,2025-04-17T15:44:39.500+03:00,7490,1.122643,0,0,6178.962,4,10,2025-04-18T11:35:40.728+03:00,766658153.7219963,0,107.81,100.5609,1,0.55,2025-04-18T11:25:57.919+03:00,77.00000000000001,1.283333333333333,2025-04-18T08:51:18.885+03:00,0.03057091307199995,1
2025-04-18T11:35:55.716+03:00,1744965352.97818,40.95357940565665,29.14101123988411,93.69504,-1,-1,-1,-1,30,22.06683002708428,-9999,64391.35279029167,-0.7422027587890625,0.6353607177734375,-0.1882476806640625,64391.34271529167,1.073492510378459,-1.335871283491352,-0.6881849457551993,-0.08091026544570923,-0.02901027351617813,-0.01138832233846188,-0.006521999835968018,0.0001482367515563965,-0.01831312477588654,XArbitraryZVertical,0.07053908048378714,-0.6364969716376241,0.557480496045648,0.5283100752268414,-0.7511838674545288,0.6351363062858582,-0.1797916889190674,0,0,0,-1,-1,64378.94930104167,unknown,2,2025-04-18T11:35:43.308+03:00,2025-04-17T15:44:39.500+03:00,7490,1.122643,0,0,6178.962,4,10,2025-04-18T11:35:40.728+03:00,766658153.7219963,0,107.81,100.5609,1,0.55,2025-04-18T11:25:57.919+03:00,77.00000000000001,1.283333333333333,2025-04-18T08:51:18.885+03:00,0.03057091307199995,1
2025-04-18T11:35:55.730+03:00,1744965352.97818,40.95357940565665,29.14101123988411,93.69504,-1,-1,-1,-1,30,22.06683002708428,-9999,64391.36286429167,-0.72491455078125,0.630767822265625,-0.1796722412109375,64391.35279029167,1.072412074463638,-1.336946643544395,-0.6882660390103705,-0.08421125262975693,-0.0512724369764328,-0.01575457490980625,0.006987512111663818,0.0006195902824401855,-0.00991666316986084,XArbitraryZVertical,0.0704647566049303,-0.6368271365433543,0.5571720529523967,0.5282474118850307,-0.7513265609741211,0.6351988911628723,-0.1789718270301819,0,0,0,-1,-1,64378.94930104167,unknown,2,2025-04-18T11:35:43.308+03:00,2025-04-17T15:44:39.500+03:00,7490,1.122643,0,0,6178.962,4,10,2025-04-18T11:35:40.728+03:00,766658153.7219963,0,107.81,100.5609,1,0.55,2025-04-18T11:25:57.919+03:00,77.00000000000001,1.283333333333333,2025-04-18T08:51:18.885+03:00,0.03057091307199995,1
2025-04-18T11:35:55.736+03:00,1744965352.97818,40.95357940565665,29.14101123988411,93.69504,-1,-1,-1,-1,30,22.06683002708428,-9999,64391.37293929167,-0.7338714599609375,0.6261444091796875,-0.1755828857421875,64391.36286429167,1.071359514666778,-1.338202084417069,-0.6884209554891697,-0.0773920938372612,-0.06180324032902718,-0.003741254564374685,0.02579259872436523,-0.003741979598999023,-0.001895308494567871,XArbitraryZVertical,0.07042172056334227,-0.6372110381413248,0.5568782740456051,0.5280999120313763,-0.7514548301696777,0.6353185772895813,-0.1780057549476624,0,0,0,-1,-1,64378.94930104167,unknown,2,2025-04-18T11:35:43.308+03:00,2025-04-17T15:44:39.500+03:00,7490,1.122643,0,0,6178.962,4,10,2025-04-18T11:35:40.728+03:00,766658153.7219963,0,107.81,100.5609,1,0.55,2025-04-18T11:25:57.919+03:00,77.00000000000001,1.283333333333333,2025-04-18T08:51:18.885+03:00,0.03057091307199995,1
2025-04-18T11:35:55.746+03:00,1744965352.97818,40.95357940565665,29.14101123988411,93.69504,-1,-1,-1,-1,30,22.06683002708428,-9999,64391.38301429167,-0.743804931640625,0.6288604736328125,-0.176116943359375,64391.37293929167,1.070377502548679,-1.339398027292948,-0.6886866770031709,-0.07748663425445557,-0.05977417901158333,-0.008109371177852154,0.01959973573684692,-0.008845269680023193,0.0008444786071777344,XArbitraryZVertical,0.07034310653204526,-0.6375874364478552,0.5566257243807663,0.5279223691489008,-0.7515029311180115,0.6355237364768982,-0.177068218588829,0,0,0,-1,-1,64378.94930104167,unknown,2,2025-04-18T11:35:43.308+03:00,2025-04-17T15:44:39.500+03:00,7490,1.122643,0,0,6178.962,4,10,2025-04-18T11:35:40.728+03:00,766658153.7219963,0,107.81,100.5609,1,0.55,2025-04-18T11:25:57.919+03:00,77.00000000000001,1.283333333333333,2025-04-18T08:51:18.885+03:00,0.03057091307199995,1
2025-04-18T11:35:55.758+03:00,1744965352.97818,40.95357940565665,29.14101123988411,93.69504,-1,-1,-1,-1,30,22.06683002708428,-9999,64391.39308929167,-0.741607666015625,0.6353912353515625,-0.1858062744140625,64391.38301429167,1.069487161893577,-1.340604036858158,-0.688763577543546,-0.05963832885026932,-0.07268937677145004,-0.01203150767832994,0.007542848587036133,-0.007683873176574707,0.0007051080465316772,XArbitraryZVertical,0.07036622645356119,-0.6379445739194647,0.5563624611051928,0.5277653791451549,-0.751668393611908,0.6355831027030945,-0.1761506348848343,0,0,0,-1,-1,64378.94930104167,unknown,2,2025-04-18T11:35:43.308+03:00,2025-04-17T15:44:39.500+03:00,7490,1.122643,0,0,6178.962,4,10,2025-04-18T11:35:40.728+03:00,766658153.7219963,0,107.81,100.5609,1,0.55,2025-04-18T11:25:57.919+03:00,77.00000000000001,1.283333333333333,2025-04-18T08:51:18.885+03:00,0.03057091307199995,1
2025-04-18T11:35:55.767+03:00,1744965352.97818,40.95357940565665,29.14101123988411,93.69504,-1,-1,-1,-1,30,22.06683002708428,-9999,64391.40316429167,-0.7443389892578125,0.6429595947265625,-0.1851959228515625,64391.39308929167,1.068771590795792,-1.341916848161221,-0.6887721784921932,-0.05356525629758835,-0.1052379980683327,-0.005543781910091639,0.009782373905181885,-0.0009766817092895508,-0.01004868745803833,XArbitraryZVertical,0.07049986827476357,-0.6383169714509583,0.556129034062545,0.5275431935354835,-0.7518935799598694,0.6355897784233093,-0.1751624196767807,0,0,0,-1,-1,64378.94930104167,unknown,2,2025-04-18T11:35:43.308+03:00,2025-04-17T15:44:39.500+03:00,7490,1.122643,0,0,6178.962,4,10,2025-04-18T11:35:40.728+03:00,766658153.7219963,0,107.81,100.5609,1,0.55,2025-04-18T11:25:57.919+03:00,77.00000000000001,1.283333333333333,2025-04-18T08:51:18.885+03:00,0.03057091307199995,1
2025-04-18T11:35:55.776+03:00,1744965352.97818,40.95357940565665,29.14101123988411,93.69504,-1,-1,-1,-1,30,22.06683002708428,-9999,64391.41323929167,-0.7518463134765625,0.643402099609375,-0.1825408935546875,64391.40316429167,1.068165380627604,-1.343290903376354,-0.6889558235535833,-0.05841900035738945,-0.09186879545450211,0.01603081822395325,0.008703112602233887,0.006861865520477295,-0.01193231344223022,XArbitraryZVertical,0.07062028717694424,-0.638718547853406,0.5559546138175113,0.5272247661485703,-0.7520198225975037,0.6357315182685852,-0.174102783203125,0,0,0,-1,-1,64378.94930104167,unknown,2,2025-04-18T11:35:43.308+03:00,2025-04-17T15:44:39.500+03:00,7490,1.122643,0,0,6178.962,4,10,2025-04-18T11:35:40.728+03:00,766658153.7219963,0,107.81,100.5609,1,0.55,2025-04-18T11:25:57.919+03:00,77.00000000000001,1.283333333333333,2025-04-18T08:51:18.885+03:00,0.03057091307199995,1
2025-04-18T11:35:55.787+03:00,1744965352.97818,40.95357940565665,29.14101123988411,93.69504,-1,-1,-1,-1,30,22.06683002708428,-9999,64391.42331429167,-0.75836181640625,0.6479034423828125,-0.186187744140625,64391.41323929167,1.067507560434273,-1.344503696805267,-0.6893093675161632,-0.05652948841452599,-0.08042705804109573,0.02494069002568722,0.001935005187988281,0.007290899753570557,-0.009293898940086365,XArbitraryZVertical,0.07061625471837107,-0.6390956652766808,0.555803819212237,0.5269271260178829,-0.752011239528656,0.6360043883323669,-0.1731401532888412,0,0,0,-1,-1,64378.94930104167,unknown,2,2025-04-18T11:35:43.308+03:00,2025-04-17T15:44:39.500+03:00,7490,1.122643,0,0,6178.962,4,10,2025-04-18T11:35:40.728+03:00,766658153.7219963,0,107.81,100.5609,1,0.55,2025-04-18T11:25:57.919+03:00,77.00000000000001,1.283333333333333,2025-04-18T08:51:18.885+03:00,0.03057091307199995,1
2025-04-18T11:35:55.797+03:00,1744965352.97818,40.95357940565665,29.14101123988411,93.69504,-1,-1,-1,-1,30,22.06683002708428,-9999,64391.43338929167,-0.7409515380859375,0.645294189453125,-0.18896484375,64391.42331429167,1.067058179254604,-1.345531567308793,-0.6895495108703532,-0.03103571571409702,-0.07697600126266479,0.006525530945509672,-0.006642282009124756,0.01121020317077637,-0.0129239410161972,XArbitraryZVertical,0.07066928236131374,-0.6394054827574821,0.5556936160616779,0.526660293560425,-0.752039909362793,0.6361896991729736,-0.1723329573869705,0,0,0,-1,-1,64378.94930104167,unknown,2,2025-04-18T11:35:43.308+03:00,2025-04-17T15:44:39.500+03:00,7490,1.122643,0,0,6178.962,4,10,2025-04-18T11:35:40.728+03:00,766658153.7219963,0,107.81,100.5609,1,0.55,2025-04-18T11:25:57.919+03:00,77.00000000000001,1.283333333333333,2025-04-18T08:51:18.885+03:00,0.03057091307199995,1
2025-04-18T11:35:55.807+03:00,1744965352.97818,40.95357940565665,29.14101123988411,93.69504,-1,-1,-1,-1,30,22.06683002708428,-9999,64391.44346429167,-0.7419586181640625,0.642364501953125,-0.185943603515625,64391.43338929167,1.066829965052088,-1.346318412505803,-0.6895939272987212,-0.009922971948981285,-0.05664356797933578,-0.009383927099406719,0.009380459785461426,0.009863734245300293,-0.01695519685745239,XArbitraryZVertical,0.07079840894104868,-0.6396249900612585,0.5556139172780602,0.5264605939013389,-0.7521478533744812,0.6362239718437195,-0.1717349141836166,0,0,0,-1,-1,64378.94930104167,unknown,2,2025-04-18T11:35:43.308+03:00,2025-04-17T15:44:39.500+03:00,7490,1.122643,0,0,6178.962,4,10,2025-04-18T11:35:40.728+03:00,766658153.7219963,0,107.81,100.5609,1,0.55,2025-04-18T11:25:57.919+03:00,77.00000000000001,1.283333333333333,2025-04-18T08:51:18.885+03:00,0.03057091307199995,1
2025-04-18T11:35:55.817+03:00,1744965352.97818,40.95357940565665,29.14101123988411,93.69504,-1,-1,-1,-1,30,22.06683002708428,-9999,64391.45353929167,-0.7537689208984375,0.6410064697265625,-0.1727142333984375,64391.44346429167,1.066675473504672,-1.346904137245098,-0.6894893232442311,-0.01619931124150753,-0.04684426635503769,-0.02734817937016487,0.01162099838256836,0.006511151790618896,-0.01602302491664886,XArbitraryZVertical,0.07095048018817038,-0.6397745594562744,0.5555331066531514,0.5263435506141758,-0.7523131370544434,0.6361432671546936,-0.1713090837001801,0,0,0,-1,-1,64378.94930104167,unknown,2,2025-04-18T11:35:43.308+03:00,2025-04-17T15:44:39.500+03:00,7490,1.122643,0,0,6178.962,4,10,2025-04-18T11:35:40.728+03:00,766658153.7219963,0,107.81,100.5609,1,0.55,2025-04-18T11:25:57.919+03:00,77.00000000000001,1.283333333333333,2025-04-18T08:51:18.885+03:00,0.03057091307199995,1
2025-04-18T11:35:55.827+03:00,1744965352.97818,40.95357940565665,29.14101123988411,93.69504,-1,-1,-1,-1,30,22.06683002708428,-9999,64391.46361429167,-0.760345458984375,0.6463775634765625,-0.170623779296875,64391.45353929167,1.066300844657724,-1.347486358246755,-0.6891500144879957,-0.02648071013391018,-0.03142616152763367,-0.04887238144874573,0.000502169132232666,0.004926681518554688,-0.002680346369743347,XArbitraryZVertical,0.07111798969404574,-0.6399084457403422,0.5553508373490098,0.5263504933036079,-0.7526231408119202,0.6358814239501953,-0.1709188222885132,0,0,0,-1,-1,64378.94930104167,unknown,2,2025-04-18T11:35:43.308+03:00,2025-04-17T15:44:39.500+03:00,7490,1.122643,0,0,6178.962,4,10,2025-04-18T11:35:40.728+03:00,766658153.7219963,0,107.81,100.5609,1,0.55,2025-04-18T11:25:57.919+03:00,77.00000000000001,1.283333333333333,2025-04-18T08:51:18.885+03:00,0.03057091307199995,1
2025-04-18T11:35:55.837+03:00,1744965352.97818,40.95357940565665,29.14101123988411,93.69504,-1,-1,-1,-1,30,22.06683002708428,-9999,64391.47368929167,-0.761871337890625,0.6443939208984375,-0.1697235107421875,64391.46361429167,1.065852148840299,-1.348040206490988,-0.6887072401765144,-0.02141717448830605,-0.02743588015437126,-0.04868192970752716,-0.00597989559173584,0.009998738765716553,-0.0001358389854431152,XArbitraryZVertical,0.07129207720115052,-0.640027619748292,0.5551307012202124,0.5264143710695538,-0.7529923319816589,0.6355395913124084,-0.1705641746520996,0,0,0,-1,-1,64378.94930104167,unknown,2,2025-04-18T11:35:43.308+03:00,2025-04-17T15:44:39.500+03:00,7490,1.122643,0,0,6178.962,4,10,2025-04-18T11:35:40.728+03:00,766658153.7219963,0,107.81,100.5609,1,0.55,2025-04-18T11:25:57.919+03:00,77.00000000000001,1.283333333333333,2025-04-18T08:51:18.885+03:00,0.03057091307199995,1
2025-04-18T11:35:55.847+03:00,1744965352.97818,40.95357940565665,29.14101123988411,93.69504,-1,-1,-1,-1,30,22.06683002708428,-9999,64391.48376429167,-0.7620391845703125,0.640625,-0.16796875,64391.47368929167,1.065518896153284,-1.348473448779856,-0.6883144352223283,-0.01494462788105011,-0.02502252534031868,-0.04382991790771484,-0.008699178695678711,0.009813845157623291,-0.0003307610750198364,XArbitraryZVertical,0.07145106065557036,-0.640115815237856,0.554954411776817,0.526471526528052,-0.7533096671104431,0.6352363228797913,-0.1702929735183716,0,0,0,-1,-1,64378.94930104167,unknown,2,2025-04-18T11:35:43.308+03:00,2025-04-17T15:44:39.500+03:00,7490,1.122643,0,0,6178.962,4,10,2025-04-18T11:35:40.728+03:00,766658153.7219963,0,107.81,100.5609,1,0.55,2025-04-18T11:25:57.919+03:00,77.00000000000001,1.283333333333333,2025-04-18T08:51:18.885+03:00,0.03057091307199995,1
2025-04-18T11:35:55.857+03:00,1744965352.97818,40.95357940565665,29.14101123988411,93.69504,-1,-1,-1,-1,30,22.06683002708428,-9999,64391.49383929167,-0.7582550048828125,0.6327056884765625,-0.170562744140625,64391.48376429167,1.065241335633363,-1.348764348008813,-0.68798379616851,-0.01475847326219082,-0.01183854509145021,-0.04030189663171768,-0.008093774318695068,0.005873024463653564,0.002059817314147949,XArbitraryZVertical,0.07156534233205186,-0.6401705754688067,0.5548093618017531,0.5265422763694801,-0.7535640001296997,0.6349809169769287,-0.1701200753450394,0,0,0,-1,-1,64378.94930104167,unknown,2,2025-04-18T11:35:43.308+03:00,2025-04-17T15:44:39.500+03:00,7490,1.122643,0,0,6178.962,4,10,2025-04-18T11:35:40.728+03:00,766658153.7219963,0,107.81,100.5609,1,0.55,2025-04-18T11:25:57.919+03:00,77.00000000000001,1.283333333333333,2025-04-18T08:51:18.885+03:00,0.03057091307199995,1
2025-04-18T11:35:55.867+03:00,1744965352.97818,40.95357940565665,29.14101123988411,93.69504,-1,-1,-1,-1,30,22.06683002708428,-9999,64391.50391429167,-0.74676513671875,0.6297607421875,-0.16900634765625,64391.49383929167,1.064849632698442,-1.349097349639735,-0.6876458603251103,-0.03064928762614727,-0.01262364443391562,-0.05135667696595192,-0.005829036235809326,-0.001129090785980225,-0.0001276135444641113,XArbitraryZVertical,0.0716574401520665,-0.6402398519163853,0.5546313205267149,0.5266330311520697,-0.7538298368453979,0.6347197890281677,-0.1699162870645523,0,0,0,-1,-1,64378.94930104167,unknown,2,2025-04-18T11:35:43.308+03:00,2025-04-17T15:44:39.500+03:00,7490,1.122643,0,0,6178.962,4,10,2025-04-18T11:35:40.728+03:00,766658153.7219963,0,107.81,100.5609,1,0.55,2025-04-18T11:25:57.919+03:00,77.00000000000001,1.283333333333333,2025-04-18T08:51:18.885+03:00,0.03057091307199995,1
2025-04-18T11:35:55.877+03:00,1744965352.97818,40.95357940565665,29.14101123988411,93.69504,-1,-1,-1,-1,30,22.06683002708428,-9999,64391.51398929167,-0.737640380859375,0.62298583984375,-0.17059326171875,64391.50391429167,1.064274811423547,-1.349578198094272,-0.6871431720883783,-0.03702622652053833,-0.01998941600322723,-0.06724895536899567,0.005916297435760498,-0.003990709781646729,0.001029446721076965,XArbitraryZVertical,0.07179282987588012,-0.6403389004511696,0.5543689021676245,0.5267704038636283,-0.754222571849823,0.6343312859535217,-0.1696237623691559,0,0,0,-1,-1,64378.94930104167,unknown,2,2025-04-18T11:35:43.308+03:00,2025-04-17T15:44:39.500+03:00,7490,1.122643,0,0,6178.962,4,10,2025-04-18T11:35:40.728+03:00,766658153.7219963,0,107.81,100.5609,1,0.55,2025-04-18T11:25:57.919+03:00,77.00000000000001,1.283333333333333,2025-04-18T08:51:18.885+03:00,0.03057091307199995,1
2025-04-18T11:35:55.887+03:00,1744965352.97818,40.95357940565665,29.14101123988411,93.69504,-1,-1,-1,-1,30,22.06683002708428,-9999,64391.52406429167,-0.7371368408203125,0.6138458251953125,-0.1763763427734375,64391.51398929167,1.063668940681499,-1.350161942161018,-0.686600620602104,-0.03758842125535011,-0.02884948626160622,-0.07099149376153946,0.01648271083831787,-0.009857773780822754,-0.0007545948028564453,XArbitraryZVertical,0.07196140481763569,-0.6404624698694369,0.5540869498131075,0.5268938354713267,-0.7546572089195251,0.6339117288589478,-0.1692587584257126,0,0,0,-1,-1,64378.94930104167,unknown,2,2025-04-18T11:35:43.308+03:00,2025-04-17T15:44:39.500+03:00,7490,1.122643,0,0,6178.962,4,10,2025-04-18T11:35:40.728+03:00,766658153.7219963,0,107.81,100.5609,1,0.55,2025-04-18T11:25:57.919+03:00,77.00000000000001,1.283333333333333,2025-04-18T08:51:18.885+03:00,0.03057091307199995,1
2025-04-18T11:35:55.898+03:00,1744965352.97818,40.95357940565665,29.14101123988411,93.69504,-1,-1,-1,-1,30,22.06683002708428,-9999,64391.53413929167,-0.7425079345703125,0.611907958984375,-0.1765289306640625,64391.52406429167,1.062947459756344,-1.350897526915623,-0.6859232985353639,-0.05280372872948647,-0.04070068523287773,-0.09453577548265457,0.01936048269271851,-0.01967924833297729,-0.006495654582977295,XArbitraryZVertical,0.07218472989367258,-0.6406174769566967,0.5537435866812789,0.5270358229320238,-0.7552003860473633,0.6333877444267273,-0.1687972247600555,0,0,0,-1,-1,64378.94930104167,unknown,2,2025-04-18T11:35:43.308+03:00,2025-04-17T15:44:39.500+03:00,7490,1.122643,0,0,6178.962,4,10,2025-04-18T11:35:40.728+03:00,766658153.7219963,0,107.81,100.5609,1,0.55,2025-04-18T11:25:57.919+03:00,77.00000000000001,1.283333333333333,2025-04-18T08:51:18.885+03:00,0.03057091307199995,1
2025-04-18T11:35:55.908+03:00,1744965352.97818,40.95357940565665,29.14101123988411,93.69504,-1,-1,-1,-1,30,22.06683002708428,-9999,64391.54421429167,-0.7453460693359375,0.6082763671875,-0.17333984375,64391.53413929167,1.061840502261543,-1.352072587565726,-0.685170299432924,-0.08106891810894012,-0.05624369159340858,-0.08822621405124664,0.0137370228767395,-0.02079015970230103,-0.00853101909160614,XArbitraryZVertical,0.07243395983339805,-0.6408952797110476,0.5532681608823136,0.5271630886774094,-0.7558634877204895,0.6328048706054688,-0.1680131256580353,0,0,0,-1,-1,64378.94930104167,unknown,2,2025-04-18T11:35:43.308+03:00,2025-04-17T15:44:39.500+03:00,7490,1.122643,0,0,6178.962,4,10,2025-04-18T11:35:40.728+03:00,766658153.7219963,0,107.81,100.5609,1,0.55,2025-04-18T11:25:57.919+03:00,77.00000000000001,1.283333333333333,2025-04-18T08:51:18.885+03:00,0.03057091307199995,1
2025-04-18T11:35:55.918+03:00,1744965352.97818,40.95357940565665,29.14101123988411,93.69504,-1,-1,-1,-1,30,22.06683002708428,-9999,64391.55428929167,-0.748992919921875,0.62603759765625,-0.1761322021484375,64391.54421429167,1.060563266772827,-1.353592992756643,-0.684599911816628,-0.08372236043214798,-0.08516708761453629,-0.07326529920101166,0.0119636058807373,-0.02397990226745605,-0.006947576999664307,XArbitraryZVertical,0.07265593194697567,-0.6412880543816654,0.5527690847817662,0.5271785439432431,-0.7564705014228821,0.6323631405830383,-0.1669414937496185,0,0,0,-1,-1,64378.94930104167,unknown,2,2025-04-18T11:35:43.308+03:00,2025-04-17T15:44:39.500+03:00,7490,1.122643,0,0,6178.962,4,10,2025-04-18T11:35:40.728+03:00,766658153.7219963,0,107.81,100.5609,1,0.55,2025-04-18T11:25:57.919+03:00,77.00000000000001,1.283333333333333,2025-04-18T08:51:18.885+03:00,0.03057091307199995,1
2025-04-18T11:35:55.928+03:00,1744965352.97818,40.95357940565665,29.14101123988411,93.69504,-1,-1,-1,-1,30,22.06683002708428,-9999,64391.56436429167,-0.744842529296875,0.6429290771484375,-0.175567626953125,64391.55428929167,1.059315616631296,-1.355443868720035,-0.684110583776566,-0.08727049082517624,-0.1239690706133842,-0.0680023655295372,0.008209526538848877,-0.009318530559539795,-0.01011300086975098,XArbitraryZVertical,0.07294803030943804,-0.6417748779740013,0.5522806005489577,0.5270577507150979,-0.7570804357528687,0.6319839954376221,-0.1656071841716766,0,0,0,-1,-1,64378.94930104167,unknown,2,2025-04-18T11:35:43.308+03:00,2025-04-17T15:44:39.500+03:00,7490,1.122643,0,0,6178.962,4,10,2025-04-18T11:35:40.728+03:00,766658153.7219963,0,107.81,100.5609,1,0.55,2025-04-18T11:25:57.919+03:00,77.00000000000001,1.283333333333333,2025-04-18T08:51:18.885+03:00,0.03057091307199995,1
2025-04-18T11:35:55.938+03:00,1744965352.97818,40.95357940565665,29.14101123988411,93.69504,-1,-1,-1,-1,30,22.06683002708428,-9999,64391.57443929167,-0.74969482421875,0.6480255126953125,-0.167633056640625,64391.56436429167,1.057925147065607,-1.357645368483479,-0.6836198422227281,-0.09251665323972702,-0.1401152908802032,-0.07694192975759506,0.01267462968826294,0.009555459022521973,-0.01156197488307953,XArbitraryZVertical,0.07329075517165122,-0.6423594420782113,0.5517409234352952,0.5268631391658102,-0.7577460408210754,0.6316035985946655,-0.1640056222677231,0,0,0,-1,-1,64378.94930104167,unknown,2,2025-04-18T11:35:43.308+03:00,2025-04-17T15:44:39.500+03:00,7490,1.122643,0,0,6178.962,4,10,2025-04-18T11:35:40.728+03:00,766658153.7219963,0,107.81,100.5609,1,0.55,2025-04-18T11:25:57.919+03:00,77.00000000000001,1.283333333333333,2025-04-18T08:51:18.885+03:00,0.03057091307199995,1
2025-04-18T11:35:55.948+03:00,1744965352.97818,40.95357940565665,29.14101123988411,93.69504,-1,-1,-1,-1,30,22.06683002708428,-9999,64391.58451429167,-0.757904052734375,0.6472930908203125,-0.1658477783203125,64391.57443929167,1.056773502894207,-1.359732571549239,-0.6831278141970681,-0.06562218815088272,-0.1295188367366791,-0.0556238628923893,0.009244918823242188,0.01607096195220947,-0.006136029958724976,XArbitraryZVertical,0.07367814021795188,-0.6429052433959596,0.5512675329933235,0.5266387526043611,-0.7583903670310974,0.6312220692634583,-0.1624887585639954,0,0,0,-1,-1,64378.94930104167,unknown,2,2025-04-18T11:35:43.308+03:00,2025-04-17T15:44:39.500+03:00,7490,1.122643,0,0,6178.962,4,10,2025-04-18T11:35:40.728+03:00,766658153.7219963,0,107.81,100.5609,1,0.55,2025-04-18T11:25:57.919+03:00,77.00000000000001,1.283333333333333,2025-04-18T08:51:18.885+03:00,0.03057091307199995,1
2025-04-18T11:35:55.960+03:00,1744965352.97818,40.95357940565665,29.14101123988411,93.69504,-1,-1,-1,-1,30,22.06683002708428,-9999,64391.59458929167,-0.779754638671875,0.6387481689453125,-0.1619720458984375,64391.58451429167,1.055901655286977,-1.361368136642086,-0.6829012884103505,-0.06069513782858849,-0.08981463313102722,-0.02127737179398537,0.00226438045501709,0.0172995924949646,-0.003989920020103455,XArbitraryZVertical,0.07393208693194915,-0.6433467902602684,0.5509345086330815,0.5264125606865854,-0.7587951421737671,0.6310463547706604,-0.1612779051065445,0,0,0,-1,-1,64378.94930104167,unknown,2,2025-04-18T11:35:43.308+03:00,2025-04-17T15:44:39.500+03:00,7490,1.122643,0,0,6178.962,4,10,2025-04-18T11:35:40.728+03:00,766658153.7219963,0,107.81,100.5609,1,0.55,2025-04-18T11:25:57.919+03:00,77.00000000000001,1.283333333333333,2025-04-18T08:51:18.885+03:00,0.03057091307199995,1
2025-04-18T11:35:55.968+03:00,1744965352.97818,40.95357940565665,29.14101123988411,93.69504,-1,-1,-1,-1,30,22.06683002708428,-9999,64391.60466429167,-0.7811279296875,0.6331329345703125,-0.16424560546875,64391.59458929167,1.055270230697037,-1.362344397299783,-0.6829872835291646,-0.0319947823882103,-0.03515458479523659,0.01347821205854416,-0.01882606744766235,0.008581161499023438,-0.001766622066497803,XArbitraryZVertical,0.07396603295522169,-0.6436350762916514,0.550748636223379,0.526249906653566,-0.7588991522789001,0.6311130523681641,-0.1605258285999298,0,0,0,-1,-1,64378.94930104167,unknown,2,2025-04-18T11:35:43.308+03:00,2025-04-17T15:44:39.500+03:00,7490,1.122643,0,0,6178.962,4,10,2025-04-18T11:35:40.728+03:00,766658153.7219963,0,107.81,100.5609,1,0.55,2025-04-18T11:25:57.919+03:00,77.00000000000001,1.283333333333333,2025-04-18T08:51:18.885+03:00,0.03057091307199995,1
2025-04-18T11:35:55.980+03:00,1744965352.97818,40.95357940565665,29.14101123988411,93.69504,-1,-1,-1,-1,30,22.06683002708428,-9999,64391.61473929167,-0.78094482421875,0.632476806640625,-0.1931304931640625,64391.60466429167,1.055426565737815,-1.362221373183753,-0.6833687225220144,0.02426502481102943,0.03043694049119949,0.06319063901901245,-0.0230945348739624,0.002044439315795898,-0.002608105540275574,XArbitraryZVertical,0.07384162683352265,-0.6436324713381947,0.5508670970038018,0.5261464802750382,-0.7586437463760376,0.6314088702201843,-0.1605693101882935,0,0,0,-1,-1,64378.94930104167,unknown,2,2025-04-18T11:35:43.308+03:00,2025-04-17T15:44:39.500+03:00,7490,1.122643,0,0,6178.962,4,10,2025-04-18T11:35:40.728+03:00,766658153.7219963,0,107.81,100.5609,1,0.55,2025-04-18T11:25:57.919+03:00,77.00000000000001,1.283333333333333,2025-04-18T08:51:18.885+03:00,0.03057091307199995,1
2025-04-18T11:35:55.992+03:00,1744965352.97818,40.95357940565665,29.14101123988411,93.69504,-1,-1,-1,-1,30,22.06683002708428,-9999,64391.62481429167,-0.78753662109375,0.6342926025390625,-0.21978759765625,64391.61473929167,1.05618927653643,-1.361020624784248,-0.6840371709175546,0.05314541235566139,0.09780612587928772,0.09079377353191376,-0.02234280109405518,0.001160085201263428,-0.02767932415008545,XArbitraryZVertical,0.07350926219386102,-0.6433508183877428,0.5512393274183808,0.526147708065136,-0.7580375075340271,0.6319270730018616,-0.1613922268152237,0,0,0,-1,-1,64378.94930104167,unknown,2,2025-04-18T11:35:43.308+03:00,2025-04-17T15:44:39.500+03:00,7490,1.122643,0,0,6178.962,4,10,2025-04-18T11:35:40.728+03:00,766658153.7219963,0,107.81,100.5609,1,0.55,2025-04-18T11:25:57.919+03:00,77.00000000000001,1.283333333333333,2025-04-18T08:51:18.885+03:00,0.03057091307199995,1
2025-04-18T11:35:55.998+03:00,1744965352.97818,40.95357940565665,29.14101123988411,93.69504,-1,-1,-1,-1,30,22.06683002708428,-9999,64391.63488829167,-0.78045654296875,0.6543426513671875,-0.224456787109375,64391.62481429167,1.057197921583291,-1.359104710040351,-0.6848466990039506,0.05588207393884659,0.1360184997320175,0.1015364304184914,-0.02997446060180664,2.932548522949219e-05,-0.05500619113445282,XArbitraryZVertical,0.07300624307260209,-0.6428854800152425,0.5517287290232044,0.5262734355804416,-0.7572264075279236,0.632554292678833,-0.1627366989850998,0,0,0,-1,-1,64378.94930104167,unknown,2,2025-04-18T11:35:43.308+03:00,2025-04-17T15:44:39.500+03:00,7490,1.122643,0,0,6178.962,4,10,2025-04-18T11:35:40.728+03:00,766658153.7219963,0,107.81,100.5609,1,0.55,2025-04-18T11:25:57.919+03:00,77.00000000000001,1.283333333333333,2025-04-18T08:51:18.885+03:00,0.03057091307199995,1
2025-04-18T11:35:56.008+03:00,1744965352.97818,40.95357940565665,29.14101123988411,93.69504,-1,-1,-1,-1,30,22.06683002708428,-9999,64391.64496329167,-0.7592315673828125,0.6700439453125,-0.22808837890625,64391.63488829167,1.058178253187578,-1.357142692317817,-0.6857695171114369,0.04302353411912918,0.1234787330031395,0.1107610911130905,-0.02644103765487671,0.01864767074584961,-0.06057211756706238,XArbitraryZVertical,0.07243867013151485,-0.6424200569696931,0.5522328635622169,0.5263913760212531,-0.7563347816467285,0.6332687735557556,-0.1640982180833817,0,0,0,-1,-1,64378.94930104167,unknown,2,2025-04-18T11:35:43.308+03:00,2025-04-17T15:44:39.500+03:00,7490,1.122643,0,0,6178.962,4,10,2025-04-18T11:35:40.728+03:00,766658153.7219963,0,107.81,100.5609,1,0.55,2025-04-18T11:25:57.919+03:00,77.00000000000001,1.283333333333333,2025-04-18T08:51:18.885+03:00,0.03057091307199995,1
2025-04-18T11:35:56.018+03:00,1744965352.97818,40.95357940565665,29.14101123988411,93.69504,-1,-1,-1,-1,30,22.06683002708428,-9999,64391.65503829167,-0.746124267578125,0.6769561767578125,-0.232666015625,64391.64496329167,1.058832209526739,-1.355481350369906,-0.6866707522383607,0.008544120006263256,0.1161214858293533,0.06709856539964676,-0.005437135696411133,0.03511667251586914,-0.06161981821060181,XArbitraryZVertical,0.07185643949205719,-0.6420439008641518,0.5526351011138109,0.526508149004131,-0.7555034756660461,0.6339659690856934,-0.1652325689792633,0,0,0,-1,-1,64378.94930104167,unknown,2,2025-04-18T11:35:43.308+03:00,2025-04-17T15:44:39.500+03:00,7490,1.122643,0,0,6178.962,4,10,2025-04-18T11:35:40.728+03:00,766658153.7219963,0,107.81,100.5609,1,0.55,2025-04-18T11:25:57.919+03:00,77.00000000000001,1.283333333333333,2025-04-18T08:51:18.885+03:00,0.03057091307199995,1
2025-04-18T11:35:56.028+03:00,1744965352.97818,40.95357940565665,29.14101123988411,93.69504,-1,-1,-1,-1,30,22.06683002708428,-9999,64391.66511329167,-0.734405517578125,0.6893310546875,-0.236968994140625,64391.65503829167,1.058483473368353,-1.354567647331855,-0.6870715327712063,-0.08920407295227051,0.09981275349855423,-0.0004409653483889997,0.007407963275909424,0.04115444421768188,-0.06710284948348999,XArbitraryZVertical,0.07134378622828694,-0.6418535117760253,0.552651530739754,0.5267926489147295,-0.7551039457321167,0.6342759132385254,-0.165868267416954,0,0,0,-1,-1,64378.94930104167,unknown,2,2025-04-18T11:35:43.308+03:00,2025-04-17T15:44:39.500+03:00,7490,1.122643,0,0,6178.962,4,10,2025-04-18T11:35:40.728+03:00,766658153.7219963,0,107.81,100.5609,1,0.55,2025-04-18T11:25:57.919+03:00,77.00000000000001,1.283333333333333,2025-04-18T08:51:18.885+03:00,0.03057091307199995,1
2025-04-18T11:35:56.038+03:00,1744965352.97818,40.95357940565665,29.14101123988411,93.69504,-1,-1,-1,-1,30,22.06683002708428,-9999,64391.67518829167,-0.7255706787109375,0.682952880859375,-0.2509765625,64391.66511329167,1.056920789584913,-1.354561651894158,-0.6872464175134116,-0.1346222907304764,0.1138858273625374,-0.01753653027117252,0.01862061023712158,0.0544164776802063,-0.07105892896652222,XArbitraryZVertical,0.07077588742996148,-0.6419238876007084,0.5522729525300537,0.5271803852504308,-0.7549945712089539,0.634411096572876,-0.1658489853143692,0,0,0,-1,-1,64378.94930104167,unknown,2,2025-04-18T11:35:43.308+03:00,2025-04-17T15:44:39.500+03:00,7490,1.122643,0,0,6178.962,4,10,2025-04-18T11:35:40.728+03:00,766658153.7219963,0,107.81,100.5609,1,0.55,2025-04-18T11:25:57.919+03:00,77.00000000000001,1.283333333333333,2025-04-18T08:51:18.885+03:00,0.03057091307199995,1
2025-04-18T11:35:56.048+03:00,1744965352.97818,40.95357940565665,29.14101123988411,93.69504,-1,-1,-1,-1,30,22.06683002708428,-9999,64391.68526329167,-0.7167205810546875,0.6829681396484375,-0.321258544921875,64391.67518829167,1.055472967217348,-1.353650853051383,-0.6876752825713143,-0.06796896457672119,0.210348442196846,0.01741000264883041,0.0285947322845459,0.04932421445846558,-0.0801803320646286,XArbitraryZVertical,0.06990108282438688,-0.6417747837587225,0.5520040185640805,0.5277599541545671,-0.7545773983001709,0.6347425580024719,-0.1664779335260391,0,0,0,-1,-1,64378.94930104167,unknown,2,2025-04-18T11:35:43.308+03:00,2025-04-17T15:44:39.500+03:00,7490,1.122643,0,0,6178.962,4,10,2025-04-18T11:35:40.728+03:00,766658153.7219963,0,107.81,100.5609,1,0.55,2025-04-18T11:25:57.919+03:00,77.00000000000001,1.283333333333333,2025-04-18T08:51:18.885+03:00,0.03057091307199995,1
2025-04-18T11:35:56.059+03:00,1744965352.97818,40.95357940565665,29.14101123988411,93.69504,-1,-1,-1,-1,30,22.06683002708428,-9999,64391.69533829167,-0.723388671875,0.688995361328125,-0.394866943359375,64391.68526329167,1.054314723137349,-1.351298587053092,-0.6871807612744739,-0.1081088557839394,0.3795508444309235,-0.1066462695598602,0.03717434406280518,0.04786014556884766,-0.1410663723945618,XArbitraryZVertical,0.06906365803696825,-0.6411472675008253,0.5516865513412331,0.5289635899456966,-0.754490077495575,0.6343603134155273,-0.1683207899332047,0,0,0,-1,-1,64378.94930104167,unknown,2,2025-04-18T11:35:43.308+03:00,2025-04-17T15:44:39.500+03:00,7490,1.122643,0,0,6178.962,4,10,2025-04-18T11:35:40.728+03:00,766658153.7219963,0,107.81,100.5609,1,0.55,2025-04-18T11:25:57.919+03:00,77.00000000000001,1.283333333333333,2025-04-18T08:51:18.885+03:00,0.03057091307199995,1
2025-04-18T11:35:56.069+03:00,1744965352.97818,40.95357940565665,29.14101123988411,93.69504,-1,-1,-1,-1,30,22.06683002708428,-9999,64391.70541329167,-0.72332763671875,0.673828125,-0.38226318359375,64391.69533829167,1.051975647725677,-1.349343871807142,-0.6865233822015613,-0.2033624202013016,0.3627332448959351,-0.07372879981994629,0.03204727172851562,0.05444145202636719,-0.2206313610076904,XArbitraryZVertical,0.06801890313892367,-0.6406481260561052,0.5510102468392066,0.5304066052787537,-0.7545661926269531,0.6338520050048828,-0.1698868125677109,0,0,0,-1,-1,64378.94930104167,unknown,2,2025-04-18T11:35:43.308+03:00,2025-04-17T15:44:39.500+03:00,7490,1.122643,0,0,6178.962,4,10,2025-04-18T11:35:40.728+03:00,766658153.7219963,0,107.81,100.5609,1,0.55,2025-04-18T11:25:57.919+03:00,77.00000000000001,1.283333333333333,2025-04-18T08:51:18.885+03:00,0.03057091307199995,1
2025-04-18T11:35:56.079+03:00,1744965352.97818,40.95357940565665,29.14101123988411,93.69504,-1,-1,-1,-1,30,22.06683002708428,-9999,64391.71548829167,-0.761505126953125,0.657073974609375,-0.378997802734375,64391.70541329167,1.048514775198098,-1.347670056683271,-0.6861083184449271,-0.3053248524665833,0.3875609636306763,-0.1302229017019272,0.03182005882263184,0.04444760084152222,-0.2130389809608459,XArbitraryZVertical,0.06660378283310124,-0.640281214336104,0.5500691236394402,0.5320037707647659,-0.7545374035835266,0.6335309147834778,-0.1712078005075455,0,0,0,-1,-1,64378.94930104167,unknown,2,2025-04-18T11:35:43.308+03:00,2025-04-17T15:44:39.500+03:00,7490,1.122643,0,0,6178.962,4,10,2025-04-18T11:35:40.728+03:00,766658153.7219963,0,107.81,100.5609,1,0.55,2025-04-18T11:25:57.919+03:00,77.00000000000001,1.283333333333333,2025-04-18T08:51:18.885+03:00,0.03057091307199995,1
2025-04-18T11:35:56.089+03:00,1744965352.97818,40.95357940565665,29.14101123988411,93.69504,-1,-1,-1,-1,30,22.06683002708428,-9999,64391.72556329167,-0.80706787109375,0.6530609130859375,-0.3567047119140625,64391.71548829167,1.044124021406048,-1.346783376125656,-0.6857233981778383,-0.3349605202674866,0.3408256769180298,-0.08607780933380127,0.0003809332847595215,0.02400875091552734,-0.207600936293602,XArbitraryZVertical,0.06509760409879986,-0.640153773990329,0.5488559713911348,0.5335940134314021,-0.7546228766441345,0.6332330703735352,-0.1719308942556381,0,0,0,-1,-1,64378.94930104167,unknown,2,2025-04-18T11:35:43.308+03:00,2025-04-17T15:44:39.500+03:00,7490,1.122643,0,0,6178.962,4,10,2025-04-18T11:35:40.728+03:00,766658153.7219963,0,107.81,100.5609,1,0.55,2025-04-18T11:25:57.919+03:00,77.00000000000001,1.283333333333333,2025-04-18T08:51:18.885+03:00,0.03057091307199995,1
2025-04-18T11:35:56.099+03:00,1744965352.97818,40.95357940565665,29.14101123988411,93.69504,-1,-1,-1,-1,30,22.06683002708428,-9999,64391.73563829167,-0.8202362060546875,0.6370697021484375,-0.3413238525390625,64391.72556329167,1.03918747782426,-1.346822044890718,-0.6862228364244694,-0.4544265270233154,0.2739752233028412,0.01393837388604879,-0.04919147491455078,0.02081465721130371,-0.1876197308301926,XArbitraryZVertical,0.06334231563579519,-0.6403686577000833,0.5476307224812147,0.5348050082262943,-0.7543210983276367,0.6336195468902588,-0.1718314737081528,0,0,0,-1,-1,64378.94930104167,unknown,2,2025-04-18T11:35:43.308+03:00,2025-04-17T15:44:39.500+03:00,7490,1.122643,0,0,6178.962,4,10,2025-04-18T11:35:40.728+03:00,766658153.7219963,0,107.81,100.5609,1,0.55,2025-04-18T11:25:57.919+03:00,77.00000000000001,1.283333333333333,2025-04-18T08:51:18.885+03:00,0.03057091307199995,1
2025-04-18T11:35:56.109+03:00,1744965352.97818,40.95357940565665,29.14101123988411,93.69504,-1,-1,-1,-1,30,22.06683002708428,-9999,64391.74571329167,-0.81158447265625,0.62841796875,-0.315399169921875,64391.73563829167,1.032612460400963,-1.348897095017722,-0.6881962193924526,-0.6079867482185364,0.1407388746738434,0.152277871966362,-0.06672030687332153,0.004381418228149414,-0.1739427447319031,XArbitraryZVertical,0.06106956585479129,-0.6413075233097048,0.5461821051415462,0.5354254323639245,-0.7534549236297607,0.6351450085639954,-0.1699903309345245,0,0,0,-1,-1,64378.94930104167,unknown,2,2025-04-18T11:35:43.308+03:00,2025-04-17T15:44:39.500+03:00,7490,1.122643,0,0,6178.962,4,10,2025-04-18T11:35:40.728+03:00,766658153.7219963,0,107.81,100.5609,1,0.55,2025-04-18T11:25:57.919+03:00,77.00000000000001,1.283333333333333,2025-04-18T08:51:18.885+03:00,0.03057091307199995,1
2025-04-18T11:35:56.142+03:00,1744965352.97818,40.95357940565665,29.14101123988411,93.69504,-1,-1,-1,-1,30,22.06683002708428,-9999,64391.75578829167,-0.7718963623046875,0.6243743896484375,-0.2857818603515625,64391.74571329167,1.025037094498712,-1.352683632132584,-0.6918032712366295,-0.6603289246559143,0.06337398290634155,0.2505900263786316,-0.06298315525054932,-0.009783625602722168,-0.1519794315099716,XArbitraryZVertical,0.05832943596853316,-0.6428670422889596,0.5447308124380255,0.5353391401134516,-0.7518514394760132,0.6379269361495972,-0.1666392832994461,0,0,0,-1,-1,64378.94930104167,unknown,2,2025-04-18T11:35:43.308+03:00,2025-04-17T15:44:39.500+03:00,7490,1.122643,0,0,6178.962,4,10,2025-04-18T11:35:40.728+03:00,766658153.7219963,0,107.81,100.5609,1,0.55,2025-04-18T11:25:57.919+03:00,77.00000000000001,1.283333333333333,2025-04-18T08:51:18.885+03:00,0.03057091307199995,1
2025-04-18T11:35:56.146+03:00,1744965352.97818,40.95357940565665,29.14101123988411,93.69504,-1,-1,-1,-1,30,22.06683002708428,-9999,64391.76586329167,-0.7490386962890625,0.55743408203125,-0.257171630859375,64391.75578829167,1.017294400988902,-1.357222329337623,-0.6949385353838646,-0.6203471422195435,0.007686486467719078,0.1315238326787949,-0.02633577585220337,-0.0133393406867981,-0.1271470040082932,XArbitraryZVertical,0.05590630464121963,-0.6445729308309336,0.5431325117014012,0.535170406829117,-0.7506417632102966,0.6403382420539856,-0.1628004461526871,0,0,0,-1,-1,64378.94930104167,unknown,2,2025-04-18T11:35:43.308+03:00,2025-04-17T15:44:39.500+03:00,7490,1.122643,0,0,6178.962,4,10,2025-04-18T11:35:40.728+03:00,766658153.7219963,0,107.81,100.5609,1,0.55,2025-04-18T11:25:57.919+03:00,77.00000000000001,1.283333333333333,2025-04-18T08:51:18.885+03:00,0.03057091307199995,1
2025-04-18T11:35:56.148+03:00,1744965352.97818,40.95357940565665,29.14101123988411,93.69504,-1,-1,-1,-1,30,22.06683002708428,-9999,64391.77593829167,-0.7069854736328125,0.586669921875,-0.2339019775390625,64391.76586329167,1.010155535513999,-1.362231887068971,-0.6978219135351983,-0.5482114553451538,-0.1225605234503746,0.1987724602222443,-0.001170337200164795,-0.07579308748245239,-0.102056547999382,XArbitraryZVertical,0.05388948632457564,-0.6463500573132694,0.5416446963600466,0.534741532778832,-0.7496383786201477,0.6425502896308899,-0.158655047416687,0,0,0,-1,-1,64378.94930104167,unknown,2,2025-04-18T11:35:43.308+03:00,2025-04-17T15:44:39.500+03:00,7490,1.122643,0,0,6178.962,4,10,2025-04-18T11:35:40.728+03:00,766658153.7219963,0,107.81,100.5609,1,0.55,2025-04-18T11:25:57.919+03:00,77.00000000000001,1.283333333333333,2025-04-18T08:51:18.885+03:00,0.03057091307199995,1
2025-04-18T11:35:56.151+03:00,1744965352.97818,40.95357940565665,29.14101123988411,93.69504,-1,-1,-1,-1,30,22.06683002708428,-9999,64391.78601329167,-0.661712646484375,0.6597900390625,-0.222625732421875,64391.77593829167,1.003629601203974,-1.368750806127286,-0.7010604249357028,-0.621126115322113,-0.3250265419483185,0.2099819779396057,0.03511321544647217,-0.07103854417800903,-0.08374451100826263,XArbitraryZVertical,0.05233759151494188,-0.6485271967277098,0.5403616881880233,0.5335564505490891,-0.7486141920089722,0.6450284123420715,-0.1533465087413788,0,0,0,-1,-1,64378.94930104167,unknown,2,2025-04-18T11:35:43.308+03:00,2025-04-17T15:44:39.500+03:00,7490,1.122643,0,0,6178.962,4,10,2025-04-18T11:35:40.728+03:00,766658153.7219963,0,107.81,100.5609,1,0.55,2025-04-18T11:25:57.919+03:00,77.00000000000001,1.283333333333333,2025-04-18T08:51:18.885+03:00,0.03057091307199995,1
2025-04-18T11:35:56.159+03:00,1744965352.97818,40.95357940565665,29.14101123988411,93.69504,-1,-1,-1,-1,30,22.06683002708428,-9999,64391.79608829167,-0.6484222412109375,0.627593994140625,-0.237548828125,64391.78601329167,0.9942657606468921,-1.378796280678873,-0.7046089380315239,-0.9018552303314209,-0.456392228603363,0.2054505199193954,0.08212435245513916,0.009780585765838623,-0.07796180248260498,XArbitraryZVertical,0.05068644130741658,-0.6517210771262474,0.538309851651908,0.5318957952350266,-0.7478654384613037,0.6477359533309937,-0.1453810483217239,0,0,0,-1,-1,64378.94930104167,unknown,2,2025-04-18T11:35:43.308+03:00,2025-04-17T15:44:39.500+03:00,7490,1.122643,0,0,6178.962,4,10,2025-04-18T11:35:40.728+03:00,766658153.7219963,0,107.81,100.5609,1,0.55,2025-04-18T11:25:57.919+03:00,77.00000000000001,1.283333333333333,2025-04-18T08:51:18.885+03:00,0.03057091307199995,1
2025-04-18T11:35:56.170+03:00,1744965352.97818,40.95357940565665,29.14101123988411,93.69504,-1,-1,-1,-1,30,22.06683002708428,-9999,64391.80616329167,-0.6342620849609375,0.6183624267578125,-0.2885284423828125,64391.79608829167,0.9814370994387651,-1.39291444912134,-0.7077565198544049,-1.071249008178711,-0.6873295903205872,0.01082776766270399,0.09750330448150635,-0.01737934350967407,-0.09881405532360077,XArbitraryZVertical,0.04911608183632826,-0.6560214362538702,0.5351842367332308,0.5299068971564629,-0.7478328943252563,0.6501307487487793,-0.1344469785690308,0,0,0,-1,-1,64378.94930104167,unknown,2,2025-04-18T11:35:43.308+03:00,2025-04-17T15:44:39.500+03:00,7490,1.122643,0,0,6178.962,4,10,2025-04-18T11:35:40.728+03:00,766658153.7219963,0,107.81,100.5609,1,0.55,2025-04-18T11:25:57.919+03:00,77.00000000000001,1.283333333333333,2025-04-18T08:51:18.885+03:00,0.03057091307199995,1
2025-04-18T11:35:56.180+03:00,1744965352.97818,40.95357940565665,29.14101123988411,93.69504,-1,-1,-1,-1,30,22.06683002708428,-9999,64391.81623829167,-0.5683746337890625,0.723541259765625,-0.34515380859375,64391.80616329167,0.9689351331610426,-1.408533011491258,-0.7119561470104583,-0.8723734617233276,-0.6844800114631653,0.646302342414856,0.1096587181091309,-0.03823423385620117,-0.1601160168647766,XArbitraryZVertical,0.04761852998560194,-0.6607405487308001,0.532362745004392,0.5270145284138726,-0.7471404075622559,0.6533159613609314,-0.1223088055849075,0,0,0,-1,-1,64378.94930104167,unknown,2,2025-04-18T11:35:43.308+03:00,2025-04-17T15:44:39.500+03:00,7490,1.122643,0,0,6178.962,4,10,2025-04-18T11:35:40.728+03:00,766658153.7219963,0,107.81,100.5609,1,0.55,2025-04-18T11:25:57.919+03:00,77.00000000000001,1.283333333333333,2025-04-18T08:51:18.885+03:00,0.03057091307199995,1
2025-04-18T11:35:56.190+03:00,1744965352.97818,40.95357940565665,29.14101123988411,93.69504,-1,-1,-1,-1,30,22.06683002708428,-9999,64391.82631329167,-0.5149993896484375,0.865814208984375,-0.41900634765625,64391.81623829167,0.9653605864668618,-1.41887082476225,-0.7226756469118063,0.0284242182970047,-1.077993750572205,0.9639047980308533,0.1577202677726746,0.03953385353088379,-0.2221964001655579,XArbitraryZVertical,0.04524211818166576,-0.6642266685732366,0.5334060031486376,0.5217605947730215,-0.7413994669914246,0.6613938808441162,-0.1135121658444405,0,0,0,-1,-1,64378.94930104167,unknown,2,2025-04-18T11:35:43.308+03:00,2025-04-17T15:44:39.500+03:00,7490,1.122643,0,0,6178.962,4,10,2025-04-18T11:35:40.728+03:00,766658153.7219963,0,107.81,100.5609,1,0.55,2025-04-18T11:25:57.919+03:00,77.00000000000001,1.283333333333333,2025-04-18T08:51:18.885+03:00,0.03057091307199995,1
2025-04-18T11:35:56.200+03:00,1744965352.97818,40.95357940565665,29.14101123988411,93.69504,-1,-1,-1,-1,30,22.06683002708428,-9999,64391.83638829167,-0.930572509765625,0.635467529296875,-0.325164794921875,64391.82631329167,0.9716277272623713,-1.424632453819216,-0.7282068895482803,0.603041410446167,-0.8468138575553894,0.4801013469696045,0.2465587258338928,0.2034708857536316,-0.307418167591095,XArbitraryZVertical,0.04683441698223224,-0.6659237611828585,0.5360474441881231,0.516725518272582,-0.7384105324745178,0.6655324101448059,-0.1087041646242142,0,0,0,-1,-1,64378.94930104167,unknown,2,2025-04-18T11:35:43.308+03:00,2025-04-17T15:44:39.500+03:00,7490,1.122643,0,0,6178.962,4,10,2025-04-18T11:35:40.728+03:00,766658153.7219963,0,107.81,100.5609,1,0.55,2025-04-18T11:25:57.919+03:00,77.00000000000001,1.283333333333333,2025-04-18T08:51:18.885+03:00,0.03057091307199995,1
2025-04-18T11:35:56.210+03:00,1744965352.97818,40.95357940565665,29.14101123988411,93.69504,-1,-1,-1,-1,30,22.06683002708428,-9999,64391.84646329167,-0.8175811767578125,0.6122894287109375,-0.045928955078125,64391.83638829167,0.9799223178783528,-1.428257434789029,-0.7331959825138181,0.4168925285339355,-1.087370753288269,0.6481949687004089,-0.1558689475059509,-0.005521059036254883,-0.2434147298336029,XArbitraryZVertical,0.0487430167160076,-0.6669687123962253,0.5391246083937569,0.5119779777538974,-0.7355037331581116,0.6692478060722351,-0.1055537089705467,0,0,0,-1,-1,64378.94930104167,unknown,2,2025-04-18T11:35:43.308+03:00,2025-04-17T15:44:39.500+03:00,7490,1.122643,0,0,6178.962,4,10,2025-04-18T11:35:40.728+03:00,766658153.7219963,0,107.81,100.5609,1,0.55,2025-04-18T11:25:57.919+03:00,77.00000000000001,1.283333333333333,2025-04-18T08:51:18.885+03:00,0.03057091307199995,1
2025-04-18T11:35:56.220+03:00,1744965352.97818,40.95357940565665,29.14101123988411,93.69504,-1,-1,-1,-1,30,22.06683002708428,-9999,64391.85653829167,-0.5904541015625,0.65252685546875,0.2108612060546875,64391.84646329167,0.9761658872245692,-1.453210097408479,-0.736555521144749,-1.118013381958008,-3.193374872207642,-0.03731435909867287,-0.1215062737464905,-0.06625622510910034,0.002005875110626221,XArbitraryZVertical,0.05297769591799517,-0.6736026211269204,0.538235993944814,0.5037410025446867,-0.7356715202331543,0.6717402935028076,-0.08690574765205383,0,0,0,-1,-1,64378.94930104167,unknown,2,2025-04-18T11:35:43.308+03:00,2025-04-17T15:44:39.500+03:00,7490,1.122643,0,0,6178.962,4,10,2025-04-18T11:35:40.728+03:00,766658153.7219963,0,107.81,100.5609,1,0.55,2025-04-18T11:25:57.919+03:00,77.00000000000001,1.283333333333333,2025-04-18T08:51:18.885+03:00,0.03057091307199995,1
2025-04-18T11:35:56.230+03:00,1744965352.97818,40.95357940565665,29.14101123988411,93.69504,-1,-1,-1,-1,30,22.06683002708428,-9999,64391.86661329167,-0.479766845703125,0.5107879638671875,0.0089263916015625,64391.85653829167,0.968052993598981,-1.48446429569401,-0.7375732953197779,-0.6408804059028625,-2.527612209320068,-0.1697493642568588,0.1223407983779907,-0.02393436431884766,0.257830798625946,XArbitraryZVertical,0.05825014854916843,-0.6816885709179924,0.5355587256537497,0.4950600404365889,-0.7373462915420532,0.6724938750267029,-0.06381522864103317,0,0,0,-1,-1,64378.94930104167,unknown,2,2025-04-18T11:35:43.308+03:00,2025-04-17T15:44:39.500+03:00,7490,1.122643,0,0,6178.962,4,10,2025-04-18T11:35:40.728+03:00,766658153.7219963,0,107.81,100.5609,1,0.55,2025-04-18T11:25:57.919+03:00,77.00000000000001,1.283333333333333,2025-04-18T08:51:18.885+03:00,0.03057091307199995,1
2025-04-18T11:35:56.240+03:00,1744965352.97818,40.95357940565665,29.14101123988411,93.69504,-1,-1,-1,-1,30,22.06683002708428,-9999,64391.87668829167,-0.896148681640625,0.409515380859375,0.023162841796875,64391.86661329167,0.9502013186678654,-1.522137461884529,-0.7345828082589886,-1.639072895050049,-2.190940380096436,-0.3425088822841644,0.279714822769165,-0.1245316863059998,0.08080428838729858,XArbitraryZVertical,0.06322585217581653,-0.6913425231758739,0.529364403877848,0.4876694545412146,-0.7412322759628296,0.6702775955200195,-0.03609601408243179,0,0,0,-1,-1,64378.94930104167,unknown,2,2025-04-18T11:35:43.308+03:00,2025-04-17T15:44:39.500+03:00,7490,1.122643,0,0,6178.962,4,10,2025-04-18T11:35:40.728+03:00,766658153.7219963,0,107.81,100.5609,1,0.55,2025-04-18T11:25:57.919+03:00,77.00000000000001,1.283333333333333,2025-04-18T08:51:18.885+03:00,0.03057091307199995,1
2025-04-18T11:35:56.250+03:00,1744965352.97818,40.95357940565665,29.14101123988411,93.69504,-1,-1,-1,-1,30,22.06683002708428,-9999,64391.88676329167,-1.053878784179688,0.412139892578125,-0.06085205078125,64391.87668829167,0.92306287842084,-1.554836581966138,-0.7323122417755553,-2.327305555343628,-0.8790649771690369,-0.3004650473594666,-0.1058903932571411,-0.2662928700447083,0.02225899696350098,XArbitraryZVertical,0.06318114027169411,-0.7000530823134847,0.5212121118313544,0.4840164045360725,-0.7435358762741089,0.6685909032821655,-0.0118676507845521,0,0,0,-1,-1,64378.94930104167,unknown,2,2025-04-18T11:35:43.308+03:00,2025-04-17T15:44:39.500+03:00,7490,1.122643,0,0,6178.962,4,10,2025-04-18T11:35:40.728+03:00,766658153.7219963,0,107.81,100.5609,1,0.55,2025-04-18T11:25:57.919+03:00,77.00000000000001,1.283333333333333,2025-04-18T08:51:18.885+03:00,0.03057091307199995,1
2025-04-18T11:35:56.260+03:00,1744965352.97818,40.95357940565665,29.14101123988411,93.69504,-1,-1,-1,-1,30,22.06683002708428,-9999,64391.89683829167,-1.001373291015625,0.5028076171875,-0.06011962890625,64391.88676329167,0.8883746023131387,-1.584750362130793,-0.7298598167749208,-2.660137414932251,-0.6351562142372131,-0.14113849401474,-0.2992383241653442,-0.2466602325439453,-0.05402398109436035,XArbitraryZVertical,0.05955366102237204,-0.7082746216941883,0.5113147134774801,0.4830710826293397,-0.7451953291893005,0.6667651534080505,0.0103991562500596,0,0,0,-1,-1,64378.94930104167,unknown,2,2025-04-18T11:35:43.308+03:00,2025-04-17T15:44:39.500+03:00,7490,1.122643,0,0,6178.962,4,10,2025-04-18T11:35:40.728+03:00,766658153.7219963,0,107.81,100.5609,1,0.55,2025-04-18T11:25:57.919+03:00,77.00000000000001,1.283333333333333,2025-04-18T08:51:18.885+03:00,0.03057091307199995,1
2025-04-18T11:35:56.270+03:00,1744965352.97818,40.95357940565665,29.14101123988411,93.69504,-1,-1,-1,-1,30,22.06683002708428,-9999,64391.90691329167,-0.740447998046875,0.89483642578125,-0.0521240234375,64391.89683829167,0.8535616682371298,-1.61613599895405,-0.72816818402173,-2.533820152282715,-0.9835860729217529,-0.1220588088035583,-0.2811819314956665,-0.1985540390014648,-0.1013803482055664,XArbitraryZVertical,0.05568857311761828,-0.7168079486815216,0.501592420266194,0.4811343706344418,-0.7456278204917908,0.6655035018920898,0.0338297039270401,0,0,0,-1,-1,64378.94930104167,unknown,2,2025-04-18T11:35:43.308+03:00,2025-04-17T15:44:39.500+03:00,7490,1.122643,0,0,6178.962,4,10,2025-04-18T11:35:40.728+03:00,766658153.7219963,0,107.81,100.5609,1,0.55,2025-04-18T11:25:57.919+03:00,77.00000000000001,1.283333333333333,2025-04-18T08:51:18.885+03:00,0.03057091307199995,1
2025-04-18T11:35:56.280+03:00,1744965352.97818,40.95357940565665,29.14101123988411,93.69504,-1,-1,-1,-1,30,22.06683002708428,-9999,64391.91698829167,-0.640106201171875,0.9604644775390625,-0.104827880859375,64391.90691329167,0.820611694100577,-1.648945417975511,-0.7244557216863613,-2.354650497436523,-1.184531331062317,-0.2585431635379791,-0.0205303430557251,0.1894449591636658,-0.1062688753008842,XArbitraryZVertical,0.0532365981408821,-0.7255325434736879,0.4918222919895881,0.4784134055359982,-0.746574878692627,0.662727952003479,0.05846321582794189,0,0,0,-1,-1,64378.94930104167,unknown,2,2025-04-18T11:35:43.308+03:00,2025-04-17T15:44:39.500+03:00,7490,1.122643,0,0,6178.962,4,10,2025-04-18T11:35:40.728+03:00,766658153.7219963,0,107.81,100.5609,1,0.55,2025-04-18T11:25:57.919+03:00,77.00000000000001,1.283333333333333,2025-04-18T08:51:18.885+03:00,0.03057091307199995,1
2025-04-18T11:35:56.290+03:00,1744965352.97818,40.95357940565665,29.14101123988411,93.69504,-1,-1,-1,-1,30,22.06683002708428,-9999,64391.92706229167,-0.5543670654296875,0.613311767578125,-0.0425872802734375,64391.91698829167,0.7899998192725634,-1.682885942144061,-0.7201350343765139,-2.255231618881226,-1.539511322975159,-0.2513971030712128,0.09811925888061523,0.3221421837806702,-0.1826854944229126,XArbitraryZVertical,0.05180263756137428,-0.7344100592460416,0.48246276043282,0.4745397694407708,-0.7469992637634277,0.6594861745834351,0.08408329635858536,0,0,0,-1,-1,64378.94930104167,unknown,2,2025-04-18T11:35:43.308+03:00,2025-04-17T15:44:39.500+03:00,7490,1.122643,0,0,6178.962,4,10,2025-04-18T11:35:40.728+03:00,766658153.7219963,0,107.81,100.5609,1,0.55,2025-04-18T11:25:57.919+03:00,77.00000000000001,1.283333333333333,2025-04-18T08:51:18.885+03:00,0.03057091307199995,1
2025-04-18T11:35:56.301+03:00,1744965352.97818,40.95357940565665,29.14101123988411,93.69504,-1,-1,-1,-1,30,22.06683002708428,-9999,64391.93713729167,-0.642333984375,0.4579925537109375,0.1657562255859375,64391.92706229167,0.76355353327876,-1.717078533388479,-0.7122850953370613,-1.871555924415588,-1.773364067077637,-0.7839970588684082,0.1887435913085938,0.007155835628509521,-0.1743937730789185,XArbitraryZVertical,0.05283830614722604,-0.7432154734090918,0.4731097258182789,0.4701129203985237,-0.7487870454788208,0.653564989566803,0.1103222519159317,0,0,0,-1,-1,64378.94930104167,unknown,2,2025-04-18T11:35:43.308+03:00,2025-04-17T15:44:39.500+03:00,7490,1.122643,0,0,6178.962,4,10,2025-04-18T11:35:40.728+03:00,766658153.7219963,0,107.81,100.5609,1,0.55,2025-04-18T11:25:57.919+03:00,77.00000000000001,1.283333333333333,2025-04-18T08:51:18.885+03:00,0.03057091307199995,1
2025-04-18T11:35:56.311+03:00,1744965352.97818,40.95357940565665,29.14101123988411,93.69504,-1,-1,-1,-1,30,22.06683002708428,-9999,64391.94721229167,-0.76263427734375,0.6759185791015625,0.25531005859375,64391.93713729167,0.7428225922433662,-1.748882209712185,-0.701235031574739,-1.57524561882019,-1.842161774635315,-0.8150250315666199,0.1302124261856079,-0.1956378817558289,0.008466362953186035,XArbitraryZVertical,0.05620182223164859,-0.7513422864549213,0.4641740798417162,0.4656915639851461,-0.7519623637199402,0.6451618075370789,0.1353477537631989,0,0,0,-1,-1,64378.94930104167,unknown,2,2025-04-18T11:35:43.308+03:00,2025-04-17T15:44:39.500+03:00,7490,1.122643,0,0,6178.962,4,10,2025-04-18T11:35:40.728+03:00,766658156.3024517,0,107.78,100.5619,1,0.55,2025-04-18T11:25:57.919+03:00,77.00000000000001,1.283333333333333,2025-04-18T08:51:18.885+03:00,0.03057091307199995,1
2025-04-18T11:35:56.321+03:00,1744965352.97818,40.95357940565665,29.14101123988411,93.69504,-1,-1,-1,-1,30,22.06683002708428,-9999,64391.95728729167,-0.794586181640625,0.758514404296875,0.231292724609375,64391.94721229167,0.7261198969282731,-1.777631660753861,-0.6907035979913191,-1.325893640518188,-1.733648657798767,-0.7740106582641602,0.0003558993339538574,0.009786128997802734,0.09365926682949066,XArbitraryZVertical,0.05994797383469828,-0.7586522275594543,0.4563131932303061,0.4611195818316451,-0.7543689012527466,0.637079656124115,0.1582939177751541,0,0,0,-1,-1,64378.94930104167,unknown,2,2025-04-18T11:35:43.308+03:00,2025-04-17T15:44:39.500+03:00,7490,1.122643,0,0,6178.962,4,10,2025-04-18T11:35:40.728+03:00,766658156.3024517,0,107.78,100.5619,1,0.55,2025-04-18T11:25:57.919+03:00,77.00000000000001,1.283333333333333,2025-04-18T08:51:18.885+03:00,0.03057091307199995,1
2025-04-18T11:35:56.331+03:00,1744965352.97818,40.95357940565665,29.14101123988411,93.69504,-1,-1,-1,-1,30,22.06683002708428,-9999,64391.96736229167,-0.7574462890625,0.648193359375,0.2262115478515625,64391.95728729167,0.712580309155504,-1.803316702457647,-0.6804573354219455,-1.177124381065369,-1.675902485847473,-0.750346839427948,-0.03719645738601685,0.1346758604049683,0.05677519738674164,XArbitraryZVertical,0.06390216850276603,-0.7651612452108375,0.4492654827753336,0.4567333475000945,-0.7563673853874207,0.629148542881012,0.1791104376316071,0,0,0,-1,-1,64378.94930104167,unknown,2,2025-04-18T11:35:43.308+03:00,2025-04-17T15:44:39.500+03:00,7490,1.122643,0,0,6178.962,4,10,2025-04-18T11:35:40.728+03:00,766658156.3024517,0,107.78,100.5619,1,0.55,2025-04-18T11:25:57.919+03:00,77.00000000000001,1.283333333333333,2025-04-18T08:51:18.885+03:00,0.03057091307199995,1
2025-04-18T11:35:56.341+03:00,1744965352.97818,40.95357940565665,29.14101123988411,93.69504,-1,-1,-1,-1,30,22.06683002708428,-9999,64391.97743729167,-0.6764678955078125,0.57647705078125,0.2257843017578125,64391.96736229167,0.7001080490357074,-1.827610414020662,-0.6704914258859249,-1.179507613182068,-1.578529477119446,-0.7158347368240356,-0.008903324604034424,0.04173016548156738,0.02510765194892883,XArbitraryZVertical,0.06769283451898431,-0.7713134601456515,0.4425061859807214,0.4524175492929406,-0.7578204870223999,0.6213710904121399,0.1990135461091995,0,0,0,-1,-1,64378.94930104167,unknown,2,2025-04-18T11:35:43.308+03:00,2025-04-17T15:44:39.500+03:00,7490,1.122643,0,0,6178.962,4,10,2025-04-18T11:35:40.728+03:00,766658156.3024517,0,107.78,100.5619,1,0.55,2025-04-18T11:25:57.919+03:00,77.00000000000001,1.283333333333333,2025-04-18T08:51:18.885+03:00,0.03057091307199995,1
