loggingTime(txt),locationTimestamp_since1970(s),locationLatitude(WGS84),locationLongitude(WGS84),locationAltitude(m),locationSpeed(m/s),locationSpeedAccuracy(m/s),locationCourse(°),locationCourseAccuracy(°),locationVerticalAccuracy(m),locationHorizontalAccuracy(m),locationFloor(Z),accelerometerTimestamp_sinceReboot(s),accelerometerAccelerationX(G),accelerometerAccelerationY(G),accelerometerAccelerationZ(G),motionTimestamp_sinceReboot(s),motionYaw(rad),motionRoll(rad),motionPitch(rad),motionRotationRateX(rad/s),motionRotationRateY(rad/s),motionRotationRateZ(rad/s),motionUserAccelerationX(G),motionUserAccelerationY(G),motionUserAccelerationZ(G),motionAttitudeReferenceFrame(txt),motionQuaternionX(R),motionQuaternionY(R),motionQuaternionZ(R),motionQuaternionW(R),motionGravityX(G),motionGravityY(G),motionGravityZ(G),motionMagneticFieldX(µT),motionMagneticFieldY(µT),motionMagneticFieldZ(µT),motionHeading(°),motionMagneticFieldCalibrationAccuracy(Z),activityTimestamp_sinceReboot(s),activity(txt),activityActivityConfidence(Z),activityActivityStartDate(txt),pedometerStartDate(txt),pedometerNumberofSteps(N),pedometerAverageActivePace(s/m),pedometerCurrentPace(s/m),pedometerCurrentCadence(steps/s),pedometerDistance(m),pedometerFloorAscended(N),pedometerFloorDescended(N),pedometerEndDate(txt),altimeterTimestamp_sinceReboot(s),altimeterReset(bool),altimeterRelativeAltitude(m),altimeterPressure(kPa),batteryState(N),batteryLevel(R),heartRateBPMTimestamp(txt),heartRateBPM(N),heartRateBPS(R),heartRateVariabilityTimestamp(txt),heartRateVariability(ms),label
2025-04-18T11:53:51.581+03:00,1744966428.250393,40.95359290647468,29.1410029911603,94.2901,-1,-1,-1,-1,30,24.60438744106876,-9999,65074.49950016667,-0.7833099365234375,0.5497894287109375,-0.345794677734375,65074.48942516667,1.435500581176381,-1.144204765714349,-0.5542678582239536,0.02866501361131668,0.001040534116327763,0.0007552494644187391,0.005316257476806641,0.006973743438720703,-0.003859251737594604,XArbitraryZVertical,0.1692071277696449,-0.5435599451670389,0.643447142215669,0.5117493499005265,-0.7740845680236816,0.5263209342956543,-0.3518230617046356,0,0,0,-1,-1,65066.95715912501,unknown,2,2025-04-18T11:53:44.011+03:00,2025-04-17T15:44:39.500+03:00,7529,1.126433,0,0,6207.333,4,10,2025-04-18T11:44:42.378+03:00,766659229.2648934,0,107.68,100.5637,1,0.5,2025-04-18T11:46:49.169+03:00,74,1.233333333333333,2025-04-18T08:51:18.885+03:00,0.03057091307199995,1
2025-04-18T11:53:51.583+03:00,1744966428.250393,40.95359290647468,29.1410029911603,94.2901,-1,-1,-1,-1,30,24.60438744106876,-9999,65074.50957516667,-0.76300048828125,0.5279998779296875,-0.35479736328125,65074.49950016667,1.435782798588477,-1.144120404859038,-0.5541741790788269,0.01607012562453747,-0.01982027292251587,-0.001273546600714326,-0.004067957401275635,0.0257912278175354,0.00661766529083252,XArbitraryZVertical,0.1692897740860851,-0.5434947882876936,0.6435152051146231,0.5117056426666244,-0.7740997672080994,0.5262412428855896,-0.3519087731838226,0,0,0,-1,-1,65066.95715912501,unknown,2,2025-04-18T11:53:44.011+03:00,2025-04-17T15:44:39.500+03:00,7529,1.126433,0,0,6207.333,4,10,2025-04-18T11:44:42.378+03:00,766659229.2648934,0,107.68,100.5637,1,0.5,2025-04-18T11:46:49.169+03:00,74,1.233333333333333,2025-04-18T08:51:18.885+03:00,0.03057091307199995,1
2025-04-18T11:53:51.583+03:00,1744966428.250393,40.95359290647468,29.1410029911603,94.2901,-1,-1,-1,-1,30,24.60438744106876,-9999,65074.51965016667,-0.7530975341796875,0.5171356201171875,-0.3472442626953125,65074.50957516667,1.435875075021904,-1.144302258347455,-0.5541491489990124,-0.001192350406199694,-0.0201913844794035,0.0007798170554451644,-0.005823016166687012,0.01543653011322021,0.002072572708129883,XArbitraryZVertical,0.1693821702535824,-0.5435282348823139,0.6435204041559167,0.5116330945375068,-0.7741758227348328,0.5262199640274048,-0.3517734706401825,0,0,0,-1,-1,65066.95715912501,unknown,2,2025-04-18T11:53:44.011+03:00,2025-04-17T15:44:39.500+03:00,7529,1.126433,0,0,6207.333,4,10,2025-04-18T11:44:42.378+03:00,766659229.2648934,0,107.68,100.5637,1,0.5,2025-04-18T11:46:49.169+03:00,74,1.233333333333333,2025-04-18T08:51:18.885+03:00,0.03057091307199995,1
2025-04-18T11:53:51.590+03:00,1744966428.250393,40.95359290647468,29.1410029911603,94.2901,-1,-1,-1,-1,30,24.60438744106876,-9999,65074.52972516667,-0.764129638671875,0.5170745849609375,-0.3432464599609375,65074.51965016667,1.435823389683875,-1.144465294617673,-0.5541956746944214,-0.01167242228984833,-0.009075083769857883,0.007888327352702618,0.01960259675979614,-0.00451582670211792,-0.001695364713668823,XArbitraryZVertical,0.1694042054053513,-0.5435841031162939,0.6434989734205856,0.5115932359408401,-0.7742107510566711,0.5262595415115356,-0.351637065410614,0,0,0,-1,-1,65066.95715912501,unknown,2,2025-04-18T11:53:44.011+03:00,2025-04-17T15:44:39.500+03:00,7529,1.126433,0,0,6207.333,4,10,2025-04-18T11:44:42.378+03:00,766659229.2648934,0,107.68,100.5637,1,0.5,2025-04-18T11:46:49.169+03:00,74,1.233333333333333,2025-04-18T08:51:18.885+03:00,0.03057091307199995,1
2025-04-18T11:53:51.602+03:00,1744966428.250393,40.95359290647468,29.1410029911603,94.2901,-1,-1,-1,-1,30,24.60438744106876,-9999,65074.53980016667,-0.7678375244140625,0.5174102783203125,-0.352630615234375,65074.52972516667,1.435698266513408,-1.144651029567623,-0.5543006977923178,-0.0151373939588666,-0.0149187920615077,0.01055511645972729,0.01737451553344727,-0.00976252555847168,0.007110118865966797,XArbitraryZVertical,0.1693928486003249,-0.5436642790142073,0.6434638950710767,0.5115559377190284,-0.7742257714271545,0.5263488292694092,-0.3514704406261444,0,0,0,-1,-1,65066.95715912501,unknown,2,2025-04-18T11:53:44.011+03:00,2025-04-17T15:44:39.500+03:00,7529,1.126433,0,0,6207.333,4,10,2025-04-18T11:44:42.378+03:00,766659229.2648934,0,107.68,100.5637,1,0.5,2025-04-18T11:46:49.169+03:00,74,1.233333333333333,2025-04-18T08:51:18.885+03:00,0.03057091307199995,1
2025-04-18T11:53:51.608+03:00,1744966428.250393,40.95359290647468,29.1410029911603,94.2901,-1,-1,-1,-1,30,24.60438744106876,-9999,65074.54987516667,-0.76776123046875,0.5231475830078125,-0.35955810546875,65074.53980016667,1.43559190776142,-1.144874817525461,-0.5544200398294751,-0.01452113874256611,-0.0166221484541893,0.01282705925405025,0.007920205593109131,-0.009284138679504395,0.006468415260314941,XArbitraryZVertical,0.1693937738117939,-0.5437555956144445,0.6434321255398653,0.5114985344926319,-0.7742471694946289,0.5264502763748169,-0.3512712121009827,0,0,0,-1,-1,65066.95715912501,unknown,2,2025-04-18T11:53:44.011+03:00,2025-04-17T15:44:39.500+03:00,7529,1.126433,0,0,6207.333,4,10,2025-04-18T11:44:42.378+03:00,766659229.2648934,0,107.68,100.5637,1,0.5,2025-04-18T11:46:49.169+03:00,74,1.233333333333333,2025-04-18T08:51:18.885+03:00,0.03057091307199995,1
2025-04-18T11:53:51.618+03:00,1744966428.250393,40.95359290647468,29.1410029911603,94.2901,-1,-1,-1,-1,30,24.60438744106876,-9999,65074.55995016667,-0.7653656005859375,0.5233001708984375,-0.354736328125,65074.54987516667,1.435514771638677,-1.145153236497149,-0.5545741102677534,-0.01092267502099276,-0.02679622359573841,0.01515918876975775,0.006280899047851562,-0.007416248321533203,-0.004751741886138916,XArbitraryZVertical,0.1694079316300838,-0.5438656841080269,0.6434073980935286,0.5114079347615538,-0.7742710709571838,0.5265812873840332,-0.3510221540927887,0,0,0,-1,-1,65066.95715912501,unknown,2,2025-04-18T11:53:44.011+03:00,2025-04-17T15:44:39.500+03:00,7529,1.126433,0,0,6207.333,4,10,2025-04-18T11:44:42.378+03:00,766659229.2648934,0,107.68,100.5637,1,0.5,2025-04-18T11:46:49.169+03:00,74,1.233333333333333,2025-04-18T08:51:18.885+03:00,0.03057091307199995,1
2025-04-18T11:53:51.628+03:00,1744966428.250393,40.95359290647468,29.1410029911603,94.2901,-1,-1,-1,-1,30,24.60438744106876,-9999,65074.57002516667,-0.768890380859375,0.5332794189453125,-0.353515625,65074.55995016667,1.435441896349662,-1.145391149597151,-0.5547360521185243,-0.01321885269135237,-0.01164603233337402,0.0101788118481636,0.006866574287414551,-0.003739237785339355,-0.008022934198379517,XArbitraryZVertical,0.1694074757447374,-0.5439666895545456,0.6433881424306432,0.5113247885966202,-0.7742768526077271,0.5267189741134644,-0.3508026897907257,0,0,0,-1,-1,65066.95715912501,unknown,2,2025-04-18T11:53:44.011+03:00,2025-04-17T15:44:39.500+03:00,7529,1.126433,0,0,6207.333,4,10,2025-04-18T11:44:42.378+03:00,766659229.2648934,0,107.68,100.5637,1,0.5,2025-04-18T11:46:49.169+03:00,74,1.233333333333333,2025-04-18T08:51:18.885+03:00,0.03057091307199995,1
2025-04-18T11:53:51.639+03:00,1744966428.250393,40.95359290647468,29.1410029911603,94.2901,-1,-1,-1,-1,30,24.60438744106876,-9999,65074.58010016667,-0.7627105712890625,0.525787353515625,-0.3585968017578125,65074.57002516667,1.43536880695015,-1.145548369664909,-0.5548926032444452,-0.007516758516430855,-0.02026535384356976,0.009619680233299732,0.00889122486114502,-0.0004238486289978027,-0.002426117658615112,XArbitraryZVertical,0.1693828863991363,-0.5440459325902408,0.6433750250798297,0.5112650814875519,-0.7742568254470825,0.526852011680603,-0.3506469130516052,0,0,0,-1,-1,65066.95715912501,unknown,2,2025-04-18T11:53:44.011+03:00,2025-04-17T15:44:39.500+03:00,7529,1.126433,0,0,6207.333,4,10,2025-04-18T11:44:42.378+03:00,766659229.2648934,0,107.68,100.5637,1,0.5,2025-04-18T11:46:49.169+03:00,74,1.233333333333333,2025-04-18T08:51:18.885+03:00,0.03057091307199995,1
2025-04-18T11:53:51.648+03:00,1744966428.250393,40.95359290647468,29.1410029911603,94.2901,-1,-1,-1,-1,30,24.60438744106876,-9999,65074.59017516667,-0.755828857421875,0.5303955078125,-0.3551483154296875,65074.58010016667,1.435323817188531,-1.145841506330365,-0.5550369616687164,-0.007287194021046162,-0.02674002945423126,0.008750957436859608,0.005750894546508789,0.006243705749511719,-0.005308926105499268,XArbitraryZVertical,0.1694138899511407,-0.5441549557588378,0.6433561217728649,0.5111627223395554,-0.7742903828620911,0.5269747376441956,-0.3503886461257935,0,0,0,-1,-1,65066.95715912501,unknown,2,2025-04-18T11:53:44.011+03:00,2025-04-17T15:44:39.500+03:00,7529,1.126433,0,0,6207.333,4,10,2025-04-18T11:44:42.378+03:00,766659229.2648934,0,107.68,100.5637,1,0.5,2025-04-18T11:46:49.169+03:00,74,1.233333333333333,2025-04-18T08:51:18.885+03:00,0.03057091307199995,1
2025-04-18T11:53:51.659+03:00,1744966428.250393,40.95359290647468,29.1410029911603,94.2901,-1,-1,-1,-1,30,24.60438744106876,-9999,65074.60025016667,-0.7648773193359375,0.5312347412109375,-0.3460235595703125,65074.59017516667,1.435248273078353,-1.146198020533507,-0.5551589627453906,-0.01072034146636724,-0.03382597118616104,0.003950044047087431,0.0163152813911438,-0.003396749496459961,-0.00899893045425415,XArbitraryZVertical,0.1694648939919573,-0.5442780532632367,0.6433213408585589,0.5110585854031903,-0.7743567228317261,0.52707839012146,-0.3500860929489136,0,0,0,-1,-1,65066.95715912501,unknown,2,2025-04-18T11:53:44.011+03:00,2025-04-17T15:44:39.500+03:00,7529,1.126433,0,0,6207.333,4,10,2025-04-18T11:44:42.378+03:00,766659229.2648934,0,107.68,100.5637,1,0.5,2025-04-18T11:46:49.169+03:00,74,1.233333333333333,2025-04-18T08:51:18.885+03:00,0.03057091307199995,1
2025-04-18T11:53:51.669+03:00,1744966428.250393,40.95359290647468,29.1410029911603,94.2901,-1,-1,-1,-1,30,24.60438744106876,-9999,65074.61032516667,-0.77197265625,0.527618408203125,-0.345794677734375,65074.60025016667,1.435132729507922,-1.146558818032709,-0.5552833609978781,-0.01577475480735302,-0.02817687205970287,0.00910219457000494,0.01555776596069336,0.006217420101165771,-0.001996397972106934,XArbitraryZVertical,0.1695055733615935,-0.5444061157520216,0.64327626404812,0.5109653724494728,-0.7744231820106506,0.5271841287612915,-0.3497796952724457,0,0,0,-1,-1,65066.95715912501,unknown,2,2025-04-18T11:53:44.011+03:00,2025-04-17T15:44:39.500+03:00,7529,1.126433,0,0,6207.333,4,10,2025-04-18T11:44:42.378+03:00,766659229.2648934,0,107.68,100.5637,1,0.5,2025-04-18T11:46:49.169+03:00,74,1.233333333333333,2025-04-18T08:51:18.885+03:00,0.03057091307199995,1
2025-04-18T11:53:51.679+03:00,1744966428.250393,40.95359290647468,29.1410029911603,94.2901,-1,-1,-1,-1,30,24.60438744106876,-9999,65074.62040016667,-0.7791748046875,0.527740478515625,-0.3542022705078125,65074.61032516667,1.434995265747088,-1.146873969520502,-0.5554699848710217,-0.02137977816164494,-0.02470051497220993,0.014814343303442,0.007018029689788818,0.000687718391418457,0.005562067031860352,XArbitraryZVertical,0.169503615769027,-0.5445373915129728,0.6432369809880063,0.5108755125304109,-0.7744436264038086,0.527342677116394,-0.3494951128959656,0,0,0,-1,-1,65066.95715912501,unknown,2,2025-04-18T11:53:44.011+03:00,2025-04-17T15:44:39.500+03:00,7529,1.126433,0,0,6207.333,4,10,2025-04-18T11:44:42.378+03:00,766659229.2648934,0,107.68,100.5637,1,0.5,2025-04-18T11:46:49.169+03:00,74,1.233333333333333,2025-04-18T08:51:18.885+03:00,0.03057091307199995,1
2025-04-18T11:53:51.689+03:00,1744966428.250393,40.95359290647468,29.1410029911603,94.2901,-1,-1,-1,-1,30,24.60438744106876,-9999,65074.63047516667,-0.7782135009765625,0.51910400390625,-0.3515167236328125,65074.62040016667,1.434797835817755,-1.14722402392087,-0.5557212684826788,-0.03123267367482185,-0.02104772254824638,0.02057662606239319,-0.001479625701904297,0.0009320378303527832,0.0002773404121398926,XArbitraryZVertical,0.1694736555870573,-0.5446961705922773,0.6431872601427728,0.5107788141512378,-0.774445116519928,0.5275561809539795,-0.34916952252388,0,0,0,-1,-1,65066.95715912501,unknown,2,2025-04-18T11:53:44.011+03:00,2025-04-17T15:44:39.500+03:00,7529,1.126433,0,0,6207.333,4,10,2025-04-18T11:44:42.378+03:00,766659229.2648934,0,107.68,100.5637,1,0.5,2025-04-18T11:46:49.169+03:00,74,1.233333333333333,2025-04-18T08:51:18.885+03:00,0.03057091307199995,1
2025-04-18T11:53:51.705+03:00,1744966428.250393,40.95359290647468,29.1410029911603,94.2901,-1,-1,-1,-1,30,24.60438744106876,-9999,65074.64055016667,-0.773040771484375,0.52734375,-0.3531646728515625,65074.63047516667,1.434604932329528,-1.147518827374793,-0.5560442573753416,-0.02691788785159588,-0.02212424017488956,0.02543672733008862,-0.005468845367431641,-0.00404202938079834,-0.005117416381835938,XArbitraryZVertical,0.169401807799221,-0.5448554191842839,0.6431520718433896,0.5106771235752336,-0.7743926644325256,0.5278305411338806,-0.3488712012767792,0,0,0,-1,-1,65066.95715912501,unknown,2,2025-04-18T11:53:44.011+03:00,2025-04-17T15:44:39.500+03:00,7529,1.126433,0,0,6207.333,4,10,2025-04-18T11:44:42.378+03:00,766659229.2648934,0,107.68,100.5637,1,0.5,2025-04-18T11:46:49.169+03:00,74,1.233333333333333,2025-04-18T08:51:18.885+03:00,0.03057091307199995,1
2025-04-18T11:53:51.709+03:00,1744966428.250393,40.95359290647468,29.1410029911603,94.2901,-1,-1,-1,-1,30,24.60438744106876,-9999,65074.65062516667,-0.768524169921875,0.5364532470703125,-0.352752685546875,65074.64055016667,1.434458162117992,-1.147774293540188,-0.5563570679282106,-0.02471864968538284,-0.01717262342572212,0.02088165655732155,-0.003165304660797119,-0.00803077220916748,-0.002041369676589966,XArbitraryZVertical,0.169333438225131,-0.5449985294703644,0.6431307905353851,0.5105739443708137,-0.7743312120437622,0.5280961990356445,-0.3486055731773376,0,0,0,-1,-1,65066.95715912501,unknown,2,2025-04-18T11:53:44.011+03:00,2025-04-17T15:44:39.500+03:00,7529,1.126433,0,0,6207.333,4,10,2025-04-18T11:44:42.378+03:00,766659229.2648934,0,107.68,100.5637,1,0.5,2025-04-18T11:46:49.169+03:00,74,1.233333333333333,2025-04-18T08:51:18.885+03:00,0.03057091307199995,1
2025-04-18T11:53:51.719+03:00,1744966428.250393,40.95359290647468,29.1410029911603,94.2901,-1,-1,-1,-1,30,24.60438744106876,-9999,65074.66070016667,-0.7666015625,0.53619384765625,-0.348846435546875,65074.65062516667,1.43424639324596,-1.148049873498951,-0.5566042420384839,-0.02358380891382694,-0.01447344478219748,0.007807965390384197,0.00341874361038208,0.003813683986663818,-0.005817890167236328,XArbitraryZVertical,0.1692770635341162,-0.5451385064467008,0.6430832908011188,0.5105028943767953,-0.7743080854415894,0.5283060669898987,-0.3483385741710663,0,0,0,-1,-1,65066.95715912501,unknown,2,2025-04-18T11:53:44.011+03:00,2025-04-17T15:44:39.500+03:00,7529,1.126433,0,0,6207.333,4,10,2025-04-18T11:44:42.378+03:00,766659229.2648934,0,107.68,100.5637,1,0.5,2025-04-18T11:46:49.169+03:00,74,1.233333333333333,2025-04-18T08:51:18.885+03:00,0.03057091307199995,1
2025-04-18T11:53:51.729+03:00,1744966428.250393,40.95359290647468,29.1410029911603,94.2901,-1,-1,-1,-1,30,24.60438744106876,-9999,65074.67077516667,-0.7661590576171875,0.5444488525390625,-0.3521881103515625,65074.66070016667,1.434092125805416,-1.148255873527523,-0.556754953799149,-0.01288163010030985,-0.01426784787327051,0.005485422909259796,0.005660951137542725,0.00786668062210083,-0.002851426601409912,XArbitraryZVertical,0.1692479641148712,-0.5452356474418766,0.6430447171693996,0.5104574885601088,-0.7743072509765625,0.5284340381622314,-0.3481464385986328,0,0,0,-1,-1,65066.95715912501,unknown,2,2025-04-18T11:53:44.011+03:00,2025-04-17T15:44:39.500+03:00,7529,1.126433,0,0,6207.333,4,10,2025-04-18T11:44:42.378+03:00,766659229.2648934,0,107.68,100.5637,1,0.5,2025-04-18T11:46:49.169+03:00,74,1.233333333333333,2025-04-18T08:51:18.885+03:00,0.03057091307199995,1
2025-04-18T11:53:51.739+03:00,1744966428.250393,40.95359290647468,29.1410029911603,94.2901,-1,-1,-1,-1,30,24.60438744106876,-9999,65074.68085016667,-0.766387939453125,0.53961181640625,-0.3499755859375,65074.67077516667,1.434029144591963,-1.148414103223285,-0.5568491860876418,-0.004919377621263266,-0.01581813953816891,0.005863824859261513,0.008096694946289062,0.009541511535644531,-0.0009649693965911865,XArbitraryZVertical,0.1692483389672775,-0.545301052195143,0.6430266589300617,0.5104103414632286,-0.7743169665336609,0.52851402759552,-0.3480035364627838,0,0,0,-1,-1,65066.95715912501,unknown,2,2025-04-18T11:53:44.011+03:00,2025-04-17T15:44:39.500+03:00,7529,1.126433,0,0,6207.333,4,10,2025-04-18T11:44:42.378+03:00,766659229.2648934,0,107.68,100.5637,1,0.5,2025-04-18T11:46:49.169+03:00,74,1.233333333333333,2025-04-18T08:51:18.885+03:00,0.03057091307199995,1
2025-04-18T11:53:51.749+03:00,1744966428.250393,40.95359290647468,29.1410029911603,94.2901,-1,-1,-1,-1,30,24.60438744106876,-9999,65074.69092516667,-0.7720947265625,0.5320892333984375,-0.34820556640625,65074.68085016667,1.434018781535272,-1.148533515370995,-0.5569458655844353,-0.005054399836808443,-0.01200129836797714,0.005878205876797438,0.008305251598358154,0.01718038320541382,-0.004908353090286255,XArbitraryZVertical,0.169249764056242,-0.545352606781414,0.6430256067458434,0.5103560679262769,-0.774311900138855,0.5285961031913757,-0.3478901088237762,0,0,0,-1,-1,65066.95715912501,unknown,2,2025-04-18T11:53:44.011+03:00,2025-04-17T15:44:39.500+03:00,7529,1.126433,0,0,6207.333,4,10,2025-04-18T11:44:42.378+03:00,766659229.2648934,0,107.68,100.5637,1,0.5,2025-04-18T11:46:49.169+03:00,74,1.233333333333333,2025-04-18T08:51:18.885+03:00,0.03057091307199995,1
2025-04-18T11:53:51.759+03:00,1744966428.250393,40.95359290647468,29.1410029911603,94.2901,-1,-1,-1,-1,30,24.60438744106876,-9999,65074.70100016667,-0.77435302734375,0.5237274169921875,-0.3479461669921875,65074.69092516667,1.433975677987653,-1.148686709846991,-0.5570472081456112,-0.009404140524566174,-0.01733800582587719,0.009024064987897873,0.006493926048278809,0.006504595279693604,4.753470420837402e-05,XArbitraryZVertical,0.1692515195877797,-0.5454165238120648,0.6430139022135334,0.5103017602742411,-0.7743161916732788,0.5286821126937866,-0.3477494716644287,0,0,0,-1,-1,65066.95715912501,unknown,2,2025-04-18T11:53:44.011+03:00,2025-04-17T15:44:39.500+03:00,7529,1.126433,0,0,6207.333,4,10,2025-04-18T11:44:42.378+03:00,766659229.2648934,0,107.68,100.5637,1,0.5,2025-04-18T11:46:49.169+03:00,74,1.233333333333333,2025-04-18T08:51:18.885+03:00,0.03057091307199995,1
2025-04-18T11:53:51.769+03:00,1744966428.250393,40.95359290647468,29.1410029911603,94.2901,-1,-1,-1,-1,30,24.60438744106876,-9999,65074.71107516667,-0.7758026123046875,0.5183258056640625,-0.3473663330078125,65074.70100016667,1.433867347847714,-1.148889285949906,-0.5572118149766627,-0.01983814127743244,-0.01140288636088371,0.01202784385532141,0.0005644559860229492,0.001482188701629639,-0.0006943047046661377,XArbitraryZVertical,0.1692289134771067,-0.5455117552201714,0.6429890493541273,0.510238865201984,-0.7743072509765625,0.5288218259811401,-0.347557008266449,0,0,0,-1,-1,65066.95715912501,unknown,2,2025-04-18T11:53:44.011+03:00,2025-04-17T15:44:39.500+03:00,7529,1.126433,0,0,6207.333,4,10,2025-04-18T11:44:42.378+03:00,766659229.2648934,0,107.68,100.5637,1,0.5,2025-04-18T11:46:49.169+03:00,74,1.233333333333333,2025-04-18T08:51:18.885+03:00,0.03057091307199995,1
2025-04-18T11:53:51.780+03:00,1744966428.250393,40.95359290647468,29.1410029911603,94.2901,-1,-1,-1,-1,30,24.60438744106876,-9999,65074.72115016667,-0.7713470458984375,0.5198516845703125,-0.34613037109375,65074.71107516667,1.433710249552422,-1.149097480551367,-0.5574474033851496,-0.02536126971244812,-0.01710391417145729,0.0208293255418539,0.0001874566078186035,-0.009612560272216797,0.000222623348236084,XArbitraryZVertical,0.1691697806615184,-0.5456273507814664,0.6429598782723315,0.5101715572426579,-0.7742658853530884,0.5290217399597168,-0.3473447561264038,0,0,0,-1,-1,65066.95715912501,unknown,2,2025-04-18T11:53:44.011+03:00,2025-04-17T15:44:39.500+03:00,7529,1.126433,0,0,6207.333,4,10,2025-04-18T11:44:42.378+03:00,766659229.2648934,0,107.68,100.5637,1,0.5,2025-04-18T11:46:49.169+03:00,74,1.233333333333333,2025-04-18T08:51:18.885+03:00,0.03057091307199995,1
2025-04-18T11:53:51.790+03:00,1744966428.250393,40.95359290647468,29.1410029911603,94.2901,-1,-1,-1,-1,30,24.60438744106876,-9999,65074.73122516667,-0.7682952880859375,0.52764892578125,-0.34393310546875,65074.72115016667,1.433599330586968,-1.149292480950927,-0.5577260980491273,-0.01707164943218231,-0.00928087905049324,0.02438970655202866,-0.002214014530181885,-0.01001691818237305,0.0006369352340698242,XArbitraryZVertical,0.169103755680697,-0.5457446392024263,0.6429488367654312,0.5100818428001861,-0.7741990089416504,0.5292582511901855,-0.3471334278583527,0,0,0,-1,-1,65066.95715912501,unknown,2,2025-04-18T11:53:44.011+03:00,2025-04-17T15:44:39.500+03:00,7529,1.126433,0,0,6207.333,4,10,2025-04-18T11:44:42.378+03:00,766659229.2648934,0,107.68,100.5637,1,0.5,2025-04-18T11:46:49.169+03:00,74,1.233333333333333,2025-04-18T08:51:18.885+03:00,0.03057091307199995,1
2025-04-18T11:53:51.800+03:00,1744966428.250393,40.95359290647468,29.1410029911603,94.2901,-1,-1,-1,-1,30,24.60438744106876,-9999,65074.74130016667,-0.7791595458984375,0.5348663330078125,-0.341156005859375,65074.73122516667,1.433534065872822,-1.149307428570919,-0.5580043876031081,-0.01302896905690432,0.006860007531940937,0.0209030956029892,0.005865991115570068,-0.008132040500640869,0.0009770393371582031,XArbitraryZVertical,0.1689924066040353,-0.5458120320917295,0.6429646202839048,0.5100267723863339,-0.7740697860717773,0.5294943451881409,-0.3470615744590759,0,0,0,-1,-1,65066.95715912501,unknown,2,2025-04-18T11:53:44.011+03:00,2025-04-17T15:44:39.500+03:00,7529,1.126433,0,0,6207.333,4,10,2025-04-18T11:44:42.378+03:00,766659229.2648934,0,107.68,100.5637,1,0.5,2025-04-18T11:46:49.169+03:00,74,1.233333333333333,2025-04-18T08:51:18.885+03:00,0.03057091307199995,1
2025-04-18T11:53:51.810+03:00,1744966428.250393,40.95359290647468,29.1410029911603,94.2901,-1,-1,-1,-1,30,24.60438744106876,-9999,65074.75137516667,-0.778106689453125,0.54241943359375,-0.33551025390625,65074.74130016667,1.433468024983748,-1.149182216529019,-0.5582449541925394,-0.01427559554576874,0.02002481184899807,0.01621247082948685,0.001189708709716797,0.001749932765960693,0.004500836133956909,XArbitraryZVertical,0.1688491214318915,-0.5458358644124464,0.6429874673023152,0.5100199204595851,-0.7739100456237793,0.5296984314918518,-0.3471063673496246,0,0,0,-1,-1,65066.95715912501,unknown,2,2025-04-18T11:53:44.011+03:00,2025-04-17T15:44:39.500+03:00,7529,1.126433,0,0,6207.333,4,10,2025-04-18T11:44:42.378+03:00,766659229.2648934,0,107.68,100.5637,1,0.5,2025-04-18T11:46:49.169+03:00,74,1.233333333333333,2025-04-18T08:51:18.885+03:00,0.03057091307199995,1
2025-04-18T11:53:51.820+03:00,1744966428.250393,40.95359290647468,29.1410029911603,94.2901,-1,-1,-1,-1,30,24.60438744106876,-9999,65074.76145016667,-0.7760162353515625,0.5330352783203125,-0.3430023193359375,65074.75137516667,1.433423317690323,-1.148963569668293,-0.5584588954115306,-0.005376109853386879,0.03204019367694855,0.01985673978924751,-0.006313860416412354,0.005947768688201904,0.007858544588088989,XArbitraryZVertical,0.1686910362149718,-0.5458285070726779,0.643020392901885,0.5100385506447213,-0.7737306952476501,0.5298798680305481,-0.3472291529178619,0,0,0,-1,-1,65066.95715912501,unknown,2,2025-04-18T11:53:44.011+03:00,2025-04-17T15:44:39.500+03:00,7529,1.126433,0,0,6207.333,4,10,2025-04-18T11:44:42.378+03:00,766659229.2648934,0,107.68,100.5637,1,0.5,2025-04-18T11:46:49.169+03:00,74,1.233333333333333,2025-04-18T08:51:18.885+03:00,0.03057091307199995,1
2025-04-18T11:53:51.830+03:00,1744966428.250393,40.95359290647468,29.1410029911603,94.2901,-1,-1,-1,-1,30,24.60438744106876,-9999,65074.77152516667,-0.774169921875,0.5180511474609375,-0.358184814453125,65074.76145016667,1.4335470422814,-1.148506162280491,-0.5586798873473158,0.00125063385348767,0.03472226485610008,0.02106368355453014,-0.00366520881652832,0.01342034339904785,0.01248261332511902,XArbitraryZVertical,0.168499579188734,-0.5457475242264345,0.6431172179367078,0.5100665431183793,-0.773465096950531,0.5300672650337219,-0.3475350737571716,0,0,0,-1,-1,65066.95715912501,unknown,2,2025-04-18T11:53:44.011+03:00,2025-04-17T15:44:39.500+03:00,7529,1.126433,0,0,6207.333,4,10,2025-04-18T11:44:42.378+03:00,766659229.2648934,0,107.68,100.5637,1,0.5,2025-04-18T11:46:49.169+03:00,74,1.233333333333333,2025-04-18T08:51:18.885+03:00,0.03057091307199995,1
2025-04-18T11:53:51.857+03:00,1744966428.250393,40.95359290647468,29.1410029911603,94.2901,-1,-1,-1,-1,30,24.60438744106876,-9999,65074.78160016667,-0.758880615234375,0.512908935546875,-0.349761962890625,65074.77152516667,1.433571591274868,-1.148281220443169,-0.5589301293797242,-0.01595205627381802,0.006197679322212934,0.02421793155372143,-0.003498077392578125,-0.005667030811309814,-0.003907829523086548,XArbitraryZVertical,0.1683455368974354,-0.5457403039022539,0.6431726338577375,0.5100551513053165,-0.7732657790184021,0.5302794575691223,-0.3476546108722687,0,0,0,-1,-1,65066.95715912501,unknown,2,2025-04-18T11:53:44.011+03:00,2025-04-17T15:44:39.500+03:00,7529,1.126433,0,0,6207.333,4,10,2025-04-18T11:44:42.378+03:00,766659229.2648934,0,107.68,100.5637,1,0.5,2025-04-18T11:46:49.169+03:00,74,1.233333333333333,2025-04-18T08:51:18.885+03:00,0.03057091307199995,1
2025-04-18T11:53:51.859+03:00,1744966428.250393,40.95359290647468,29.1410029911603,94.2901,-1,-1,-1,-1,30,24.60438744106876,-9999,65074.79167516667,-0.7608795166015625,0.5225830078125,-0.3431549072265625,65074.78160016667,1.433396034974879,-1.148285742513508,-0.5592612117872019,-0.03804224357008934,0.0126397991552949,0.02218603901565075,0.004033744335174561,-0.01369917392730713,-0.008698314428329468,XArbitraryZVertical,0.1681820406627609,-0.5458252894391841,0.6431674443888771,0.5100247368299636,-0.7731072306632996,0.5305601358413696,-0.3475791215896606,0,0,0,-1,-1,65066.95715912501,unknown,2,2025-04-18T11:53:44.011+03:00,2025-04-17T15:44:39.500+03:00,7529,1.126433,0,0,6207.333,4,10,2025-04-18T11:44:42.378+03:00,766659229.2648934,0,107.68,100.5637,1,0.5,2025-04-18T11:46:49.169+03:00,74,1.233333333333333,2025-04-18T08:51:18.885+03:00,0.03057091307199995,1
2025-04-18T11:53:51.860+03:00,1744966428.250393,40.95359290647468,29.1410029911603,94.2901,-1,-1,-1,-1,30,24.60438744106876,-9999,65074.80175016667,-0.7629852294921875,0.5362701416015625,-0.345733642578125,65074.79167516667,1.433078706830197,-1.148415809215521,-0.559600104216802,-0.03514578938484192,-0.005396725609898567,0.02135899476706982,0.01604562997817993,-0.01850295066833496,0.001518666744232178,XArbitraryZVertical,0.1680174343145448,-0.5459557868288548,0.643116492283342,0.5100036199294669,-0.7729884386062622,0.5308473706245422,-0.3474048376083374,0,0,0,-1,-1,65066.95715912501,unknown,2,2025-04-18T11:53:44.011+03:00,2025-04-17T15:44:39.500+03:00,7529,1.126433,0,0,6207.333,4,10,2025-04-18T11:44:42.378+03:00,766659229.2648934,0,107.68,100.5637,1,0.5,2025-04-18T11:46:49.169+03:00,74,1.233333333333333,2025-04-18T08:51:18.885+03:00,0.03057091307199995,1
2025-04-18T11:53:51.871+03:00,1744966428.250393,40.95359290647468,29.1410029911603,94.2901,-1,-1,-1,-1,30,24.60438744106876,-9999,65074.81182516667,-0.7720184326171875,0.5512847900390625,-0.3442535400390625,65074.80175016667,1.432946827450721,-1.148520950224188,-0.5598684298766088,-0.01012432668358088,0.001837751595303416,0.02262666076421738,0.01062691211700439,-0.001197993755340576,0.004079818725585938,XArbitraryZVertical,0.1679203722941224,-0.5460495924730693,0.6431064178957538,0.5099478777164272,-0.7728949785232544,0.5310747027397156,-0.3472651839256287,0,0,0,-1,-1,65066.95715912501,unknown,2,2025-04-18T11:53:44.011+03:00,2025-04-17T15:44:39.500+03:00,7529,1.126433,0,0,6207.333,4,10,2025-04-18T11:44:42.378+03:00,766659231.8361058,0,107.7,100.5632,1,0.5,2025-04-18T11:46:49.169+03:00,74,1.233333333333333,2025-04-18T08:51:18.885+03:00,0.03057091307199995,1
2025-04-18T11:53:51.880+03:00,1744966428.250393,40.95359290647468,29.1410029911603,94.2901,-1,-1,-1,-1,30,24.60438744106876,-9999,65074.82190016667,-0.7729949951171875,0.5525970458984375,-0.3393707275390625,65074.81182516667,1.432994341620088,-1.148482313262311,-0.5600411171190797,-0.002485048957169056,-0.002375103067606688,0.01188226882368326,0.007569551467895508,0.008055150508880615,0.001035600900650024,XArbitraryZVertical,0.1678598251864787,-0.546071730705407,0.6431426167349009,0.5098985694472908,-0.7727980017662048,0.5312210321426392,-0.3472574949264526,0,0,0,-1,-1,65066.95715912501,unknown,2,2025-04-18T11:53:44.011+03:00,2025-04-17T15:44:39.500+03:00,7529,1.126433,0,0,6207.333,4,10,2025-04-18T11:44:42.378+03:00,766659231.8361058,0,107.7,100.5632,1,0.5,2025-04-18T11:46:49.169+03:00,74,1.233333333333333,2025-04-18T08:51:18.885+03:00,0.03057091307199995,1
2025-04-18T11:53:51.890+03:00,1744966428.250393,40.95359290647468,29.1410029911603,94.2901,-1,-1,-1,-1,30,24.60438744106876,-9999,65074.83197516667,-0.766815185546875,0.5306549072265625,-0.3452606201171875,65074.82190016667,1.432996065829918,-1.148490057515676,-0.5601473187019191,-0.003872555680572987,0.001187673769891262,0.007924545556306839,-0.001741290092468262,0.0257568359375,0.005889266729354858,XArbitraryZVertical,0.1678253277244973,-0.5460956959783427,0.6431552083304368,0.5098681345407082,-0.7727490663528442,0.53131103515625,-0.3472282886505127,0,0,0,-1,-1,65066.95715912501,unknown,2,2025-04-18T11:53:44.011+03:00,2025-04-17T15:44:39.500+03:00,7529,1.126433,0,0,6207.333,4,10,2025-04-18T11:44:42.378+03:00,766659231.8361058,0,107.7,100.5632,1,0.5,2025-04-18T11:46:49.169+03:00,74,1.233333333333333,2025-04-18T08:51:18.885+03:00,0.03057091307199995,1
2025-04-18T11:53:51.900+03:00,1744966428.250393,40.95359290647468,29.1410029911603,94.2901,-1,-1,-1,-1,30,24.60438744106876,-9999,65074.84205016667,-0.770050048828125,0.5235137939453125,-0.35125732421875,65074.83197516667,1.432946520126471,-1.148485628129672,-0.5602471074179953,-0.01262942887842655,0.007632124237716198,0.005243075080215931,0.003000080585479736,0.01207679510116577,0.007106900215148926,XArbitraryZVertical,0.167775055673976,-0.5461195093430667,0.6431549896770951,0.5098595538436324,-0.772699236869812,0.5313955545425415,-0.347210019826889,0,0,0,-1,-1,65066.95715912501,unknown,2,2025-04-18T11:53:44.011+03:00,2025-04-17T15:44:39.500+03:00,7529,1.126433,0,0,6207.333,4,10,2025-04-18T11:44:42.378+03:00,766659231.8361058,0,107.7,100.5632,1,0.5,2025-04-18T11:46:49.169+03:00,74,1.233333333333333,2025-04-18T08:51:18.885+03:00,0.03057091307199995,1
2025-04-18T11:53:51.911+03:00,1744966428.250393,40.95359290647468,29.1410029911603,94.2901,-1,-1,-1,-1,30,24.60438744106876,-9999,65074.85212516667,-0.7723846435546875,0.51812744140625,-0.3563995361328125,65074.84205016667,1.432821931678453,-1.148460434245859,-0.560347913280588,-0.01119052339345217,0.01601815223693848,0.002439299132674932,0.005170226097106934,-0.004900157451629639,-0.001165837049484253,XArbitraryZVertical,0.167697328310867,-0.5461445374875044,0.6431374951482576,0.5098802834487565,-0.7726415395736694,0.5314809083938599,-0.3472074866294861,0,0,0,-1,-1,65066.95715912501,unknown,2,2025-04-18T11:53:44.011+03:00,2025-04-17T15:44:39.500+03:00,7529,1.126433,0,0,6207.333,4,10,2025-04-18T11:44:42.378+03:00,766659231.8361058,0,107.7,100.5632,1,0.5,2025-04-18T11:46:49.169+03:00,74,1.233333333333333,2025-04-18T08:51:18.885+03:00,0.03057091307199995,1
2025-04-18T11:53:51.921+03:00,1744966428.250393,40.95359290647468,29.1410029911603,94.2901,-1,-1,-1,-1,30,24.60438744106876,-9999,65074.86219916667,-0.7744140625,0.5196533203125,-0.3575286865234375,65074.85212516667,1.43260807956363,-1.148386280085122,-0.5604294329218074,-0.02859860844910145,0.01991109363734722,-0.0005325553938746452,0.001793801784515381,-0.009958863258361816,-0.005719214677810669,XArbitraryZVertical,0.1675862455609343,-0.546160533289393,0.6430990213933848,0.5099482365730063,-0.7725763320922852,0.5315499901771545,-0.3472470343112946,0,0,0,-1,-1,65066.95715912501,unknown,2,2025-04-18T11:53:44.011+03:00,2025-04-17T15:44:39.500+03:00,7529,1.126433,0,0,6207.333,4,10,2025-04-18T11:44:42.378+03:00,766659231.8361058,0,107.7,100.5632,1,0.5,2025-04-18T11:46:49.169+03:00,74,1.233333333333333,2025-04-18T08:51:18.885+03:00,0.03057091307199995,1
2025-04-18T11:53:51.931+03:00,1744966428.250393,40.95359290647468,29.1410029911603,94.2901,-1,-1,-1,-1,30,24.60438744106876,-9999,65074.87227516667,-0.76763916015625,0.5271759033203125,-0.348052978515625,65074.86219916667,1.432303082731835,-1.148338714782892,-0.5605497101052304,-0.03162289038300514,0.02112416550517082,0.005216676741838455,-0.001149654388427734,-0.01329559087753296,-0.01112553477287292,XArbitraryZVertical,0.1674451300770677,-0.5461989945060627,0.6430397400756674,0.5100281402585606,-0.7725014686584473,0.5316518545150757,-0.3472575843334198,0,0,0,-1,-1,65066.95715912501,unknown,2,2025-04-18T11:53:44.011+03:00,2025-04-17T15:44:39.500+03:00,7529,1.126433,0,0,6207.333,4,10,2025-04-18T11:44:42.378+03:00,766659231.8361058,0,107.7,100.5632,1,0.5,2025-04-18T11:46:49.169+03:00,74,1.233333333333333,2025-04-18T08:51:18.885+03:00,0.03057091307199995,1
2025-04-18T11:53:51.941+03:00,1744966428.250393,40.95359290647468,29.1410029911603,94.2901,-1,-1,-1,-1,30,24.60438744106876,-9999,65074.8823495,-0.7659149169921875,0.5448150634765625,-0.3434600830078125,65074.87227516667,1.432036056190224,-1.148243241545174,-0.5606831129689238,-0.02265256829559803,0.02320968545973301,0.005380194634199142,0.0002020597457885742,-0.01116549968719482,-0.007006794214248657,XArbitraryZVertical,0.1672943316297371,-0.5462247611618377,0.6429957198182344,0.5101055140839945,-0.7724035978317261,0.5317648649215698,-0.3473022282123566,0,0,0,-1,-1,65066.95715912501,unknown,2,2025-04-18T11:53:44.011+03:00,2025-04-17T15:44:39.500+03:00,7529,1.126433,0,0,6207.333,4,10,2025-04-18T11:44:42.378+03:00,766659231.8361058,0,107.7,100.5632,1,0.5,2025-04-18T11:46:49.169+03:00,74,1.233333333333333,2025-04-18T08:51:18.885+03:00,0.03057091307199995,1
2025-04-18T11:53:51.951+03:00,1744966428.250393,40.95359290647468,29.1410029911603,94.2901,-1,-1,-1,-1,30,24.60438744106876,-9999,65074.8924245,-0.7704315185546875,0.548675537109375,-0.3463592529296875,65074.8823495,1.431896168079234,-1.148032927777751,-0.5607983744624289,-0.005774518940597773,0.03305033221840858,0.00423556799069047,0.006451308727264404,0.002256214618682861,0.00132453441619873,XArbitraryZVertical,0.1671477099253287,-0.5462067980827043,0.6429915269282478,0.5101781858347084,-0.7722747325897217,0.5318624377250671,-0.3474395573139191,0,0,0,-1,-1,65066.95715912501,unknown,2,2025-04-18T11:53:44.011+03:00,2025-04-17T15:44:39.500+03:00,7529,1.126433,0,0,6207.333,4,10,2025-04-18T11:44:42.378+03:00,766659231.8361058,0,107.7,100.5632,1,0.5,2025-04-18T11:46:49.169+03:00,74,1.233333333333333,2025-04-18T08:51:18.885+03:00,0.03057091307199995,1
2025-04-18T11:53:51.961+03:00,1744966428.250393,40.95359290647468,29.1410029911603,94.2901,-1,-1,-1,-1,30,24.60438744106876,-9999,65074.90249950001,-0.76947021484375,0.5493316650390625,-0.355682373046875,65074.8924245,1.43197306081405,-1.147653157337059,-0.5608295263803383,0.01511365175247192,0.03258661180734634,0.002705149352550507,0.004961371421813965,0.01533716917037964,0.00530359148979187,XArbitraryZVertical,0.1670355493812205,-0.5461099724401972,0.6430466301623627,0.5102492254957222,-0.7721276879310608,0.5318888425827026,-0.347726047039032,0,0,0,-1,-1,65066.95715912501,unknown,2,2025-04-18T11:53:44.011+03:00,2025-04-17T15:44:39.500+03:00,7529,1.126433,0,0,6207.333,4,10,2025-04-18T11:44:42.378+03:00,766659231.8361058,0,107.7,100.5632,1,0.5,2025-04-18T11:46:49.169+03:00,74,1.233333333333333,2025-04-18T08:51:18.885+03:00,0.03057091307199995,1
2025-04-18T11:53:51.971+03:00,1744966428.250393,40.95359290647468,29.1410029911603,94.2901,-1,-1,-1,-1,30,24.60438744106876,-9999,65074.91257450001,-0.7695465087890625,0.5337982177734375,-0.357574462890625,65074.90249950001,1.432133097949825,-1.147262713814786,-0.5608325049586727,0.01549741346389055,0.03375999629497528,0.002271586796268821,0.001284122467041016,0.01786750555038452,-0.002314954996109009,XArbitraryZVertical,0.1669526859718987,-0.5459976167983908,0.643120417287675,0.5103034775018414,-0.7719902992248535,0.5318913459777832,-0.3480268120765686,0,0,0,-1,-1,65066.95715912501,unknown,2,2025-04-18T11:53:44.011+03:00,2025-04-17T15:44:39.500+03:00,7529,1.126433,0,0,6207.333,4,10,2025-04-18T11:44:42.378+03:00,766659231.8361058,0,107.7,100.5632,1,0.5,2025-04-18T11:46:49.169+03:00,74,1.233333333333333,2025-04-18T08:51:18.885+03:00,0.03057091307199995,1
2025-04-18T11:53:51.981+03:00,1744966428.250393,40.95359290647468,29.1410029911603,94.2901,-1,-1,-1,-1,30,24.60438744106876,-9999,65074.9226495,-0.768951416015625,0.520294189453125,-0.35296630859375,65074.91257450001,1.432207571816086,-1.146916293790309,-0.5608225321642598,0.002316497499123216,0.0272044949233532,-0.003871060907840729,0.002984106540679932,0.01349669694900513,-0.009934097528457642,XArbitraryZVertical,0.1668651757116542,-0.5459009314673019,0.643167127359349,0.5103765790848869,-0.7718744874000549,0.5318829417228699,-0.3482963740825653,0,0,0,-1,-1,65066.95715912501,unknown,2,2025-04-18T11:53:44.011+03:00,2025-04-17T15:44:39.500+03:00,7529,1.126433,0,0,6207.333,4,10,2025-04-18T11:44:42.378+03:00,766659231.8361058,0,107.7,100.5632,1,0.5,2025-04-18T11:46:49.169+03:00,74,1.233333333333333,2025-04-18T08:51:18.885+03:00,0.03057091307199995,1
2025-04-18T11:53:51.991+03:00,1744966428.250393,40.95359290647468,29.1410029911603,94.2901,-1,-1,-1,-1,30,24.60438744106876,-9999,65074.9327245,-0.7660064697265625,0.5202789306640625,-0.3549041748046875,65074.9226495,1.432197415662089,-1.146674154059723,-0.5608249389225498,-0.005903082899749279,0.01944271102547646,0.00371788302436471,0.002181410789489746,-0.004358053207397461,-0.007321596145629883,XArbitraryZVertical,0.1667836597229521,-0.5458404823537493,0.6431850248629759,0.510445381439583,-0.771789014339447,0.5318849682807922,-0.348482757806778,0,0,0,-1,-1,65066.95715912501,unknown,2,2025-04-18T11:53:44.011+03:00,2025-04-17T15:44:39.500+03:00,7529,1.126433,0,0,6207.333,4,10,2025-04-18T11:44:42.378+03:00,766659231.8361058,0,107.7,100.5632,1,0.5,2025-04-18T11:46:49.169+03:00,74,1.233333333333333,2025-04-18T08:51:18.885+03:00,0.03057091307199995,1
2025-04-18T11:53:52.001+03:00,1744966428.250393,40.95359290647468,29.1410029911603,94.2901,-1,-1,-1,-1,30,24.60438744106876,-9999,65074.9427995,-0.7689361572265625,0.526519775390625,-0.352325439453125,65074.9327245,1.432172143333512,-1.146549956939652,-0.5609223081517151,-0.006585318129509687,0.003538113553076982,0.01473594643175602,0.003525197505950928,-0.0133364200592041,-0.004805684089660645,XArbitraryZVertical,0.1667023798226744,-0.5458311777977469,0.6432006402159524,0.5104621902264325,-0.771698534488678,0.5319674015045166,-0.3485572934150696,0,0,0,-1,-1,65066.95715912501,unknown,2,2025-04-18T11:53:44.011+03:00,2025-04-17T15:44:39.500+03:00,7529,1.126433,0,0,6207.333,4,10,2025-04-18T11:44:42.378+03:00,766659231.8361058,0,107.7,100.5632,1,0.5,2025-04-18T11:46:49.169+03:00,74,1.233333333333333,2025-04-18T08:51:18.885+03:00,0.03057091307199995,1
2025-04-18T11:53:52.011+03:00,1744966428.250393,40.95359290647468,29.1410029911603,94.2901,-1,-1,-1,-1,30,24.60438744106876,-9999,65074.95287450001,-0.7720947265625,0.5336761474609375,-0.345458984375,65074.9427995,1.432136383624406,-1.146569434709994,-0.5610847566116479,-0.01379662565886974,-0.005847132299095392,0.01658125035464764,0.004750251770019531,-0.01026958227157593,-0.006305873394012451,XArbitraryZVertical,0.1666414092377296,-0.5458729713587612,0.6432094257346926,0.5104263425284485,-0.7716265320777893,0.5321049690246582,-0.3485066890716553,0,0,0,-1,-1,65066.95715912501,unknown,2,2025-04-18T11:53:44.011+03:00,2025-04-17T15:44:39.500+03:00,7529,1.126433,0,0,6207.333,4,10,2025-04-18T11:44:42.378+03:00,766659231.8361058,0,107.7,100.5632,1,0.5,2025-04-18T11:46:49.169+03:00,74,1.233333333333333,2025-04-18T08:51:18.885+03:00,0.03057091307199995,1
2025-04-18T11:53:52.021+03:00,1744966428.250393,40.95359290647468,29.1410029911603,94.2901,-1,-1,-1,-1,30,24.60438744106876,-9999,65074.9629495,-0.7729949951171875,0.542236328125,-0.3467864990234375,65074.95287450001,1.432047714154937,-1.146774367056622,-0.5612589241543113,-0.01546935737133026,-0.02658836543560028,0.007017971947789192,0.001716017723083496,-0.002772390842437744,-0.0009021759033203125,XArbitraryZVertical,0.1666214740832602,-0.5459689303784784,0.6431906700879444,0.5103538984483591,-0.7716134786605835,0.5322524309158325,-0.3483104109764099,0,0,0,-1,-1,65066.95715912501,unknown,2,2025-04-18T11:53:44.011+03:00,2025-04-17T15:44:39.500+03:00,7529,1.126433,0,0,6207.333,4,10,2025-04-18T11:44:42.378+03:00,766659231.8361058,0,107.7,100.5632,1,0.5,2025-04-18T11:46:49.169+03:00,74,1.233333333333333,2025-04-18T08:51:18.885+03:00,0.03057091307199995,1
2025-04-18T11:53:52.032+03:00,1744966428.250393,40.95359290647468,29.1410029911603,94.2901,-1,-1,-1,-1,30,24.60438744106876,-9999,65074.9730245,-0.7680816650390625,0.5465087890625,-0.349884033203125,65074.9629495,1.431887745608951,-1.147292789195511,-0.5614540897789394,-0.02424154244363308,-0.04804119095206261,0.01395976822823286,-0.001723051071166992,0.003837287425994873,0.003324210643768311,XArbitraryZVertical,0.1666754738343898,-0.5461551624576342,0.6431301367348264,0.5102132418974263,-0.7716992497444153,0.5324175953865051,-0.3478676378726959,0,0,0,-1,-1,65066.95715912501,unknown,2,2025-04-18T11:53:44.011+03:00,2025-04-17T15:44:39.500+03:00,7529,1.126433,0,0,6207.333,4,10,2025-04-18T11:44:42.378+03:00,766659231.8361058,0,107.7,100.5632,1,0.5,2025-04-18T11:46:49.169+03:00,74,1.233333333333333,2025-04-18T08:51:18.885+03:00,0.03057091307199995,1
2025-04-18T11:53:52.042+03:00,1744966428.250393,40.95359290647468,29.1410029911603,94.2901,-1,-1,-1,-1,30,24.60438744106876,-9999,65074.9830995,-0.767669677734375,0.52301025390625,-0.3494720458984375,65074.9730245,1.431666327601605,-1.147843440981094,-0.5617339869189325,-0.02698333375155926,-0.04161984473466873,0.013292346149683,0.0005297660827636719,0.0144951343536377,-0.0006867051124572754,XArbitraryZVertical,0.166693012839868,-0.5463723006315948,0.6430614653864007,0.5100616210049629,-0.7717548012733459,0.5326545238494873,-0.3473815023899078,0,0,0,-1,-1,65066.95715912501,unknown,2,2025-04-18T11:53:44.011+03:00,2025-04-17T15:44:39.500+03:00,7529,1.126433,0,0,6207.333,4,10,2025-04-18T11:44:42.378+03:00,766659231.8361058,0,107.7,100.5632,1,0.5,2025-04-18T11:46:49.169+03:00,74,1.233333333333333,2025-04-18T08:51:18.885+03:00,0.03057091307199995,1
2025-04-18T11:53:52.052+03:00,1744966428.250393,40.95359290647468,29.1410029911603,94.2901,-1,-1,-1,-1,30,24.60438744106876,-9999,65074.99317450001,-0.742950439453125,0.526214599609375,-0.349761962890625,65074.9830995,1.431400035959842,-1.148485548023528,-0.5618870670914705,-0.01462040841579437,-0.04338738322257996,-0.01042256969958544,0.00313490629196167,0.006156384944915771,-0.003413021564483643,XArbitraryZVertical,0.1667725560482588,-0.5465900642780792,0.6429584734176154,0.5099320662517107,-0.7719032764434814,0.532784104347229,-0.3468524217605591,0,0,0,-1,-1,65066.95715912501,unknown,2,2025-04-18T11:53:44.011+03:00,2025-04-17T15:44:39.500+03:00,7529,1.126433,0,0,6207.333,4,10,2025-04-18T11:44:42.378+03:00,766659231.8361058,0,107.7,100.5632,1,0.5,2025-04-18T11:46:49.169+03:00,74,1.233333333333333,2025-04-18T08:51:18.885+03:00,0.03057091307199995,1
2025-04-18T11:53:52.062+03:00,1744966428.250393,40.95359290647468,29.1410029911603,94.2901,-1,-1,-1,-1,30,24.60438744106876,-9999,65075.00324950001,-0.785400390625,0.523956298828125,-0.353729248046875,65074.99317450001,1.431207752758856,-1.148635327550329,-0.5620187149689699,-0.0143708698451519,0.03975943475961685,0.008135268464684486,0.01198816299438477,-0.01095330715179443,-0.002550303936004639,XArbitraryZVertical,0.1667215747271975,-0.5466716387705596,0.6429128329523349,0.5099188369727975,-0.7718912363052368,0.5328955054283142,-0.3467080593109131,0,0,0,-1,-1,65066.95715912501,unknown,2,2025-04-18T11:53:44.011+03:00,2025-04-17T15:44:39.500+03:00,7529,1.126433,0,0,6207.333,4,10,2025-04-18T11:44:42.378+03:00,766659231.8361058,0,107.7,100.5632,1,0.5,2025-04-18T11:46:49.169+03:00,74,1.233333333333333,2025-04-18T08:51:18.885+03:00,0.03057091307199995,1
2025-04-18T11:53:52.072+03:00,1744966428.250393,40.95359290647468,29.1410029911603,94.2901,-1,-1,-1,-1,30,24.60438744106876,-9999,65075.0133245,-0.7802734375,0.52447509765625,-0.3574371337890625,65075.00324950001,1.431163013213827,-1.148386243777501,-0.5621505432207825,-0.008746540173888206,-0.005057837814092636,0.01068018469959497,0.02355647087097168,-0.007723152637481689,-0.00263097882270813,XArbitraryZVertical,0.1665825975439366,-0.5466392423148978,0.6429380763733455,0.5099672517587914,-0.7717407941818237,0.533007025718689,-0.346871554851532,0,0,0,-1,-1,65066.95715912501,unknown,2,2025-04-18T11:53:44.011+03:00,2025-04-17T15:44:39.500+03:00,7529,1.126433,0,0,6207.333,4,10,2025-04-18T11:44:42.378+03:00,766659231.8361058,0,107.7,100.5632,1,0.5,2025-04-18T11:46:49.169+03:00,74,1.233333333333333,2025-04-18T08:51:18.885+03:00,0.03057091307199995,1
2025-04-18T11:53:52.082+03:00,1744966428.250393,40.95359290647468,29.1410029911603,94.2901,-1,-1,-1,-1,30,24.60438744106876,-9999,65075.0233995,-0.7531890869140625,0.5233306884765625,-0.346588134765625,65075.0133245,1.430975052797091,-1.148664335836715,-0.5622567854579666,-0.03030868992209435,-0.01884622126817703,-0.0007534979376941919,-0.028797447681427,-0.007248520851135254,-0.01029986143112183,XArbitraryZVertical,0.1665830774122384,-0.5467478775703007,0.6428797905883729,0.5099239613294598,-0.7717854976654053,0.5330969095230103,-0.3466336727142334,0,0,0,-1,-1,65066.95715912501,unknown,2,2025-04-18T11:53:44.011+03:00,2025-04-17T15:44:39.500+03:00,7529,1.126433,0,0,6207.333,4,10,2025-04-18T11:44:42.378+03:00,766659231.8361058,0,107.7,100.5632,1,0.5,2025-04-18T11:46:49.169+03:00,74,1.233333333333333,2025-04-18T08:51:18.885+03:00,0.03057091307199995,1
2025-04-18T11:53:52.092+03:00,1744966428.250393,40.95359290647468,29.1410029911603,94.2901,-1,-1,-1,-1,30,24.60438744106876,-9999,65075.03347450001,-0.7786712646484375,0.52752685546875,-0.3471832275390625,65075.0233995,1.430680336787516,-1.148904358583537,-0.5623633763060679,-0.02361749671399593,-0.008826876990497112,0.002745895646512508,0.01331764459609985,-0.01043623685836792,-0.006220638751983643,XArbitraryZVertical,0.1665419192600736,-0.5468557484660558,0.6427975169741237,0.5099254891484486,-0.7718168497085571,0.5331870913505554,-0.3464251458644867,0,0,0,-1,-1,65066.95715912501,unknown,2,2025-04-18T11:53:44.011+03:00,2025-04-17T15:44:39.500+03:00,7529,1.126433,0,0,6207.333,4,10,2025-04-18T11:44:42.378+03:00,766659231.8361058,0,107.7,100.5632,1,0.5,2025-04-18T11:46:49.169+03:00,74,1.233333333333333,2025-04-18T08:51:18.885+03:00,0.03057091307199995,1
2025-04-18T11:53:52.102+03:00,1744966428.250393,40.95359290647468,29.1410029911603,94.2901,-1,-1,-1,-1,30,24.60438744106876,-9999,65075.04354950001,-0.7598876953125,0.555389404296875,-0.342864990234375,65075.03347450001,1.43058768320612,-1.149144339589597,-0.5624093246979149,0.004928991664201021,-0.02402041107416153,0.001535788644105196,0.006008446216583252,-0.008613526821136475,-0.0001446008682250977,XArbitraryZVertical,0.1665774323408738,-0.5469341827741377,0.6427594556076026,0.509877796394332,-0.771877646446228,0.533225953578949,-0.3462299108505249,0,0,0,-1,-1,65066.95715912501,unknown,2,2025-04-18T11:53:44.011+03:00,2025-04-17T15:44:39.500+03:00,7529,1.126433,0,0,6207.333,4,10,2025-04-18T11:44:42.378+03:00,766659231.8361058,0,107.7,100.5632,1,0.5,2025-04-18T11:46:49.169+03:00,74,1.233333333333333,2025-04-18T08:51:18.885+03:00,0.03057091307199995,1
2025-04-18T11:53:52.112+03:00,1744966428.250393,40.95359290647468,29.1410029911603,94.2901,-1,-1,-1,-1,30,24.60438744106876,-9999,65075.0536245,-0.7692108154296875,0.5604400634765625,-0.34320068359375,65075.04354950001,1.430785726625138,-1.14923655457515,-0.5623486590255661,0.03258299082517624,-0.01008835062384605,0.0021557726431638,-0.001513838768005371,0.0007914900779724121,-0.0004619061946868896,XArbitraryZVertical,0.1666826817603167,-0.5469285986269621,0.6427949375774403,0.5098046858904093,-0.7719390988349915,0.5331746339797974,-0.3461719751358032,0,0,0,-1,-1,65066.95715912501,unknown,2,2025-04-18T11:53:44.011+03:00,2025-04-17T15:44:39.500+03:00,7529,1.126433,0,0,6207.333,4,10,2025-04-18T11:44:42.378+03:00,766659231.8361058,0,107.7,100.5632,1,0.5,2025-04-18T11:46:49.169+03:00,74,1.233333333333333,2025-04-18T08:51:18.885+03:00,0.03057091307199995,1
2025-04-18T11:53:52.122+03:00,1744966428.250393,40.95359290647468,29.1410029911603,94.2901,-1,-1,-1,-1,30,24.60438744106876,-9999,65075.0636995,-0.766876220703125,0.5409088134765625,-0.3455352783203125,65075.0536245,1.431140873245907,-1.14916678293996,-0.5621960795153172,0.03182991594076157,-0.02003199234604836,-0.007294287905097008,0.01205557584762573,0.03101080656051636,0.004462271928787231,XArbitraryZVertical,0.1668114151424849,-0.5468495350393684,0.6428728589515955,0.5097489663484636,-0.7719890475273132,0.5330455303192139,-0.3462590873241425,0,0,0,-1,-1,65066.95715912501,unknown,2,2025-04-18T11:53:44.011+03:00,2025-04-17T15:44:39.500+03:00,7529,1.126433,0,0,6207.333,4,10,2025-04-18T11:44:42.378+03:00,766659231.8361058,0,107.7,100.5632,1,0.5,2025-04-18T11:46:49.169+03:00,74,1.233333333333333,2025-04-18T08:51:18.885+03:00,0.03057091307199995,1
2025-04-18T11:53:52.132+03:00,1744966428.250393,40.95359290647468,29.1410029911603,94.2901,-1,-1,-1,-1,30,24.60438744106876,-9999,65075.0737745,-0.762237548828125,0.5248870849609375,-0.344085693359375,65075.0636995,1.431404514703678,-1.149220105370995,-0.5620232419744093,0.02180311270058155,-0.01858749613165855,-0.006552597507834435,0.0003935694694519043,0.02029281854629517,0.001269727945327759,XArbitraryZVertical,0.166961769855503,-0.5468052295522977,0.6429147488200782,0.5096944711405055,-0.7720915675163269,0.5328993201255798,-0.3462556302547455,0,0,0,-1,-1,65066.95715912501,unknown,2,2025-04-18T11:53:44.011+03:00,2025-04-17T15:44:39.500+03:00,7529,1.126433,0,0,6207.333,4,10,2025-04-18T11:44:42.378+03:00,766659231.8361058,0,107.7,100.5632,1,0.5,2025-04-18T11:46:49.169+03:00,74,1.233333333333333,2025-04-18T08:51:18.885+03:00,0.03057091307199995,1
2025-04-18T11:53:52.142+03:00,1744966428.250393,40.95359290647468,29.1410029911603,94.2901,-1,-1,-1,-1,30,24.60438744106876,-9999,65075.08384950001,-0.771484375,0.5141754150390625,-0.3418731689453125,65075.0737745,1.431533391403876,-1.149258503108959,-0.5618957208309145,0.002972301095724106,-0.005060368217527866,-0.006851204670965672,0.008998572826385498,0.002364873886108398,0.001542568206787109,XArbitraryZVertical,0.1670544059756985,-0.5467777584672465,0.6429290038431094,0.5096757445882418,-0.7721669673919678,0.5327913761138916,-0.3462538123130798,0,0,0,-1,-1,65066.95715912501,unknown,2,2025-04-18T11:53:44.011+03:00,2025-04-17T15:44:39.500+03:00,7529,1.126433,0,0,6207.333,4,10,2025-04-18T11:44:42.378+03:00,766659231.8361058,0,107.7,100.5632,1,0.5,2025-04-18T11:46:49.169+03:00,74,1.233333333333333,2025-04-18T08:51:18.885+03:00,0.03057091307199995,1
2025-04-18T11:53:52.152+03:00,1744966428.250393,40.95359290647468,29.1410029911603,94.2901,-1,-1,-1,-1,30,24.60438744106876,-9999,65075.0939245,-0.763916015625,0.507415771484375,-0.3416900634765625,65075.08384950001,1.431441889151234,-1.149345978360152,-0.5619324759544955,-0.02168990112841129,-0.008355763740837574,0.001938824774697423,0.005303025245666504,-0.01374900341033936,0.002733469009399414,XArbitraryZVertical,0.1670445468489461,-0.54681533200072,0.6429028108723993,0.5096715994954282,-0.7721793055534363,0.5328224897384644,-0.3461782336235046,0,0,0,-1,-1,65066.95715912501,unknown,2,2025-04-18T11:53:44.011+03:00,2025-04-17T15:44:39.500+03:00,7529,1.126433,0,0,6207.333,4,10,2025-04-18T11:44:42.378+03:00,766659231.8361058,0,107.7,100.5632,1,0.5,2025-04-18T11:46:49.169+03:00,74,1.233333333333333,2025-04-18T08:51:18.885+03:00,0.03057091307199995,1
2025-04-18T11:53:52.163+03:00,1744966428.250393,40.95359290647468,29.1410029911603,94.2901,-1,-1,-1,-1,30,24.60438744106876,-9999,65075.1039995,-0.760711669921875,0.5224761962890625,-0.3515167236328125,65075.0939245,1.43119105999681,-1.149569724686761,-0.5620568202002851,-0.02297387830913067,-0.008378732949495316,0.009078726172447205,0.00188678503036499,-0.02108687162399292,0.004807114601135254,XArbitraryZVertical,0.1670038887073056,-0.546919118943782,0.6428352169688555,0.509658840202297,-0.7721962928771973,0.5329277515411377,-0.3459783494472504,0,0,0,-1,-1,65066.95715912501,unknown,2,2025-04-18T11:53:44.011+03:00,2025-04-17T15:44:39.500+03:00,7529,1.126433,0,0,6207.333,4,10,2025-04-18T11:44:42.378+03:00,766659231.8361058,0,107.7,100.5632,1,0.5,2025-04-18T11:46:49.169+03:00,74,1.233333333333333,2025-04-18T08:51:18.885+03:00,0.03057091307199995,1
2025-04-18T11:53:52.173+03:00,1744966428.250393,40.95359290647468,29.1410029911603,94.2901,-1,-1,-1,-1,30,24.60438744106876,-9999,65075.1140745,-0.766021728515625,0.547271728515625,-0.3629913330078125,65075.1039995,1.43114850511331,-1.149718143966609,-0.5621785073455841,0.006780820898711681,-0.02123541012406349,0.01009445637464523,0.01179713010787964,-0.02472996711730957,0.002133041620254517,XArbitraryZVertical,0.1669969649693591,-0.5469857596740021,0.6428266679653953,0.5096002169714835,-0.7721883058547974,0.5330306887626648,-0.3458371758460999,0,0,0,-1,-1,65066.95715912501,unknown,2,2025-04-18T11:53:44.011+03:00,2025-04-17T15:44:39.500+03:00,7529,1.126433,0,0,6207.333,4,10,2025-04-18T11:44:42.378+03:00,766659231.8361058,0,107.7,100.5632,1,0.5,2025-04-18T11:46:49.169+03:00,74,1.233333333333333,2025-04-18T08:51:18.885+03:00,0.03057091307199995,1
2025-04-18T11:53:52.183+03:00,1744966428.250393,40.95359290647468,29.1410029911603,94.2901,-1,-1,-1,-1,30,24.60438744106876,-9999,65075.12414950001,-0.7684478759765625,0.5518646240234375,-0.350799560546875,65075.1140745,1.431441335599523,-1.149808335073306,-0.5621818440791317,0.04054031893610954,-0.0282537043094635,0.01234812289476395,0.008591830730438232,0.001924276351928711,-0.01063263416290283,XArbitraryZVertical,0.167104865643733,-0.5469849719541712,0.6428941416817273,0.5094805492269726,-0.772217869758606,0.5330334901809692,-0.3457668125629425,0,0,0,-1,-1,65066.95715912501,unknown,2,2025-04-18T11:53:44.011+03:00,2025-04-17T15:44:39.500+03:00,7529,1.126433,0,0,6207.333,4,10,2025-04-18T11:44:42.378+03:00,766659231.8361058,0,107.7,100.5632,1,0.5,2025-04-18T11:46:49.169+03:00,74,1.233333333333333,2025-04-18T08:51:18.885+03:00,0.03057091307199995,1
2025-04-18T11:53:52.193+03:00,1744966428.250393,40.95359290647468,29.1410029911603,94.2901,-1,-1,-1,-1,30,24.60438744106876,-9999,65075.13422450001,-0.7722930908203125,0.558135986328125,-0.32879638671875,65075.12414950001,1.432034383439401,-1.149776544338417,-0.5620310534387917,0.06128714233636856,-0.02424245327711105,0.001814787974581122,0.005877137184143066,0.01602905988693237,-0.01654142141342163,XArbitraryZVertical,0.1673100710778472,-0.5468959684064572,0.6430296598036163,0.5093379448131685,-0.7722803950309753,0.5329059362411499,-0.345824271440506,0,0,0,-1,-1,65066.95715912501,unknown,2,2025-04-18T11:53:44.011+03:00,2025-04-17T15:44:39.500+03:00,7529,1.126433,0,0,6207.333,4,10,2025-04-18T11:44:42.378+03:00,766659231.8361058,0,107.7,100.5632,1,0.5,2025-04-18T11:46:49.169+03:00,74,1.233333333333333,2025-04-18T08:51:18.885+03:00,0.03057091307199995,1
2025-04-18T11:53:52.211+03:00,1744966428.250393,40.95359290647468,29.1410029911603,94.2901,-1,-1,-1,-1,30,24.60438744106876,-9999,65075.1442995,-0.7734832763671875,0.537353515625,-0.3327178955078125,65075.13422450001,1.432724027040583,-1.149578173144962,-0.5618138045518375,0.05656169354915619,-0.009993940591812134,-0.007203307934105396,0.002587735652923584,0.0220721960067749,0.005143493413925171,XArbitraryZVertical,0.1675116939897561,-0.5467425783918987,0.6431956663010781,0.5092266440042554,-0.7723173499107361,0.5327220559120178,-0.3460247814655304,0,0,0,-1,-1,65066.95715912501,unknown,2,2025-04-18T11:53:44.011+03:00,2025-04-17T15:44:39.500+03:00,7529,1.126433,0,0,6207.333,4,10,2025-04-18T11:44:42.378+03:00,766659231.8361058,0,107.7,100.5632,1,0.5,2025-04-18T11:46:49.169+03:00,74,1.233333333333333,2025-04-18T08:51:18.885+03:00,0.03057091307199995,1
2025-04-18T11:53:52.214+03:00,1744966428.250393,40.95359290647468,29.1410029911603,94.2901,-1,-1,-1,-1,30,24.60438744106876,-9999,65075.1543745,-0.7645721435546875,0.5113983154296875,-0.336456298828125,65075.1442995,1.433121887023169,-1.149464776201464,-0.5616226212276576,0.01933309808373451,-0.008194176480174065,-0.006708226166665554,-0.001127541065216064,0.02159315347671509,0.01764759421348572,XArbitraryZVertical,0.1676515845892527,-0.5466406087320962,0.6432834125196017,0.5091792024098085,-0.7723710536956787,0.5325602889060974,-0.3461539745330811,0,0,0,-1,-1,65066.95715912501,unknown,2,2025-04-18T11:53:44.011+03:00,2025-04-17T15:44:39.500+03:00,7529,1.126433,0,0,6207.333,4,10,2025-04-18T11:44:42.378+03:00,766659231.8361058,0,107.7,100.5632,1,0.5,2025-04-18T11:46:49.169+03:00,74,1.233333333333333,2025-04-18T08:51:18.885+03:00,0.03057091307199995,1
2025-04-18T11:53:52.223+03:00,1744966428.250393,40.95359290647468,29.1410029911603,94.2901,-1,-1,-1,-1,30,24.60438744106876,-9999,65075.16444950001,-0.7578887939453125,0.5068206787109375,-0.3477783203125,65075.1543745,1.433123557510151,-1.149556519112699,-0.56157238253063,-0.01183094643056393,-0.01073696278035641,-0.006250828038901091,0.001583695411682129,-0.006150543689727783,0.01197242736816406,XArbitraryZVertical,0.1676992888349824,-0.5466533716973838,0.643270092033981,0.5091666779643831,-0.7724272608757019,0.5325177311897278,-0.3460940718650818,0,0,0,-1,-1,65066.95715912501,unknown,2,2025-04-18T11:53:44.011+03:00,2025-04-17T15:44:39.500+03:00,7529,1.126433,0,0,6207.333,4,10,2025-04-18T11:44:42.378+03:00,766659231.8361058,0,107.7,100.5632,1,0.5,2025-04-18T11:46:49.169+03:00,74,1.233333333333333,2025-04-18T08:51:18.885+03:00,0.03057091307199995,1
