loggingTime(txt),locationTimestamp_since1970(s),locationLatitude(WGS84),locationLongitude(WGS84),locationAltitude(m),locationSpeed(m/s),locationSpeedAccuracy(m/s),locationCourse(°),locationCourseAccuracy(°),locationVerticalAccuracy(m),locationHorizontalAccuracy(m),locationFloor(Z),accelerometerTimestamp_sinceReboot(s),accelerometerAccelerationX(G),accelerometerAccelerationY(G),accelerometerAccelerationZ(G),motionTimestamp_sinceReboot(s),motionYaw(rad),motionRoll(rad),motionPitch(rad),motionRotationRateX(rad/s),motionRotationRateY(rad/s),motionRotationRateZ(rad/s),motionUserAccelerationX(G),motionUserAccelerationY(G),motionUserAccelerationZ(G),motionAttitudeReferenceFrame(txt),motionQuaternionX(R),motionQuaternionY(R),motionQuaternionZ(R),motionQuaternionW(R),motionGravityX(G),motionGravityY(G),motionGravityZ(G),motionMagneticFieldX(µT),motionMagneticFieldY(µT),motionMagneticFieldZ(µT),motionHeading(°),motionMagneticFieldCalibrationAccuracy(Z),activityTimestamp_sinceReboot(s),activity(txt),activityActivityConfidence(Z),activityActivityStartDate(txt),pedometerStartDate(txt),pedometerNumberofSteps(N),pedometerAverageActivePace(s/m),pedometerCurrentPace(s/m),pedometerCurrentCadence(steps/s),pedometerDistance(m),pedometerFloorAscended(N),pedometerFloorDescended(N),pedometerEndDate(txt),altimeterTimestamp_sinceReboot(s),altimeterReset(bool),altimeterRelativeAltitude(m),altimeterPressure(kPa),batteryState(N),batteryLevel(R),heartRateBPMTimestamp(txt),heartRateBPM(N),heartRateBPS(R),heartRateVariabilityTimestamp(txt),heartRateVariability(ms),label
2025-04-18T14:40:16.182+03:00,1744976414.995466,40.95365572399826,29.14101768181349,94.72507,-1,-1,-1,-1,30,25.91352151834083,-9999,69454.6546635,-0.5125274658203125,0.8707733154296875,-0.029083251953125,69454.64458750001,0.4524368759539091,-1.510473260221745,-1.030704017302766,0.03055036999285221,0.06769371032714844,-0.0297661479562521,-0.02183055877685547,0.007863163948059082,0.0008793435990810394,XArbitraryZVertical,-0.2159232678118332,-0.6617227731146729,0.4713157857485344,0.5416286140238499,-0.513279914855957,0.857661247253418,-0.03100022859871387,0,0,0,-1,-1,69436.46078450001,unknown,2,2025-04-18T14:39:57.870+03:00,2025-04-18T14:06:46.055+03:00,48,7.358232,0,0,40.48506,0,0,2025-04-18T14:40:03.029+03:00,766669216.0135459,0,6.320007,100.354,1,0.25,2025-04-18T14:32:39.794+03:00,92.00000000000001,1.533333333333333,2025-04-18T08:51:18.885+03:00,0.03057091307199995,0
2025-04-18T14:40:16.183+03:00,1744976414.995466,40.95365572399826,29.14101768181349,94.72507,-1,-1,-1,-1,30,25.91352151834083,-9999,69454.6647395,-0.5105743408203125,0.8642730712890625,-0.03240966796875,69454.6546635,0.4532160905098638,-1.509157016142007,-1.030251200725926,0.04512026160955429,0.05844615027308464,-0.02486060559749603,-0.001251161098480225,0.01326864957809448,0.002372268587350845,XArbitraryZVertical,-0.2158186566188449,-0.6614925932263497,0.4712715462995055,0.5419897753986226,-0.5136260390281677,0.8574283123016357,-0.03169971331954002,0,0,0,-1,-1,69436.46078450001,unknown,2,2025-04-18T14:39:57.870+03:00,2025-04-18T14:06:46.055+03:00,48,7.358232,0,0,40.48506,0,0,2025-04-18T14:40:03.029+03:00,766669216.0135459,0,6.320007,100.354,1,0.25,2025-04-18T14:32:39.794+03:00,92.00000000000001,1.533333333333333,2025-04-18T08:51:18.885+03:00,0.03057091307199995,0
2025-04-18T14:40:16.184+03:00,1744976414.995466,40.95365572399826,29.14101768181349,94.72507,-1,-1,-1,-1,30,25.91352151834083,-9999,69454.67481550001,-0.513336181640625,0.854583740234375,-0.04083251953125,69454.6647395,0.4541398949396466,-1.507826823583849,-1.029909339907553,0.04909629374742508,0.045730821788311,-0.02771421521902084,0.003927290439605713,0.008348166942596436,0.001364950090646744,XArbitraryZVertical,-0.2157080096120982,-0.6612634725978387,0.4712930163418082,0.5422946495300214,-0.5138759016990662,0.857252299785614,-0.03240134939551353,0,0,0,-1,-1,69436.46078450001,unknown,2,2025-04-18T14:39:57.870+03:00,2025-04-18T14:06:46.055+03:00,48,7.358232,0,0,40.48506,0,0,2025-04-18T14:40:03.029+03:00,766669216.0135459,0,6.320007,100.354,1,0.25,2025-04-18T14:32:39.794+03:00,92.00000000000001,1.533333333333333,2025-04-18T08:51:18.885+03:00,0.03057091307199995,0
2025-04-18T14:40:16.194+03:00,1744976414.995466,40.95365572399826,29.14101768181349,94.72507,-1,-1,-1,-1,30,25.91352151834083,-9999,69454.6848915,-0.5133056640625,0.854095458984375,-0.0421295166015625,69454.67481550001,0.4551608587268438,-1.50653448951149,-1.029388917936884,0.04806724563241005,0.03387176245450974,-0.03079096600413322,0.0009428262710571289,-0.001317143440246582,-0.007372260093688965,XArbitraryZVertical,-0.2154943939428047,-0.6610711961340018,0.4713006145230932,0.5426074115843424,-0.5142790079116821,0.8569842576980591,-0.03309407830238342,0,0,0,-1,-1,69436.46078450001,unknown,2,2025-04-18T14:39:57.870+03:00,2025-04-18T14:06:46.055+03:00,48,7.358232,0,0,40.48506,0,0,2025-04-18T14:40:03.029+03:00,766669216.0135459,0,6.320007,100.354,1,0.25,2025-04-18T14:32:39.794+03:00,92.00000000000001,1.533333333333333,2025-04-18T08:51:18.885+03:00,0.03057091307199995,0
2025-04-18T14:40:16.204+03:00,1744976414.995466,40.95365572399826,29.14101768181349,94.72507,-1,-1,-1,-1,30,25.91352151834083,-9999,69454.69496750001,-0.5161285400390625,0.8464202880859375,-0.044891357421875,69454.6848915,0.4559351794877468,-1.505548512219038,-1.02880286118927,0.03759536147117615,0.02785747870802879,-0.03190087154507637,0.001090586185455322,-0.002601921558380127,-0.008068442344665527,XArbitraryZVertical,-0.2152672311109616,-0.6609410594522918,0.4712584002716943,0.542892690847029,-0.514747142791748,0.8566820621490479,-0.03363386914134026,0,0,0,-1,-1,69436.46078450001,unknown,2,2025-04-18T14:39:57.870+03:00,2025-04-18T14:06:46.055+03:00,48,7.358232,0,0,40.48506,0,0,2025-04-18T14:40:03.029+03:00,766669216.0135459,0,6.320007,100.354,1,0.25,2025-04-18T14:32:39.794+03:00,92.00000000000001,1.533333333333333,2025-04-18T08:51:18.885+03:00,0.03057091307199995,0
2025-04-18T14:40:16.214+03:00,1744976414.995466,40.95365572399826,29.14101768181349,94.72507,-1,-1,-1,-1,30,25.91352151834083,-9999,69454.7050435,-0.5199737548828125,0.844512939453125,-0.044189453125,69454.69496750001,0.4564464310232885,-1.504930911575914,-1.028361809258718,0.02776803448796272,0.01238957419991493,-0.02203439176082611,-0.0004608035087585449,-0.009423911571502686,-0.01089954003691673,XArbitraryZVertical,-0.2150904960025904,-0.6608689485149409,0.4712208897969346,0.5430829445572793,-0.5151030421257019,0.8564544916152954,-0.03397662192583084,0,0,0,-1,-1,69436.46078450001,unknown,2,2025-04-18T14:39:57.870+03:00,2025-04-18T14:06:46.055+03:00,48,7.358232,0,0,40.48506,0,0,2025-04-18T14:40:03.029+03:00,766669216.0135459,0,6.320007,100.354,1,0.25,2025-04-18T14:32:39.794+03:00,92.00000000000001,1.533333333333333,2025-04-18T08:51:18.885+03:00,0.03057091307199995,0
2025-04-18T14:40:16.224+03:00,1744976414.995466,40.95365572399826,29.14101768181349,94.72507,-1,-1,-1,-1,30,25.91352151834083,-9999,69454.7151195,-0.5222625732421875,0.8461151123046875,-0.043365478515625,69454.7050435,0.4566946853297136,-1.504616914008991,-1.028192138881436,0.01857120543718338,0.02318855933845043,-0.01646618731319904,-0.004095375537872314,-0.01160979270935059,-0.009873688220977783,XArbitraryZVertical,-0.2150234871990169,-0.6608259297069553,0.4712122180618941,0.5431694151280064,-0.5152374505996704,0.8563668727874756,-0.03414798155426979,0,0,0,-1,-1,69436.46078450001,unknown,2,2025-04-18T14:39:57.870+03:00,2025-04-18T14:06:46.055+03:00,48,7.358232,0,0,40.48506,0,0,2025-04-18T14:40:03.029+03:00,766669216.0135459,0,6.320007,100.354,1,0.25,2025-04-18T14:32:39.794+03:00,92.00000000000001,1.533333333333333,2025-04-18T08:51:18.885+03:00,0.03057091307199995,0
2025-04-18T14:40:16.235+03:00,1744976414.995466,40.95365572399826,29.14101768181349,94.72507,-1,-1,-1,-1,30,25.91352151834083,-9999,69454.72519550001,-0.5238494873046875,0.846954345703125,-0.042816162109375,69454.7151195,0.456705110673778,-1.504330694028867,-1.028191045181368,0.01499138399958611,0.04610186442732811,-0.00886286236345768,-0.006804823875427246,-0.01008325815200806,-0.00913107767701149,XArbitraryZVertical,-0.215087131738699,-0.6607493933346336,0.471183917604898,0.5432619926799519,-0.5152288675308228,0.8563662767410278,-0.03429552912712097,0,0,0,-1,-1,69436.46078450001,unknown,2,2025-04-18T14:39:57.870+03:00,2025-04-18T14:06:46.055+03:00,48,7.358232,0,0,40.48506,0,0,2025-04-18T14:40:03.029+03:00,766669216.0135459,0,6.320007,100.354,1,0.25,2025-04-18T14:32:39.794+03:00,92.00000000000001,1.533333333333333,2025-04-18T08:51:18.885+03:00,0.03057091307199995,0
2025-04-18T14:40:16.244+03:00,1744976414.995466,40.95365572399826,29.14101768181349,94.72507,-1,-1,-1,-1,30,25.91352151834083,-9999,69454.7352715,-0.516082763671875,0.8474578857421875,-0.037811279296875,69454.72519550001,0.4568765080505645,-1.503743210786936,-1.027999198315083,0.01488592382520437,0.04744249954819679,-0.005146155133843422,-0.009499311447143555,-0.008977115154266357,-0.008008603006601334,XArbitraryZVertical,-0.2151021955493008,-0.6606257912373004,0.471119527562875,0.5434621472992855,-0.5153725147247314,0.8562672138214111,-0.03460921719670296,0,0,0,-1,-1,69436.46078450001,unknown,2,2025-04-18T14:39:57.870+03:00,2025-04-18T14:06:46.055+03:00,48,7.358232,0,0,40.48506,0,0,2025-04-18T14:40:03.029+03:00,766669216.0135459,0,6.320007,100.354,1,0.25,2025-04-18T14:32:39.794+03:00,92.00000000000001,1.533333333333333,2025-04-18T08:51:18.885+03:00,0.03057091307199995,0
2025-04-18T14:40:16.254+03:00,1744976414.995466,40.95365572399826,29.14101768181349,94.72507,-1,-1,-1,-1,30,25.91352151834083,-9999,69454.74534750001,-0.51654052734375,0.8468017578125,-0.036590576171875,69454.7352715,0.4570850884390996,-1.503086761846908,-1.028053025165919,0.01122354436665773,0.05720831081271172,0.002789798891171813,-0.002091407775878906,-0.00850147008895874,-0.002744913101196289,XArbitraryZVertical,-0.2152066389507638,-0.6604649147953864,0.4711190462195391,0.5436166497970918,-0.5153035521507263,0.8562950491905212,-0.03494439646601677,0,0,0,-1,-1,69436.46078450001,unknown,2,2025-04-18T14:39:57.870+03:00,2025-04-18T14:06:46.055+03:00,48,7.358232,0,0,40.48506,0,0,2025-04-18T14:40:03.029+03:00,766669216.0135459,0,6.320007,100.354,1,0.25,2025-04-18T14:32:39.794+03:00,92.00000000000001,1.533333333333333,2025-04-18T08:51:18.885+03:00,0.03057091307199995,0
2025-04-18T14:40:16.264+03:00,1744976414.995466,40.95365572399826,29.14101768181349,94.72507,-1,-1,-1,-1,30,25.91352151834083,-9999,69454.7554235,-0.5176849365234375,0.8503570556640625,-0.033966064453125,69454.74534750001,0.4572917514791753,-1.502267058039981,-1.028185829025541,0.01539105828851461,0.06866037100553513,0.00290175131522119,-0.0007535815238952637,-0.009882211685180664,-0.0006518401205539703,XArbitraryZVertical,-0.2153776985744924,-0.660252186027464,0.4711200227245967,0.543806441654351,-0.5151612758636475,0.8563635945320129,-0.03535899519920349,0,0,0,-1,-1,69436.46078450001,unknown,2,2025-04-18T14:39:57.870+03:00,2025-04-18T14:06:46.055+03:00,48,7.358232,0,0,40.48506,0,0,2025-04-18T14:40:03.029+03:00,766669216.0135459,0,6.320007,100.354,1,0.25,2025-04-18T14:32:39.794+03:00,92.00000000000001,1.533333333333333,2025-04-18T08:51:18.885+03:00,0.03057091307199995,0
2025-04-18T14:40:16.275+03:00,1744976414.995466,40.95365572399826,29.14101768181349,94.72507,-1,-1,-1,-1,30,25.91352151834083,-9999,69454.7654985,-0.5108642578125,0.8515472412109375,-0.03607177734375,69454.7554235,0.4576729852936886,-1.501210165685071,-1.028230956000379,0.01385974045842886,0.06975413113832474,0.007311679422855377,-0.002950966358184814,-0.006182610988616943,0.001568380743265152,XArbitraryZVertical,-0.2155164932774039,-0.6600017211408564,0.4711211654448526,0.5440543025837744,-0.5150848031044006,0.8563868999481201,-0.03590073809027672,0,0,0,-1,-1,69436.46078450001,unknown,2,2025-04-18T14:39:57.870+03:00,2025-04-18T14:06:46.055+03:00,48,7.358232,0,0,40.48506,0,0,2025-04-18T14:40:03.029+03:00,766669216.0135459,0,6.320007,100.354,1,0.25,2025-04-18T14:32:39.794+03:00,92.00000000000001,1.533333333333333,2025-04-18T08:51:18.885+03:00,0.03057091307199995,0
2025-04-18T14:40:16.284+03:00,1744976414.995466,40.95365572399826,29.14101768181349,94.72507,-1,-1,-1,-1,30,25.91352151834083,-9999,69454.7755745,-0.510772705078125,0.8556060791015625,-0.04254150390625,69454.7654985,0.4579642708611602,-1.500207018965964,-1.028298824801715,0.009342020377516747,0.07117898762226105,0.006143118254840374,0.003500759601593018,-0.005042672157287598,0.0005093850195407867,XArbitraryZVertical,-0.2156803119070757,-0.6597540003219661,0.4711091457650355,0.5443001796518753,-0.514990508556366,0.856421947479248,-0.03641332313418388,0,0,0,-1,-1,69436.46078450001,unknown,2,2025-04-18T14:39:57.870+03:00,2025-04-18T14:06:46.055+03:00,48,7.358232,0,0,40.48506,0,0,2025-04-18T14:40:03.029+03:00,766669216.0135459,0,6.320007,100.354,1,0.25,2025-04-18T14:32:39.794+03:00,92.00000000000001,1.533333333333333,2025-04-18T08:51:18.885+03:00,0.03057091307199995,0
2025-04-18T14:40:16.294+03:00,1744976414.995466,40.95365572399826,29.14101768181349,94.72507,-1,-1,-1,-1,30,25.91352151834083,-9999,69454.78565050001,-0.5127105712890625,0.858978271484375,-0.04364013671875,69454.7755745,0.4582658761329465,-1.499188050035704,-1.028301183827266,0.001842026831582189,0.07119549810886383,0.006136460229754448,0.004117786884307861,-0.001167953014373779,-0.005054298788309097,XArbitraryZVertical,-0.2158217341645532,-0.6595089115128225,0.4710817751972384,0.544564969972974,-0.5149515271186829,0.8564231991767883,-0.03693794831633568,0,0,0,-1,-1,69436.46078450001,unknown,2,2025-04-18T14:39:57.870+03:00,2025-04-18T14:06:46.055+03:00,48,7.358232,0,0,40.48506,0,0,2025-04-18T14:40:03.029+03:00,766669216.0135459,0,6.320007,100.354,1,0.25,2025-04-18T14:32:39.794+03:00,92.00000000000001,1.533333333333333,2025-04-18T08:51:18.885+03:00,0.03057091307199995,0
2025-04-18T14:40:16.305+03:00,1744976414.995466,40.95365572399826,29.14101768181349,94.72507,-1,-1,-1,-1,30,25.91352151834083,-9999,69454.7957265,-0.5136871337890625,0.8603668212890625,-0.0435638427734375,69454.78565050001,0.4583129985049259,-1.498424109232795,-1.028249345856188,-0.006273757200688124,0.06702518463134766,0.004663565661758184,0.00280606746673584,0.00238347053527832,-0.00581735372543335,XArbitraryZVertical,-0.2159680330305273,-0.6593106586519963,0.4709993508989304,0.5448181806134587,-0.5149672627449036,0.8563963770866394,-0.03733452782034874,0,0,0,-1,-1,69436.46078450001,unknown,2,2025-04-18T14:39:57.870+03:00,2025-04-18T14:06:46.055+03:00,48,7.358232,0,0,40.48506,0,0,2025-04-18T14:40:03.029+03:00,766669216.0135459,0,6.320007,100.354,1,0.25,2025-04-18T14:32:39.794+03:00,92.00000000000001,1.533333333333333,2025-04-18T08:51:18.885+03:00,0.03057091307199995,0
2025-04-18T14:40:16.314+03:00,1744976414.995466,40.95365572399826,29.14101768181349,94.72507,-1,-1,-1,-1,30,25.91352151834083,-9999,69454.80580250001,-0.5193023681640625,0.8608856201171875,-0.04638671875,69454.7957265,0.4583021846007899,-1.497726861141923,-1.02819082812453,-0.004438572563230991,0.06327173113822937,0.003467540256679058,0.001792252063751221,0.003680169582366943,-0.005729377269744873,XArbitraryZVertical,-0.2161153756064376,-0.6591248202568035,0.4709066136908052,0.5450646813847099,-0.5149909853935242,0.8563662171363831,-0.03769723325967789,0,0,0,-1,-1,69436.46078450001,unknown,2,2025-04-18T14:39:57.870+03:00,2025-04-18T14:06:46.055+03:00,48,7.358232,0,0,40.48506,0,0,2025-04-18T14:40:03.029+03:00,766669216.0135459,0,6.320007,100.354,1,0.25,2025-04-18T14:32:39.794+03:00,92.00000000000001,1.533333333333333,2025-04-18T08:51:18.885+03:00,0.03057091307199995,0
2025-04-18T14:40:16.325+03:00,1744976414.995466,40.95365572399826,29.14101768181349,94.72507,-1,-1,-1,-1,30,25.91352151834083,-9999,69454.8158785,-0.5182647705078125,0.8572540283203125,-0.0421905517578125,69454.80580250001,0.458334447482429,-1.497071926557565,-1.028079643944516,-0.002509112237021327,0.05909296497702599,0.001016366644762456,-0.003111958503723145,0.005034565925598145,-0.008955597877502441,XArbitraryZVertical,-0.2162201876411252,-0.6589598365794112,0.4708170510022958,0.5452999605373011,-0.5150612592697144,0.8563087582588196,-0.03804152831435204,0,0,0,-1,-1,69436.46078450001,unknown,2,2025-04-18T14:39:57.870+03:00,2025-04-18T14:06:46.055+03:00,48,7.358232,0,0,40.48506,0,0,2025-04-18T14:40:03.029+03:00,766669216.0135459,0,6.320007,100.354,1,0.25,2025-04-18T14:32:39.794+03:00,92.00000000000001,1.533333333333333,2025-04-18T08:51:18.885+03:00,0.03057091307199995,0
2025-04-18T14:40:16.335+03:00,1744976414.995466,40.95365572399826,29.14101768181349,94.72507,-1,-1,-1,-1,30,25.91352151834083,-9999,69454.8259545,-0.52197265625,0.8574371337890625,-0.0450592041015625,69454.8158785,0.4582621083826068,-1.496455081026971,-1.02804409412419,-0.00436853151768446,0.07643920183181763,0.003114670980721712,-0.003303349018096924,0.001101016998291016,-0.004515770822763443,XArbitraryZVertical,-0.2163768483058877,-0.6587869944561934,0.4707217410490331,0.5455289986572132,-0.5150682330131531,0.8562904000282288,-0.03836151212453842,0,0,0,-1,-1,69436.46078450001,unknown,2,2025-04-18T14:39:57.870+03:00,2025-04-18T14:06:46.055+03:00,48,7.358232,0,0,40.48506,0,0,2025-04-18T14:40:03.029+03:00,766669216.0135459,0,6.320007,100.354,1,0.25,2025-04-18T14:32:39.794+03:00,92.00000000000001,1.533333333333333,2025-04-18T08:51:18.885+03:00,0.03057091307199995,0
2025-04-18T14:40:16.345+03:00,1744976414.995466,40.95365572399826,29.14101768181349,94.72507,-1,-1,-1,-1,30,25.91352151834083,-9999,69454.83603050001,-0.5242767333984375,0.8574981689453125,-0.043853759765625,69454.8259545,0.4582469791380003,-1.495696439355737,-1.028032429648447,0.005636631976813078,0.08079712837934494,0.004173377528786659,-0.006115198135375977,0.0008933544158935547,-0.005817949771881104,XArbitraryZVertical,-0.2165562654948908,-0.65857945021465,0.4706326968457775,0.5457850459285664,-0.5150486826896667,0.8562843799591064,-0.03875298425555229,0,0,0,-1,-1,69436.46078450001,unknown,2,2025-04-18T14:39:57.870+03:00,2025-04-18T14:06:46.055+03:00,48,7.358232,0,0,40.48506,0,0,2025-04-18T14:40:03.029+03:00,766669216.0135459,0,6.320007,100.354,1,0.25,2025-04-18T14:32:39.794+03:00,92.00000000000001,1.533333333333333,2025-04-18T08:51:18.885+03:00,0.03057091307199995,0
2025-04-18T14:40:16.355+03:00,1744976414.995466,40.95365572399826,29.14101768181349,94.72507,-1,-1,-1,-1,30,25.91352151834083,-9999,69454.8461065,-0.522491455078125,0.8598175048828125,-0.04498291015625,69454.83603050001,0.4583850319070014,-1.494745205658951,-1.028045768707676,0.01281518209725618,0.0900215208530426,0.01191971451044083,-0.009734034538269043,0.0005508661270141602,-0.005451027303934097,XArbitraryZVertical,-0.2167393290060699,-0.6583335320212058,0.470570558038913,0.5460626913431187,-0.5150004625320435,0.8562912940979004,-0.03924204781651497,0,0,0,-1,-1,69436.46078450001,unknown,2,2025-04-18T14:39:57.870+03:00,2025-04-18T14:06:46.055+03:00,48,7.358232,0,0,40.48506,0,0,2025-04-18T14:40:03.029+03:00,766669216.0135459,0,6.320007,100.354,1,0.25,2025-04-18T14:32:39.794+03:00,92.00000000000001,1.533333333333333,2025-04-18T08:51:18.885+03:00,0.03057091307199995,0
2025-04-18T14:40:16.365+03:00,1744976414.995466,40.95365572399826,29.14101768181349,94.72507,-1,-1,-1,-1,30,25.91352151834083,-9999,69454.85618250001,-0.5208892822265625,0.86065673828125,-0.0498504638671875,69454.8461065,0.4586320019913928,-1.493599797629563,-1.028219211355271,0.01345560606569052,0.1008850187063217,0.02134247869253159,-0.008035600185394287,0.002597272396087646,-0.00417071208357811,XArbitraryZVertical,-0.2169880241617768,-0.6580319041074121,0.4705568047731776,0.5463390600200833,-0.5148066878318787,0.856380820274353,-0.03982042148709297,0,0,0,-1,-1,69436.46078450001,unknown,2,2025-04-18T14:39:57.870+03:00,2025-04-18T14:06:46.055+03:00,48,7.358232,0,0,40.48506,0,0,2025-04-18T14:40:03.029+03:00,766669216.0135459,0,6.320007,100.354,1,0.25,2025-04-18T14:32:39.794+03:00,92.00000000000001,1.533333333333333,2025-04-18T08:51:18.885+03:00,0.03057091307199995,0
2025-04-18T14:40:16.375+03:00,1744976414.995466,40.95365572399826,29.14101768181349,94.72507,-1,-1,-1,-1,30,25.91352151834083,-9999,69454.8662585,-0.51715087890625,0.8650665283203125,-0.0506439208984375,69454.85618250001,0.4590619970943173,-1.49213645295636,-1.028474816294418,0.02502943761646748,0.1125616505742073,0.02798360213637352,-0.006817281246185303,0.003914952278137207,-0.008698936551809311,XArbitraryZVertical,-0.2172801524765362,-0.6576557426293675,0.4705785033145172,0.5466571295819894,-0.5145296454429626,0.8565127849578857,-0.04055652022361755,0,0,0,-1,-1,69436.46078450001,unknown,2,2025-04-18T14:39:57.870+03:00,2025-04-18T14:06:46.055+03:00,48,7.358232,0,0,40.48506,0,0,2025-04-18T14:40:03.029+03:00,766669216.0135459,0,6.320007,100.354,1,0.25,2025-04-18T14:32:39.794+03:00,92.00000000000001,1.533333333333333,2025-04-18T08:51:18.885+03:00,0.03057091307199995,0
2025-04-18T14:40:16.385+03:00,1744976414.995466,40.95365572399826,29.14101768181349,94.72507,-1,-1,-1,-1,30,25.91352151834083,-9999,69454.8763345,-0.512786865234375,0.864593505859375,-0.0465850830078125,69454.8662585,0.4597815206423189,-1.490367281463052,-1.028762932652951,0.03679115697741508,0.1137708574533463,0.02788300253450871,-0.003367006778717041,0.007962405681610107,-0.008952971547842026,XArbitraryZVertical,-0.217560585874643,-0.6572244187380167,0.4706539391825496,0.54699922695533,-0.5142109990119934,0.8566614389419556,-0.04144690930843353,0,0,0,-1,-1,69436.46078450001,unknown,2,2025-04-18T14:39:57.870+03:00,2025-04-18T14:06:46.055+03:00,48,7.358232,0,0,40.48506,0,0,2025-04-18T14:40:03.029+03:00,766669216.0135459,0,6.320007,100.354,1,0.25,2025-04-18T14:32:39.794+03:00,92.00000000000001,1.533333333333333,2025-04-18T08:51:18.885+03:00,0.03057091307199995,0
2025-04-18T14:40:16.395+03:00,1744976414.995466,40.95365572399826,29.14101768181349,94.72507,-1,-1,-1,-1,30,25.91352151834083,-9999,69454.88641050001,-0.50994873046875,0.8553619384765625,-0.0424652099609375,69454.8763345,0.4604888107603291,-1.48859635540085,-1.029034875954417,0.03092261403799057,0.1133482158184052,0.02813946455717087,0.0003551244735717773,0.008524179458618164,-0.005284368991851807,XArbitraryZVertical,-0.2178401316017153,-0.6567925813849063,0.4707214967451465,0.5473485309456053,-0.513904869556427,0.8568017482757568,-0.04233836382627487,0,0,0,-1,-1,69436.46078450001,unknown,2,2025-04-18T14:39:57.870+03:00,2025-04-18T14:06:46.055+03:00,48,7.358232,0,0,40.48506,0,0,2025-04-18T14:40:03.029+03:00,766669216.0135459,0,6.320007,100.354,1,0.25,2025-04-18T14:32:39.794+03:00,92.00000000000001,1.533333333333333,2025-04-18T08:51:18.885+03:00,0.03057091307199995,0
2025-04-18T14:40:16.406+03:00,1744976414.995466,40.95365572399826,29.14101768181349,94.72507,-1,-1,-1,-1,30,25.91352151834083,-9999,69454.8964865,-0.5119781494140625,0.845306396484375,-0.045684814453125,69454.88641050001,0.4610607105536257,-1.486934040285414,-1.029308966183438,0.0181727297604084,0.1138949543237686,0.03207361698150635,0.003452658653259277,-2.473592758178711e-05,0.0007076263427734375,XArbitraryZVertical,-0.2181395311953794,-0.6563754220684357,0.4707642053426441,0.5476928414378728,-0.513599693775177,0.8569430112838745,-0.04317289963364601,0,0,0,-1,-1,69436.46078450001,unknown,2,2025-04-18T14:39:57.870+03:00,2025-04-18T14:06:46.055+03:00,48,7.358232,0,0,40.48506,0,0,2025-04-18T14:40:03.029+03:00,766669216.0135459,0,6.320007,100.354,1,0.25,2025-04-18T14:32:39.794+03:00,92.00000000000001,1.533333333333333,2025-04-18T08:51:18.885+03:00,0.03057091307199995,0
2025-04-18T14:40:16.425+03:00,1744976414.995466,40.95365572399826,29.14101768181349,94.72507,-1,-1,-1,-1,30,25.91352151834083,-9999,69454.90656250001,-0.5093231201171875,0.8479766845703125,-0.05267333984375,69454.8964865,0.4614653291125602,-1.485538424190774,-1.029515226447184,0.02250729128718376,0.09523418545722961,0.02177144587039948,0.00228506326675415,-0.01053750514984131,-0.001123607158660889,XArbitraryZVertical,-0.2184075044913858,-0.6560189476547303,0.4707732673929644,0.5480053250508186,-0.5133629441261292,0.8570493459701538,-0.04387460276484489,0,0,0,-1,-1,69436.46078450001,unknown,2,2025-04-18T14:39:57.870+03:00,2025-04-18T14:06:46.055+03:00,48,7.358232,0,0,40.48506,0,0,2025-04-18T14:40:03.029+03:00,766669216.0135459,0,6.320007,100.354,1,0.25,2025-04-18T14:32:39.794+03:00,92.00000000000001,1.533333333333333,2025-04-18T08:51:18.885+03:00,0.03057091307199995,0
2025-04-18T14:40:16.427+03:00,1744976414.995466,40.95365572399826,29.14101768181349,94.72507,-1,-1,-1,-1,30,25.91352151834083,-9999,69454.9166385,-0.50537109375,0.85247802734375,-0.056121826171875,69454.90656250001,0.4620070992778448,-1.484203442883269,-1.029578550415612,0.02795079350471497,0.0803266167640686,0.01096114236861467,0.00298076868057251,-0.009837567806243896,-0.007523063570261002,XArbitraryZVertical,-0.2185662803412811,-0.6557066226757732,0.4707913838607163,0.5483002362111539,-0.513249933719635,0.8570819497108459,-0.04455521330237389,0,0,0,-1,-1,69436.46078450001,unknown,2,2025-04-18T14:39:57.870+03:00,2025-04-18T14:06:46.055+03:00,48,7.358232,0,0,40.48506,0,0,2025-04-18T14:40:03.029+03:00,766669216.0135459,0,6.320007,100.354,1,0.25,2025-04-18T14:32:39.794+03:00,92.00000000000001,1.533333333333333,2025-04-18T08:51:18.885+03:00,0.03057091307199995,0
2025-04-18T14:40:16.436+03:00,1744976414.995466,40.95365572399826,29.14101768181349,94.72507,-1,-1,-1,-1,30,25.91352151834083,-9999,69454.9267145,-0.5057220458984375,0.8467864990234375,-0.057342529296875,69454.9166385,0.4625189897994976,-1.483045310835071,-1.029529289898208,0.02571267262101173,0.06523554027080536,0.005172495730221272,0.00738072395324707,-0.00456315279006958,-0.01061761751770973,XArbitraryZVertical,-0.2186538520114521,-0.6554493455187832,0.4707930993224625,0.5485714153522498,-0.5132400989532471,0.8570565581321716,-0.04515329748392105,0,0,0,-1,-1,69436.46078450001,unknown,2,2025-04-18T14:39:57.870+03:00,2025-04-18T14:06:46.055+03:00,48,7.358232,0,0,40.48506,0,0,2025-04-18T14:40:03.029+03:00,766669216.0135459,0,6.320007,100.354,1,0.25,2025-04-18T14:32:39.794+03:00,92.00000000000001,1.533333333333333,2025-04-18T08:51:18.885+03:00,0.03057091307199995,0
2025-04-18T14:40:16.446+03:00,1744976414.995466,40.95365572399826,29.14101768181349,94.72507,-1,-1,-1,-1,30,25.91352151834083,-9999,69454.93679050001,-0.5072174072265625,0.846954345703125,-0.0545196533203125,69454.9267145,0.4629558229008194,-1.482072378507272,-1.029437071197793,0.02041444554924965,0.05968378856778145,-0.005056639201939106,0.007857680320739746,-0.009963154792785645,-0.01211017370223999,XArbitraryZVertical,-0.2187073837307592,-0.6552383340591525,0.4707840785370423,0.5488097664436314,-0.5132744908332825,0.8570090532302856,-0.04565961286425591,0,0,0,-1,-1,69436.46078450001,unknown,2,2025-04-18T14:39:57.870+03:00,2025-04-18T14:06:46.055+03:00,48,7.358232,0,0,40.48506,0,0,2025-04-18T14:40:03.029+03:00,766669216.0135459,0,6.320007,100.354,1,0.25,2025-04-18T14:32:39.794+03:00,92.00000000000001,1.533333333333333,2025-04-18T08:51:18.885+03:00,0.03057091307199995,0
2025-04-18T14:40:16.460+03:00,1744976414.995466,40.95365572399826,29.14101768181349,94.72507,-1,-1,-1,-1,30,25.91352151834083,-9999,69454.9468665,-0.5085296630859375,0.8482666015625,-0.054351806640625,69454.93679050001,0.4633515346502621,-1.481114583836156,-1.029313517395716,0.01175464503467083,0.05607999861240387,-0.006992224603891373,0.006851255893707275,-0.01043343544006348,-0.00840473547577858,XArbitraryZVertical,-0.2187599193219516,-0.6550295740170722,0.4707576752021653,0.5490607577223835,-0.5133362412452698,0.8569453954696655,-0.04616070911288261,0,0,0,-1,-1,69436.46078450001,unknown,2,2025-04-18T14:39:57.870+03:00,2025-04-18T14:06:46.055+03:00,48,7.358232,0,0,40.48506,0,0,2025-04-18T14:40:03.029+03:00,766669216.0135459,0,6.320007,100.354,1,0.25,2025-04-18T14:32:39.794+03:00,92.00000000000001,1.533333333333333,2025-04-18T08:51:18.885+03:00,0.03057091307199995,0
2025-04-18T14:40:16.475+03:00,1744976414.995466,40.95365572399826,29.14101768181349,94.72507,-1,-1,-1,-1,30,25.91352151834083,-9999,69454.95694250001,-0.507110595703125,0.84429931640625,-0.0556640625,69454.9468665,0.4635498283398408,-1.480406480733723,-1.029245989126998,0.003373743966221809,0.04688789695501328,-0.005779387895017862,0.004037618637084961,-0.008018434047698975,-0.007914062589406967,XArbitraryZVertical,-0.218837897811721,-0.6548627986631409,0.4707183183055393,0.5492621212008316,-0.5133606195449829,0.8569105863571167,-0.0465293787419796,0,0,0,-1,-1,69436.46078450001,unknown,2,2025-04-18T14:39:57.870+03:00,2025-04-18T14:06:46.055+03:00,48,7.358232,0,0,40.48506,0,0,2025-04-18T14:40:03.029+03:00,766669216.0135459,0,6.320007,100.354,1,0.25,2025-04-18T14:32:39.794+03:00,92.00000000000001,1.533333333333333,2025-04-18T08:51:18.885+03:00,0.03057091307199995,0
2025-04-18T14:40:16.478+03:00,1744976414.995466,40.95365572399826,29.14101768181349,94.72507,-1,-1,-1,-1,30,25.91352151834083,-9999,69454.96701787501,-0.50836181640625,0.848358154296875,-0.056732177734375,69454.95694250001,0.4635075177348198,-1.479996469250485,-1.029228188544837,-0.002877227729186416,0.04111070185899734,-0.005044089164584875,0.006414115428924561,-0.01280045509338379,-0.008754968643188477,XArbitraryZVertical,-0.2189420138467892,-0.654747102771324,0.4706574435739123,0.5494107581734199,-0.5133568048477173,0.8569014072418213,-0.04674125090241432,0,0,0,-1,-1,69436.46078450001,unknown,2,2025-04-18T14:39:57.870+03:00,2025-04-18T14:06:46.055+03:00,48,7.358232,0,0,40.48506,0,0,2025-04-18T14:40:03.029+03:00,766669216.0135459,0,6.320007,100.354,1,0.25,2025-04-18T14:32:39.794+03:00,92.00000000000001,1.533333333333333,2025-04-18T08:51:18.885+03:00,0.03057091307199995,0
2025-04-18T14:40:16.486+03:00,1744976414.995466,40.95365572399826,29.14101768181349,94.72507,-1,-1,-1,-1,30,25.91352151834083,-9999,69454.977093875,-0.5122528076171875,0.8495635986328125,-0.0562744140625,69454.96701787501,0.4633004747432326,-1.479782933660895,-1.029192558180025,-0.01101558096706867,0.03866299241781235,-0.01013432163745165,0.00530552864074707,-0.009241938591003418,-0.009710732847452164,XArbitraryZVertical,-0.2190475609451282,-0.6546688735839946,0.4705684226396938,0.5495382465778678,-0.5133774280548096,0.8568830490112305,-0.04685366526246071,0,0,0,-1,-1,69436.46078450001,unknown,2,2025-04-18T14:39:57.870+03:00,2025-04-18T14:06:46.055+03:00,48,7.358232,0,0,40.48506,0,0,2025-04-18T14:40:03.029+03:00,766669216.0135459,0,6.320007,100.354,1,0.25,2025-04-18T14:32:39.794+03:00,92.00000000000001,1.533333333333333,2025-04-18T08:51:18.885+03:00,0.03057091307199995,0
2025-04-18T14:40:16.496+03:00,1744976414.995466,40.95365572399826,29.14101768181349,94.72507,-1,-1,-1,-1,30,25.91352151834083,-9999,69454.98716987501,-0.510528564453125,0.8507843017578125,-0.055023193359375,69454.977093875,0.4630904881239129,-1.479664379890325,-1.029075009382474,-0.004312671720981598,0.02574719116091728,-0.009474656544625759,0.001844882965087891,-0.007380902767181396,-0.01006799936294556,XArbitraryZVertical,-0.2191029098310528,-0.6546236133005694,0.4704691120940016,0.5496550453724772,-0.5134720206260681,0.8568224310874939,-0.04692367836833,0,0,0,-1,-1,69436.46078450001,unknown,2,2025-04-18T14:39:57.870+03:00,2025-04-18T14:06:46.055+03:00,48,7.358232,0,0,40.48506,0,0,2025-04-18T14:40:03.029+03:00,766669216.0135459,0,6.320007,100.354,1,0.25,2025-04-18T14:32:39.794+03:00,92.00000000000001,1.533333333333333,2025-04-18T08:51:18.885+03:00,0.03057091307199995,0
2025-04-18T14:40:16.506+03:00,1744976414.995466,40.95365572399826,29.14101768181349,94.72507,-1,-1,-1,-1,30,25.91352151834083,-9999,69454.997244875,-0.5140228271484375,0.854736328125,-0.056060791015625,69454.98716987501,0.463095629869387,-1.479352942217136,-1.028989552856244,-0.004248156677931547,0.02749881893396378,-0.005762443412095308,0.002269208431243896,-0.006879210472106934,-0.008573882281780243,XArbitraryZVertical,-0.219144453596547,-0.6545460877572766,0.4704156474023693,0.5497764309898268,-0.5135300755500793,0.8567783832550049,-0.04709025472402573,0,0,0,-1,-1,69436.46078450001,unknown,2,2025-04-18T14:39:57.870+03:00,2025-04-18T14:06:46.055+03:00,48,7.358232,0,0,40.48506,0,0,2025-04-18T14:40:03.029+03:00,766669216.0135459,0,6.320007,100.354,1,0.25,2025-04-18T14:32:39.794+03:00,92.00000000000001,1.533333333333333,2025-04-18T08:51:18.885+03:00,0.03057091307199995,0
2025-04-18T14:40:16.516+03:00,1744976414.995466,40.95365572399826,29.14101768181349,94.72507,-1,-1,-1,-1,30,25.91352151834083,-9999,69455.00732087501,-0.509735107421875,0.86126708984375,-0.0552978515625,69454.997244875,0.4631136246892086,-1.4789893178886,-1.028987615786554,-0.009466887451708317,0.030888756737113,-0.00281672109849751,1.066923141479492e-05,-0.003246605396270752,-0.008982054889202118,XArbitraryZVertical,-0.2192234162963486,-0.6544482587564607,0.4703802545634929,0.5498917096591385,-0.5135146379470825,0.8567773699760437,-0.04727714136242867,0,0,0,-1,-1,69436.46078450001,unknown,2,2025-04-18T14:39:57.870+03:00,2025-04-18T14:06:46.055+03:00,48,7.358232,0,0,40.48506,0,0,2025-04-18T14:40:03.029+03:00,766669216.0135459,0,6.320007,100.354,1,0.25,2025-04-18T14:32:39.794+03:00,92.00000000000001,1.533333333333333,2025-04-18T08:51:18.885+03:00,0.03057091307199995,0
2025-04-18T14:40:16.526+03:00,1744976414.995466,40.95365572399826,29.14101768181349,94.72507,-1,-1,-1,-1,30,25.91352151834083,-9999,69455.017396875,-0.505523681640625,0.860870361328125,-0.055908203125,69455.00732087501,0.4630847435366931,-1.478692170035283,-1.02898051884839,-0.009749049320816994,0.01862210221588612,-0.00422440143302083,0.002902030944824219,0.003700017929077148,-0.007714994251728058,XArbitraryZVertical,-0.2193002986743308,-0.6543639828477206,0.4703379106549251,0.5499976974829452,-0.5135068893432617,0.8567736744880676,-0.04743031412363052,0,0,0,-1,-1,69436.46078450001,unknown,2,2025-04-18T14:39:57.870+03:00,2025-04-18T14:06:46.055+03:00,48,7.358232,0,0,40.48506,0,0,2025-04-18T14:40:03.029+03:00,766669216.0135459,0,6.320007,100.354,1,0.25,2025-04-18T14:32:39.794+03:00,92.00000000000001,1.533333333333333,2025-04-18T08:51:18.885+03:00,0.03057091307199995,0
2025-04-18T14:40:16.536+03:00,1744976414.995466,40.95365572399826,29.14101768181349,94.72507,-1,-1,-1,-1,30,25.91352151834083,-9999,69455.02747287501,-0.5045013427734375,0.854766845703125,-0.0542755126953125,69455.017396875,0.4629286976803261,-1.478656309533645,-1.028978558031556,-0.01597951352596283,0.007841627113521099,4.864041693508625e-05,0.008074581623077393,0.003868758678436279,-0.008108437061309814,XArbitraryZVertical,-0.2193590700738268,-0.6543371956918258,0.4702906500772824,0.5500464469794041,-0.5135066509246826,0.8567726612091064,-0.04744886606931686,0,0,0,-1,-1,69436.46078450001,unknown,2,2025-04-18T14:39:57.870+03:00,2025-04-18T14:06:46.055+03:00,48,7.358232,0,0,40.48506,0,0,2025-04-18T14:40:03.029+03:00,766669216.0135459,0,6.320007,100.354,1,0.25,2025-04-18T14:32:39.794+03:00,92.00000000000001,1.533333333333333,2025-04-18T08:51:18.885+03:00,0.03057091307199995,0
2025-04-18T14:40:16.547+03:00,1744976414.995466,40.95365572399826,29.14101768181349,94.72507,-1,-1,-1,-1,30,25.91352151834083,-9999,69455.037548875,-0.506378173828125,0.851409912109375,-0.05206298828125,69455.02747287501,0.4627125528145447,-1.478759424227079,-1.028982339903638,-0.0194398257881403,0.00337330880574882,-0.0008551365463063121,0.009693622589111328,-0.001260221004486084,-0.006345860660076141,XArbitraryZVertical,-0.2194068508257241,-0.654341524538676,0.4702434777401009,0.5500625107978018,-0.5135082006454468,0.856774628162384,-0.04739560559391975,0,0,0,-1,-1,69436.46078450001,unknown,2,2025-04-18T14:39:57.870+03:00,2025-04-18T14:06:46.055+03:00,48,7.358232,0,0,40.48506,0,0,2025-04-18T14:40:03.029+03:00,766669216.0135459,0,6.320007,100.354,1,0.25,2025-04-18T14:32:39.794+03:00,92.00000000000001,1.533333333333333,2025-04-18T08:51:18.885+03:00,0.03057091307199995,0
2025-04-18T14:40:16.557+03:00,1744976414.995466,40.95365572399826,29.14101768181349,94.72507,-1,-1,-1,-1,30,25.91352151834083,-9999,69455.04762487501,-0.509735107421875,0.849639892578125,-0.0543212890625,69455.037548875,0.4623498746450923,-1.478967316545913,-1.029028122709382,-0.02863598614931107,0.007795221172273159,0.006312761455774307,0.007772326469421387,-0.005144238471984863,-0.004899859428405762,XArbitraryZVertical,-0.2194927150245932,-0.6543548868416428,0.4701776798029888,0.5500686405270836,-0.5134790539741516,0.8567982316017151,-0.04728525876998901,0,0,0,-1,-1,69436.46078450001,unknown,2,2025-04-18T14:39:57.870+03:00,2025-04-18T14:06:46.055+03:00,48,7.358232,0,0,40.48506,0,0,2025-04-18T14:40:03.029+03:00,766669216.0135459,0,6.320007,100.354,1,0.25,2025-04-18T14:32:39.794+03:00,92.00000000000001,1.533333333333333,2025-04-18T08:51:18.885+03:00,0.03057091307199995,0
2025-04-18T14:40:16.567+03:00,1744976414.995466,40.95365572399826,29.14101768181349,94.72507,-1,-1,-1,-1,30,25.91352151834083,-9999,69455.057700875,-0.5089263916015625,0.843902587890625,-0.0580902099609375,69455.04762487501,0.4618992971315797,-1.479301264411176,-1.029149259784711,-0.03516525775194168,-0.006348560564219952,0.01123148668557405,0.003793835639953613,-0.006656289100646973,-0.006454106420278549,XArbitraryZVertical,-0.2196041630092632,-0.6543866277992064,0.4701199408519822,0.5500357850383379,-0.5133915543556213,0.8568606972694397,-0.04710430651903152,0,0,0,-1,-1,69436.46078450001,unknown,2,2025-04-18T14:39:57.870+03:00,2025-04-18T14:06:46.055+03:00,48,7.358232,0,0,40.48506,0,0,2025-04-18T14:40:03.029+03:00,766669216.0135459,0,6.320007,100.354,1,0.25,2025-04-18T14:32:39.794+03:00,92.00000000000001,1.533333333333333,2025-04-18T08:51:18.885+03:00,0.03057091307199995,0
2025-04-18T14:40:16.577+03:00,1744976414.995466,40.95365572399826,29.14101768181349,94.72507,-1,-1,-1,-1,30,25.91352151834083,-9999,69455.067776875,-0.507476806640625,0.84429931640625,-0.060577392578125,69455.057700875,0.4613989652033652,-1.479784998033974,-1.029285273099101,-0.03437962383031845,-0.01286052260547876,0.0143814729526639,0.004158258438110352,-0.01229584217071533,-0.01074135303497314,XArbitraryZVertical,-0.2197019093005438,-0.6544527393443085,0.4700686577628383,0.5499619339612173,-0.5132982134819031,0.8569307923316956,-0.04684536531567574,0,0,0,-1,-1,69436.46078450001,unknown,2,2025-04-18T14:39:57.870+03:00,2025-04-18T14:06:46.055+03:00,48,7.358232,0,0,40.48506,0,0,2025-04-18T14:40:03.029+03:00,766669216.0135459,0,6.320007,100.354,1,0.25,2025-04-18T14:32:39.794+03:00,92.00000000000001,1.533333333333333,2025-04-18T08:51:18.885+03:00,0.03057091307199995,0
2025-04-18T14:40:16.587+03:00,1744976414.995466,40.95365572399826,29.14101768181349,94.72507,-1,-1,-1,-1,30,25.91352151834083,-9999,69455.07785287501,-0.510101318359375,0.8458709716796875,-0.05999755859375,69455.067776875,0.4608850156320848,-1.480354426620039,-1.029484212669217,-0.03843062743544579,-0.02064900286495686,0.02228370495140553,0.005586683750152588,-0.0131765604019165,-0.01374989748001099,XArbitraryZVertical,-0.2198060572534875,-0.6545353011275183,0.4700384887326096,0.549847837721439,-0.5131550431251526,0.8570333123207092,-0.04653767496347427,0,0,0,-1,-1,69436.46078450001,unknown,2,2025-04-18T14:39:57.870+03:00,2025-04-18T14:06:46.055+03:00,48,7.358232,0,0,40.48506,0,0,2025-04-18T14:40:03.029+03:00,766669216.0135459,0,6.320007,100.354,1,0.25,2025-04-18T14:32:39.794+03:00,92.00000000000001,1.533333333333333,2025-04-18T08:51:18.885+03:00,0.03057091307199995,0
2025-04-18T14:40:16.597+03:00,1744976414.995466,40.95365572399826,29.14101768181349,94.72507,-1,-1,-1,-1,30,25.91352151834083,-9999,69455.087928875,-0.5053863525390625,0.8495330810546875,-0.0562591552734375,69455.07785287501,0.460284420371544,-1.481081300149805,-1.029716049373385,-0.04138433933258057,-0.03216797485947609,0.0215326938778162,0.002935349941253662,-0.01128172874450684,-0.01455265656113625,XArbitraryZVertical,-0.2199131151362327,-0.6546486007148298,0.4700099310017068,0.5496945556006453,-0.5129908323287964,0.8571527600288391,-0.04614686220884323,0,0,0,-1,-1,69436.46078450001,unknown,2,2025-04-18T14:39:57.870+03:00,2025-04-18T14:06:46.055+03:00,48,7.358232,0,0,40.48506,0,0,2025-04-18T14:40:03.029+03:00,766669216.0135459,0,6.320007,100.354,1,0.25,2025-04-18T14:32:39.794+03:00,92.00000000000001,1.533333333333333,2025-04-18T08:51:18.885+03:00,0.03057091307199995,0
2025-04-18T14:40:16.607+03:00,1744976414.995466,40.95365572399826,29.14101768181349,94.72507,-1,-1,-1,-1,30,25.91352151834083,-9999,69455.09800487501,-0.5039825439453125,0.854095458984375,-0.0514068603515625,69455.087928875,0.4596933236353574,-1.48194218863627,-1.029952934296368,-0.03698426485061646,-0.04442384093999863,0.01283880416303873,0.00683140754699707,-0.008809804916381836,-0.01069408655166626,XArbitraryZVertical,-0.2199873358694098,-0.6547991882196257,0.4700001287554085,0.5494937956953339,-0.5128280520439148,0.8572747707366943,-0.04568719118833542,0,0,0,-1,-1,69436.46078450001,unknown,2,2025-04-18T14:39:57.870+03:00,2025-04-18T14:06:46.055+03:00,48,7.358232,0,0,40.48506,0,0,2025-04-18T14:40:03.029+03:00,766669216.0135459,0,6.320007,100.354,1,0.25,2025-04-18T14:32:39.794+03:00,92.00000000000001,1.533333333333333,2025-04-18T08:51:18.885+03:00,0.03057091307199995,0
2025-04-18T14:40:16.617+03:00,1744976414.995466,40.95365572399826,29.14101768181349,94.72507,-1,-1,-1,-1,30,25.91352151834083,-9999,69455.108080875,-0.506988525390625,0.8533935546875,-0.05047607421875,69455.09800487501,0.4590836068495656,-1.482914162508592,-1.030204161878762,-0.04632317274808884,-0.0537068247795105,0.01658587343990803,0.008873522281646729,-0.002942442893981934,-0.006130337715148926,XArbitraryZVertical,-0.2200466079877858,-0.6549767812521365,0.4700010383577984,0.5492575989614825,-0.5126577019691467,0.8574040532112122,-0.04516981169581413,0,0,0,-1,-1,69436.46078450001,unknown,2,2025-04-18T14:39:57.870+03:00,2025-04-18T14:06:46.055+03:00,48,7.358232,0,0,40.48506,0,0,2025-04-18T14:40:03.029+03:00,766669216.0135459,0,6.320007,100.354,1,0.25,2025-04-18T14:32:39.794+03:00,92.00000000000001,1.533333333333333,2025-04-18T08:51:18.885+03:00,0.03057091307199995,0
2025-04-18T14:40:16.627+03:00,1744976414.995466,40.95365572399826,29.14101768181349,94.72507,-1,-1,-1,-1,30,25.91352151834083,-9999,69455.118156875,-0.510223388671875,0.8568878173828125,-0.044677734375,69455.108080875,0.4584323935649208,-1.483926317248361,-1.030502124865097,-0.04324482381343842,-0.04107385128736496,0.02248557284474373,0.005414307117462158,-0.004133343696594238,-0.006152570247650146,XArbitraryZVertical,-0.2201263960325871,-0.655156473878822,0.470006617648709,0.5490064621169521,-0.5124485492706299,0.8575573563575745,-0.04462872818112373,0,0,0,-1,-1,69436.46078450001,unknown,2,2025-04-18T14:39:57.870+03:00,2025-04-18T14:06:46.055+03:00,48,7.358232,0,0,40.48506,0,0,2025-04-18T14:40:03.029+03:00,766669216.0135459,0,6.320007,100.354,1,0.25,2025-04-18T14:32:39.794+03:00,92.00000000000001,1.533333333333333,2025-04-18T08:51:18.885+03:00,0.03057091307199995,0
2025-04-18T14:40:16.637+03:00,1744976414.995466,40.95365572399826,29.14101768181349,94.72507,-1,-1,-1,-1,30,25.91352151834083,-9999,69455.12823287501,-0.514892578125,0.8651123046875,-0.0404510498046875,69455.118156875,0.4577252828351791,-1.484779044947809,-1.030803338926429,-0.04667550697922707,-0.02093848772346973,0.02517776191234589,0.003028154373168945,-0.002045214176177979,-0.001942574977874756,XArbitraryZVertical,-0.2202631304554949,-0.6552857227822547,0.4699802338588663,0.5488199762638583,-0.5122291445732117,0.8577122688293457,-0.04416954889893532,0,0,0,-1,-1,69436.46078450001,unknown,2,2025-04-18T14:39:57.870+03:00,2025-04-18T14:06:46.055+03:00,48,7.358232,0,0,40.48506,0,0,2025-04-18T14:40:03.029+03:00,766669216.0135459,0,6.320007,100.354,1,0.25,2025-04-18T14:32:39.794+03:00,92.00000000000001,1.533333333333333,2025-04-18T08:51:18.885+03:00,0.03057091307199995,0
2025-04-18T14:40:16.647+03:00,1744976414.995466,40.95365572399826,29.14101768181349,94.72507,-1,-1,-1,-1,30,25.91352151834083,-9999,69455.138308875,-0.5134429931640625,0.86102294921875,-0.03863525390625,69455.12823287501,0.4570351759556003,-1.485473915958839,-1.03111471412631,-0.04434550553560257,-0.01161795668303967,0.03288721293210983,-0.002517640590667725,0.006843149662017822,0.002912465482950211,XArbitraryZVertical,-0.2204349076650968,-0.6553724418681902,0.4699438983339458,0.5486784612567082,-0.511993408203125,0.8578723073005676,-0.04379082843661308,0,0,0,-1,-1,69436.46078450001,unknown,2,2025-04-18T14:39:57.870+03:00,2025-04-18T14:06:46.055+03:00,48,7.358232,0,0,40.48506,0,0,2025-04-18T14:40:03.029+03:00,766669216.0135459,0,6.320007,100.354,1,0.25,2025-04-18T14:32:39.794+03:00,92.00000000000001,1.533333333333333,2025-04-18T08:51:18.885+03:00,0.03057091307199995,0
2025-04-18T14:40:16.657+03:00,1744976414.995466,40.95365572399826,29.14101768181349,94.72507,-1,-1,-1,-1,30,25.91352151834083,-9999,69455.14838487501,-0.517242431640625,0.861846923828125,-0.04083251953125,69455.138308875,0.4564318334412988,-1.485964119911301,-1.031424346707025,-0.04420702159404755,-0.001239352859556675,0.02993802912533283,-0.001540064811706543,0.00390702486038208,0.00453108549118042,XArbitraryZVertical,-0.2206257802679726,-0.6554125355020741,0.4699083968210043,0.5485843311614335,-0.5117502808570862,0.8580313920974731,-0.0435173474252224,0,0,0,-1,-1,69436.46078450001,unknown,2,2025-04-18T14:39:57.870+03:00,2025-04-18T14:06:46.055+03:00,48,7.358232,0,0,40.48506,0,0,2025-04-18T14:40:03.029+03:00,766669216.0135459,0,6.320007,100.354,1,0.25,2025-04-18T14:32:39.794+03:00,92.00000000000001,1.533333333333333,2025-04-18T08:51:18.885+03:00,0.03057091307199995,0
2025-04-18T14:40:16.668+03:00,1744976414.995466,40.95365572399826,29.14101768181349,94.72507,-1,-1,-1,-1,30,25.91352151834083,-9999,69455.158460875,-0.5146484375,0.864227294921875,-0.0406951904296875,69455.14838487501,0.4559246808399546,-1.486319797818896,-1.031710834593073,-0.04113127291202545,-0.001693088561296463,0.02715319395065308,-0.005157113075256348,0.002768099308013916,0.002054810523986816,XArbitraryZVertical,-0.2208085969688867,-0.6554283140786279,0.469878929437252,0.548517128072869,-0.5115206837654114,0.8581784963607788,-0.04331457614898682,0,0,0,-1,-1,69436.46078450001,unknown,2,2025-04-18T14:39:57.870+03:00,2025-04-18T14:06:46.055+03:00,48,7.358232,0,0,40.48506,0,0,2025-04-18T14:40:03.029+03:00,766669216.0135459,0,6.320007,100.354,1,0.25,2025-04-18T14:32:39.794+03:00,92.00000000000001,1.533333333333333,2025-04-18T08:51:18.885+03:00,0.03057091307199995,0
2025-04-18T14:40:16.678+03:00,1744976414.995466,40.95365572399826,29.14101768181349,94.72507,-1,-1,-1,-1,30,25.91352151834083,-9999,69455.168536875,-0.51226806640625,0.8598785400390625,-0.0420074462890625,69455.158460875,0.4553461075582912,-1.48674388790571,-1.031967921016489,-0.04917161911725998,0.0007748627103865147,0.02783256769180298,-0.003298580646514893,0.006008505821228027,0.00244491919875145,XArbitraryZVertical,-0.2209884947309778,-0.6554574868464846,0.4698301932107204,0.5484516654260444,-0.5113193392753601,0.8583104610443115,-0.04307913780212402,0,0,0,-1,-1,69436.46078450001,unknown,2,2025-04-18T14:39:57.870+03:00,2025-04-18T14:06:46.055+03:00,48,7.358232,0,0,40.48506,0,0,2025-04-18T14:40:03.029+03:00,766669216.0135459,0,6.320007,100.354,1,0.25,2025-04-18T14:32:39.794+03:00,92.00000000000001,1.533333333333333,2025-04-18T08:51:18.885+03:00,0.03057091307199995,0
2025-04-18T14:40:16.688+03:00,1744976414.995466,40.95365572399826,29.14101768181349,94.72507,-1,-1,-1,-1,30,25.91352151834083,-9999,69455.17861287501,-0.5121002197265625,0.8559417724609375,-0.0426177978515625,69455.168536875,0.4547558635461439,-1.487179466653386,-1.032233666594675,-0.03890680149197578,-0.0001613050699234009,0.02075664885342121,-0.00126415491104126,0.002179384231567383,0.0006315112113952637,XArbitraryZVertical,-0.221172498860072,-0.6554876420938293,0.469781841416578,0.5483828266081441,-0.5111106634140015,0.8584467768669128,-0.04283735528588295,0,0,0,-1,-1,69436.46078450001,unknown,2,2025-04-18T14:39:57.870+03:00,2025-04-18T14:06:46.055+03:00,48,7.358232,0,0,40.48506,0,0,2025-04-18T14:40:03.029+03:00,766669216.0135459,0,6.320007,100.354,1,0.25,2025-04-18T14:32:39.794+03:00,92.00000000000001,1.533333333333333,2025-04-18T08:51:18.885+03:00,0.03057091307199995,0
2025-04-18T14:40:16.698+03:00,1744976414.995466,40.95365572399826,29.14101768181349,94.72507,-1,-1,-1,-1,30,25.91352151834083,-9999,69455.188688875,-0.51055908203125,0.855865478515625,-0.042327880859375,69455.17861287501,0.4541589932303781,-1.487662600338399,-1.032475453341484,-0.04157129302620888,-0.001893957611173391,0.01475441642105579,-0.001191139221191406,-0.002384960651397705,-0.0005176626145839691,XArbitraryZVertical,-0.22133911182755,-0.6555321635980644,0.4697311743804296,0.548305681504102,-0.5109242796897888,0.8585707545280457,-0.04257316142320633,0,0,0,-1,-1,69436.46078450001,unknown,2,2025-04-18T14:39:57.870+03:00,2025-04-18T14:06:46.055+03:00,48,7.358232,0,0,40.48506,0,0,2025-04-18T14:40:03.029+03:00,766669216.0135459,0,6.320007,100.354,1,0.25,2025-04-18T14:32:39.794+03:00,92.00000000000001,1.533333333333333,2025-04-18T08:51:18.885+03:00,0.03057091307199995,0
2025-04-18T14:40:16.708+03:00,1744976414.995466,40.95365572399826,29.14101768181349,94.72507,-1,-1,-1,-1,30,25.91352151834083,-9999,69455.19876487501,-0.50677490234375,0.855743408203125,-0.0393829345703125,69455.188688875,0.4534359204662765,-1.488265324428708,-1.032623673898336,-0.04977809265255928,-0.001337623223662376,0.007559887133538723,-0.0002548098564147949,-0.002430438995361328,0.0003540553152561188,XArbitraryZVertical,-0.2214863480303614,-0.655603876793571,0.4696361771262393,0.5482418195836688,-0.5108228921890259,0.8586467504501343,-0.04225470870733261,0,0,0,-1,-1,69436.46078450001,unknown,2,2025-04-18T14:39:57.870+03:00,2025-04-18T14:06:46.055+03:00,48,7.358232,0,0,40.48506,0,0,2025-04-18T14:40:03.029+03:00,766669216.0135459,0,6.320007,100.354,1,0.25,2025-04-18T14:32:39.794+03:00,92.00000000000001,1.533333333333333,2025-04-18T08:51:18.885+03:00,0.03057091307199995,0
2025-04-18T14:40:16.718+03:00,1744976414.995466,40.95365572399826,29.14101768181349,94.72507,-1,-1,-1,-1,30,25.91352151834083,-9999,69455.208840875,-0.5040435791015625,0.860443115234375,-0.03643798828125,69455.19876487501,0.452622545549778,-1.488995589629865,-1.032669441667108,-0.04199953004717827,-0.01156655885279179,-0.006201465614140034,0.0032767653465271,-0.003628790378570557,0.002205554395914078,XArbitraryZVertical,-0.221597529590545,-0.6557097740800749,0.4695053737145287,0.5481822999244861,-0.5108145475387573,0.8586702346801758,-0.04187845438718796,0,0,0,-1,-1,69436.46078450001,unknown,2,2025-04-18T14:39:57.870+03:00,2025-04-18T14:06:46.055+03:00,48,7.358232,0,0,40.48506,0,0,2025-04-18T14:40:03.029+03:00,766669216.0135459,0,6.320007,100.354,1,0.25,2025-04-18T14:32:39.794+03:00,92.00000000000001,1.533333333333333,2025-04-18T08:51:18.885+03:00,0.03057091307199995,0
2025-04-18T14:40:16.728+03:00,1744976414.995466,40.95365572399826,29.14101768181349,94.72507,-1,-1,-1,-1,30,25.91352151834083,-9999,69455.218916875,-0.5030517578125,0.863739013671875,-0.0355682373046875,69455.208840875,0.4518000694246135,-1.48992864856524,-1.03261040107475,-0.03902384638786316,-0.03032466769218445,-0.01103716716170311,0.006112754344940186,0.0009791254997253418,0.005257789045572281,XArbitraryZVertical,-0.221627597343569,-0.6558797555267082,0.469368804024032,0.5480837234873103,-0.5109038949012756,0.8586399555206299,-0.04140590876340866,0,0,0,-1,-1,69436.46078450001,unknown,2,2025-04-18T14:39:57.870+03:00,2025-04-18T14:06:46.055+03:00,48,7.358232,0,0,40.48506,0,0,2025-04-18T14:40:03.029+03:00,766669216.0135459,0,6.320007,100.354,1,0.25,2025-04-18T14:32:39.794+03:00,92.00000000000001,1.533333333333333,2025-04-18T08:51:18.885+03:00,0.03057091307199995,0
2025-04-18T14:40:16.738+03:00,1744976414.995466,40.95365572399826,29.14101768181349,94.72507,-1,-1,-1,-1,30,25.91352151834083,-9999,69455.22899287501,-0.5073089599609375,0.8631134033203125,-0.036712646484375,69455.218916875,0.4510631874653004,-1.490937653216973,-1.032498287068403,-0.02941196598112583,-0.03368610888719559,-0.01320178434252739,0.008508682250976562,0.005003929138183594,0.004872024059295654,XArbitraryZVertical,-0.2215934350530321,-0.6560848331958531,0.4692509422544008,0.5479531135829947,-0.5110415816307068,0.8585824966430664,-0.04089808091521263,0,0,0,-1,-1,69436.46078450001,unknown,2,2025-04-18T14:39:57.870+03:00,2025-04-18T14:06:46.055+03:00,48,7.358232,0,0,40.48506,0,0,2025-04-18T14:40:03.029+03:00,766669216.0135459,0,6.320007,100.354,1,0.25,2025-04-18T14:32:39.794+03:00,92.00000000000001,1.533333333333333,2025-04-18T08:51:18.885+03:00,0.03057091307199995,0
2025-04-18T14:40:16.748+03:00,1744976414.995466,40.95365572399826,29.14101768181349,94.72507,-1,-1,-1,-1,30,25.91352151834083,-9999,69455.239068875,-0.5169219970703125,0.86578369140625,-0.0417938232421875,69455.22899287501,0.4506142525193553,-1.491609269659873,-1.032390983830871,-0.01777168922126293,-0.02381097339093685,-0.00384177197702229,0.005042076110839844,0.004769027233123779,0.004230916500091553,XArbitraryZVertical,-0.2215457318737454,-0.6562289379645661,0.4691758419843435,0.5478641587561625,-0.5111607909202576,0.8585274815559387,-0.04056213796138763,0,0,0,-1,-1,69436.46078450001,unknown,2,2025-04-18T14:39:57.870+03:00,2025-04-18T14:06:46.055+03:00,48,7.358232,0,0,40.48506,0,0,2025-04-18T14:40:03.029+03:00,766669216.0135459,0,6.320007,100.354,1,0.25,2025-04-18T14:32:39.794+03:00,92.00000000000001,1.533333333333333,2025-04-18T08:51:18.885+03:00,0.03057091307199995,0
2025-04-18T14:40:16.758+03:00,1744976414.995466,40.95365572399826,29.14101768181349,94.72507,-1,-1,-1,-1,30,25.91352151834083,-9999,69455.24914487501,-0.512542724609375,0.8616790771484375,-0.043121337890625,69455.239068875,0.4502381088999214,-1.492148686971285,-1.032406011187246,-0.01689630746841431,-0.02066498063504696,0.002857409883290529,-0.004577279090881348,0.006470322608947754,-0.0008065700531005859,XArbitraryZVertical,-0.2215478630826489,-0.6563336418266595,0.4691362843253614,0.5477717345242372,-0.5111697316169739,0.8585351705551147,-0.0402853898704052,0,0,0,-1,-1,69436.46078450001,unknown,2,2025-04-18T14:39:57.870+03:00,2025-04-18T14:06:46.055+03:00,48,7.358232,0,0,40.48506,0,0,2025-04-18T14:40:03.029+03:00,766669216.0135459,0,6.320007,100.354,1,0.25,2025-04-18T14:32:39.794+03:00,92.00000000000001,1.533333333333333,2025-04-18T08:51:18.885+03:00,0.03057091307199995,0
2025-04-18T14:40:16.768+03:00,1744976414.995466,40.95365572399826,29.14101768181349,94.72507,-1,-1,-1,-1,30,25.91352151834083,-9999,69455.259220875,-0.5055999755859375,0.8616485595703125,-0.040740966796875,69455.24914487501,0.4500693318743044,-1.492552238727319,-1.032424851610667,-0.002918639918789268,-0.03396207839250565,-0.001060732640326023,-0.001922130584716797,0.003881931304931641,-0.003226697444915771,XArbitraryZVertical,-0.2215151616277542,-0.656423730344284,0.4691394220509851,0.5476743129498389,-0.5111698508262634,0.8585448265075684,-0.04007783904671669,0,0,0,-1,-1,69436.46078450001,unknown,2,2025-04-18T14:39:57.870+03:00,2025-04-18T14:06:46.055+03:00,48,7.358232,0,0,40.48506,0,0,2025-04-18T14:40:03.029+03:00,766669216.0135459,0,6.320007,100.354,1,0.25,2025-04-18T14:32:39.794+03:00,92.00000000000001,1.533333333333333,2025-04-18T08:51:18.885+03:00,0.03057091307199995,0
2025-04-18T14:40:16.778+03:00,1744976414.995466,40.95365572399826,29.14101768181349,94.72507,-1,-1,-1,-1,30,25.91352151834083,-9999,69455.26929687501,-0.4970550537109375,0.8658599853515625,-0.0401153564453125,69455.259220875,0.4500422458061384,-1.493027435706294,-1.032378190842746,-0.003957272507250309,-0.05864612013101578,-0.005369727499783039,0.004758954048156738,0.003509044647216797,-0.0007199011743068695,XArbitraryZVertical,-0.2213962855014755,-0.6565551563115862,0.469173154226101,0.5475358210658169,-0.5112285614013672,0.8585209250450134,-0.0398380234837532,0,0,0,-1,-1,69436.46078450001,unknown,2,2025-04-18T14:39:57.870+03:00,2025-04-18T14:06:46.055+03:00,48,7.358232,0,0,40.48506,0,0,2025-04-18T14:40:03.029+03:00,766669216.0135459,0,6.320007,100.354,1,0.25,2025-04-18T14:32:39.794+03:00,92.00000000000001,1.533333333333333,2025-04-18T08:51:18.885+03:00,0.03057091307199995,0
2025-04-18T14:40:16.789+03:00,1744976414.995466,40.95365572399826,29.14101768181349,94.72507,-1,-1,-1,-1,30,25.91352151834083,-9999,69455.27937287501,-0.492401123046875,0.87823486328125,-0.0378875732421875,69455.26929687501,0.4499829132830461,-1.493832092133483,-1.032244864223087,-0.003719052998349071,-0.08979804813861847,-0.01825842820107937,0.01314491033554077,0.006858229637145996,-0.001030866056680679,XArbitraryZVertical,-0.2211805835577039,-0.6567810985995516,0.4692128193820452,0.5473181700820384,-0.5113749504089355,0.8584524989128113,-0.03943547606468201,0,0,0,-1,-1,69436.46078450001,unknown,2,2025-04-18T14:39:57.870+03:00,2025-04-18T14:06:46.055+03:00,48,7.358232,0,0,40.48506,0,0,2025-04-18T14:40:03.029+03:00,766669216.0135459,0,6.320007,100.354,1,0.25,2025-04-18T14:32:39.794+03:00,92.00000000000001,1.533333333333333,2025-04-18T08:51:18.885+03:00,0.03057091307199995,0
2025-04-18T14:40:16.798+03:00,1744976414.995466,40.95365572399826,29.14101768181349,94.72507,-1,-1,-1,-1,30,25.91352151834083,-9999,69455.289448875,-0.4937591552734375,0.8924407958984375,-0.036407470703125,69455.27937287501,0.4499059501934642,-1.49497722756814,-1.032038472809959,-0.003520381171256304,-0.1239341795444489,-0.02663353644311428,0.01892048120498657,0.01785886287689209,0.001219805330038071,XArbitraryZVertical,-0.2208652671609598,-0.6571049390104916,0.4692672347551602,0.5470099922030188,-0.5115962624549866,0.8583466410636902,-0.03886326402425766,0,0,0,-1,-1,69436.46078450001,unknown,2,2025-04-18T14:39:57.870+03:00,2025-04-18T14:06:46.055+03:00,48,7.358232,0,0,40.48506,0,0,2025-04-18T14:40:03.029+03:00,766669216.0135459,0,6.320007,100.354,1,0.25,2025-04-18T14:32:39.794+03:00,92.00000000000001,1.533333333333333,2025-04-18T08:51:18.885+03:00,0.03057091307199995,0
2025-04-18T14:40:16.809+03:00,1744976414.995466,40.95365572399826,29.14101768181349,94.72507,-1,-1,-1,-1,30,25.91352151834083,-9999,69455.29952487501,-0.4935302734375,0.8950347900390625,-0.035736083984375,69455.289448875,0.4497757057259473,-1.496550308216295,-1.031786267546363,-0.003150734584778547,-0.1620291024446487,-0.03452448174357414,0.01779299974441528,0.03205674886703491,0.002063695341348648,XArbitraryZVertical,-0.2204511003676607,-0.6575439691255955,0.4693426853893929,0.5465845267202156,-0.5118724703788757,0.8582172393798828,-0.03807448223233223,0,0,0,-1,-1,69436.46078450001,unknown,2,2025-04-18T14:39:57.870+03:00,2025-04-18T14:06:46.055+03:00,48,7.358232,0,0,40.48506,0,0,2025-04-18T14:40:03.029+03:00,766669216.0135459,0,6.320007,100.354,1,0.25,2025-04-18T14:32:39.794+03:00,92.00000000000001,1.533333333333333,2025-04-18T08:51:18.885+03:00,0.03057091307199995,0
2025-04-18T14:40:16.819+03:00,1744976414.995466,40.95365572399826,29.14101768181349,94.72507,-1,-1,-1,-1,30,25.91352151834083,-9999,69455.309600875,-0.4955902099609375,0.89080810546875,-0.032867431640625,69455.29952487501,0.4496659173348751,-1.498419748282752,-1.03157628626327,0.002112204441800714,-0.1836323887109756,-0.02466413006186485,0.01944690942764282,0.03669655323028564,0.001409705728292465,XArbitraryZVertical,-0.2199753940875653,-0.6580619679471682,0.4694663290160332,0.5460464202190701,-0.5121226906776428,0.8581094145774841,-0.03713054582476616,0,0,0,-1,-1,69436.46078450001,unknown,2,2025-04-18T14:39:57.870+03:00,2025-04-18T14:06:46.055+03:00,48,7.358232,0,0,40.48506,0,0,2025-04-18T14:40:03.029+03:00,766669216.0135459,0,6.320007,100.354,1,0.25,2025-04-18T14:32:39.794+03:00,92.00000000000001,1.533333333333333,2025-04-18T08:51:18.885+03:00,0.03057091307199995,0
