loggingTime(txt),locationTimestamp_since1970(s),locationLatitude(WGS84),locationLongitude(WGS84),locationAltitude(m),locationSpeed(m/s),locationSpeedAccuracy(m/s),locationCourse(°),locationCourseAccuracy(°),locationVerticalAccuracy(m),locationHorizontalAccuracy(m),locationFloor(Z),accelerometerTimestamp_sinceReboot(s),accelerometerAccelerationX(G),accelerometerAccelerationY(G),accelerometerAccelerationZ(G),motionTimestamp_sinceReboot(s),motionYaw(rad),motionRoll(rad),motionPitch(rad),motionRotationRateX(rad/s),motionRotationRateY(rad/s),motionRotationRateZ(rad/s),motionUserAccelerationX(G),motionUserAccelerationY(G),motionUserAccelerationZ(G),motionAttitudeReferenceFrame(txt),motionQuaternionX(R),motionQuaternionY(R),motionQuaternionZ(R),motionQuaternionW(R),motionGravityX(G),motionGravityY(G),motionGravityZ(G),motionMagneticFieldX(µT),motionMagneticFieldY(µT),motionMagneticFieldZ(µT),motionHeading(°),motionMagneticFieldCalibrationAccuracy(Z),activityTimestamp_sinceReboot(s),activity(txt),activityActivityConfidence(Z),activityActivityStartDate(txt),pedometerStartDate(txt),pedometerNumberofSteps(N),pedometerAverageActivePace(s/m),pedometerCurrentPace(s/m),pedometerCurrentCadence(steps/s),pedometerDistance(m),pedometerFloorAscended(N),pedometerFloorDescended(N),pedometerEndDate(txt),altimeterTimestamp_sinceReboot(s),altimeterReset(bool),altimeterRelativeAltitude(m),altimeterPressure(kPa),batteryState(N),batteryLevel(R),heartRateBPMTimestamp(txt),heartRateBPM(N),heartRateBPS(R),heartRateVariabilityTimestamp(txt),heartRateVariability(ms),label
2025-04-18T12:33:09.651+03:00,1744968787.160457,40.95364477741025,29.14099323588287,92.07828,-1,-1,-1,-1,30,31.71544983042259,-9999,66798.42899837501,-0.7511138916015625,0.6319580078125,-0.2623291015625,66798.418922375,1.269755655742734,-1.232882024334821,-0.6694712597973135,0.02416008338332176,0.02175437286496162,-0.002943114610388875,-0.03911060094833374,0.007999122142791748,-0.006868958473205566,XArbitraryZVertical,0.1080279782605007,-0.5986227811679854,0.6099788058617902,0.5078450878086304,-0.7398048043251038,0.6205714344978333,-0.2599614560604095,0,0,0,-1,-1,66782.51853550001,unknown,2,2025-04-18T12:32:53.690+03:00,2025-04-17T15:44:39.500+03:00,7653,1.147938,0,0,6301.398,4,10,2025-04-18T12:29:40.242+03:00,766661589.2645069,0,110.88,100.5253,1,0.4,2025-04-18T12:33:02.545+03:00,80,1.333333333333333,2025-04-18T08:51:18.885+03:00,0.03057091307199995,1
2025-04-18T12:33:09.653+03:00,1744968787.160457,40.95364477741025,29.14099323588287,92.07828,-1,-1,-1,-1,30,31.71544983042259,-9999,66798.439073375,-0.6970367431640625,0.613067626953125,-0.2517547607421875,66798.42899837501,1.26992654194238,-1.232776368255537,-0.6693619257404623,0.01524142455309629,-0.009573990479111671,-0.006150892470031977,-0.02595144510269165,0.01620250940322876,-0.006127417087554932,XArbitraryZVertical,0.1080869558210377,-0.5985700866357297,0.6100125618475426,0.5078541574526586,-0.7398414015769958,0.6204857230186462,-0.2600621283054352,0,0,0,-1,-1,66782.51853550001,unknown,2,2025-04-18T12:32:53.690+03:00,2025-04-17T15:44:39.500+03:00,7653,1.147938,0,0,6301.398,4,10,2025-04-18T12:29:40.242+03:00,766661589.2645069,0,110.88,100.5253,1,0.4,2025-04-18T12:33:02.545+03:00,80,1.333333333333333,2025-04-18T08:51:18.885+03:00,0.03057091307199995,1
2025-04-18T12:33:09.654+03:00,1744968787.160457,40.95364477741025,29.14099323588287,92.07828,-1,-1,-1,-1,30,31.71544983042259,-9999,66798.44914937501,-0.745452880859375,0.619720458984375,-0.2665557861328125,66798.439073375,1.270025972000235,-1.232747109124457,-0.6691563609650947,0.01493695843964815,0.01141271833330393,-0.00673562241718173,0.04531288146972656,-0.006219267845153809,0.008844375610351562,XArbitraryZVertical,0.1081831737136487,-0.5985260079873528,0.6100105532818432,0.5078879423877185,-0.7399540543556213,0.6203244924545288,-0.2601260244846344,0,0,0,-1,-1,66782.51853550001,unknown,2,2025-04-18T12:32:53.690+03:00,2025-04-17T15:44:39.500+03:00,7653,1.147938,0,0,6301.398,4,10,2025-04-18T12:29:40.242+03:00,766661589.2645069,0,110.88,100.5253,1,0.4,2025-04-18T12:33:02.545+03:00,80,1.333333333333333,2025-04-18T08:51:18.885+03:00,0.03057091307199995,1
2025-04-18T12:33:09.662+03:00,1744968787.160457,40.95364477741025,29.14099323588287,92.07828,-1,-1,-1,-1,30,31.71544983042259,-9999,66798.45922437501,-0.7347412109375,0.617828369140625,-0.2625885009765625,66798.44914937501,1.270168555834406,-1.232507864832433,-0.6691039028802016,0.009136592969298363,0.00496573792770505,-0.006563049275428057,-0.0008916854858398438,-0.001356363296508789,-0.004990577697753906,XArbitraryZVertical,0.1081720357425219,-0.5984495441048611,0.6100523361443128,0.5079303845327402,-0.7399226427078247,0.6202833652496338,-0.2603138983249664,0,0,0,-1,-1,66782.51853550001,unknown,2,2025-04-18T12:32:53.690+03:00,2025-04-17T15:44:39.500+03:00,7653,1.147938,0,0,6301.398,4,10,2025-04-18T12:29:40.242+03:00,766661589.2645069,0,110.88,100.5253,1,0.4,2025-04-18T12:33:02.545+03:00,80,1.333333333333333,2025-04-18T08:51:18.885+03:00,0.03057091307199995,1
2025-04-18T12:33:09.676+03:00,1744968787.160457,40.95364477741025,29.14099323588287,92.07828,-1,-1,-1,-1,30,31.71544983042259,-9999,66798.469300375,-0.722686767578125,0.616668701171875,-0.2562713623046875,66798.45922437501,1.270276268534241,-1.232391518836511,-0.6690913336404086,0.005644523538649082,0.0002073352225124836,-0.008753033354878426,0.001618325710296631,-0.001666843891143799,-0.002872556447982788,XArbitraryZVertical,0.1081733679933146,-0.5984122540989597,0.6100842195462631,0.5079357778517095,-0.7398996949195862,0.6202734708786011,-0.2604025900363922,0,0,0,-1,-1,66782.51853550001,unknown,2,2025-04-18T12:32:53.690+03:00,2025-04-17T15:44:39.500+03:00,7653,1.147938,0,0,6301.398,4,10,2025-04-18T12:29:40.242+03:00,766661589.2645069,0,110.88,100.5253,1,0.4,2025-04-18T12:33:02.545+03:00,80,1.333333333333333,2025-04-18T08:51:18.885+03:00,0.03057091307199995,1
2025-04-18T12:33:09.684+03:00,1744968787.160457,40.95364477741025,29.14099323588287,92.07828,-1,-1,-1,-1,30,31.71544983042259,-9999,66798.479375375,-0.7392578125,0.6247100830078125,-0.2581939697265625,66798.469300375,1.270328382439587,-1.232272522692344,-0.6689971510819008,0.003178436309099197,0.01281127706170082,-0.006008379627019167,0.01859492063522339,-0.003439366817474365,0.003277391195297241,XArbitraryZVertical,0.1081872526826309,-0.5983648787889081,0.610090694010899,0.5079806789830413,-0.7399236559867859,0.6201996207237244,-0.2605099678039551,0,0,0,-1,-1,66782.51853550001,unknown,2,2025-04-18T12:32:53.690+03:00,2025-04-17T15:44:39.500+03:00,7653,1.147938,0,0,6301.398,4,10,2025-04-18T12:29:40.242+03:00,766661589.2645069,0,110.88,100.5253,1,0.4,2025-04-18T12:33:02.545+03:00,80,1.333333333333333,2025-04-18T08:51:18.885+03:00,0.03057091307199995,1
2025-04-18T12:33:09.692+03:00,1744968787.160457,40.95364477741025,29.14099323588287,92.07828,-1,-1,-1,-1,30,31.71544983042259,-9999,66798.489451375,-0.7325286865234375,0.618255615234375,-0.2612762451171875,66798.479375375,1.270355138659663,-1.232145774372315,-0.6689423507033671,0.004814282990992069,0.007976974360644817,-0.007066919468343258,0.002053439617156982,0.004110991954803467,0.002726316452026367,XArbitraryZVertical,0.1081766760062443,-0.5983228881086931,0.6100966619759353,0.5080252336383655,-0.7399227023124695,0.6201566457748413,-0.2606150507926941,0,0,0,-1,-1,66782.51853550001,unknown,2,2025-04-18T12:32:53.690+03:00,2025-04-17T15:44:39.500+03:00,7653,1.147938,0,0,6301.398,4,10,2025-04-18T12:29:40.242+03:00,766661589.2645069,0,110.88,100.5253,1,0.4,2025-04-18T12:33:02.545+03:00,80,1.333333333333333,2025-04-18T08:51:18.885+03:00,0.03057091307199995,1
2025-04-18T12:33:09.702+03:00,1744968787.160457,40.95364477741025,29.14099323588287,92.07828,-1,-1,-1,-1,30,31.71544983042259,-9999,66798.499526375,-0.724822998046875,0.622406005859375,-0.2653350830078125,66798.489451375,1.27036704371962,-1.232091429626686,-0.6689099671571272,0.00448990985751152,0.002733476459980011,-0.006108714267611504,0.005964457988739014,-0.0005481243133544922,-0.0006142556667327881,XArbitraryZVertical,0.1081755325910768,-0.5983035059127475,0.6100980857329408,0.5080465874699444,-0.7399274706840515,0.620131254196167,-0.2606619298458099,0,0,0,-1,-1,66782.51853550001,unknown,2,2025-04-18T12:32:53.690+03:00,2025-04-17T15:44:39.500+03:00,7653,1.147938,0,0,6301.398,4,10,2025-04-18T12:29:40.242+03:00,766661589.2645069,0,110.88,100.5253,1,0.4,2025-04-18T12:33:02.545+03:00,80,1.333333333333333,2025-04-18T08:51:18.885+03:00,0.03057091307199995,1
2025-04-18T12:33:09.713+03:00,1744968787.160457,40.95364477741025,29.14099323588287,92.07828,-1,-1,-1,-1,30,31.71544983042259,-9999,66798.50960237501,-0.730560302734375,0.6309051513671875,-0.2685546875,66798.499526375,1.27041091528984,-1.232062823016179,-0.6688248829212933,0.00990305095911026,0.002269553951919079,-0.0036635329015553,0.01503998041152954,0.0001443028450012207,-0.003428936004638672,XArbitraryZVertical,0.1082111009587849,-0.5982808974720094,0.6100988472910152,0.5080647667892945,-0.7399698495864868,0.6200644969940186,-0.2607006430625916,0,0,0,-1,-1,66782.51853550001,unknown,2,2025-04-18T12:32:53.690+03:00,2025-04-17T15:44:39.500+03:00,7653,1.147938,0,0,6301.398,4,10,2025-04-18T12:29:40.242+03:00,766661589.2645069,0,110.88,100.5253,1,0.4,2025-04-18T12:33:02.545+03:00,80,1.333333333333333,2025-04-18T08:51:18.885+03:00,0.03057091307199995,1
2025-04-18T12:33:09.723+03:00,1744968787.160457,40.95364477741025,29.14099323588287,92.07828,-1,-1,-1,-1,30,31.71544983042259,-9999,66798.519678375,-0.7319488525390625,0.6258544921875,-0.27130126953125,66798.50960237501,1.270532151215584,-1.23202710786991,-0.6687333280920817,0.01554868556559086,-0.00548503827303648,-0.004274994600564241,0.009179115295410156,0.01056164503097534,-0.007503479719161987,XArbitraryZVertical,0.1082699780326792,-0.5982513005069814,0.6101187360464091,0.5080633263332764,-0.7400141954421997,0.6199926733970642,-0.2607459723949432,0,0,0,-1,-1,66782.51853550001,unknown,2,2025-04-18T12:32:53.690+03:00,2025-04-17T15:44:39.500+03:00,7653,1.147938,0,0,6301.398,4,10,2025-04-18T12:29:40.242+03:00,766661589.2645069,0,110.88,100.5253,1,0.4,2025-04-18T12:33:02.545+03:00,80,1.333333333333333,2025-04-18T08:51:18.885+03:00,0.03057091307199995,1
2025-04-18T12:33:09.733+03:00,1744968787.160457,40.95364477741025,29.14099323588287,92.07828,-1,-1,-1,-1,30,31.71544983042259,-9999,66798.529753375,-0.7366790771484375,0.629913330078125,-0.2691802978515625,66798.519678375,1.270722093828831,-1.231938521947606,-0.668674955060411,0.02027406543493271,-0.004288613330572844,-0.008915619924664497,0.007908344268798828,0.006106078624725342,-0.0108591616153717,XArbitraryZVertical,0.1083211809616724,-0.5982096150739148,0.6101636035363094,0.5080475700485459,-0.7400251626968384,0.6199468374252319,-0.2608235478401184,0,0,0,-1,-1,66782.51853550001,unknown,2,2025-04-18T12:32:53.690+03:00,2025-04-17T15:44:39.500+03:00,7653,1.147938,0,0,6301.398,4,10,2025-04-18T12:29:40.242+03:00,766661589.2645069,0,110.88,100.5253,1,0.4,2025-04-18T12:33:02.545+03:00,80,1.333333333333333,2025-04-18T08:51:18.885+03:00,0.03057091307199995,1
2025-04-18T12:33:09.743+03:00,1744968787.160457,40.95364477741025,29.14099323588287,92.07828,-1,-1,-1,-1,30,31.71544983042259,-9999,66798.539829375,-0.738372802734375,0.6267242431640625,-0.260955810546875,66798.529753375,1.270936116498466,-1.231823455769205,-0.6685171469443425,0.02178327925503254,-0.0003500641323626041,-0.008292972110211849,0.004110097885131836,0.009327411651611328,-0.008895158767700195,XArbitraryZVertical,0.1084079630105092,-0.5981447235762349,0.6102020947408235,0.5080591458780266,-0.7400873303413391,0.6198230385780334,-0.260941207408905,0,0,0,-1,-1,66782.51853550001,unknown,2,2025-04-18T12:32:53.690+03:00,2025-04-17T15:44:39.500+03:00,7653,1.147938,0,0,6301.398,4,10,2025-04-18T12:29:40.242+03:00,766661589.2645069,0,110.88,100.5253,1,0.4,2025-04-18T12:33:02.545+03:00,80,1.333333333333333,2025-04-18T08:51:18.885+03:00,0.03057091307199995,1
2025-04-18T12:33:09.753+03:00,1744968787.160457,40.95364477741025,29.14099323588287,92.07828,-1,-1,-1,-1,30,31.71544983042259,-9999,66798.549904375,-0.7371978759765625,0.6190948486328125,-0.2575531005859375,66798.539829375,1.271119279570583,-1.231706921061276,-0.6683646440849293,0.01794712990522385,-0.0003438061103224754,-0.009807311929762363,0.00159001350402832,0.008165299892425537,-0.0006903707981109619,XArbitraryZVertical,0.1084831315524697,-0.5980819233754983,0.6102335820548683,0.5080790788320563,-0.7401459217071533,0.6197033524513245,-0.2610588371753693,0,0,0,-1,-1,66782.51853550001,unknown,2,2025-04-18T12:32:53.690+03:00,2025-04-17T15:44:39.500+03:00,7653,1.147938,0,0,6301.398,4,10,2025-04-18T12:29:40.242+03:00,766661589.2645069,0,110.88,100.5253,1,0.4,2025-04-18T12:33:02.545+03:00,80,1.333333333333333,2025-04-18T08:51:18.885+03:00,0.03057091307199995,1
2025-04-18T12:33:09.763+03:00,1744968787.160457,40.95364477741025,29.14099323588287,92.07828,-1,-1,-1,-1,30,31.71544983042259,-9999,66798.55998037501,-0.737518310546875,0.617889404296875,-0.256591796875,66798.549904375,1.271329818392474,-1.231572042384279,-0.6682487022679907,0.01917324960231781,-0.0003358167596161366,-0.007062392309308052,0.002294003963470459,-0.000502169132232666,0.003446459770202637,XArbitraryZVertical,0.1085473710696181,-0.5980185245339876,0.6102781368356595,0.5080866098716328,-0.7401785850524902,0.6196123361587524,-0.2611826360225677,0,0,0,-1,-1,66782.51853550001,unknown,2,2025-04-18T12:32:53.690+03:00,2025-04-17T15:44:39.500+03:00,7653,1.147938,0,0,6301.398,4,10,2025-04-18T12:29:40.242+03:00,766661589.2645069,0,110.88,100.5253,1,0.4,2025-04-18T12:33:02.545+03:00,80,1.333333333333333,2025-04-18T08:51:18.885+03:00,0.03057091307199995,1
2025-04-18T12:33:09.773+03:00,1744968787.160457,40.95364477741025,29.14099323588287,92.07828,-1,-1,-1,-1,30,31.71544983042259,-9999,66798.57005537501,-0.7379302978515625,0.6177978515625,-0.257415771484375,66798.55998037501,1.271568935130364,-1.231418407329475,-0.6681408117695073,0.02613854594528675,0.001874407753348351,-0.005012257490307093,0.002561032772064209,-0.001699209213256836,0.00454375147819519,XArbitraryZVertical,0.1086114868433026,-0.5979500258576048,0.6103321091897271,0.5080887921479063,-0.7402015924453735,0.6195276379585266,-0.2613186240196228,0,0,0,-1,-1,66782.51853550001,unknown,2,2025-04-18T12:32:53.690+03:00,2025-04-17T15:44:39.500+03:00,7653,1.147938,0,0,6301.398,4,10,2025-04-18T12:29:40.242+03:00,766661589.2645069,0,110.88,100.5253,1,0.4,2025-04-18T12:33:02.545+03:00,80,1.333333333333333,2025-04-18T08:51:18.885+03:00,0.03057091307199995,1
2025-04-18T12:33:09.783+03:00,1744968787.160457,40.95364477741025,29.14099323588287,92.07828,-1,-1,-1,-1,30,31.71544983042259,-9999,66798.580131375,-0.7328643798828125,0.6213836669921875,-0.259918212890625,66798.57005537501,1.271862372834964,-1.231212830620035,-0.6680490894570393,0.02242370322346687,0.001855765469372272,-0.0007389492820948362,0.001599609851837158,-0.001444160938262939,0.004684329032897949,XArbitraryZVertical,0.1086701269269347,-0.5978678475517528,0.6104049866122453,0.508085311858372,-0.7402012944221497,0.6194556355476379,-0.2614896893501282,0,0,0,-1,-1,66782.51853550001,unknown,2,2025-04-18T12:32:53.690+03:00,2025-04-17T15:44:39.500+03:00,7653,1.147938,0,0,6301.398,4,10,2025-04-18T12:29:40.242+03:00,766661589.2645069,0,110.88,100.5253,1,0.4,2025-04-18T12:33:02.545+03:00,80,1.333333333333333,2025-04-18T08:51:18.885+03:00,0.03057091307199995,1
2025-04-18T12:33:09.794+03:00,1744968787.160457,40.95364477741025,29.14099323588287,92.07828,-1,-1,-1,-1,30,31.71544983042259,-9999,66798.59020637501,-0.724456787109375,0.6199798583984375,-0.2592926025390625,66798.580131375,1.272132120901786,-1.231030167897154,-0.6680253426507001,0.01677274145185947,-0.0047017359174788,0.002044986002147198,0.006723165512084961,0.001122772693634033,0.002367764711380005,XArbitraryZVertical,0.1087036585888251,-0.5978031457110348,0.6104801098778173,0.508064141808409,-0.740167498588562,0.6194369792938232,-0.2616298198699951,0,0,0,-1,-1,66782.51853550001,unknown,2,2025-04-18T12:32:53.690+03:00,2025-04-17T15:44:39.500+03:00,7653,1.147938,0,0,6301.398,4,10,2025-04-18T12:29:40.242+03:00,766661589.2645069,0,110.88,100.5253,1,0.4,2025-04-18T12:33:02.545+03:00,80,1.333333333333333,2025-04-18T08:51:18.885+03:00,0.03057091307199995,1
2025-04-18T12:33:09.803+03:00,1744968787.160457,40.95364477741025,29.14099323588287,92.07828,-1,-1,-1,-1,30,31.71544983042259,-9999,66798.600282375,-0.723236083984375,0.6203155517578125,-0.259307861328125,66798.59020637501,1.272319291385769,-1.230964641551255,-0.6680419366652246,0.009836272336542606,-0.01029810309410095,0.001276131486520171,0.01534807682037354,0.0008502602577209473,0.0017566978931427,XArbitraryZVertical,0.1087335752091034,-0.5977788736095518,0.6105335453210433,0.5080219459096809,-0.7401405572891235,0.6194500327110291,-0.2616748511791229,0,0,0,-1,-1,66782.51853550001,unknown,2,2025-04-18T12:32:53.690+03:00,2025-04-17T15:44:39.500+03:00,7653,1.147938,0,0,6301.398,4,10,2025-04-18T12:29:40.242+03:00,766661589.2645069,0,110.88,100.5253,1,0.4,2025-04-18T12:33:02.545+03:00,80,1.333333333333333,2025-04-18T08:51:18.885+03:00,0.03057091307199995,1
2025-04-18T12:33:09.813+03:00,1744968787.160457,40.95364477741025,29.14099323588287,92.07828,-1,-1,-1,-1,30,31.71544983042259,-9999,66798.610357375,-0.7292633056640625,0.6226654052734375,-0.2615203857421875,66798.600282375,1.272448551384317,-1.231003017101074,-0.6680563118667179,0.00281717861071229,-0.01624048128724098,0.002086764434352517,0.01693665981292725,0.0002133846282958984,0.002244114875793457,XArbitraryZVertical,0.1087786281382346,-0.5977837871553843,0.6105662969337959,0.5079672283317328,-0.740142285823822,0.6194612979888916,-0.2616434991359711,0,0,0,-1,-1,66782.51853550001,unknown,2,2025-04-18T12:32:53.690+03:00,2025-04-17T15:44:39.500+03:00,7653,1.147938,0,0,6301.398,4,10,2025-04-18T12:29:40.242+03:00,766661589.2645069,0,110.88,100.5253,1,0.4,2025-04-18T12:33:02.545+03:00,80,1.333333333333333,2025-04-18T08:51:18.885+03:00,0.03057091307199995,1
2025-04-18T12:33:09.823+03:00,1744968787.160457,40.95364477741025,29.14099323588287,92.07828,-1,-1,-1,-1,30,31.71544983042259,-9999,66798.62043337501,-0.734649658203125,0.6213226318359375,-0.2595672607421875,66798.610357375,1.272537496671274,-1.231103290812172,-0.6680864805614013,0.00514930859208107,-0.02024134807288647,0.0009708999423310161,0.01215392351150513,0.002524256706237793,-0.0003692805767059326,XArbitraryZVertical,0.1088248399206033,-0.5978090421345515,0.6105876587907411,0.5079017524488233,-0.7401507496833801,0.6194850206375122,-0.2615630030632019,0,0,0,-1,-1,66782.51853550001,unknown,2,2025-04-18T12:32:53.690+03:00,2025-04-17T15:44:39.500+03:00,7653,1.147938,0,0,6301.398,4,10,2025-04-18T12:29:40.242+03:00,766661589.2645069,0,110.88,100.5253,1,0.4,2025-04-18T12:33:02.545+03:00,80,1.333333333333333,2025-04-18T08:51:18.885+03:00,0.03057091307199995,1
2025-04-18T12:33:09.833+03:00,1744968787.160457,40.95364477741025,29.14099323588287,92.07828,-1,-1,-1,-1,30,31.71544983042259,-9999,66798.630508375,-0.7420196533203125,0.6224517822265625,-0.2624969482421875,66798.62043337501,1.272645896815591,-1.231255105661895,-0.6680897157124935,0.01474893838167191,-0.02202806249260902,-0.001073475694283843,0.0063934326171875,0.002369165420532227,0.001013040542602539,XArbitraryZVertical,0.1089023738232011,-0.5978421823241961,0.6106073698336605,0.5078225041284311,-0.7401885986328125,0.6194875240325928,-0.2614499926567078,0,0,0,-1,-1,66782.51853550001,unknown,2,2025-04-18T12:32:53.690+03:00,2025-04-17T15:44:39.500+03:00,7653,1.147938,0,0,6301.398,4,10,2025-04-18T12:29:40.242+03:00,766661589.2645069,0,110.88,100.5253,1,0.4,2025-04-18T12:33:02.545+03:00,80,1.333333333333333,2025-04-18T08:51:18.885+03:00,0.03057091307199995,1
2025-04-18T12:33:09.843+03:00,1744968787.160457,40.95364477741025,29.14099323588287,92.07828,-1,-1,-1,-1,30,31.71544983042259,-9999,66798.64058437501,-0.7430572509765625,0.6244354248046875,-0.2631988525390625,66798.630508375,1.272844371548114,-1.231338447132398,-0.6680443125982336,0.02015302516520023,-0.01705780439078808,0.003256824100390077,-0.0007909536361694336,0.002404868602752686,-0.001022905111312866,XArbitraryZVertical,0.1090037492334713,-0.597845575990515,0.6106468667972067,0.5077493484514168,-0.7402369976043701,0.6194518804550171,-0.2613976895809174,0,0,0,-1,-1,66782.51853550001,unknown,2,2025-04-18T12:32:53.690+03:00,2025-04-17T15:44:39.500+03:00,7653,1.147938,0,0,6301.398,4,10,2025-04-18T12:29:40.242+03:00,766661589.2645069,0,110.88,100.5253,1,0.4,2025-04-18T12:33:02.545+03:00,80,1.333333333333333,2025-04-18T08:51:18.885+03:00,0.03057091307199995,1
2025-04-18T12:33:09.853+03:00,1744968787.160457,40.95364477741025,29.14099323588287,92.07828,-1,-1,-1,-1,30,31.71544983042259,-9999,66798.65065937501,-0.73785400390625,0.6181640625,-0.2596588134765625,66798.64058437501,1.273138822299638,-1.231337042962877,-0.6680006310766786,0.02250299975275993,-0.01662370935082436,0.005906003527343273,-0.002901971340179443,0.005704522132873535,-0.002111494541168213,XArbitraryZVertical,0.1091073519825214,-0.5978224783860796,0.6107155843122263,0.5076716104807009,-0.7402621507644653,0.6194176077842712,-0.261407732963562,0,0,0,-1,-1,66782.51853550001,unknown,2,2025-04-18T12:32:53.690+03:00,2025-04-17T15:44:39.500+03:00,7653,1.147938,0,0,6301.398,4,10,2025-04-18T12:29:40.242+03:00,766661589.2645069,0,110.88,100.5253,1,0.4,2025-04-18T12:33:02.545+03:00,80,1.333333333333333,2025-04-18T08:51:18.885+03:00,0.03057091307199995,1
2025-04-18T12:33:09.863+03:00,1744968787.160457,40.95364477741025,29.14099323588287,92.07828,-1,-1,-1,-1,30,31.71544983042259,-9999,66798.660735375,-0.73541259765625,0.6099395751953125,-0.256988525390625,66798.65065937501,1.273415550465014,-1.231336097144708,-0.6680135824404632,0.0185998696833849,-0.01595046184957027,0.009839492850005627,0.00140845775604248,-0.0006685853004455566,0.001014590263366699,XArbitraryZVertical,0.1091850254678891,-0.5978091184126098,0.6107876828520347,0.507583920922813,-0.7402543425559998,0.6194277405738831,-0.2614057660102844,0,0,0,-1,-1,66782.51853550001,unknown,2,2025-04-18T12:32:53.690+03:00,2025-04-17T15:44:39.500+03:00,7653,1.147938,0,0,6301.398,4,10,2025-04-18T12:29:40.242+03:00,766661589.2645069,0,110.88,100.5253,1,0.4,2025-04-18T12:33:02.545+03:00,80,1.333333333333333,2025-04-18T08:51:18.885+03:00,0.03057091307199995,1
2025-04-18T12:33:09.874+03:00,1744968787.160457,40.95364477741025,29.14099323588287,92.07828,-1,-1,-1,-1,30,31.71544983042259,-9999,66798.670810375,-0.726531982421875,0.61138916015625,-0.2547149658203125,66798.660735375,1.273634482239781,-1.231377385750902,-0.6681110976038992,0.006625365931540728,-0.021166130900383,0.01467452757060528,0.004185140132904053,-0.009656190872192383,0.004244536161422729,XArbitraryZVertical,0.1092273372235065,-0.5978225764962302,0.6108546128315698,0.5074784498223244,-0.7402082085609436,0.6195043325424194,-0.2613551020622253,0,0,0,-1,-1,66782.51853550001,unknown,2,2025-04-18T12:32:53.690+03:00,2025-04-17T15:44:39.500+03:00,7653,1.147938,0,0,6301.398,4,10,2025-04-18T12:29:40.242+03:00,766661589.2645069,0,110.88,100.5253,1,0.4,2025-04-18T12:33:02.545+03:00,80,1.333333333333333,2025-04-18T08:51:18.885+03:00,0.03057091307199995,1
2025-04-18T12:33:09.884+03:00,1744968787.160457,40.95364477741025,29.14099323588287,92.07828,-1,-1,-1,-1,30,31.71544983042259,-9999,66798.680886375,-0.728363037109375,0.613525390625,-0.25836181640625,66798.670810375,1.273764892850088,-1.231502405241475,-0.6683208215972033,0.0003887751081492752,-0.02079621702432632,0.02074041031301022,0.01245707273483276,-0.009347856044769287,0.005985617637634277,XArbitraryZVertical,0.1092276973554103,-0.5978792998175202,0.6109101781575141,0.5073445932490503,-0.7401182651519775,0.6196689605712891,-0.2612192928791046,0,0,0,-1,-1,66782.51853550001,unknown,2,2025-04-18T12:32:53.690+03:00,2025-04-17T15:44:39.500+03:00,7653,1.147938,0,0,6301.398,4,10,2025-04-18T12:29:40.242+03:00,766661589.2645069,0,110.88,100.5253,1,0.4,2025-04-18T12:33:02.545+03:00,80,1.333333333333333,2025-04-18T08:51:18.885+03:00,0.03057091307199995,1
2025-04-18T12:33:09.894+03:00,1744968787.160457,40.95364477741025,29.14099323588287,92.07828,-1,-1,-1,-1,30,31.71544983042259,-9999,66798.690961375,-0.737335205078125,0.6226959228515625,-0.264678955078125,66798.680886375,1.273899424535516,-1.231586054119991,-0.6685946640399891,0.001222744002006948,-0.01266145892441273,0.02673511952161789,0.01286822557449341,-0.00701451301574707,0.004036098718643188,XArbitraryZVertical,0.1091931382738646,-0.5979351062026241,0.6109779850075963,0.5072046332082509,-0.7399801015853882,0.6198838353157043,-0.2611009478569031,0,0,0,-1,-1,66782.51853550001,unknown,2,2025-04-18T12:32:53.690+03:00,2025-04-17T15:44:39.500+03:00,7653,1.147938,0,0,6301.398,4,10,2025-04-18T12:29:40.242+03:00,766661589.2645069,0,110.88,100.5253,1,0.4,2025-04-18T12:33:02.545+03:00,80,1.333333333333333,2025-04-18T08:51:18.885+03:00,0.03057091307199995,1
2025-04-18T12:33:09.904+03:00,1744968787.160457,40.95364477741025,29.14099323588287,92.07828,-1,-1,-1,-1,30,31.71544983042259,-9999,66798.70103737501,-0.7347412109375,0.6318359375,-0.2611541748046875,66798.690961375,1.27410444799079,-1.231574780445181,-0.668865684291901,0.0105573907494545,-0.01474218629300594,0.02887310460209846,0.003505825996398926,0.001622915267944336,-0.00313723087310791,XArbitraryZVertical,0.1091516867159834,-0.5979625544442194,0.6110684291213517,0.5070722884321727,-0.7398187518119812,0.6200965046882629,-0.2610533833503723,0,0,0,-1,-1,66782.51853550001,unknown,2,2025-04-18T12:32:53.690+03:00,2025-04-17T15:44:39.500+03:00,7653,1.147938,0,0,6301.398,4,10,2025-04-18T12:29:40.242+03:00,766661589.2645069,0,110.88,100.5253,1,0.4,2025-04-18T12:33:02.545+03:00,80,1.333333333333333,2025-04-18T08:51:18.885+03:00,0.03057091307199995,1
2025-04-18T12:33:09.914+03:00,1744968787.160457,40.95364477741025,29.14099323588287,92.07828,-1,-1,-1,-1,30,31.71544983042259,-9999,66798.71111237501,-0.7403564453125,0.6345977783203125,-0.25958251953125,66798.70103737501,1.27440240245021,-1.231512824192502,-0.6690846973353803,0.02053232491016388,-0.01066535338759422,0.02338289842009544,0.004902660846710205,0.01135408878326416,-0.001793891191482544,XArbitraryZVertical,0.1091416325322535,-0.5979641324548233,0.611177910216767,0.5069405789356083,-0.73967444896698,0.6202682852745056,-0.2610540091991425,0,0,0,-1,-1,66782.51853550001,unknown,2,2025-04-18T12:32:53.690+03:00,2025-04-17T15:44:39.500+03:00,7653,1.147938,0,0,6301.398,4,10,2025-04-18T12:29:40.242+03:00,766661589.2645069,0,110.88,100.5253,1,0.4,2025-04-18T12:33:02.545+03:00,80,1.333333333333333,2025-04-18T08:51:18.885+03:00,0.03057091307199995,1
2025-04-18T12:33:09.924+03:00,1744968787.160457,40.95364477741025,29.14099323588287,92.07828,-1,-1,-1,-1,30,31.71544983042259,-9999,66798.721188375,-0.75128173828125,0.641204833984375,-0.2668609619140625,66798.71111237501,1.274843723739049,-1.231279677940358,-0.6691891378422711,0.03449288383126259,0.002355640521273017,0.02000787295401096,0.00128638744354248,0.013713538646698,0.002171695232391357,XArbitraryZVertical,0.1091640949078365,-0.5978969631758398,0.6113170550667042,0.506847100169639,-0.7395524382591248,0.620350182056427,-0.2612048387527466,0,0,0,-1,-1,66782.51853550001,unknown,2,2025-04-18T12:32:53.690+03:00,2025-04-17T15:44:39.500+03:00,7653,1.147938,0,0,6301.398,4,10,2025-04-18T12:29:40.242+03:00,766661589.2645069,0,110.88,100.5253,1,0.4,2025-04-18T12:33:02.545+03:00,80,1.333333333333333,2025-04-18T08:51:18.885+03:00,0.03057091307199995,1
2025-04-18T12:33:09.934+03:00,1744968787.160457,40.95364477741025,29.14099323588287,92.07828,-1,-1,-1,-1,30,31.71544983042259,-9999,66798.731263375,-0.7412872314453125,0.6327972412109375,-0.2658233642578125,66798.721188375,1.275391271970583,-1.23090685109081,-0.6692338038815011,0.04218602553009987,0.001288578379899263,0.01463870890438557,-0.0108153223991394,0.02059072256088257,-0.004184186458587646,XArbitraryZVertical,0.1091974413583728,-0.597779445366311,0.6114823840051103,0.5067790767186972,-0.7394288778305054,0.6203852295875549,-0.261471301317215,0,0,0,-1,-1,66782.51853550001,unknown,2,2025-04-18T12:32:53.690+03:00,2025-04-17T15:44:39.500+03:00,7653,1.147938,0,0,6301.398,4,10,2025-04-18T12:29:40.242+03:00,766661589.2645069,0,110.88,100.5253,1,0.4,2025-04-18T12:33:02.545+03:00,80,1.333333333333333,2025-04-18T08:51:18.885+03:00,0.03057091307199995,1
2025-04-18T12:33:09.944+03:00,1744968787.160457,40.95364477741025,29.14099323588287,92.07828,-1,-1,-1,-1,30,31.71544983042259,-9999,66798.741339375,-0.735260009765625,0.62469482421875,-0.2660369873046875,66798.731263375,1.275915688551881,-1.230603749997401,-0.6692229505679904,0.03975855186581612,-0.001792964991182089,0.009628769941627979,-0.004693150520324707,0.01377856731414795,-0.004797041416168213,XArbitraryZVertical,0.1092654514934142,-0.597672338836066,0.6116302988993263,0.5067122751919567,-0.7393559217453003,0.6203767061233521,-0.2616976797580719,0,0,0,-1,-1,66782.51853550001,unknown,2,2025-04-18T12:32:53.690+03:00,2025-04-17T15:44:39.500+03:00,7653,1.147938,0,0,6301.398,4,10,2025-04-18T12:29:40.242+03:00,766661589.2645069,0,110.88,100.5253,1,0.4,2025-04-18T12:33:02.545+03:00,80,1.333333333333333,2025-04-18T08:51:18.885+03:00,0.03057091307199995,1
2025-04-18T12:33:09.956+03:00,1744968787.160457,40.95364477741025,29.14099323588287,92.07828,-1,-1,-1,-1,30,31.71544983042259,-9999,66798.751414375,-0.7393646240234375,0.627410888671875,-0.2683868408203125,66798.741339375,1.276459883071367,-1.230250368484279,-0.669152533126613,0.04388725012540817,0.004677717108279467,0.008030607365071774,0.004227578639984131,0.004342854022979736,-0.003727734088897705,XArbitraryZVertical,0.1093457927089482,-0.5975422559526196,0.6117776925264089,0.5066703578566698,-0.7393045425415039,0.62032151222229,-0.26197350025177,0,0,0,-1,-1,66782.51853550001,unknown,2,2025-04-18T12:32:53.690+03:00,2025-04-17T15:44:39.500+03:00,7653,1.147938,0,0,6301.398,4,10,2025-04-18T12:29:40.242+03:00,766661589.2645069,0,110.88,100.5253,1,0.4,2025-04-18T12:33:02.545+03:00,80,1.333333333333333,2025-04-18T08:51:18.885+03:00,0.03057091307199995,1
2025-04-18T12:33:09.964+03:00,1744968787.160457,40.95364477741025,29.14099323588287,92.07828,-1,-1,-1,-1,30,31.71544983042259,-9999,66798.76149037501,-0.725311279296875,0.6176605224609375,-0.2646484375,66798.751414375,1.276991498738003,-1.229935906858686,-0.6691040501109096,0.038351871073246,-0.004896612837910652,0.01000613998621702,-9.894371032714844e-05,0.007905662059783936,-0.006445407867431641,XArbitraryZVertical,0.1094261426394219,-0.5974260619803121,0.6119228225184202,0.5066148205388488,-0.7392504811286926,0.6202834844589233,-0.2622160315513611,0,0,0,-1,-1,66782.51853550001,unknown,2,2025-04-18T12:32:53.690+03:00,2025-04-17T15:44:39.500+03:00,7653,1.147938,0,0,6301.398,4,10,2025-04-18T12:29:40.242+03:00,766661589.2645069,0,110.88,100.5253,1,0.4,2025-04-18T12:33:02.545+03:00,80,1.333333333333333,2025-04-18T08:51:18.885+03:00,0.03057091307199995,1
2025-04-18T12:33:09.975+03:00,1744968787.160457,40.95364477741025,29.14099323588287,92.07828,-1,-1,-1,-1,30,31.71544983042259,-9999,66798.77156537501,-0.7244873046875,0.6112060546875,-0.262725830078125,66798.76149037501,1.277458327734165,-1.229698349821825,-0.6690883951320136,0.03230283036828041,-0.00387469120323658,0.008792038075625896,0.01200920343399048,-0.001252532005310059,-0.003107935190200806,XArbitraryZVertical,0.1094985821292278,-0.5973379252727622,0.6120518895272233,0.5065472816153535,-0.7391974329948425,0.6202712059020996,-0.2623949348926544,0,0,0,-1,-1,66782.51853550001,unknown,2,2025-04-18T12:32:53.690+03:00,2025-04-17T15:44:39.500+03:00,7653,1.147938,0,0,6301.398,4,10,2025-04-18T12:29:40.242+03:00,766661589.2645069,0,110.88,100.5253,1,0.4,2025-04-18T12:33:02.545+03:00,80,1.333333333333333,2025-04-18T08:51:18.885+03:00,0.03057091307199995,1
2025-04-18T12:33:09.990+03:00,1744968787.160457,40.95364477741025,29.14099323588287,92.07828,-1,-1,-1,-1,30,31.71544983042259,-9999,66798.78164262501,-0.7330780029296875,0.612396240234375,-0.2629852294921875,66798.77156537501,1.277854470439941,-1.229475465159506,-0.669119648817237,0.02276072651147842,-0.00231168232858181,0.01486883871257305,0.01535040140151978,-0.009455859661102295,-0.0009660720825195312,XArbitraryZVertical,0.1095372565118344,-0.59726460320777,0.6121687593420951,0.5064840843442132,-0.7391206026077271,0.6202957034111023,-0.2625531554222107,0,0,0,-1,-1,66782.51853550001,unknown,2,2025-04-18T12:32:53.690+03:00,2025-04-17T15:44:39.500+03:00,7653,1.147938,0,0,6301.398,4,10,2025-04-18T12:29:40.242+03:00,766661589.2645069,0,110.88,100.5253,1,0.4,2025-04-18T12:33:02.545+03:00,80,1.333333333333333,2025-04-18T08:51:18.885+03:00,0.03057091307199995,1
2025-04-18T12:33:09.995+03:00,1744968787.160457,40.95364477741025,29.14099323588287,92.07828,-1,-1,-1,-1,30,31.71544983042259,-9999,66798.791718625,-0.73651123046875,0.61083984375,-0.2611083984375,66798.78164262501,1.278127822382971,-1.229351182830422,-0.6692454800083006,0.01494980789721012,-0.006590982433408499,0.01595187932252884,0.006668746471405029,-0.007769286632537842,-0.0004425942897796631,XArbitraryZVertical,0.1095348064182689,-0.5972375566642417,0.6122622337022091,0.5064034136898606,-0.7390143275260925,0.6203944087028503,-0.2626188397407532,0,0,0,-1,-1,66782.51853550001,unknown,2,2025-04-18T12:32:53.690+03:00,2025-04-17T15:44:39.500+03:00,7653,1.147938,0,0,6301.398,4,10,2025-04-18T12:29:40.242+03:00,766661589.2645069,0,110.88,100.5253,1,0.4,2025-04-18T12:33:02.545+03:00,80,1.333333333333333,2025-04-18T08:51:18.885+03:00,0.03057091307199995,1
2025-04-18T12:33:10.005+03:00,1744968787.160457,40.95364477741025,29.14099323588287,92.07828,-1,-1,-1,-1,30,31.71544983042259,-9999,66798.80179362501,-0.749237060546875,0.6204986572265625,-0.2604522705078125,66798.791718625,1.278358081211262,-1.229267920584908,-0.6694032645081228,0.01391250640153885,-0.0001655737869441509,0.01541711669415236,0.003380835056304932,-0.01034963130950928,0.0007000565528869629,XArbitraryZVertical,0.1095202796935111,-0.5972281824049842,0.6123469500388927,0.5063152229146803,-0.7389002442359924,0.6205181479454041,-0.2626475989818573,0,0,0,-1,-1,66782.51853550001,unknown,2,2025-04-18T12:32:53.690+03:00,2025-04-17T15:44:39.500+03:00,7653,1.147938,0,0,6301.398,4,10,2025-04-18T12:29:40.242+03:00,766661589.2645069,0,110.88,100.5253,1,0.4,2025-04-18T12:33:02.545+03:00,80,1.333333333333333,2025-04-18T08:51:18.885+03:00,0.03057091307199995,1
2025-04-18T12:33:10.015+03:00,1744968787.160457,40.95364477741025,29.14099323588287,92.07828,-1,-1,-1,-1,30,31.71544983042259,-9999,66798.811869625,-0.7526702880859375,0.6273651123046875,-0.26177978515625,66798.80179362501,1.278639031722741,-1.229086798126125,-0.6695072862258573,0.02118300274014473,0.001810558140277863,0.01391273085027933,-0.008537888526916504,-0.002481400966644287,0.001834571361541748,XArbitraryZVertical,0.1095106152791487,-0.597182984235711,0.6124423920180322,0.5062552084535553,-0.7387918829917908,0.6205996870994568,-0.262759804725647,0,0,0,-1,-1,66782.51853550001,unknown,2,2025-04-18T12:32:53.690+03:00,2025-04-17T15:44:39.500+03:00,7653,1.147938,0,0,6301.398,4,10,2025-04-18T12:29:40.242+03:00,766661589.2645069,0,110.88,100.5253,1,0.4,2025-04-18T12:33:02.545+03:00,80,1.333333333333333,2025-04-18T08:51:18.885+03:00,0.03057091307199995,1
2025-04-18T12:33:10.025+03:00,1744968787.160457,40.95364477741025,29.14099323588287,92.07828,-1,-1,-1,-1,30,31.71544983042259,-9999,66798.821944625,-0.746337890625,0.6273040771484375,-0.2669677734375,66798.811869625,1.278960175326479,-1.228837388888302,-0.6695761369903042,0.0228328313678503,0.006324882619082928,0.009986433200538158,-0.0140911340713501,0.006604552268981934,0.001287370920181274,XArbitraryZVertical,0.1095049447054264,-0.5971128959867977,0.6125468671391047,0.5062126170437196,-0.7386859655380249,0.6206536889076233,-0.2629297077655792,0,0,0,-1,-1,66782.51853550001,unknown,2,2025-04-18T12:32:53.690+03:00,2025-04-17T15:44:39.500+03:00,7653,1.147938,0,0,6301.398,4,10,2025-04-18T12:29:40.242+03:00,766661589.2645069,0,110.88,100.5253,1,0.4,2025-04-18T12:33:02.545+03:00,80,1.333333333333333,2025-04-18T08:51:18.885+03:00,0.03057091307199995,1
2025-04-18T12:33:10.035+03:00,1744968787.160457,40.95364477741025,29.14099323588287,92.07828,-1,-1,-1,-1,30,31.71544983042259,-9999,66798.83202062501,-0.7379913330078125,0.63262939453125,-0.2702789306640625,66798.821944625,1.279357266019736,-1.228513351049828,-0.6695736872847051,0.03490906953811646,0.00835168082267046,0.005245140288025141,-0.009063243865966797,0.006194591522216797,-0.003157258033752441,XArbitraryZVertical,0.1095251176685189,-0.5970087579501095,0.612664773995154,0.5061884269626428,-0.7386022210121155,0.6206517815589905,-0.2631695866584778,0,0,0,-1,-1,66782.51853550001,unknown,2,2025-04-18T12:32:53.690+03:00,2025-04-17T15:44:39.500+03:00,7653,1.147938,0,0,6301.398,4,10,2025-04-18T12:29:40.242+03:00,766661589.2645069,0,110.88,100.5253,1,0.4,2025-04-18T12:33:02.545+03:00,80,1.333333333333333,2025-04-18T08:51:18.885+03:00,0.03057091307199995,1
2025-04-18T12:33:10.045+03:00,1744968787.160457,40.95364477741025,29.14099323588287,92.07828,-1,-1,-1,-1,30,31.71544983042259,-9999,66798.842095625,-0.730499267578125,0.636505126953125,-0.272491455078125,66798.83202062501,1.279838428149777,-1.228095997265004,-0.6694985632110246,0.03593997657299042,0.01362793613225222,0.003407292999327183,-0.0001569986343383789,0.01048022508621216,-0.007182091474533081,XArbitraryZVertical,0.1095683156216185,-0.5968651594960764,0.6127990272423169,0.5061860523956286,-0.7385363578796387,0.6205928921699524,-0.263493537902832,0,0,0,-1,-1,66782.51853550001,unknown,2,2025-04-18T12:32:53.690+03:00,2025-04-17T15:44:39.500+03:00,7653,1.147938,0,0,6301.398,4,10,2025-04-18T12:29:40.242+03:00,766661589.2645069,0,110.88,100.5253,1,0.4,2025-04-18T12:33:02.545+03:00,80,1.333333333333333,2025-04-18T08:51:18.885+03:00,0.03057091307199995,1
2025-04-18T12:33:10.055+03:00,1744968787.160457,40.95364477741025,29.14099323588287,92.07828,-1,-1,-1,-1,30,31.71544983042259,-9999,66798.85217162501,-0.7234649658203125,0.6260528564453125,-0.271636962890625,66798.842095625,1.280315075170159,-1.227662749134243,-0.6694356665537705,0.03564629703760147,0.01038533821702003,0.004256741609424353,0.006647229194641113,0.01646518707275391,-0.008207052946090698,XArbitraryZVertical,0.1096008396614053,-0.5967196691813732,0.6129347239419899,0.5061861768073972,-0.7384588122367859,0.6205435395240784,-0.2638265788555145,0,0,0,-1,-1,66782.51853550001,unknown,2,2025-04-18T12:32:53.690+03:00,2025-04-17T15:44:39.500+03:00,7653,1.147938,0,0,6301.398,4,10,2025-04-18T12:29:40.242+03:00,766661589.2645069,0,110.88,100.5253,1,0.4,2025-04-18T12:33:02.545+03:00,80,1.333333333333333,2025-04-18T08:51:18.885+03:00,0.03057091307199995,1
2025-04-18T12:33:10.065+03:00,1744968787.160457,40.95364477741025,29.14099323588287,92.07828,-1,-1,-1,-1,30,31.71544983042259,-9999,66798.86224662501,-0.724090576171875,0.626220703125,-0.2686004638671875,66798.85217162501,1.280783811712486,-1.227274957389626,-0.6693521169304569,0.03799067810177803,0.007361850701272488,0.005056488793343306,0.01347541809082031,0.006444633007049561,-0.008132100105285645,XArbitraryZVertical,0.1096523964808262,-0.5965828951925028,0.6130630909331543,0.5061807997671905,-0.7384052872657776,0.6204780340194702,-0.2641304135322571,0,0,0,-1,-1,66782.51853550001,unknown,2,2025-04-18T12:32:53.690+03:00,2025-04-17T15:44:39.500+03:00,7653,1.147938,0,0,6301.398,4,10,2025-04-18T12:29:40.242+03:00,766661589.2645069,0,110.88,100.5253,1,0.4,2025-04-18T12:33:02.545+03:00,80,1.333333333333333,2025-04-18T08:51:18.885+03:00,0.03057091307199995,1
2025-04-18T12:33:10.075+03:00,1744968787.160457,40.95364477741025,29.14099323588287,92.07828,-1,-1,-1,-1,30,31.71544983042259,-9999,66798.872322625,-0.7303619384765625,0.6268157958984375,-0.2682647705078125,66798.86224662501,1.281414282733315,-1.22677642011205,-0.6692337068088817,0.05587946623563766,0.01363046560436487,0.007778406143188477,0.0150148868560791,0.004767417907714844,-0.003771990537643433,XArbitraryZVertical,0.1097310007914272,-0.5964038027751247,0.6132336926050229,0.5061680115515498,-0.7383425235748291,0.6203851699829102,-0.2645232081413269,0,0,0,-1,-1,66782.51853550001,unknown,2,2025-04-18T12:32:53.690+03:00,2025-04-17T15:44:39.500+03:00,7653,1.147938,0,0,6301.398,4,10,2025-04-18T12:29:40.242+03:00,766661589.2645069,0,110.88,100.5253,1,0.4,2025-04-18T12:33:02.545+03:00,80,1.333333333333333,2025-04-18T08:51:18.885+03:00,0.03057091307199995,1
2025-04-18T12:33:10.086+03:00,1744968787.160457,40.95364477741025,29.14099323588287,92.07828,-1,-1,-1,-1,30,31.71544983042259,-9999,66798.882397625,-0.724853515625,0.6170806884765625,-0.2623291015625,66798.872322625,1.282101771785853,-1.226203533111382,-0.6690960876185981,0.05245783552527428,0.01395297516137362,0.006092891097068787,0.008458614349365234,0.007835507392883301,-0.003518551588058472,XArbitraryZVertical,0.1098106891533357,-0.5961997289147259,0.6134201945932077,0.5061651146071563,-0.738271176815033,0.6202772259712219,-0.264974981546402,0,0,0,-1,-1,66782.51853550001,unknown,2,2025-04-18T12:32:53.690+03:00,2025-04-17T15:44:39.500+03:00,7653,1.147938,0,0,6301.398,4,10,2025-04-18T12:29:40.242+03:00,766661589.2645069,0,110.88,100.5253,1,0.4,2025-04-18T12:33:02.545+03:00,80,1.333333333333333,2025-04-18T08:51:18.885+03:00,0.03057091307199995,1
2025-04-18T12:33:10.096+03:00,1744968787.160457,40.95364477741025,29.14099323588287,92.07828,-1,-1,-1,-1,30,31.71544983042259,-9999,66798.892473625,-0.720947265625,0.611419677734375,-0.2563018798828125,66798.882397625,1.282644539373033,-1.22579999539408,-0.6689707126163237,0.0345894880592823,0.003694611368700862,0.004884681198745966,0.01217848062515259,-0.002472579479217529,0.003077030181884766,XArbitraryZVertical,0.1098945294247521,-0.5960483016284694,0.6135624856331957,0.5061529227642995,-0.7382375001907349,0.6201788783073425,-0.2652992308139801,0,0,0,-1,-1,66782.51853550001,unknown,2,2025-04-18T12:32:53.690+03:00,2025-04-17T15:44:39.500+03:00,7653,1.147938,0,0,6301.398,4,10,2025-04-18T12:29:40.242+03:00,766661589.2645069,0,110.88,100.5253,1,0.4,2025-04-18T12:33:02.545+03:00,80,1.333333333333333,2025-04-18T08:51:18.885+03:00,0.03057091307199995,1
2025-04-18T12:33:10.105+03:00,1744968787.160457,40.95364477741025,29.14099323588287,92.07828,-1,-1,-1,-1,30,31.71544983042259,-9999,66798.902548625,-0.72784423828125,0.6060791015625,-0.2480010986328125,66798.892473625,1.282925067417459,-1.225599787100305,-0.6689468517513304,0.01358566991984844,0.004532708320766687,0.008731617592275143,0.01746463775634766,-0.007733404636383057,0.007425963878631592,XArbitraryZVertical,0.1099254226259816,-0.5959785052397762,0.6136412028112888,0.5061330152375487,-0.7381983399391174,0.6201601624488831,-0.2654520571231842,0,0,0,-1,-1,66782.51853550001,unknown,2,2025-04-18T12:32:53.690+03:00,2025-04-17T15:44:39.500+03:00,7653,1.147938,0,0,6301.398,4,10,2025-04-18T12:29:40.242+03:00,766661589.2645069,0,110.88,100.5253,1,0.4,2025-04-18T12:33:02.545+03:00,80,1.333333333333333,2025-04-18T08:51:18.885+03:00,0.03057091307199995,1
2025-04-18T12:33:10.116+03:00,1744968787.160457,40.95364477741025,29.14099323588287,92.07828,-1,-1,-1,-1,30,31.71544983042259,-9999,66798.91262462501,-0.7320709228515625,0.6128997802734375,-0.2651214599609375,66798.902548625,1.283078199658888,-1.225478179604646,-0.6689814431537026,0.01136073283851147,0.003941886126995087,0.007510225288569927,0.01153743267059326,-0.01389455795288086,0.01715201139450073,XArbitraryZVertical,0.1099211026508585,-0.5959446997029826,0.6136913899862672,0.5061128455817785,-0.7381458282470703,0.6201872825622559,-0.265534520149231,0,0,0,-1,-1,66782.51853550001,unknown,2,2025-04-18T12:32:53.690+03:00,2025-04-17T15:44:39.500+03:00,7653,1.147938,0,0,6301.398,4,10,2025-04-18T12:29:40.242+03:00,766661589.2645069,0,110.88,100.5253,1,0.4,2025-04-18T12:33:02.545+03:00,80,1.333333333333333,2025-04-18T08:51:18.885+03:00,0.03057091307199995,1
2025-04-18T12:33:10.126+03:00,1744968787.160457,40.95364477741025,29.14099323588287,92.07828,-1,-1,-1,-1,30,31.71544983042259,-9999,66798.92269962501,-0.735992431640625,0.62640380859375,-0.27423095703125,66798.91262462501,1.283328483622586,-1.225239777114588,-0.6690268248885258,0.02001946792006493,0.009340912103652954,0.008731817826628685,0.006397068500518799,-0.009108304977416992,0.004043310880661011,XArbitraryZVertical,0.1099058535790734,-0.5958776704572879,0.6137740474335459,0.5060949811115693,-0.7380561232566833,0.6202229261398315,-0.2657009959220886,0,0,0,-1,-1,66782.51853550001,unknown,2,2025-04-18T12:32:53.690+03:00,2025-04-17T15:44:39.500+03:00,7653,1.147938,0,0,6301.398,4,10,2025-04-18T12:29:40.242+03:00,766661589.2645069,0,110.88,100.5253,1,0.4,2025-04-18T12:33:02.545+03:00,80,1.333333333333333,2025-04-18T08:51:18.885+03:00,0.03057091307199995,1
2025-04-18T12:33:10.136+03:00,1744968787.160457,40.95364477741025,29.14099323588287,92.07828,-1,-1,-1,-1,30,31.71544983042259,-9999,66798.932775625,-0.727996826171875,0.62640380859375,-0.2708282470703125,66798.92269962501,1.283733442737098,-1.224870449322218,-0.6690934241302472,0.03389380499720573,0.005851172842085361,0.01166066247969866,0.0014229416847229,0.00577777624130249,-0.008439242839813232,XArbitraryZVertical,0.109888813123671,-0.5957723419923597,0.6139059488587302,0.5060625760264109,-0.7379189729690552,0.6202751398086548,-0.2659595310688019,0,0,0,-1,-1,66782.51853550001,unknown,2,2025-04-18T12:32:53.690+03:00,2025-04-17T15:44:39.500+03:00,7653,1.147938,0,0,6301.398,4,10,2025-04-18T12:29:40.242+03:00,766661589.2645069,0,110.88,100.5253,1,0.4,2025-04-18T12:33:02.545+03:00,80,1.333333333333333,2025-04-18T08:51:18.885+03:00,0.03057091307199995,1
2025-04-18T12:33:10.146+03:00,1744968787.160457,40.95364477741025,29.14099323588287,92.07828,-1,-1,-1,-1,30,31.71544983042259,-9999,66798.942850625,-0.7297210693359375,0.628631591796875,-0.2701416015625,66798.932775625,1.28420742858464,-1.22449428984588,-0.6691258562461786,0.03124049678444862,0.005427996627986431,0.008808683604001999,0.00867384672164917,0.006652474403381348,-0.004552185535430908,XArbitraryZVertical,0.109902712143915,-0.5956561860078387,0.6140509962012253,0.5060201409001718,-0.7377998232841492,0.6203005909919739,-0.2662301957607269,0,0,0,-1,-1,66782.51853550001,unknown,2,2025-04-18T12:32:53.690+03:00,2025-04-17T15:44:39.500+03:00,7653,1.147938,0,0,6301.398,4,10,2025-04-18T12:29:40.242+03:00,766661589.2645069,0,110.88,100.5253,1,0.4,2025-04-18T12:33:02.545+03:00,80,1.333333333333333,2025-04-18T08:51:18.885+03:00,0.03057091307199995,1
2025-04-18T12:33:10.156+03:00,1744968787.160457,40.95364477741025,29.14099323588287,92.07828,-1,-1,-1,-1,30,31.71544983042259,-9999,66798.952926625,-0.74029541015625,0.6236724853515625,-0.2701416015625,66798.942850625,1.28464311815483,-1.22412768805321,-0.6691479488724414,0.02904791571199894,0.00839981809258461,0.007200799416750669,0.009433150291442871,0.007367610931396484,-0.003706485033035278,XArbitraryZVertical,0.1099117615765879,-0.5955429307438352,0.6141843908155475,0.5059897006623089,-0.7376893758773804,0.6203178763389587,-0.2664960324764252,0,0,0,-1,-1,66782.51853550001,unknown,2,2025-04-18T12:32:53.690+03:00,2025-04-17T15:44:39.500+03:00,7653,1.147938,0,0,6301.398,4,10,2025-04-18T12:29:40.242+03:00,766661589.2645069,0,110.88,100.5253,1,0.4,2025-04-18T12:33:02.545+03:00,80,1.333333333333333,2025-04-18T08:51:18.885+03:00,0.03057091307199995,1
2025-04-18T12:33:10.166+03:00,1744968787.160457,40.95364477741025,29.14099323588287,92.07828,-1,-1,-1,-1,30,31.71544983042259,-9999,66798.963001625,-0.7430572509765625,0.6164093017578125,-0.2715606689453125,66798.952926625,1.285035895998964,-1.223813063453156,-0.6691287090659364,0.03053981997072697,0.004146749619394541,0.003098199609667063,-0.001992106437683105,0.005078613758087158,-0.003363579511642456,XArbitraryZVertical,0.1099391374409282,-0.5954387450699589,0.6142984232394851,0.5059679034804462,-0.7376166582107544,0.6203027963638306,-0.2667321860790253,0,0,0,-1,-1,66782.51853550001,unknown,2,2025-04-18T12:32:53.690+03:00,2025-04-17T15:44:39.500+03:00,7653,1.147938,0,0,6301.398,4,10,2025-04-18T12:29:40.242+03:00,766661589.2645069,0,110.88,100.5253,1,0.4,2025-04-18T12:33:02.545+03:00,80,1.333333333333333,2025-04-18T08:51:18.885+03:00,0.03057091307199995,1
2025-04-18T12:33:10.176+03:00,1744968787.160457,40.95364477741025,29.14099323588287,92.07828,-1,-1,-1,-1,30,31.71544983042259,-9999,66798.97307762501,-0.7322845458984375,0.621612548828125,-0.271881103515625,66798.963001625,1.28541517774647,-1.223525251703076,-0.6690786153873363,0.03120467811822891,0.006179140880703926,0.002701455261558294,-0.006037473678588867,-0.003701627254486084,-0.004376709461212158,XArbitraryZVertical,0.1099819612411457,-0.5953372549744903,0.6144033528499491,0.5059506462962748,-0.7375690937042236,0.6202635169029236,-0.2669550478458405,0,0,0,-1,-1,66782.51853550001,unknown,2,2025-04-18T12:32:53.690+03:00,2025-04-17T15:44:39.500+03:00,7653,1.147938,0,0,6301.398,4,10,2025-04-18T12:29:40.242+03:00,766661589.2645069,0,110.88,100.5253,1,0.4,2025-04-18T12:33:02.545+03:00,80,1.333333333333333,2025-04-18T08:51:18.885+03:00,0.03057091307199995,1
2025-04-18T12:33:10.186+03:00,1744968787.160457,40.95364477741025,29.14099323588287,92.07828,-1,-1,-1,-1,30,31.71544983042259,-9999,66798.983153625,-0.7188720703125,0.6199188232421875,-0.269012451171875,66798.97307762501,1.285706884227261,-1.223318798262618,-0.6690562473046774,0.01974589563906193,0.002977488795295358,0.00410494115203619,0.004113376140594482,0.0007104277610778809,-0.005196243524551392,XArbitraryZVertical,0.1100135319568293,-0.5952654863490348,0.6144854448085436,0.5059285687253995,-0.737527072429657,0.6202459931373596,-0.2671120464801788,0,0,0,-1,-1,66782.51853550001,unknown,2,2025-04-18T12:32:53.690+03:00,2025-04-17T15:44:39.500+03:00,7653,1.147938,0,0,6301.398,4,10,2025-04-18T12:29:40.242+03:00,766661589.2645069,0,110.88,100.5253,1,0.4,2025-04-18T12:33:02.545+03:00,80,1.333333333333333,2025-04-18T08:51:18.885+03:00,0.03057091307199995,1
2025-04-18T12:33:10.196+03:00,1744968787.160457,40.95364477741025,29.14099323588287,92.07828,-1,-1,-1,-1,30,31.71544983042259,-9999,66798.993228625,-0.7099609375,0.6167144775390625,-0.265625,66798.983153625,1.285764642250796,-1.22331229458415,-0.6690339835024367,-0.003128262003883719,-0.0007445449009537697,-0.0002173692046198994,0.01697248220443726,-0.0004928112030029297,-0.002196043729782104,XArbitraryZVertical,0.110036888056818,-0.5952571852628514,0.6144973761362461,0.5059187248978964,-0.7375382781028748,0.6202285289764404,-0.2671215236186981,0,0,0,-1,-1,66782.51853550001,unknown,2,2025-04-18T12:32:53.690+03:00,2025-04-17T15:44:39.500+03:00,7653,1.147938,0,0,6301.398,4,10,2025-04-18T12:29:40.242+03:00,766661589.2645069,0,110.88,100.5253,1,0.4,2025-04-18T12:33:02.545+03:00,80,1.333333333333333,2025-04-18T08:51:18.885+03:00,0.03057091307199995,1
2025-04-18T12:33:10.206+03:00,1744968787.160457,40.95364477741025,29.14099323588287,92.07828,-1,-1,-1,-1,30,31.71544983042259,-9999,66799.003304625,-0.7210235595703125,0.6140899658203125,-0.2674407958984375,66798.993228625,1.285646361367248,-1.223426101650845,-0.669054733226446,-0.01478944532573223,-0.006278060842305422,-0.0009998059831559658,0.0271378755569458,-0.003286182880401611,0.001881331205368042,XArbitraryZVertical,0.1100290639387747,-0.5952957265027226,0.6144640281393976,0.5059155597689265,-0.737556517124176,0.6202448010444641,-0.2670332193374634,0,0,0,-1,-1,66782.51853550001,unknown,2,2025-04-18T12:32:53.690+03:00,2025-04-17T15:44:39.500+03:00,7653,1.147938,0,0,6301.398,4,10,2025-04-18T12:29:40.242+03:00,766661589.2645069,0,110.88,100.5253,1,0.4,2025-04-18T12:33:02.545+03:00,80,1.333333333333333,2025-04-18T08:51:18.885+03:00,0.03057091307199995,1
2025-04-18T12:33:10.217+03:00,1744968787.160457,40.95364477741025,29.14099323588287,92.07828,-1,-1,-1,-1,30,31.71544983042259,-9999,66799.013379625,-0.7415924072265625,0.6230621337890625,-0.26885986328125,66799.003304625,1.285550287626824,-1.223551173446078,-0.6690536252435174,0.002011705655604601,-0.009474586695432663,-0.006720641627907753,0.01903891563415527,-0.006840646266937256,0.0003091990947723389,XArbitraryZVertical,0.1100393053698924,-0.5953324779281703,0.6144326942453839,0.5059081224309732,-0.7375905513763428,0.6202439069747925,-0.2669411897659302,0,0,0,-1,-1,66782.51853550001,unknown,2,2025-04-18T12:32:53.690+03:00,2025-04-17T15:44:39.500+03:00,7653,1.147938,0,0,6301.398,4,10,2025-04-18T12:29:40.242+03:00,766661589.2645069,0,110.88,100.5253,1,0.4,2025-04-18T12:33:02.545+03:00,80,1.333333333333333,2025-04-18T08:51:18.885+03:00,0.03057091307199995,1
2025-04-18T12:33:10.227+03:00,1744968787.160457,40.95364477741025,29.14099323588287,92.07828,-1,-1,-1,-1,30,31.71544983042259,-9999,66799.02345562501,-0.7501220703125,0.632415771484375,-0.2667999267578125,66799.013379625,1.285667549331992,-1.223526588573772,-0.6689754156165354,0.01549715455621481,-0.003109365701675415,-0.008779797703027725,-0.001567065715789795,0.001170575618743896,-0.002356976270675659,XArbitraryZVertical,0.1100952459856857,-0.5953075761162432,0.6144530252245088,0.5059006471099948,-0.7376297116279602,0.6201825737953186,-0.2669758498668671,0,0,0,-1,-1,66782.51853550001,unknown,2,2025-04-18T12:32:53.690+03:00,2025-04-17T15:44:39.500+03:00,7653,1.147938,0,0,6301.398,4,10,2025-04-18T12:29:40.242+03:00,766661589.2645069,0,110.88,100.5253,1,0.4,2025-04-18T12:33:02.545+03:00,80,1.333333333333333,2025-04-18T08:51:18.885+03:00,0.03057091307199995,1
2025-04-18T12:33:10.237+03:00,1744968787.160457,40.95364477741025,29.14099323588287,92.07828,-1,-1,-1,-1,30,31.71544983042259,-9999,66799.03353062501,-0.745025634765625,0.6229705810546875,-0.2686767578125,66799.02345562501,1.285886799858726,-1.223389976260623,-0.668835899392861,0.02169765904545784,0.001055951695889235,-0.01308300066739321,-0.01202034950256348,0.01251053810119629,0.0004282593727111816,XArbitraryZVertical,0.1101695931457541,-0.5952391322186653,0.6144969599771593,0.505911622370427,-0.7376745343208313,0.620073139667511,-0.2671060860157013,0,0,0,-1,-1,66782.51853550001,unknown,2,2025-04-18T12:32:53.690+03:00,2025-04-17T15:44:39.500+03:00,7653,1.147938,0,0,6301.398,4,10,2025-04-18T12:29:40.242+03:00,766661589.2645069,0,110.88,100.5253,1,0.4,2025-04-18T12:33:02.545+03:00,80,1.333333333333333,2025-04-18T08:51:18.885+03:00,0.03057091307199995,1
2025-04-18T12:33:10.247+03:00,1744968787.160457,40.95364477741025,29.14099323588287,92.07828,-1,-1,-1,-1,30,31.71544983042259,-9999,66799.04360662501,-0.739898681640625,0.618682861328125,-0.268768310546875,66799.03353062501,1.286053566850617,-1.223246241072843,-0.6686418550415922,0.01842623203992844,0.005553497932851315,-0.01411897037178278,-0.007703602313995361,0.003949999809265137,-0.0004470348358154297,XArbitraryZVertical,0.1102460423483632,-0.5951632216569757,0.6145205751732057,0.505955665232835,-0.7377493381500244,0.6199208498001099,-0.2672531008720398,0,0,0,-1,-1,66782.51853550001,unknown,2,2025-04-18T12:32:53.690+03:00,2025-04-17T15:44:39.500+03:00,7653,1.147938,0,0,6301.398,4,10,2025-04-18T12:29:40.242+03:00,766661589.2645069,0,110.88,100.5253,1,0.4,2025-04-18T12:33:02.545+03:00,80,1.333333333333333,2025-04-18T08:51:18.885+03:00,0.03057091307199995,1
2025-04-18T12:33:10.257+03:00,1744968787.160457,40.95364477741025,29.14099323588287,92.07828,-1,-1,-1,-1,30,31.71544983042259,-9999,66799.05368162501,-0.7369232177734375,0.6222686767578125,-0.2666473388671875,66799.04360662501,1.286223389439866,-1.223051738472011,-0.668392513349392,0.02288755960762501,0.01336161978542805,-0.01715364120900631,-0.002864837646484375,-0.0009965300559997559,-0.001883566379547119,XArbitraryZVertical,0.1103280581723478,-0.5950656204555805,0.6145402334126673,0.5060287021903994,-0.7378426194190979,0.619725227355957,-0.2674492597579956,0,0,0,-1,-1,66782.51853550001,unknown,2,2025-04-18T12:32:53.690+03:00,2025-04-17T15:44:39.500+03:00,7653,1.147938,0,0,6301.398,4,10,2025-04-18T12:29:40.242+03:00,766661589.2645069,0,110.88,100.5253,1,0.4,2025-04-18T12:33:02.545+03:00,80,1.333333333333333,2025-04-18T08:51:18.885+03:00,0.03057091307199995,1
2025-04-18T12:33:10.267+03:00,1744968787.160457,40.95364477741025,29.14099323588287,92.07828,-1,-1,-1,-1,30,31.71544983042259,-9999,66799.063757625,-0.733856201171875,0.622467041015625,-0.2706298828125,66799.05368162501,1.286479891014633,-1.222702534785459,-0.6681433902902969,0.02770468406379223,0.02232475392520428,-0.01761623285710812,8.600950241088867e-05,0.002357602119445801,0.001234322786331177,XArbitraryZVertical,0.1103882002534726,-0.5949240786874378,0.6145904114992335,0.5061211330464868,-0.7378943562507629,0.619529664516449,-0.2677595615386963,0,0,0,-1,-1,66782.51853550001,unknown,2,2025-04-18T12:32:53.690+03:00,2025-04-17T15:44:39.500+03:00,7653,1.147938,0,0,6301.398,4,10,2025-04-18T12:29:40.242+03:00,766661589.2645069,0,110.88,100.5253,1,0.4,2025-04-18T12:33:02.545+03:00,80,1.333333333333333,2025-04-18T08:51:18.885+03:00,0.03057091307199995,1
2025-04-18T12:33:10.277+03:00,1744968787.160457,40.95364477741025,29.14099323588287,92.07828,-1,-1,-1,-1,30,31.71544983042259,-9999,66799.073832625,-0.7293853759765625,0.61553955078125,-0.2711029052734375,66799.063757625,1.286770647754993,-1.222292152837386,-0.6679446384205211,0.02588554657995701,0.01938522420823574,-0.01374063454568386,0.004089534282684326,0.003505349159240723,-0.002327114343643188,XArbitraryZVertical,0.1104213772988554,-0.5947730221029152,0.6146595554436063,0.506207248510007,-0.7378999590873718,0.619373619556427,-0.2681043446063995,0,0,0,-1,-1,66782.51853550001,unknown,2,2025-04-18T12:32:53.690+03:00,2025-04-17T15:44:39.500+03:00,7653,1.147938,0,0,6301.398,4,10,2025-04-18T12:29:40.242+03:00,766661589.2645069,0,110.88,100.5253,1,0.4,2025-04-18T12:33:02.545+03:00,80,1.333333333333333,2025-04-18T08:51:18.885+03:00,0.03057091307199995,1
2025-04-18T12:33:10.298+03:00,1744968787.160457,40.95364477741025,29.14099323588287,92.07828,-1,-1,-1,-1,30,31.71544983042259,-9999,66799.08390862501,-0.7310791015625,0.6122589111328125,-0.2736053466796875,66799.073832625,1.287023458394778,-1.221916978855728,-0.6677967247409405,0.02293396554887295,0.02224040031433105,-0.01023937668651342,0.007935404777526855,-0.002680420875549316,-0.002629369497299194,XArbitraryZVertical,0.1104353868403994,-0.594640893121601,0.6147241044860547,0.506280993541715,-0.7378853559494019,0.6192575097084045,-0.2684124708175659,0,0,0,-1,-1,66782.51853550001,unknown,2,2025-04-18T12:32:53.690+03:00,2025-04-17T15:44:39.500+03:00,7653,1.147938,0,0,6301.398,4,10,2025-04-18T12:29:40.242+03:00,766661589.2645069,0,110.88,100.5253,1,0.4,2025-04-18T12:33:02.545+03:00,80,1.333333333333333,2025-04-18T08:51:18.885+03:00,0.03057091307199995,1
2025-04-18T12:33:10.301+03:00,1744968787.160457,40.95364477741025,29.14099323588287,92.07828,-1,-1,-1,-1,30,31.71544983042259,-9999,66799.093983625,-0.7304840087890625,0.6192474365234375,-0.275543212890625,66799.08390862501,1.287258732702392,-1.221552940685327,-0.6676383393036402,0.02156183868646622,0.01986132934689522,-0.01027709431946278,0.00725853443145752,-0.007194638252258301,-0.004554927349090576,XArbitraryZVertical,0.1104513115539921,-0.5945108580753028,0.6147821854498705,0.5063599130161676,-0.7378799319267273,0.6191331148147583,-0.2687146961688995,0,0,0,-1,-1,66782.51853550001,unknown,2,2025-04-18T12:32:53.690+03:00,2025-04-17T15:44:39.500+03:00,7653,1.147938,0,0,6301.398,4,10,2025-04-18T12:29:40.242+03:00,766661589.2645069,0,110.88,100.5253,1,0.4,2025-04-18T12:33:02.545+03:00,80,1.333333333333333,2025-04-18T08:51:18.885+03:00,0.03057091307199995,1
