loggingTime(txt),locationTimestamp_since1970(s),locationLatitude(WGS84),locationLongitude(WGS84),locationAltitude(m),locationSpeed(m/s),locationSpeedAccuracy(m/s),locationCourse(°),locationCourseAccuracy(°),locationVerticalAccuracy(m),locationHorizontalAccuracy(m),locationFloor(Z),accelerometerTimestamp_sinceReboot(s),accelerometerAccelerationX(G),accelerometerAccelerationY(G),accelerometerAccelerationZ(G),motionTimestamp_sinceReboot(s),motionYaw(rad),motionRoll(rad),motionPitch(rad),motionRotationRateX(rad/s),motionRotationRateY(rad/s),motionRotationRateZ(rad/s),motionUserAccelerationX(G),motionUserAccelerationY(G),motionUserAccelerationZ(G),motionAttitudeReferenceFrame(txt),motionQuaternionX(R),motionQuaternionY(R),motionQuaternionZ(R),motionQuaternionW(R),motionGravityX(G),motionGravityY(G),motionGravityZ(G),motionMagneticFieldX(µT),motionMagneticFieldY(µT),motionMagneticFieldZ(µT),motionHeading(°),motionMagneticFieldCalibrationAccuracy(Z),activityTimestamp_sinceReboot(s),activity(txt),activityActivityConfidence(Z),activityActivityStartDate(txt),pedometerStartDate(txt),pedometerNumberofSteps(N),pedometerAverageActivePace(s/m),pedometerCurrentPace(s/m),pedometerCurrentCadence(steps/s),pedometerDistance(m),pedometerFloorAscended(N),pedometerFloorDescended(N),pedometerEndDate(txt),altimeterTimestamp_sinceReboot(s),altimeterReset(bool),altimeterRelativeAltitude(m),altimeterPressure(kPa),batteryState(N),batteryLevel(R),heartRateBPMTimestamp(txt),heartRateBPM(N),heartRateBPS(R),heartRateVariabilityTimestamp(txt),heartRateVariability(ms),label
2025-04-22T16:35:53.744+03:00,1745328953.43064,40.95220614347026,29.14028378603838,76.15304,-1,-1,-1,-1,30,21.5496845433713,-9999,37793.912802125,-0.9175567626953125,0.522064208984375,-0.2530059814453125,37793.902726125,-2.943907694225273,-1.258034025335476,-0.5455222869080119,-0.004505185410380363,-0.007019095122814178,-0.001507988898083568,0.025299072265625,-0.04401123523712158,0.01252537965774536,XArbitraryZVertical,0.585329774034124,-0.1608555227610078,0.7592710217821509,-0.2345675715590524,-0.8133848905563354,0.518864631652832,-0.2630290985107422,0,0,0,-1,-1,37769.20638375,unknown,2,2025-04-22T16:35:29.016+03:00,2025-04-21T17:08:51.449+03:00,8608,1.061193,0,0,7149.58,7,22,2025-04-22T16:35:41.914+03:00,767021744.5842532,0,-12.75,100.355,1,0.45,2025-04-22T16:35:42.964+03:00,96,1.6,2025-04-22T14:20:19.516+03:00,0.02197104130929222,0
2025-04-22T16:35:53.746+03:00,1745328953.43064,40.95220614347026,29.14028378603838,76.15304,-1,-1,-1,-1,30,21.5496845433713,-9999,37793.922879125,-0.9106292724609375,0.48406982421875,-0.2558135986328125,37793.912802125,-2.943804844206999,-1.257210039222288,-0.5455941805846005,0.007295747753232718,0.1132595762610435,0.01252177730202675,0.1268990039825439,0.00469440221786499,0.04319801926612854,XArbitraryZVertical,0.5850222878135654,-0.1609504948180616,0.7594902104731446,-0.2345598230536757,-0.8131323456764221,0.5189260840415955,-0.2636877298355103,0,0,0,-1,-1,37769.20638375,unknown,2,2025-04-22T16:35:29.016+03:00,2025-04-21T17:08:51.449+03:00,8608,1.061193,0,0,7149.58,7,22,2025-04-22T16:35:41.914+03:00,767021744.5842532,0,-12.75,100.355,1,0.45,2025-04-22T16:35:42.964+03:00,96,1.6,2025-04-22T14:20:19.516+03:00,0.02197104130929222,0
2025-04-22T16:35:53.748+03:00,1745328953.43064,40.95220614347026,29.14028378603838,76.15304,-1,-1,-1,-1,30,21.5496845433713,-9999,37793.932955125,-0.7596435546875,0.5222625732421875,-0.245880126953125,37793.922879125,-2.943789824791515,-1.256649830373501,-0.5455821372558588,-0.004577157087624073,-0.01193935237824917,-0.01655807718634605,-0.127133846282959,-0.003718137741088867,0.007278561592102051,XArbitraryZVertical,0.5848112118570491,-0.1610070227997837,0.7596540283043353,-0.2345171669228254,-0.8129905462265015,0.5189158320426941,-0.264145165681839,0,0,0,-1,-1,37769.20638375,unknown,2,2025-04-22T16:35:29.016+03:00,2025-04-21T17:08:51.449+03:00,8608,1.061193,0,0,7149.58,7,22,2025-04-22T16:35:41.914+03:00,767021744.5842532,0,-12.75,100.355,1,0.45,2025-04-22T16:35:42.964+03:00,96,1.6,2025-04-22T14:20:19.516+03:00,0.02197104130929222,0
2025-04-22T16:35:53.758+03:00,1745328953.43064,40.95220614347026,29.14028378603838,76.15304,-1,-1,-1,-1,30,21.5496845433713,-9999,37793.943032125,-0.77716064453125,0.5420074462890625,-0.268768310546875,37793.932955125,-2.943869209686442,-1.257123830486458,-0.5453714292768425,0.01052776072174311,-0.05054293572902679,-0.02753163315355778,-0.07491815090179443,-0.03317052125930786,0.01049742102622986,XArbitraryZVertical,0.5849933495358649,-0.1608913432251215,0.7595534447798036,-0.2344680724164653,-0.8132196664810181,0.5187356472015381,-0.2637935280799866,0,0,0,-1,-1,37769.20638375,unknown,2,2025-04-22T16:35:29.016+03:00,2025-04-21T17:08:51.449+03:00,8608,1.061193,0,0,7149.58,7,22,2025-04-22T16:35:41.914+03:00,767021744.5842532,0,-12.75,100.355,1,0.45,2025-04-22T16:35:42.964+03:00,96,1.6,2025-04-22T14:20:19.516+03:00,0.02197104130929222,0
2025-04-22T16:35:53.768+03:00,1745328953.43064,40.95220614347026,29.14028378603838,76.15304,-1,-1,-1,-1,30,21.5496845433713,-9999,37793.953108125,-0.849365234375,0.526123046875,-0.28851318359375,37793.943032125,-2.943674402243261,-1.25711234922971,-0.5450813280459664,0.03818522021174431,0.03345396369695663,-0.01715782098472118,0.06120830774307251,0.009161233901977539,0.01642781496047974,XArbitraryZVertical,0.5850163484798674,-0.1607210007131507,0.7595734842518441,-0.2344625191468107,-0.8133597373962402,0.5184876322746277,-0.2638492584228516,0,0,0,-1,-1,37769.20638375,unknown,2,2025-04-22T16:35:29.016+03:00,2025-04-21T17:08:51.449+03:00,8608,1.061193,0,0,7149.58,7,22,2025-04-22T16:35:41.914+03:00,767021744.5842532,0,-12.75,100.355,1,0.45,2025-04-22T16:35:42.964+03:00,96,1.6,2025-04-22T14:20:19.516+03:00,0.02197104130929222,0
2025-04-22T16:35:53.778+03:00,1745328953.43064,40.95220614347026,29.14028378603838,76.15304,-1,-1,-1,-1,30,21.5496845433713,-9999,37793.963184125,-0.822509765625,0.51971435546875,-0.2745819091796875,37793.953108125,-2.943312564367001,-1.25650256470054,-0.5448159511248343,0.03493256866931915,0.03614015877246857,-0.01781795173883438,0.02593028545379639,0.02249544858932495,-0.00785982608795166,XArbitraryZVertical,0.5848244652533694,-0.1605817171048564,0.7597455690883193,-0.2344790759532715,-0.8133294582366943,0.5182607173919678,-0.2643877267837524,0,0,0,-1,-1,37769.20638375,unknown,2,2025-04-22T16:35:29.016+03:00,2025-04-21T17:08:51.449+03:00,8608,1.061193,0,0,7149.58,7,22,2025-04-22T16:35:41.914+03:00,767021744.5842532,0,-12.75,100.355,1,0.45,2025-04-22T16:35:42.964+03:00,96,1.6,2025-04-22T14:20:19.516+03:00,0.02197104130929222,0
2025-04-22T16:35:53.788+03:00,1745328953.43064,40.95220614347026,29.14028378603838,76.15304,-1,-1,-1,-1,30,21.5496845433713,-9999,37793.973261125,-0.7788543701171875,0.5164642333984375,-0.2587127685546875,37793.963184125,-2.94307776068909,-1.2562697678225,-0.5445500175445109,0.02383757382631302,-0.01285161636769772,-0.02189525216817856,-0.03805661201477051,0.006777524948120117,-0.02311551570892334,XArbitraryZVertical,0.5847655237015014,-0.1604351623930903,0.7598223774054397,-0.2344775654692963,-0.8133989572525024,0.5180332660675049,-0.2646196782588959,0,0,0,-1,-1,37769.20638375,unknown,2,2025-04-22T16:35:29.016+03:00,2025-04-21T17:08:51.449+03:00,8608,1.061193,0,0,7149.58,7,22,2025-04-22T16:35:41.914+03:00,767021744.5842532,0,-12.75,100.355,1,0.45,2025-04-22T16:35:42.964+03:00,96,1.6,2025-04-22T14:20:19.516+03:00,0.02197104130929222,0
2025-04-22T16:35:53.798+03:00,1745328953.43064,40.95220614347026,29.14028378603838,76.15304,-1,-1,-1,-1,30,21.5496845433713,-9999,37793.983337125,-0.800933837890625,0.51336669921875,-0.25885009765625,37793.973261125,-2.942932827330912,-1.256327066726515,-0.5443044843795412,0.01566752791404724,-0.003915380220860243,-0.0176837295293808,-0.001574039459228516,0.001509606838226318,-0.007192552089691162,XArbitraryZVertical,0.5848087273006238,-0.1602889377679832,0.7598221198927804,-0.2344707226406709,-0.8135350942611694,0.5178232192993164,-0.2646124064922333,0,0,0,-1,-1,37769.20638375,unknown,2,2025-04-22T16:35:29.016+03:00,2025-04-21T17:08:51.449+03:00,8608,1.061193,0,0,7149.58,7,22,2025-04-22T16:35:41.914+03:00,767021744.5842532,0,-12.75,100.355,1,0.45,2025-04-22T16:35:42.964+03:00,96,1.6,2025-04-22T14:20:19.516+03:00,0.02197104130929222,0
2025-04-22T16:35:53.808+03:00,1745328953.43064,40.95220614347026,29.14028378603838,76.15304,-1,-1,-1,-1,30,21.5496845433713,-9999,37793.99341412501,-0.82177734375,0.515838623046875,-0.26300048828125,37793.983337125,-2.942766103765371,-1.256118165554351,-0.5441167090166977,0.02198374643921852,0.02579937316477299,-0.00932752899825573,0.03503835201263428,-0.002358019351959229,0.007198125123977661,XArbitraryZVertical,0.5847502072453595,-0.1601903906730174,0.7598892913147471,-0.2344664729110569,-0.8135722875595093,0.5176625847816467,-0.2648124694824219,0,0,0,-1,-1,37769.20638375,unknown,2,2025-04-22T16:35:29.016+03:00,2025-04-21T17:08:51.449+03:00,8608,1.061193,0,0,7149.58,7,22,2025-04-22T16:35:41.914+03:00,767021744.5842532,0,-12.75,100.355,1,0.45,2025-04-22T16:35:42.964+03:00,96,1.6,2025-04-22T14:20:19.516+03:00,0.02197104130929222,0
2025-04-22T16:35:53.818+03:00,1745328953.43064,40.95220614347026,29.14028378603838,76.15304,-1,-1,-1,-1,30,21.5496845433713,-9999,37794.003490125,-0.8072967529296875,0.517242431640625,-0.2657470703125,37793.99341412501,-2.942543053607237,-1.255757753481752,-0.5439809559715962,0.01888868771493435,0.01517289318144321,-0.007721476256847382,0.008138954639434814,-0.004469752311706543,0.004949599504470825,XArbitraryZVertical,0.5846365479877178,-0.1601137463718199,0.759986851553294,-0.2344856185206011,-0.813543438911438,0.5175464153289795,-0.2651273906230927,0,0,0,-1,-1,37769.20638375,unknown,2,2025-04-22T16:35:29.016+03:00,2025-04-21T17:08:51.449+03:00,8608,1.061193,0,0,7149.58,7,22,2025-04-22T16:35:41.914+03:00,767021744.5842532,0,-12.75,100.355,1,0.45,2025-04-22T16:35:42.964+03:00,96,1.6,2025-04-22T14:20:19.516+03:00,0.02197104130929222,0
2025-04-22T16:35:53.828+03:00,1745328953.43064,40.95220614347026,29.14028378603838,76.15304,-1,-1,-1,-1,30,21.5496845433713,-9999,37794.013567125,-0.7990264892578125,0.513458251953125,-0.267242431640625,37794.003490125,-2.94240998120549,-1.255604339964992,-0.543847829064328,0.01452270057052374,0.001619001384824514,-0.008315893821418285,-0.008514106273651123,-0.001120865345001221,0.001494675874710083,XArbitraryZVertical,0.5845941784920518,-0.1600401409460126,0.760034372001232,-0.2344878617178149,-0.8135684132575989,0.5174325108528137,-0.2652736008167267,0,0,0,-1,-1,37769.20638375,unknown,2,2025-04-22T16:35:29.016+03:00,2025-04-21T17:08:51.449+03:00,8608,1.061193,0,0,7149.58,7,22,2025-04-22T16:35:41.914+03:00,767021744.5842532,0,-12.75,100.355,1,0.45,2025-04-22T16:35:42.964+03:00,96,1.6,2025-04-22T14:20:19.516+03:00,0.02197104130929222,0
2025-04-22T16:35:53.838+03:00,1745328953.43064,40.95220614347026,29.14028378603838,76.15304,-1,-1,-1,-1,30,21.5496845433713,-9999,37794.023643125,-0.8096160888671875,0.5112152099609375,-0.2653961181640625,37794.013567125,-2.94232744692841,-1.255579741148123,-0.5437322064081044,0.01139062456786633,-0.003166366834193468,-0.00913291797041893,0.008549869060516357,0.0003818869590759277,-0.0007554888725280762,XArbitraryZVertical,0.5845960210809633,-0.1599731429000684,0.760047679074268,-0.2344859590481522,-0.8136187791824341,0.5173335671424866,-0.2653121650218964,0,0,0,-1,-1,37769.20638375,unknown,2,2025-04-22T16:35:29.016+03:00,2025-04-21T17:08:51.449+03:00,8608,1.061193,0,0,7149.58,7,22,2025-04-22T16:35:41.914+03:00,767021744.5842532,0,-12.75,100.355,1,0.45,2025-04-22T16:35:42.964+03:00,96,1.6,2025-04-22T14:20:19.516+03:00,0.02197104130929222,0
2025-04-22T16:35:53.848+03:00,1745328953.43064,40.95220614347026,29.14028378603838,76.15304,-1,-1,-1,-1,30,21.5496845433713,-9999,37794.033719125,-0.8171844482421875,0.509796142578125,-0.26153564453125,37794.023643125,-2.942242476768048,-1.255543539722505,-0.5436224110465941,0.008406552486121655,0.0008076024241745472,-0.009572606533765793,0.01388901472091675,-0.003934025764465332,-0.002020746469497681,XArbitraryZVertical,0.584593432823402,-0.1599091220866583,0.7600631070047636,-0.2344856453365148,-0.8136630058288574,0.5172395706176758,-0.2653591930866241,0,0,0,-1,-1,37769.20638375,unknown,2,2025-04-22T16:35:29.016+03:00,2025-04-21T17:08:51.449+03:00,8608,1.061193,0,0,7149.58,7,22,2025-04-22T16:35:41.914+03:00,767021744.5842532,0,-12.75,100.355,1,0.45,2025-04-22T16:35:42.964+03:00,96,1.6,2025-04-22T14:20:19.516+03:00,0.02197104130929222,0
2025-04-22T16:35:53.859+03:00,1745328953.43064,40.95220614347026,29.14028378603838,76.15304,-1,-1,-1,-1,30,21.5496845433713,-9999,37794.043796125,-0.8139495849609375,0.5154571533203125,-0.257537841796875,37794.033719125,-2.942190956638905,-1.255491544725647,-0.5435268666447738,0.008186308667063713,0.003387140342965722,-0.00838044285774231,0.002645909786224365,-0.006217420101165771,0.001225978136062622,XArbitraryZVertical,0.5845815814135465,-0.1598623512330628,0.7600852671952203,-0.2344752081858676,-0.8136962056159973,0.5171577930450439,-0.2654168009757996,0,0,0,-1,-1,37769.20638375,unknown,2,2025-04-22T16:35:29.016+03:00,2025-04-21T17:08:51.449+03:00,8608,1.061193,0,0,7149.58,7,22,2025-04-22T16:35:41.914+03:00,767021744.5842532,0,-12.75,100.355,1,0.45,2025-04-22T16:35:42.964+03:00,96,1.6,2025-04-22T14:20:19.516+03:00,0.02197104130929222,0
2025-04-22T16:35:53.869+03:00,1745328953.43064,40.95220614347026,29.14028378603838,76.15304,-1,-1,-1,-1,30,21.5496845433713,-9999,37794.05387212501,-0.8092498779296875,0.517486572265625,-0.260101318359375,37794.043796125,-2.942143095229399,-1.255439606167237,-0.5434344125826612,0.007126903161406517,0.002558098174631596,-0.004057332873344421,-0.002754569053649902,-0.007206380367279053,0.004197508096694946,XArbitraryZVertical,0.5845693326890677,-0.1598178655134609,0.7601074140855441,-0.2344642242569727,-0.8137277960777283,0.517078697681427,-0.2654739022254944,0,0,0,-1,-1,37769.20638375,unknown,2,2025-04-22T16:35:29.016+03:00,2025-04-21T17:08:51.449+03:00,8608,1.061193,0,0,7149.58,7,22,2025-04-22T16:35:41.914+03:00,767021744.5842532,0,-12.75,100.355,1,0.45,2025-04-22T16:35:42.964+03:00,96,1.6,2025-04-22T14:20:19.516+03:00,0.02197104130929222,0
2025-04-22T16:35:53.879+03:00,1745328953.43064,40.95220614347026,29.14028378603838,76.15304,-1,-1,-1,-1,30,21.5496845433713,-9999,37794.063949125,-0.8090972900390625,0.51739501953125,-0.2670745849609375,37794.05387212501,-2.942036335835167,-1.255379218071173,-0.5433636493701144,0.01048341859132051,0.003418166190385818,-0.004079104401171207,0.0007126927375793457,-0.001469552516937256,0.008301585912704468,XArbitraryZVertical,0.5845577112515963,-0.1597657347579436,0.7601222033460803,-0.2344808211879316,-0.8137465715408325,0.5170180797576904,-0.265534371137619,0,0,0,-1,-1,37769.20638375,unknown,2,2025-04-22T16:35:29.016+03:00,2025-04-21T17:08:51.449+03:00,8608,1.061193,0,0,7149.58,7,22,2025-04-22T16:35:41.914+03:00,767021744.5842532,0,-12.75,100.355,1,0.45,2025-04-22T16:35:42.964+03:00,96,1.6,2025-04-22T14:20:19.516+03:00,0.02197104130929222,0
2025-04-22T16:35:53.889+03:00,1745328953.43064,40.95220614347026,29.14028378603838,76.15304,-1,-1,-1,-1,30,21.5496845433713,-9999,37794.074025125,-0.8080291748046875,0.5146484375,-0.275848388671875,37794.063949125,-2.941955944608569,-1.25528276855748,-0.5433122777203195,0.003715793369337916,0.003955059684813023,-0.002395986579358578,0.004862725734710693,0.0005275607109069824,0.005199164152145386,XArbitraryZVertical,0.5845295102734538,-0.1597332187147571,0.7601479403584308,-0.2344897701764976,-0.8137462139129639,0.516974151134491,-0.2656210958957672,0,0,0,-1,-1,37769.20638375,unknown,2,2025-04-22T16:35:29.016+03:00,2025-04-21T17:08:51.449+03:00,8608,1.061193,0,0,7149.58,7,22,2025-04-22T16:35:41.914+03:00,767021744.5842532,0,-12.75,100.355,1,0.45,2025-04-22T16:35:42.964+03:00,96,1.6,2025-04-22T14:20:19.516+03:00,0.02197104130929222,0
2025-04-22T16:35:53.899+03:00,1745328953.43064,40.95220614347026,29.14028378603838,76.15304,-1,-1,-1,-1,30,21.5496845433713,-9999,37794.084102125,-0.807281494140625,0.5068511962890625,-0.2769012451171875,37794.074025125,-2.941964649833534,-1.255283853202423,-0.5432756990715409,-0.001756802899762988,-0.003604389727115631,-0.002722124103456736,0.004041731357574463,9.596347808837891e-06,-0.003233909606933594,XArbitraryZVertical,0.5845306663683324,-0.1597211507562603,0.7601536904615538,-0.2344766452450263,-0.8137645125389099,0.5169427990913391,-0.2656261026859283,0,0,0,-1,-1,37769.20638375,unknown,2,2025-04-22T16:35:29.016+03:00,2025-04-21T17:08:51.449+03:00,8608,1.061193,0,0,7149.58,7,22,2025-04-22T16:35:41.914+03:00,767021744.5842532,0,-12.75,100.355,1,0.45,2025-04-22T16:35:42.964+03:00,96,1.6,2025-04-22T14:20:19.516+03:00,0.02197104130929222,0
2025-04-22T16:35:53.909+03:00,1745328953.43064,40.95220614347026,29.14028378603838,76.15304,-1,-1,-1,-1,30,21.5496845433713,-9999,37794.094178125,-0.8092193603515625,0.5101165771484375,-0.274383544921875,37794.084102125,-2.941986500615738,-1.25531769988438,-0.5432604190474714,0.002314371522516012,-0.000694087240844965,-0.0008477912633679807,0.005950331687927246,-0.003319025039672852,-0.01053747534751892,XArbitraryZVertical,0.584542400586778,-0.1597175333989792,0.7601483482080791,-0.2344669138143208,-0.8137809038162231,0.5169297456741333,-0.2656009793281555,0,0,0,-1,-1,37769.20638375,unknown,2,2025-04-22T16:35:29.016+03:00,2025-04-21T17:08:51.449+03:00,8608,1.061193,0,0,7149.58,7,22,2025-04-22T16:35:41.914+03:00,767021744.5842532,0,-12.75,100.355,1,0.45,2025-04-22T16:35:42.964+03:00,96,1.6,2025-04-22T14:20:19.516+03:00,0.02197104130929222,0
2025-04-22T16:35:53.919+03:00,1745328953.43064,40.95220614347026,29.14028378603838,76.15304,-1,-1,-1,-1,30,21.5496845433713,-9999,37794.104254125,-0.806884765625,0.5190582275390625,-0.2686309814453125,37794.094178125,-2.941935831188036,-1.255298611422091,-0.5432705208571788,0.004026983864605427,-0.001977264881134033,0.003002973273396492,0.00639808177947998,-0.01104861497879028,-0.01134756207466125,XArbitraryZVertical,0.5845387892681913,-0.159708956673158,0.7601466381880758,-0.2344873797377756,-0.8137709498405457,0.5169383883476257,-0.2656148970127106,0,0,0,-1,-1,37769.20638375,unknown,2,2025-04-22T16:35:29.016+03:00,2025-04-21T17:08:51.449+03:00,8608,1.061193,0,0,7149.58,7,22,2025-04-22T16:35:41.914+03:00,767021744.5842532,0,-12.75,100.355,1,0.45,2025-04-22T16:35:42.964+03:00,96,1.6,2025-04-22T14:20:19.516+03:00,0.02197104130929222,0
2025-04-22T16:35:53.929+03:00,1745328953.43064,40.95220614347026,29.14028378603838,76.15304,-1,-1,-1,-1,30,21.5496845433713,-9999,37794.11433112501,-0.806732177734375,0.5195159912109375,-0.262420654296875,37794.104254125,-2.941868619744464,-1.255285162701181,-0.5432750624731304,0.005533800460398197,-0.004019110929220915,-0.00029082439141348,0.004744350910186768,-0.004735291004180908,-0.0089111328125,XArbitraryZVertical,0.5845388503833041,-0.1596926708609566,0.7601421976541154,-0.2345130722228573,-0.8137652277946472,0.5169422626495361,-0.2656251788139343,0,0,0,-1,-1,37769.20638375,unknown,2,2025-04-22T16:35:29.016+03:00,2025-04-21T17:08:51.449+03:00,8608,1.061193,0,0,7149.58,7,22,2025-04-22T16:35:41.914+03:00,767021744.5842532,0,-12.75,100.355,1,0.45,2025-04-22T16:35:42.964+03:00,96,1.6,2025-04-22T14:20:19.516+03:00,0.02197104130929222,0
2025-04-22T16:35:53.939+03:00,1745328953.43064,40.95220614347026,29.14028378603838,76.15304,-1,-1,-1,-1,30,21.5496845433713,-9999,37794.124407125,-0.8116912841796875,0.5196685791015625,-0.2606658935546875,37794.11433112501,-2.941762296787244,-1.255244603599542,-0.5432382409384707,0.01186859514564276,0.002172938548028469,0.003907482139766216,0.006597995758056641,0.002071082592010498,-0.002402544021606445,XArbitraryZVertical,0.5845333786754539,-0.1596517794683875,0.7601465955160457,-0.234540280538293,-0.8137725591659546,0.51691073179245,-0.2656640708446503,0,0,0,-1,-1,37769.20638375,unknown,2,2025-04-22T16:35:29.016+03:00,2025-04-21T17:08:51.449+03:00,8608,1.061193,0,0,7149.58,7,22,2025-04-22T16:35:41.914+03:00,767021744.5842532,0,-12.75,100.355,1,0.45,2025-04-22T16:35:42.964+03:00,96,1.6,2025-04-22T14:20:19.516+03:00,0.02197104130929222,0
2025-04-22T16:35:53.949+03:00,1745328953.43064,40.95220614347026,29.14028378603838,76.15304,-1,-1,-1,-1,30,21.5496845433713,-9999,37794.134484125,-0.816558837890625,0.5174560546875,-0.2654571533203125,37794.124407125,-2.941599875935784,-1.255108758997557,-0.5431844965750396,0.0174654945731163,0.01027587242424488,-0.001163442386314273,0.006298303604125977,0.002300262451171875,0.003530234098434448,XArbitraryZVertical,0.5844968272534676,-0.1595989661593671,0.7601746055694245,-0.2345766267503228,-0.813762903213501,0.5168647766113281,-0.2657832503318787,0,0,0,-1,-1,37769.20638375,unknown,2,2025-04-22T16:35:29.016+03:00,2025-04-21T17:08:51.449+03:00,8608,1.061193,0,0,7149.58,7,22,2025-04-22T16:35:41.914+03:00,767021744.5842532,0,-12.75,100.355,1,0.45,2025-04-22T16:35:42.964+03:00,96,1.6,2025-04-22T14:20:19.516+03:00,0.02197104130929222,0
2025-04-22T16:35:53.959+03:00,1745328953.43064,40.95220614347026,29.14028378603838,76.15304,-1,-1,-1,-1,30,21.5496845433713,-9999,37794.144560125,-0.81707763671875,0.5155487060546875,-0.2720489501953125,37794.134484125,-2.941426275624328,-1.25488565133724,-0.5431162070821168,0.01651374623179436,0.01564593799412251,-0.001088041695766151,0.002000153064727783,0.002053499221801758,0.005294442176818848,XArbitraryZVertical,0.5844285726074219,-0.1595473802878645,0.7602286928447565,-0.2346063394239013,-0.8137370944023132,0.5168063044548035,-0.2659757435321808,0,0,0,-1,-1,37769.20638375,unknown,2,2025-04-22T16:35:29.016+03:00,2025-04-21T17:08:51.449+03:00,8608,1.061193,0,0,7149.58,7,22,2025-04-22T16:35:41.914+03:00,767021744.5842532,0,-12.75,100.355,1,0.45,2025-04-22T16:35:42.964+03:00,96,1.6,2025-04-22T14:20:19.516+03:00,0.02197104130929222,0
2025-04-22T16:35:53.969+03:00,1745328953.43064,40.95220614347026,29.14028378603838,76.15304,-1,-1,-1,-1,30,21.5496845433713,-9999,37794.154637125,-0.8092498779296875,0.5115509033203125,-0.2726287841796875,37794.144560125,-2.941262584362149,-1.254666351577134,-0.5430768580538449,0.0157622043043375,0.01117315795272589,-0.0001085310359485447,-0.002646982669830322,0.0006833672523498535,-0.0003343820571899414,XArbitraryZVertical,0.5843598072704643,-0.1595096898216013,0.7602790089155247,-0.2346404222931584,-0.8136981725692749,0.5167726278305054,-0.2661605477333069,0,0,0,-1,-1,37769.20638375,unknown,2,2025-04-22T16:35:29.016+03:00,2025-04-21T17:08:51.449+03:00,8608,1.061193,0,0,7149.58,7,22,2025-04-22T16:35:41.914+03:00,767021744.5842532,0,-12.75,100.355,1,0.45,2025-04-22T16:35:42.964+03:00,96,1.6,2025-04-22T14:20:19.516+03:00,0.02197104130929222,0
2025-04-22T16:35:53.979+03:00,1745328953.43064,40.95220614347026,29.14028378603838,76.15304,-1,-1,-1,-1,30,21.5496845433713,-9999,37794.164713125,-0.8057403564453125,0.509185791015625,-0.2698211669921875,37794.154637125,-2.941122016005565,-1.254504067313873,-0.543045663880052,0.009147909469902515,0.004732503090053797,0.001031668158248067,-0.002659618854522705,-0.001914441585540771,-0.005934655666351318,XArbitraryZVertical,0.5843105558935884,-0.1594753164417683,0.7603141413247408,-0.2346724837113379,-0.8136702179908752,0.516745924949646,-0.2662976086139679,0,0,0,-1,-1,37769.20638375,unknown,2,2025-04-22T16:35:29.016+03:00,2025-04-21T17:08:51.449+03:00,8608,1.061193,0,0,7149.58,7,22,2025-04-22T16:35:41.914+03:00,767021744.5842532,0,-12.75,100.355,1,0.45,2025-04-22T16:35:42.964+03:00,96,1.6,2025-04-22T14:20:19.516+03:00,0.02197104130929222,0
2025-04-22T16:35:53.989+03:00,1745328953.43064,40.95220614347026,29.14028378603838,76.15304,-1,-1,-1,-1,30,21.5496845433713,-9999,37794.17478912501,-0.811126708984375,0.5099334716796875,-0.2672882080078125,37794.164713125,-2.941029248547047,-1.254395472038522,-0.5430689014253042,0.001788264024071395,0.006796186324208975,0.0081745320931077,0.00552445650100708,-0.005886256694793701,-0.005789011716842651,XArbitraryZVertical,0.5842757501664342,-0.159470150975761,0.760331867901516,-0.2347053717371377,-0.8136299252510071,0.5167657732963562,-0.266382247209549,0,0,0,-1,-1,37769.20638375,unknown,2,2025-04-22T16:35:29.016+03:00,2025-04-21T17:08:51.449+03:00,8608,1.061193,0,0,7149.58,7,22,2025-04-22T16:35:41.914+03:00,767021744.5842532,0,-12.75,100.355,1,0.45,2025-04-22T16:35:42.964+03:00,96,1.6,2025-04-22T14:20:19.516+03:00,0.02197104130929222,0
2025-04-22T16:35:54.000+03:00,1745328953.43064,40.95220614347026,29.14028378603838,76.15304,-1,-1,-1,-1,30,21.5496845433713,-9999,37794.184866125,-0.811859130859375,0.51214599609375,-0.267608642578125,37794.17478912501,-2.940999269387512,-1.254309129487318,-0.5431224215554945,-0.002999100834131241,0.005386774893850088,0.008587155491113663,0.006985843181610107,-0.008037924766540527,-0.00249248743057251,XArbitraryZVertical,0.5842432225166906,-0.1594927250041088,0.7603462075845399,-0.2347243590776693,-0.8135805726051331,0.5168116092681885,-0.2664438486099243,0,0,0,-1,-1,37769.20638375,unknown,2,2025-04-22T16:35:29.016+03:00,2025-04-21T17:08:51.449+03:00,8608,1.061193,0,0,7149.58,7,22,2025-04-22T16:35:41.914+03:00,767021744.5842532,0,-12.75,100.355,1,0.45,2025-04-22T16:35:42.964+03:00,96,1.6,2025-04-22T14:20:19.516+03:00,0.02197104130929222,0
2025-04-22T16:35:54.010+03:00,1745328953.43064,40.95220614347026,29.14028378603838,76.15304,-1,-1,-1,-1,30,21.5496845433713,-9999,37794.194942125,-0.8125762939453125,0.513580322265625,-0.266265869140625,37794.184866125,-2.94098501663241,-1.254216661483006,-0.5432090478746161,-0.002342897932976484,0.009713079780340195,0.007708845660090446,0.001516997814178467,-0.006479322910308838,-0.001149475574493408,XArbitraryZVertical,0.5842058086076571,-0.1595337181092783,0.7603596940075694,-0.2347458255780162,-0.8135133385658264,0.5168857574462891,-0.2665051221847534,0,0,0,-1,-1,37769.20638375,unknown,2,2025-04-22T16:35:29.016+03:00,2025-04-21T17:08:51.449+03:00,8608,1.061193,0,0,7149.58,7,22,2025-04-22T16:35:41.914+03:00,767021744.5842532,0,-12.75,100.355,1,0.45,2025-04-22T16:35:42.964+03:00,96,1.6,2025-04-22T14:20:19.516+03:00,0.02197104130929222,0
2025-04-22T16:35:54.020+03:00,1745328953.43064,40.95220614347026,29.14028378603838,76.15304,-1,-1,-1,-1,30,21.5496845433713,-9999,37794.205019125,-0.8134613037109375,0.5168609619140625,-0.2667083740234375,37794.194942125,-2.940948163407768,-1.254091871958446,-0.5432989732275969,0.002410045592114329,0.01127662137150764,0.006333854980766773,0.001912593841552734,-0.004557490348815918,-0.0008945763111114502,XArbitraryZVertical,0.5841577826212622,-0.1595732159087606,0.7603794873001254,-0.2347741952024875,-0.8134358525276184,0.5169627666473389,-0.2665921449661255,0,0,0,-1,-1,37769.20638375,unknown,2,2025-04-22T16:35:29.016+03:00,2025-04-21T17:08:51.449+03:00,8608,1.061193,0,0,7149.58,7,22,2025-04-22T16:35:41.914+03:00,767021744.5842532,0,-12.75,100.355,1,0.45,2025-04-22T16:35:42.964+03:00,96,1.6,2025-04-22T14:20:19.516+03:00,0.02197104130929222,0
2025-04-22T16:35:54.030+03:00,1745328953.43064,40.95220614347026,29.14028378603838,76.15304,-1,-1,-1,-1,30,21.5496845433713,-9999,37794.215095125,-0.8108367919921875,0.516937255859375,-0.2696380615234375,37794.205019125,-2.940876237670743,-1.253922069855269,-0.5433546271440529,0.007719057146459818,0.01489372737705708,0.00779113732278347,0.0005734562873840332,-0.00312495231628418,0.0003789663314819336,XArbitraryZVertical,0.5840967744212309,-0.1595941752217627,0.7604130827048372,-0.2348030332048097,-0.813363254070282,0.5170103907585144,-0.2667213082313538,0,0,0,-1,-1,37769.20638375,unknown,2,2025-04-22T16:35:29.016+03:00,2025-04-21T17:08:51.449+03:00,8608,1.061193,0,0,7149.58,7,22,2025-04-22T16:35:41.914+03:00,767021744.5842532,0,-12.75,100.355,1,0.45,2025-04-22T16:35:42.964+03:00,96,1.6,2025-04-22T14:20:19.516+03:00,0.02197104130929222,0
2025-04-22T16:35:54.040+03:00,1745328953.43064,40.95220614347026,29.14028378603838,76.15304,-1,-1,-1,-1,30,21.5496845433713,-9999,37794.225172125,-0.8079376220703125,0.5138397216796875,-0.2686004638671875,37794.215095125,-2.940770028981234,-1.253747686146887,-0.5434088381691603,0.005600112956017256,0.01136810146272182,0.008871914818882942,-0.0001863241195678711,-0.0006232261657714844,0.0004357993602752686,XArbitraryZVertical,0.5840368204419667,-0.1596051010748926,0.7604441381836898,-0.2348441504321289,-0.8132901191711426,0.5170567631721497,-0.2668544054031372,0,0,0,-1,-1,37769.20638375,unknown,2,2025-04-22T16:35:29.016+03:00,2025-04-21T17:08:51.449+03:00,8608,1.061193,0,0,7149.58,7,22,2025-04-22T16:35:41.914+03:00,767021744.5842532,0,-12.75,100.355,1,0.45,2025-04-22T16:35:42.964+03:00,96,1.6,2025-04-22T14:20:19.516+03:00,0.02197104130929222,0
2025-04-22T16:35:54.059+03:00,1745328953.43064,40.95220614347026,29.14028378603838,76.15304,-1,-1,-1,-1,30,21.5496845433713,-9999,37794.23524812501,-0.805938720703125,0.510772705078125,-0.2657318115234375,37794.225172125,-2.940693227809414,-1.253625015925873,-0.5434875876206013,0.001955310814082623,0.005896104499697685,0.01023705117404461,0.003007650375366211,-0.0001565217971801758,-0.003642827272415161,XArbitraryZVertical,0.5839932200109061,-0.1596282661782958,0.7604601893674225,-0.234884841579879,-0.8132186532020569,0.5171241760253906,-0.2669414579868317,0,0,0,-1,-1,37769.20638375,unknown,2,2025-04-22T16:35:29.016+03:00,2025-04-21T17:08:51.449+03:00,8608,1.061193,0,0,7149.58,7,22,2025-04-22T16:35:41.914+03:00,767021744.5842532,0,-12.75,100.355,1,0.45,2025-04-22T16:35:42.964+03:00,96,1.6,2025-04-22T14:20:19.516+03:00,0.02197104130929222,0
2025-04-22T16:35:54.060+03:00,1745328953.43064,40.95220614347026,29.14028378603838,76.15304,-1,-1,-1,-1,30,21.5496845433713,-9999,37794.245324125,-0.808197021484375,0.511016845703125,-0.263580322265625,37794.23524812501,-2.940672406460389,-1.253523877888773,-0.5435693670425299,-0.007050301413983107,0.009767940267920494,0.008489284664392471,0.005320847034454346,-0.004514217376708984,-0.001468032598495483,XArbitraryZVertical,0.5839532224131162,-0.1596664546785234,0.7604760896363809,-0.2349067822395205,-0.813151478767395,0.5171942114830017,-0.267010509967804,0,0,0,-1,-1,37769.20638375,unknown,2,2025-04-22T16:35:29.016+03:00,2025-04-21T17:08:51.449+03:00,8608,1.061193,0,0,7149.58,7,22,2025-04-22T16:35:41.914+03:00,767021744.5842532,0,-12.75,100.355,1,0.45,2025-04-22T16:35:42.964+03:00,96,1.6,2025-04-22T14:20:19.516+03:00,0.02197104130929222,0
2025-04-22T16:35:54.071+03:00,1745328953.43064,40.95220614347026,29.14028378603838,76.15304,-1,-1,-1,-1,30,21.5496845433713,-9999,37794.255401125,-0.8128204345703125,0.5123291015625,-0.2607269287109375,37794.245324125,-2.940717506778813,-1.253450543150148,-0.5436799259060022,-0.006851363461464643,0.007437674794346094,0.009840305894613266,0.007169604301452637,-0.005921065807342529,0.001060962677001953,XArbitraryZVertical,0.5839173834467291,-0.1597320018634877,0.760487854790371,-0.234913637316138,-0.8130776882171631,0.5172888040542603,-0.2670523524284363,0,0,0,-1,-1,37769.20638375,unknown,2,2025-04-22T16:35:29.016+03:00,2025-04-21T17:08:51.449+03:00,8608,1.061193,0,0,7149.58,7,22,2025-04-22T16:35:41.914+03:00,767021744.5842532,0,-12.75,100.355,1,0.45,2025-04-22T16:35:42.964+03:00,96,1.6,2025-04-22T14:20:19.516+03:00,0.02197104130929222,0
2025-04-22T16:35:54.081+03:00,1745328953.43064,40.95220614347026,29.14028378603838,76.15304,-1,-1,-1,-1,30,21.5496845433713,-9999,37794.265477125,-0.8155517578125,0.5171356201171875,-0.2651824951171875,37794.255401125,-2.940775885817519,-1.253333772340639,-0.543790306030581,-0.006934653501957655,0.01996871456503868,0.006373836193233728,0.004261255264282227,-0.006320774555206299,0.003732055425643921,XArbitraryZVertical,0.5838640010729901,-0.1598064914088697,0.7605136102024912,-0.234911935981387,-0.8129921555519104,0.5173832774162292,-0.2671294212341309,0,0,0,-1,-1,37769.20638375,unknown,2,2025-04-22T16:35:29.016+03:00,2025-04-21T17:08:51.449+03:00,8608,1.061193,0,0,7149.58,7,22,2025-04-22T16:35:41.914+03:00,767021744.5842532,0,-12.75,100.355,1,0.45,2025-04-22T16:35:42.964+03:00,96,1.6,2025-04-22T14:20:19.516+03:00,0.02197104130929222,0
2025-04-22T16:35:54.091+03:00,1745328953.43064,40.95220614347026,29.14028378603838,76.15304,-1,-1,-1,-1,30,21.5496845433713,-9999,37794.275554125,-0.811859130859375,0.5163421630859375,-0.2701263427734375,37794.265477125,-2.940838764455045,-1.253157236291927,-0.543875507356233,-0.009221777319908142,0.02051732502877712,0.006660924758762121,-0.0005275607109069824,-0.004501581192016602,0.005936950445175171,XArbitraryZVertical,0.5837885099222432,-0.1598793360506155,0.7605608121560204,-0.234896934921611,-0.8129029870033264,0.5174561738967896,-0.2672591507434845,0,0,0,-1,-1,37769.20638375,unknown,2,2025-04-22T16:35:29.016+03:00,2025-04-21T17:08:51.449+03:00,8608,1.061193,0,0,7149.58,7,22,2025-04-22T16:35:41.914+03:00,767021744.5842532,0,-12.75,100.355,1,0.45,2025-04-22T16:35:42.964+03:00,96,1.6,2025-04-22T14:20:19.516+03:00,0.02197104130929222,0
2025-04-22T16:35:54.101+03:00,1745328953.43064,40.95220614347026,29.14028378603838,76.15304,-1,-1,-1,-1,30,21.5496845433713,-9999,37794.285630125,-0.811248779296875,0.51080322265625,-0.2687835693359375,37794.275554125,-2.940927805704966,-1.253033259848132,-0.54396149560957,-0.01293076109141111,0.01429271884262562,0.005570360459387302,-0.002800226211547852,-0.0002873539924621582,0.001446276903152466,XArbitraryZVertical,0.5837308380053963,-0.1599539111568379,0.7605959625219222,-0.2348763691923545,-0.8128278255462646,0.5175297856330872,-0.2673461139202118,0,0,0,-1,-1,37769.20638375,unknown,2,2025-04-22T16:35:29.016+03:00,2025-04-21T17:08:51.449+03:00,8608,1.061193,0,0,7149.58,7,22,2025-04-22T16:35:41.914+03:00,767021744.5842532,0,-12.75,100.355,1,0.45,2025-04-22T16:35:42.964+03:00,96,1.6,2025-04-22T14:20:19.516+03:00,0.02197104130929222,0
2025-04-22T16:35:54.111+03:00,1745328953.43064,40.95220614347026,29.14028378603838,76.15304,-1,-1,-1,-1,30,21.5496845433713,-9999,37794.29570712501,-0.81707763671875,0.508209228515625,-0.2686309814453125,37794.285630125,-2.941102173109827,-1.252997090709984,-0.54407410387139,-0.01950610429048538,0.01554573513567448,0.006060382351279259,0.0007053017616271973,-0.001406073570251465,-0.003059238195419312,XArbitraryZVertical,0.5836987105523048,-0.1600536538468019,0.7606115880963805,-0.2348375769311626,-0.8127627968788147,0.5176261067390442,-0.2673572897911072,0,0,0,-1,-1,37769.20638375,unknown,2,2025-04-22T16:35:29.016+03:00,2025-04-21T17:08:51.449+03:00,8608,1.061193,0,0,7149.58,7,22,2025-04-22T16:35:41.914+03:00,767021744.5842532,0,-12.75,100.355,1,0.45,2025-04-22T16:35:42.964+03:00,96,1.6,2025-04-22T14:20:19.516+03:00,0.02197104130929222,0
2025-04-22T16:35:54.120+03:00,1745328953.43064,40.95220614347026,29.14028378603838,76.15304,-1,-1,-1,-1,30,21.5496845433713,-9999,37794.305783125,-0.8196868896484375,0.508941650390625,-0.265960693359375,37794.29570712501,-2.941281408317569,-1.252914131392553,-0.5441908321557806,-0.01627941802144051,0.02064728736877441,0.007023513782769442,0.0009461641311645508,-0.007609426975250244,-0.00150001049041748,XArbitraryZVertical,0.5836482248728428,-0.1601619418643435,0.7606408445306071,-0.2347942975178441,-0.8126831650733948,0.5177260041236877,-0.2674058079719543,0,0,0,-1,-1,37769.20638375,unknown,2,2025-04-22T16:35:29.016+03:00,2025-04-21T17:08:51.449+03:00,8608,1.061193,0,0,7149.58,7,22,2025-04-22T16:35:41.914+03:00,767021744.5842532,0,-12.75,100.355,1,0.45,2025-04-22T16:35:42.964+03:00,96,1.6,2025-04-22T14:20:19.516+03:00,0.02197104130929222,0
2025-04-22T16:35:54.131+03:00,1745328953.43064,40.95220614347026,29.14028378603838,76.15304,-1,-1,-1,-1,30,21.5496845433713,-9999,37794.31586037501,-0.81829833984375,0.5110015869140625,-0.264312744140625,37794.305783125,-2.941428744411242,-1.25275368349768,-0.5443244089525834,-0.01371319778263569,0.0282620619982481,0.01011757459491491,-0.004564106464385986,-0.009264945983886719,-0.000338435173034668,XArbitraryZVertical,0.5835701432712098,-0.1602766851544959,0.7606866584833055,-0.2347614823434597,-0.8125744462013245,0.5178402662277222,-0.267514556646347,0,0,0,-1,-1,37769.20638375,unknown,2,2025-04-22T16:35:29.016+03:00,2025-04-21T17:08:51.449+03:00,8608,1.061193,0,0,7149.58,7,22,2025-04-22T16:35:41.914+03:00,767021744.5842532,0,-12.75,100.355,1,0.45,2025-04-22T16:35:42.964+03:00,96,1.6,2025-04-22T14:20:19.516+03:00,0.02197104130929222,0
2025-04-22T16:35:54.141+03:00,1745328953.43064,40.95220614347026,29.14028378603838,76.15304,-1,-1,-1,-1,30,21.5496845433713,-9999,37794.325936375,-0.8103790283203125,0.51324462890625,-0.2646942138671875,37794.31586037501,-2.941553888186796,-1.252515503742053,-0.5444745869712786,-0.01717464067041874,0.03233976289629936,0.01297161821275949,-0.006685316562652588,-0.00971376895904541,0.002104341983795166,XArbitraryZVertical,0.5834635911254128,-0.16040063389651,0.7607503661823654,-0.2347353341061033,-0.8124368786811829,0.5179687142372131,-0.267683744430542,0,0,0,-1,-1,37769.20638375,unknown,2,2025-04-22T16:35:29.016+03:00,2025-04-21T17:08:51.449+03:00,8608,1.061193,0,0,7149.58,7,22,2025-04-22T16:35:41.914+03:00,767021744.5842532,0,-12.75,100.355,1,0.45,2025-04-22T16:35:42.964+03:00,96,1.6,2025-04-22T14:20:19.516+03:00,0.02197104130929222,0
2025-04-22T16:35:54.151+03:00,1745328953.43064,40.95220614347026,29.14028378603838,76.15304,-1,-1,-1,-1,30,21.5496845433713,-9999,37794.336012375,-0.802703857421875,0.510986328125,-0.2654571533203125,37794.325936375,-2.941714154056751,-1.25227812601041,-0.5446465767067352,-0.02121439017355442,0.0305559765547514,0.01205362658947706,-0.005216002464294434,-0.006778597831726074,0.003428936004638672,XArbitraryZVertical,0.5833536465234523,-0.1605433698832357,0.7608149430858797,-0.2347017527198948,-0.8122887015342712,0.5181158185005188,-0.2678487002849579,0,0,0,-1,-1,37769.20638375,unknown,2,2025-04-22T16:35:29.016+03:00,2025-04-21T17:08:51.449+03:00,8608,1.061193,0,0,7149.58,7,22,2025-04-22T16:35:41.914+03:00,767021744.5842532,0,-12.75,100.355,1,0.45,2025-04-22T16:35:42.964+03:00,96,1.6,2025-04-22T14:20:19.516+03:00,0.02197104130929222,0
2025-04-22T16:35:54.161+03:00,1745328953.43064,40.95220614347026,29.14028378603838,76.15304,-1,-1,-1,-1,30,21.5496845433713,-9999,37794.346089375,-0.799560546875,0.5099945068359375,-0.2707977294921875,37794.336012375,-2.9419565474033,-1.252102146813345,-0.5448280925826341,-0.02873708866536617,0.03003393113613129,0.01342165842652321,0.002719342708587646,-0.004828214645385742,0.002932041883468628,XArbitraryZVertical,0.5832600701902436,-0.1607066299929155,0.7608698318880404,-0.2346444073736192,-0.8121521472930908,0.5182710886001587,-0.2679621279239655,0,0,0,-1,-1,37769.20638375,unknown,2,2025-04-22T16:35:29.016+03:00,2025-04-21T17:08:51.449+03:00,8608,1.061193,0,0,7149.58,7,22,2025-04-22T16:35:41.914+03:00,767021744.5842532,0,-12.75,100.355,1,0.45,2025-04-22T16:35:42.964+03:00,96,1.6,2025-04-22T14:20:19.516+03:00,0.02197104130929222,0
2025-04-22T16:35:54.171+03:00,1745328953.43064,40.95220614347026,29.14028378603838,76.15304,-1,-1,-1,-1,30,21.5496845433713,-9999,37794.356165375,-0.8008270263671875,0.5077667236328125,-0.2701568603515625,37794.346089375,-2.942275566288835,-1.25201633123956,-0.5451008960855975,-0.0376107394695282,0.01947609521448612,0.02044494636356831,0.01008462905883789,-0.007502913475036621,0.00257602334022522,XArbitraryZVertical,0.5831909695823581,-0.1609177960159973,0.760895016121323,-0.2345897683140513,-0.8119948506355286,0.5185043811798096,-0.2679875195026398,0,0,0,-1,-1,37769.20638375,unknown,2,2025-04-22T16:35:29.016+03:00,2025-04-21T17:08:51.449+03:00,8608,1.061193,0,0,7149.58,7,22,2025-04-22T16:35:41.914+03:00,767021744.5842532,0,-12.75,100.355,1,0.45,2025-04-22T16:35:42.964+03:00,96,1.6,2025-04-22T14:20:19.516+03:00,0.02197104130929222,0
2025-04-22T16:35:54.181+03:00,1745328953.43064,40.95220614347026,29.14028378603838,76.15304,-1,-1,-1,-1,30,21.5496845433713,-9999,37794.366242375,-0.8123779296875,0.5054473876953125,-0.265716552734375,37794.356165375,-2.942707436279153,-1.252053106875353,-0.5454184229687868,-0.04995236173272133,0.02219864539802074,0.01670320518314838,0.01245582103729248,-0.008766233921051025,-0.004082053899765015,XArbitraryZVertical,0.5831575712308495,-0.1611651855129169,0.7608916144091082,-0.2345141237314255,-0.8118484020233154,0.5187758207321167,-0.2679060697555542,0,0,0,-1,-1,37769.20638375,unknown,2,2025-04-22T16:35:29.016+03:00,2025-04-21T17:08:51.449+03:00,8608,1.061193,0,0,7149.58,7,22,2025-04-22T16:35:41.914+03:00,767021744.5842532,0,-12.75,100.355,1,0.45,2025-04-22T16:35:42.964+03:00,96,1.6,2025-04-22T14:20:19.516+03:00,0.02197104130929222,0
2025-04-22T16:35:54.192+03:00,1745328953.43064,40.95220614347026,29.14028378603838,76.15304,-1,-1,-1,-1,30,21.5496845433713,-9999,37794.37631837501,-0.826934814453125,0.510009765625,-0.2723236083984375,37794.366242375,-2.943177745927974,-1.252012837989808,-0.5457446895662689,-0.04583777487277985,0.03640767186880112,0.02184390649199486,0.009964883327484131,-0.01128804683685303,-0.001783102750778198,XArbitraryZVertical,0.5830913103597068,-0.1614362568470071,0.7609139999103093,-0.234420004514095,-0.8116769194602966,0.5190547704696655,-0.2678857147693634,0,0,0,-1,-1,37769.20638375,unknown,2,2025-04-22T16:35:29.016+03:00,2025-04-21T17:08:51.449+03:00,8608,1.061193,0,0,7149.58,7,22,2025-04-22T16:35:41.914+03:00,767021744.5842532,0,-12.75,100.355,1,0.45,2025-04-22T16:35:42.964+03:00,96,1.6,2025-04-22T14:20:19.516+03:00,0.02197104130929222,0
2025-04-22T16:35:54.202+03:00,1745328953.43064,40.95220614347026,29.14028378603838,76.15304,-1,-1,-1,-1,30,21.5496845433713,-9999,37794.386395375,-0.82452392578125,0.5135040283203125,-0.27471923828125,37794.37631837501,-2.943601566949196,-1.251788588220327,-0.5460780473748026,-0.04238186031579971,0.04759234935045242,0.02232124470174313,-0.003519356250762939,-0.01416701078414917,0.001884698867797852,XArbitraryZVertical,0.5829584241441628,-0.1617181295257206,0.7609834905704764,-0.2343306075547714,-0.8114524483680725,0.5193396806716919,-0.2680134475231171,0,0,0,-1,-1,37769.20638375,unknown,2,2025-04-22T16:35:29.016+03:00,2025-04-21T17:08:51.449+03:00,8608,1.061193,0,0,7149.58,7,22,2025-04-22T16:35:41.914+03:00,767021744.5842532,0,-12.75,100.355,1,0.45,2025-04-22T16:35:42.964+03:00,96,1.6,2025-04-22T14:20:19.516+03:00,0.02197104130929222,0
2025-04-22T16:35:54.226+03:00,1745328953.43064,40.95220614347026,29.14028378603838,76.15304,-1,-1,-1,-1,30,21.5496845433713,-9999,37794.396471375,-0.81414794921875,0.5122528076171875,-0.265472412109375,37794.386395375,-2.943968335506738,-1.251492876436137,-0.5464135607125666,-0.03858232870697975,0.0473095215857029,0.02601158618927002,-0.01668834686279297,-0.009494543075561523,-0.004613399505615234,XArbitraryZVertical,0.5828027694072694,-0.1619925616910433,0.7610668183279956,-0.2342576543902455,-0.8112077116966248,0.5196263194084167,-0.2681986689567566,0,0,0,-1,-1,37769.20638375,unknown,2,2025-04-22T16:35:29.016+03:00,2025-04-21T17:08:51.449+03:00,8608,1.061193,0,0,7149.58,7,22,2025-04-22T16:35:41.914+03:00,767021744.5842532,0,-12.75,100.355,1,0.45,2025-04-22T16:35:42.964+03:00,96,1.6,2025-04-22T14:20:19.516+03:00,0.02197104130929222,0
2025-04-22T16:35:54.227+03:00,1745328953.43064,40.95220614347026,29.14028378603838,76.15304,-1,-1,-1,-1,30,21.5496845433713,-9999,37794.406548375,-0.8098297119140625,0.5135040283203125,-0.261962890625,37794.396471375,-2.944292504291902,-1.251124714089255,-0.5467600357577231,-0.03670193627476692,0.05944308638572693,0.02566694095730782,-0.01201432943344116,-0.006570935249328613,-0.004829198122024536,XArbitraryZVertical,0.5826224629587018,-0.1622673799626993,0.7611646987689505,-0.2341979205657328,-0.8109379410743713,0.5199223160743713,-0.2684407234191895,0,0,0,-1,-1,37769.20638375,unknown,2,2025-04-22T16:35:29.016+03:00,2025-04-21T17:08:51.449+03:00,8608,1.061193,0,0,7149.58,7,22,2025-04-22T16:35:41.914+03:00,767021744.5842532,0,-12.75,100.355,1,0.45,2025-04-22T16:35:42.964+03:00,96,1.6,2025-04-22T14:20:19.516+03:00,0.02197104130929222,0
2025-04-22T16:35:54.231+03:00,1745328953.43064,40.95220614347026,29.14028378603838,76.15304,-1,-1,-1,-1,30,21.5496845433713,-9999,37794.416624375,-0.8061370849609375,0.511383056640625,-0.2629241943359375,37794.406548375,-2.944655965917102,-1.250693446756324,-0.5471188247147245,-0.0441819541156292,0.06511881202459335,0.02351244352757931,-0.002617955207824707,-0.007670938968658447,0.004510372877120972,XArbitraryZVertical,0.5824143645821892,-0.1625658895010545,0.7612837187577411,-0.2341213378897204,-0.8106448650360107,0.5202288031578064,-0.2687316834926605,0,0,0,-1,-1,37769.20638375,unknown,2,2025-04-22T16:35:29.016+03:00,2025-04-21T17:08:51.449+03:00,8608,1.061193,0,0,7149.58,7,22,2025-04-22T16:35:41.914+03:00,767021744.5842532,0,-12.75,100.355,1,0.45,2025-04-22T16:35:42.964+03:00,96,1.6,2025-04-22T14:20:19.516+03:00,0.02197104130929222,0
2025-04-22T16:35:54.242+03:00,1745328953.43064,40.95220614347026,29.14028378603838,76.15304,-1,-1,-1,-1,30,21.5496845433713,-9999,37794.426700375,-0.803314208984375,0.5096435546875,-0.2673187255859375,37794.416624375,-2.945153120627145,-1.250355110029508,-0.5474759906466271,-0.05933261290192604,0.05337913706898689,0.0193351749330759,0.000883638858795166,-0.006755173206329346,0.007716774940490723,XArbitraryZVertical,0.5822306890918473,-0.162891738657946,0.761391650053501,-0.2340008626977272,-0.8103775382041931,0.5205338001251221,-0.268947422504425,0,0,0,-1,-1,37769.20638375,unknown,2,2025-04-22T16:35:29.016+03:00,2025-04-21T17:08:51.449+03:00,8608,1.061193,0,0,7149.58,7,22,2025-04-22T16:35:41.914+03:00,767021744.5842532,0,-12.75,100.355,1,0.45,2025-04-22T16:35:42.964+03:00,96,1.6,2025-04-22T14:20:19.516+03:00,0.02197104130929222,0
2025-04-22T16:35:54.251+03:00,1745328953.43064,40.95220614347026,29.14028378603838,76.15304,-1,-1,-1,-1,30,21.5496845433713,-9999,37794.43677737501,-0.8050384521484375,0.51214599609375,-0.2759552001953125,37794.426700375,-2.945778447537749,-1.250213304704777,-0.5478712963508823,-0.06662195175886154,0.03828886523842812,0.02124892175197601,0.003915488719940186,-0.01015961170196533,0.006317228078842163,XArbitraryZVertical,0.5821096854316212,-0.1632469614353866,0.7614521030340325,-0.2338578077376628,-0.8101441264152527,0.5208712816238403,-0.2689974904060364,0,0,0,-1,-1,37769.20638375,unknown,2,2025-04-22T16:35:29.016+03:00,2025-04-21T17:08:51.449+03:00,8608,1.061193,0,0,7149.58,7,22,2025-04-22T16:35:41.914+03:00,767021744.5842532,0,-12.75,100.355,1,0.45,2025-04-22T16:35:42.964+03:00,96,1.6,2025-04-22T14:20:19.516+03:00,0.02197104130929222,0
2025-04-22T16:35:54.262+03:00,1745328953.43064,40.95220614347026,29.14028378603838,76.15304,-1,-1,-1,-1,30,21.5496845433713,-9999,37794.446853375,-0.8033294677734375,0.511932373046875,-0.279571533203125,37794.43677737501,-2.94649064889841,-1.250224459202916,-0.5483130265891545,-0.077729731798172,0.03092575632035732,0.02382286638021469,0.006049931049346924,-0.01206254959106445,0.000742495059967041,XArbitraryZVertical,0.5820377529734811,-0.1636279501129399,0.7614716533086284,-0.2337066683990423,-0.8099285960197449,0.5212482810020447,-0.2689158916473389,0,0,0,-1,-1,37769.20638375,unknown,2,2025-04-22T16:35:29.016+03:00,2025-04-21T17:08:51.449+03:00,8608,1.061193,0,0,7149.58,7,22,2025-04-22T16:35:41.914+03:00,767021744.5842532,0,-12.75,100.355,1,0.45,2025-04-22T16:35:42.964+03:00,96,1.6,2025-04-22T14:20:19.516+03:00,0.02197104130929222,0
2025-04-22T16:35:54.272+03:00,1745328953.43064,40.95220614347026,29.14028378603838,76.15304,-1,-1,-1,-1,30,21.5496845433713,-9999,37794.456930375,-0.8004608154296875,0.5059814453125,-0.2758636474609375,37794.446853375,-2.947343574894006,-1.250422635005809,-0.5487972306415456,-0.08968972414731979,0.01649035885930061,0.02151603624224663,0.004642844200134277,-0.009103477001190186,-0.007874637842178345,XArbitraryZVertical,0.5820234972217503,-0.1640448167210341,0.7614475079803357,-0.233528739175145,-0.8097423315048218,0.5216614603996277,-0.2686758935451508,0,0,0,-1,-1,37769.20638375,unknown,2,2025-04-22T16:35:29.016+03:00,2025-04-21T17:08:51.449+03:00,8608,1.061193,0,0,7149.58,7,22,2025-04-22T16:35:41.914+03:00,767021744.5842532,0,-12.75,100.355,1,0.45,2025-04-22T16:35:42.964+03:00,96,1.6,2025-04-22T14:20:19.516+03:00,0.02197104130929222,0
2025-04-22T16:35:54.282+03:00,1745328953.43064,40.95220614347026,29.14028378603838,76.15304,-1,-1,-1,-1,30,21.5496845433713,-9999,37794.467006375,-0.8019256591796875,0.5098724365234375,-0.268646240234375,37794.456930375,-2.94828425964322,-1.250751684844844,-0.5492807677175209,-0.09222551435232162,0.01806488633155823,0.02360532060265541,0.005987048149108887,-0.01061475276947021,-0.01134851574897766,XArbitraryZVertical,0.5820515996032155,-0.1644716973291922,0.7613953258476311,-0.2333280826456877,-0.8095909953117371,0.5220739245414734,-0.2683299779891968,0,0,0,-1,-1,37769.20638375,unknown,2,2025-04-22T16:35:29.016+03:00,2025-04-21T17:08:51.449+03:00,8608,1.061193,0,0,7149.58,7,22,2025-04-22T16:35:41.914+03:00,767021744.5842532,0,-12.75,100.355,1,0.45,2025-04-22T16:35:42.964+03:00,96,1.6,2025-04-22T14:20:19.516+03:00,0.02197104130929222,0
2025-04-22T16:35:54.292+03:00,1745328953.43064,40.95220614347026,29.14028378603838,76.15304,-1,-1,-1,-1,30,21.5496845433713,-9999,37794.477083375,-0.80389404296875,0.5180206298828125,-0.262542724609375,37794.467006375,-2.949238880594206,-1.251060648119172,-0.5497709946976642,-0.09135119616985321,0.02026039734482765,0.02243912220001221,0.009885728359222412,-0.01602232456207275,-0.006857395172119141,XArbitraryZVertical,0.5820702537523721,-0.1649075973594954,0.7613498781882764,-0.2331223958939814,-0.8094308972358704,0.522491991519928,-0.2679994106292725,0,0,0,-1,-1,37769.20638375,unknown,2,2025-04-22T16:35:29.016+03:00,2025-04-21T17:08:51.449+03:00,8608,1.061193,0,0,7149.58,7,22,2025-04-22T16:35:41.914+03:00,767021744.5842532,0,-12.75,100.355,1,0.45,2025-04-22T16:35:42.964+03:00,96,1.6,2025-04-22T14:20:19.516+03:00,0.02197104130929222,0
2025-04-22T16:35:54.302+03:00,1745328953.43064,40.95220614347026,29.14028378603838,76.15304,-1,-1,-1,-1,30,21.5496845433713,-9999,37794.487159375,-0.8079376220703125,0.5188140869140625,-0.259674072265625,37794.477083375,-2.950171002151796,-1.251345415075891,-0.5502121028304787,-0.08511374145746231,0.02055580727756023,0.0175786204636097,0.007164418697357178,-0.01130193471908569,-0.0003853440284729004,XArbitraryZVertical,0.5820832715055266,-0.1653203325054109,0.7613154053060868,-0.2329101534232098,-0.8092883825302124,0.5228680372238159,-0.2676964998245239,0,0,0,-1,-1,37769.20638375,unknown,2,2025-04-22T16:35:29.016+03:00,2025-04-21T17:08:51.449+03:00,8608,1.061193,0,0,7149.58,7,22,2025-04-22T16:35:41.914+03:00,767021744.5842532,0,-12.75,100.355,1,0.45,2025-04-22T16:35:42.964+03:00,96,1.6,2025-04-22T14:20:19.516+03:00,0.02197104130929222,0
2025-04-22T16:35:54.312+03:00,1745328953.43064,40.95220614347026,29.14028378603838,76.15304,-1,-1,-1,-1,30,21.5496845433713,-9999,37794.49723637501,-0.8151702880859375,0.5112457275390625,-0.2582550048828125,37794.487159375,-2.951103034709254,-1.251618204017262,-0.5506336218617001,-0.08802537620067596,0.02542513236403465,0.01330877374857664,0.004693388938903809,-0.004901528358459473,0.005702883005142212,XArbitraryZVertical,0.582092253458051,-0.1657266908814473,0.7612869539554403,-0.232691781376701,-0.8091520071029663,0.5232272744178772,-0.267406553030014,0,0,0,-1,-1,37769.20638375,unknown,2,2025-04-22T16:35:29.016+03:00,2025-04-21T17:08:51.449+03:00,8608,1.061193,0,0,7149.58,7,22,2025-04-22T16:35:41.914+03:00,767021744.5842532,0,-12.75,100.355,1,0.45,2025-04-22T16:35:42.964+03:00,96,1.6,2025-04-22T14:20:19.516+03:00,0.02197104130929222,0
2025-04-22T16:35:54.323+03:00,1745328953.43064,40.95220614347026,29.14028378603838,76.15304,-1,-1,-1,-1,30,21.5496845433713,-9999,37794.507312375,-0.821319580078125,0.50592041015625,-0.2622833251953125,37794.49723637501,-2.952067167973031,-1.251789060913986,-0.5510515578022784,-0.0943639725446701,0.04065015539526939,0.01542492210865021,0.0004115104675292969,-0.005364477634429932,0.008303582668304443,XArbitraryZVertical,0.5820596206135952,-0.1661528283091838,0.761292275807811,-0.2324518652533228,-0.808989942073822,0.5235834121704102,-0.2671996653079987,0,0,0,-1,-1,37769.20638375,unknown,2,2025-04-22T16:35:29.016+03:00,2025-04-21T17:08:51.449+03:00,8608,1.061193,0,0,7149.58,7,22,2025-04-22T16:35:41.914+03:00,767021744.5842532,0,-12.75,100.355,1,0.45,2025-04-22T16:35:42.964+03:00,96,1.6,2025-04-22T14:20:19.516+03:00,0.02197104130929222,0
2025-04-22T16:35:54.332+03:00,1745328953.43064,40.95220614347026,29.14028378603838,76.15304,-1,-1,-1,-1,30,21.5496845433713,-9999,37794.517388375,-0.8216552734375,0.508514404296875,-0.2690887451171875,37794.507312375,-2.953093505792678,-1.2518532822169,-0.5514835861483625,-0.09958749264478683,0.0549238994717598,0.01485074404627085,-0.007430851459503174,-0.01414012908935547,0.008394300937652588,XArbitraryZVertical,0.5819802980521273,-0.166615003058796,0.7613338368310683,-0.2321832617135503,-0.8087921738624573,0.5239514708518982,-0.2670767605304718,0,0,0,-1,-1,37769.20638375,unknown,2,2025-04-22T16:35:29.016+03:00,2025-04-21T17:08:51.449+03:00,8608,1.061193,0,0,7149.58,7,22,2025-04-22T16:35:41.914+03:00,767021744.5842532,0,-12.75,100.355,1,0.45,2025-04-22T16:35:42.964+03:00,96,1.6,2025-04-22T14:20:19.516+03:00,0.02197104130929222,0
2025-04-22T16:35:54.343+03:00,1745328953.43064,40.95220614347026,29.14028378603838,76.15304,-1,-1,-1,-1,30,21.5496845433713,-9999,37794.527465375,-0.813629150390625,0.5102691650390625,-0.2730712890625,37794.517388375,-2.954194316099052,-1.251865630868274,-0.55192355458897,-0.1056842729449272,0.057486392557621,0.01274950988590717,-0.01289558410644531,-0.01855844259262085,0.004527837038040161,XArbitraryZVertical,0.5818743166540208,-0.1671079526594818,0.761397893776016,-0.2318841408606171,-0.8085764050483704,0.5243261456489563,-0.2669944167137146,0,0,0,-1,-1,37769.20638375,unknown,2,2025-04-22T16:35:29.016+03:00,2025-04-21T17:08:51.449+03:00,8608,1.061193,0,0,7149.58,7,22,2025-04-22T16:35:41.914+03:00,767021744.5842532,0,-12.75,100.355,1,0.45,2025-04-22T16:35:42.964+03:00,96,1.6,2025-04-22T14:20:19.516+03:00,0.02197104130929222,0
2025-04-22T16:35:54.353+03:00,1745328953.43064,40.95220614347026,29.14028378603838,76.15304,-1,-1,-1,-1,30,21.5496845433713,-9999,37794.537541375,-0.806060791015625,0.5119476318359375,-0.2733917236328125,37794.527465375,-2.955387625674754,-1.251912700882398,-0.5523567201718691,-0.1151235774159431,0.0539875328540802,0.008687124587595463,-0.01239681243896484,-0.01543295383453369,-0.003744900226593018,XArbitraryZVertical,0.5817736816800911,-0.1676210002100029,0.7614635268964191,-0.2315508502305759,-0.8083733320236206,0.5246949195861816,-0.2668851613998413,0,0,0,-1,-1,37769.20638375,unknown,2,2025-04-22T16:35:29.016+03:00,2025-04-21T17:08:51.449+03:00,8608,1.061193,0,0,7149.58,7,22,2025-04-22T16:35:41.914+03:00,767021744.5842532,0,-12.75,100.355,1,0.45,2025-04-22T16:35:42.964+03:00,96,1.6,2025-04-22T14:20:19.516+03:00,0.02197104130929222,0
2025-04-22T16:35:54.362+03:00,1745328953.43064,40.95220614347026,29.14028378603838,76.15304,-1,-1,-1,-1,30,21.5496845433713,-9999,37794.547618375,-0.80340576171875,0.50885009765625,-0.2678375244140625,37794.537541375,-2.956726607637856,-1.252079718057089,-0.5527838247046851,-0.1291360557079315,0.0514221116900444,0.004890388809144497,-0.004828989505767822,-0.0150335431098938,-0.005979657173156738,XArbitraryZVertical,0.5817063177050152,-0.1681600981712697,0.761511619655791,-0.2311705526805994,-0.8082048892974854,0.5250585079193115,-0.2666798830032349,0,0,0,-1,-1,37769.20638375,unknown,2,2025-04-22T16:35:29.016+03:00,2025-04-21T17:08:51.449+03:00,8608,1.061193,0,0,7149.58,7,22,2025-04-22T16:35:41.914+03:00,767021744.5842532,0,-12.75,100.355,1,0.45,2025-04-22T16:35:42.964+03:00,96,1.6,2025-04-22T14:20:19.516+03:00,0.02197104130929222,0
2025-04-22T16:35:54.373+03:00,1745328953.43064,40.95220614347026,29.14028378603838,76.15304,-1,-1,-1,-1,30,21.5496845433713,-9999,37794.55769437501,-0.80804443359375,0.5018463134765625,-0.2580108642578125,37794.547618375,-2.958249249156659,-1.252357077216908,-0.5532148125531622,-0.1443134099245071,0.05158562958240509,8.018722292035818e-05,0.002598404884338379,-0.01303517818450928,-0.007235944271087646,XArbitraryZVertical,0.5816647860982237,-0.1687413515297845,0.7615482311328403,-0.2307307237933936,-0.8080639243125916,0.5254252552986145,-0.2663848698139191,0,0,0,-1,-1,37769.20638375,unknown,2,2025-04-22T16:35:29.016+03:00,2025-04-21T17:08:51.449+03:00,8608,1.061193,0,0,7149.58,7,22,2025-04-22T16:35:41.914+03:00,767021744.5842532,0,-12.75,100.355,1,0.45,2025-04-22T16:35:42.964+03:00,96,1.6,2025-04-22T14:20:19.516+03:00,0.02197104130929222,0
2025-04-22T16:35:54.383+03:00,1745328953.43064,40.95220614347026,29.14028378603838,76.15304,-1,-1,-1,-1,30,21.5496845433713,-9999,37794.567771375,-0.817230224609375,0.49658203125,-0.2535247802734375,37794.55769437501,-2.959953910706842,-1.252669681927098,-0.553663603188811,-0.1605550348758698,0.06260359287261963,-0.002456373767927289,0.004746377468109131,-0.01790302991867065,-0.0008484721183776855,XArbitraryZVertical,0.5816198784726014,-0.1693785178945183,0.7615927861426495,-0.2302295029407066,-0.8079231381416321,0.5258070230484009,-0.266058474779129,0,0,0,-1,-1,37769.20638375,unknown,2,2025-04-22T16:35:29.016+03:00,2025-04-21T17:08:51.449+03:00,8608,1.061193,0,0,7149.58,7,22,2025-04-22T16:35:41.914+03:00,767021744.5842532,0,-12.75,100.355,1,0.45,2025-04-22T16:35:42.964+03:00,96,1.6,2025-04-22T14:20:19.516+03:00,0.02197104130929222,0
2025-04-22T16:35:54.393+03:00,1745328953.43064,40.95220614347026,29.14028378603838,76.15304,-1,-1,-1,-1,30,21.5496845433713,-9999,37794.577847375,-0.8247833251953125,0.4931182861328125,-0.260101318359375,37794.567771375,-2.961854140883401,-1.252966851935244,-0.5541694077221099,-0.1779332309961319,0.07991280406713486,-0.00162067380733788,-0.0007221102714538574,-0.02474188804626465,0.008883833885192871,XArbitraryZVertical,0.5815491830828742,-0.1700968571339055,0.7616561698432238,-0.2296680694718083,-0.8077493906021118,0.5262371897697449,-0.2657352089881897,0,0,0,-1,-1,37769.20638375,unknown,2,2025-04-22T16:35:29.016+03:00,2025-04-21T17:08:51.449+03:00,8608,1.061193,0,0,7149.58,7,22,2025-04-22T16:35:41.914+03:00,767021744.5842532,0,-12.75,100.355,1,0.45,2025-04-22T16:35:42.964+03:00,96,1.6,2025-04-22T14:20:19.516+03:00,0.02197104130929222,0
2025-04-22T16:35:54.403+03:00,1745328953.43064,40.95220614347026,29.14028378603838,76.15304,-1,-1,-1,-1,30,21.5496845433713,-9999,37794.587924375,-0.825347900390625,0.49267578125,-0.26873779296875,37794.577847375,-2.963964322375053,-1.253235327501449,-0.5547392372466384,-0.1952284574508667,0.09216561168432236,-0.00114070565905422,-0.01083886623382568,-0.03071963787078857,0.01179292798042297,XArbitraryZVertical,0.5814458136874503,-0.1709047905246201,0.7617427639398581,-0.2290417083002576,-0.8075356483459473,0.5267216563224792,-0.2654246389865875,0,0,0,-1,-1,37769.20638375,unknown,2,2025-04-22T16:35:29.016+03:00,2025-04-21T17:08:51.449+03:00,8608,1.061193,0,0,7149.58,7,22,2025-04-22T16:35:41.914+03:00,767021744.5842532,0,-12.75,100.355,1,0.45,2025-04-22T16:35:42.964+03:00,96,1.6,2025-04-22T14:20:19.516+03:00,0.02197104130929222,0
