loggingTime(txt),locationTimestamp_since1970(s),locationLatitude(WGS84),locationLongitude(WGS84),locationAltitude(m),locationSpeed(m/s),locationSpeedAccuracy(m/s),locationCourse(°),locationCourseAccuracy(°),locationVerticalAccuracy(m),locationHorizontalAccuracy(m),locationFloor(Z),accelerometerTimestamp_sinceReboot(s),accelerometerAccelerationX(G),accelerometerAccelerationY(G),accelerometerAccelerationZ(G),motionTimestamp_sinceReboot(s),motionYaw(rad),motionRoll(rad),motionPitch(rad),motionRotationRateX(rad/s),motionRotationRateY(rad/s),motionRotationRateZ(rad/s),motionUserAccelerationX(G),motionUserAccelerationY(G),motionUserAccelerationZ(G),motionAttitudeReferenceFrame(txt),motionQuaternionX(R),motionQuaternionY(R),motionQuaternionZ(R),motionQuaternionW(R),motionGravityX(G),motionGravityY(G),motionGravityZ(G),motionMagneticFieldX(µT),motionMagneticFieldY(µT),motionMagneticFieldZ(µT),motionHeading(°),motionMagneticFieldCalibrationAccuracy(Z),activityTimestamp_sinceReboot(s),activity(txt),activityActivityConfidence(Z),activityActivityStartDate(txt),pedometerStartDate(txt),pedometerNumberofSteps(N),pedometerAverageActivePace(s/m),pedometerCurrentPace(s/m),pedometerCurrentCadence(steps/s),pedometerDistance(m),pedometerFloorAscended(N),pedometerFloorDescended(N),pedometerEndDate(txt),altimeterTimestamp_sinceReboot(s),altimeterReset(bool),altimeterRelativeAltitude(m),altimeterPressure(kPa),batteryState(N),batteryLevel(R),heartRateBPMTimestamp(txt),heartRateBPM(N),heartRateBPS(R),heartRateVariabilityTimestamp(txt),heartRateVariability(ms),label
2025-04-22T16:24:26.722+03:00,1745328260.926829,40.95218382987524,29.14027220483019,76.06538,-1,-1,-1,-1,30,19.93911045593109,-9999,37264.485043875,-0.8055877685546875,0.5401611328125,-0.1715240478515625,37264.474967875,-2.865622903965496,-1.34250693480421,-0.6066454197982232,-0.0211767740547657,0.01146833971142769,0.0133356461301446,-0.01681268215179443,0.02343690395355225,-0.02029299736022949,XArbitraryZVertical,0.6201037582630833,-0.1500215157234607,0.7146401064451166,-0.286800296142254,-0.8002495765686035,0.5701146721839905,-0.1859297454357147,0,0,0,-1,-1,37256.12331129167,unknown,2,2025-04-22T16:24:18.342+03:00,2025-04-21T17:08:51.449+03:00,8575,1.05484,0,0,7126.063,7,22,2025-04-22T16:23:44.810+03:00,767021066.1703798,0,-11.82999,100.3452,1,0.5,2025-04-22T16:24:21.690+03:00,112,1.866666666666667,2025-04-22T14:20:19.516+03:00,0.02197104130929222,0
2025-04-22T16:24:26.724+03:00,1745328260.926829,40.95218382987524,29.14027220483019,76.06538,-1,-1,-1,-1,30,19.93911045593109,-9999,37264.495119875,-0.7799072265625,0.57818603515625,-0.182464599609375,37264.485043875,-2.865918992952885,-1.342601004888829,-0.6068667743499401,-0.02908483147621155,0.005877765826880932,0.01978099346160889,-0.006649136543273926,-0.02308601140975952,0.009571388363838196,XArbitraryZVertical,0.620106160190882,-0.1501846015421785,0.7146185687661972,-0.2867630762148151,-0.8001439571380615,0.5702965259552002,-0.1858258694410324,0,0,0,-1,-1,37256.12331129167,unknown,2,2025-04-22T16:24:18.342+03:00,2025-04-21T17:08:51.449+03:00,8575,1.05484,0,0,7126.063,7,22,2025-04-22T16:23:44.810+03:00,767021066.1703798,0,-11.82999,100.3452,1,0.5,2025-04-22T16:24:21.690+03:00,112,1.866666666666667,2025-04-22T14:20:19.516+03:00,0.02197104130929222,0
2025-04-22T16:24:26.729+03:00,1745328260.926829,40.95218382987524,29.14027220483019,76.06538,-1,-1,-1,-1,30,19.93911045593109,-9999,37264.505195875,-0.79229736328125,0.5625,-0.197784423828125,37264.495119875,-2.866219317431887,-1.342709232338965,-0.6071713102150122,-0.02602858655154705,0.004374677781015635,0.02417307905852795,-0.003319203853607178,-0.02466362714767456,0.01341278851032257,XArbitraryZVertical,0.620109844644839,-0.1503787786661759,0.7145804128444044,-0.2867485373032546,-0.7999948859214783,0.5705466270446777,-0.1857000142335892,0,0,0,-1,-1,37256.12331129167,unknown,2,2025-04-22T16:24:18.342+03:00,2025-04-21T17:08:51.449+03:00,8575,1.05484,0,0,7126.063,7,22,2025-04-22T16:23:44.810+03:00,767021066.1703798,0,-11.82999,100.3452,1,0.5,2025-04-22T16:24:21.690+03:00,112,1.866666666666667,2025-04-22T14:20:19.516+03:00,0.02197104130929222,0
2025-04-22T16:24:26.739+03:00,1745328260.926829,40.95218382987524,29.14027220483019,76.06538,-1,-1,-1,-1,30,19.93911045593109,-9999,37264.515271875,-0.8021240234375,0.561920166015625,-0.19818115234375,37264.505195875,-2.86639601078497,-1.342732914516956,-0.6074810604873552,-0.0202667061239481,0.008534136228263378,0.02503667771816254,0.02043884992599487,0.007430672645568848,0.001207903027534485,XArbitraryZVertical,0.6200923549250844,-0.1505487404592785,0.7145498745738782,-0.2867732774146017,-0.7998270988464355,0.5708010196685791,-0.1856410950422287,0,0,0,-1,-1,37256.12331129167,unknown,2,2025-04-22T16:24:18.342+03:00,2025-04-21T17:08:51.449+03:00,8575,1.05484,0,0,7126.063,7,22,2025-04-22T16:23:44.810+03:00,767021066.1703798,0,-11.82999,100.3452,1,0.5,2025-04-22T16:24:21.690+03:00,112,1.866666666666667,2025-04-22T14:20:19.516+03:00,0.02197104130929222,0
2025-04-22T16:24:26.750+03:00,1745328260.926829,40.95218382987524,29.14027220483019,76.06538,-1,-1,-1,-1,30,19.93911045593109,-9999,37264.525347875,-0.7974700927734375,0.5780487060546875,-0.193878173828125,37264.515271875,-2.866568864980651,-1.342762378826798,-0.6077590698469012,-0.01668395474553108,0.008204436860978603,0.02279376238584518,0.00472569465637207,-0.01040607690811157,-0.01356096565723419,XArbitraryZVertical,0.6200784712264364,-0.1507045078205431,0.7145220737521365,-0.2867910037818499,-0.7996780872344971,0.5710292458534241,-0.1855816841125488,0,0,0,-1,-1,37256.12331129167,unknown,2,2025-04-22T16:24:18.342+03:00,2025-04-21T17:08:51.449+03:00,8575,1.05484,0,0,7126.063,7,22,2025-04-22T16:23:44.810+03:00,767021066.1703798,0,-11.82999,100.3452,1,0.5,2025-04-22T16:24:21.690+03:00,112,1.866666666666667,2025-04-22T14:20:19.516+03:00,0.02197104130929222,0
2025-04-22T16:24:26.759+03:00,1745328260.926829,40.95218382987524,29.14027220483019,76.06538,-1,-1,-1,-1,30,19.93911045593109,-9999,37264.535423875,-0.8016204833984375,0.578277587890625,-0.191436767578125,37264.525347875,-2.866728894642212,-1.342789227339082,-0.607766074996861,-0.01013683993369341,0.01246869005262852,0.01693747192621231,-0.001819193363189697,-0.007451713085174561,-0.01143187284469604,XArbitraryZVertical,0.6200757200414169,-0.1507529642624564,0.714535538011645,-0.2867378028624428,-0.7996791005134583,0.5710350275039673,-0.1855592876672745,0,0,0,-1,-1,37256.12331129167,unknown,2,2025-04-22T16:24:18.342+03:00,2025-04-21T17:08:51.449+03:00,8575,1.05484,0,0,7126.063,7,22,2025-04-22T16:23:44.810+03:00,767021066.1703798,0,-11.82999,100.3452,1,0.5,2025-04-22T16:24:21.690+03:00,112,1.866666666666667,2025-04-22T14:20:19.516+03:00,0.02197104130929222,0
2025-04-22T16:24:26.769+03:00,1745328260.926829,40.95218382987524,29.14027220483019,76.06538,-1,-1,-1,-1,30,19.93911045593109,-9999,37264.545499875,-0.80755615234375,0.5739898681640625,-0.1922454833984375,37264.535423875,-2.866692988006612,-1.34252553781982,-0.6079779872929073,-0.005528239533305168,0.02212131768465042,0.01313820574432611,0.002606749534606934,0.008182406425476074,-0.007433772087097168,XArbitraryZVertical,0.6199755324905776,-0.1508607751881473,0.7145788141119858,-0.2867896434072918,-0.7995121479034424,0.5712089538574219,-0.1857427358627319,0,0,0,-1,-1,37256.12331129167,unknown,2,2025-04-22T16:24:18.342+03:00,2025-04-21T17:08:51.449+03:00,8575,1.05484,0,0,7126.063,7,22,2025-04-22T16:23:44.810+03:00,767021066.1703798,0,-11.82999,100.3452,1,0.5,2025-04-22T16:24:21.690+03:00,112,1.866666666666667,2025-04-22T14:20:19.516+03:00,0.02197104130929222,0
2025-04-22T16:24:26.778+03:00,1745328260.926829,40.95218382987524,29.14027220483019,76.06538,-1,-1,-1,-1,30,19.93911045593109,-9999,37264.55557587501,-0.798614501953125,0.574676513671875,-0.1923065185546875,37264.545499875,-2.866639265945803,-1.342202153571904,-0.6083171599106281,-0.003999785054475069,0.0176552627235651,0.01083513721823692,-0.003821790218353271,0.00537109375,-0.005311712622642517,XArbitraryZVertical,0.6198501191731555,-0.1510203316484762,0.7146182407855421,-0.286878661945991,-0.7992633581161499,0.5714873075485229,-0.1859573721885681,0,0,0,-1,-1,37256.12331129167,unknown,2,2025-04-22T16:24:18.342+03:00,2025-04-21T17:08:51.449+03:00,8575,1.05484,0,0,7126.063,7,22,2025-04-22T16:23:44.810+03:00,767021066.1703798,0,-11.82999,100.3452,1,0.5,2025-04-22T16:24:21.690+03:00,112,1.866666666666667,2025-04-22T14:20:19.516+03:00,0.02197104130929222,0
2025-04-22T16:24:26.789+03:00,1745328260.926829,40.95218382987524,29.14027220483019,76.06538,-1,-1,-1,-1,30,19.93911045593109,-9999,37264.565651875,-0.794097900390625,0.5661468505859375,-0.1954498291015625,37264.55557587501,-2.866635307804101,-1.342016444733897,-0.6084416262610085,-0.003461293643340468,0.01067325286567211,0.008959473110735416,-0.008671224117279053,0.002446174621582031,-0.007010534405708313,XArbitraryZVertical,0.6197789513357154,-0.1510933927715646,0.7146557192235284,-0.2869006213669021,-0.7991595864295959,0.571589469909668,-0.1860896795988083,0,0,0,-1,-1,37256.12331129167,unknown,2,2025-04-22T16:24:18.342+03:00,2025-04-21T17:08:51.449+03:00,8575,1.05484,0,0,7126.063,7,22,2025-04-22T16:23:44.810+03:00,767021066.1703798,0,-11.82999,100.3452,1,0.5,2025-04-22T16:24:21.690+03:00,112,1.866666666666667,2025-04-22T14:20:19.516+03:00,0.02197104130929222,0
2025-04-22T16:24:26.799+03:00,1745328260.926829,40.95218382987524,29.14027220483019,76.06538,-1,-1,-1,-1,30,19.93911045593109,-9999,37264.575727875,-0.7970428466796875,0.560577392578125,-0.19207763671875,37264.565651875,-2.866772747297695,-1.342027068075549,-0.6084973412722724,-0.01838531531393528,0.007475396152585745,0.008893193677067757,0.001904726028442383,0.002522468566894531,-0.006965160369873047,XArbitraryZVertical,0.6197700715683788,-0.1511557846172065,0.7146634387988147,-0.2868677863036361,-0.7991305589675903,0.5716351866722107,-0.18607397377491,0,0,0,-1,-1,37256.12331129167,unknown,2,2025-04-22T16:24:18.342+03:00,2025-04-21T17:08:51.449+03:00,8575,1.05484,0,0,7126.063,7,22,2025-04-22T16:23:44.810+03:00,767021066.1703798,0,-11.82999,100.3452,1,0.5,2025-04-22T16:24:21.690+03:00,112,1.866666666666667,2025-04-22T14:20:19.516+03:00,0.02197104130929222,0
2025-04-22T16:24:26.809+03:00,1745328260.926829,40.95218382987524,29.14027220483019,76.06538,-1,-1,-1,-1,30,19.93911045593109,-9999,37264.585802875,-0.7982940673828125,0.56231689453125,-0.1896514892578125,37264.575727875,-2.86700655230527,-1.34213059162536,-0.6085809454059181,-0.02640862017869949,0.00920645147562027,0.01449435390532017,0.004059374332427979,-0.007159173488616943,-0.00950014591217041,XArbitraryZVertical,0.6197859554060139,-0.1512454074120814,0.7146517153672859,-0.2868152913207637,-0.7991032004356384,0.5717037320137024,-0.1859803944826126,0,0,0,-1,-1,37256.12331129167,unknown,2,2025-04-22T16:24:18.342+03:00,2025-04-21T17:08:51.449+03:00,8575,1.05484,0,0,7126.063,7,22,2025-04-22T16:23:44.810+03:00,767021066.1703798,0,-11.82999,100.3452,1,0.5,2025-04-22T16:24:21.690+03:00,112,1.866666666666667,2025-04-22T14:20:19.516+03:00,0.02197104130929222,0
2025-04-22T16:24:26.819+03:00,1745328260.926829,40.95218382987524,29.14027220483019,76.06538,-1,-1,-1,-1,30,19.93911045593109,-9999,37264.595878875,-0.798492431640625,0.569000244140625,-0.190399169921875,37264.585802875,-2.867283066230454,-1.342162175103068,-0.6088488376653131,-0.02967272512614727,0.0129224918782711,0.01584956981241703,0.001459360122680664,-0.01104110479354858,-0.005012989044189453,XArbitraryZVertical,0.6197652801848277,-0.1514291167064221,0.714639587617048,-0.2867932918650568,-0.7989599108695984,0.571923553943634,-0.1859204471111298,0,0,0,-1,-1,37256.12331129167,unknown,2,2025-04-22T16:24:18.342+03:00,2025-04-21T17:08:51.449+03:00,8575,1.05484,0,0,7126.063,7,22,2025-04-22T16:23:44.810+03:00,767021066.1703798,0,-11.82999,100.3452,1,0.5,2025-04-22T16:24:21.690+03:00,112,1.866666666666667,2025-04-22T14:20:19.516+03:00,0.02197104130929222,0
2025-04-22T16:24:26.829+03:00,1745328260.926829,40.95218382987524,29.14027220483019,76.06538,-1,-1,-1,-1,30,19.93911045593109,-9999,37264.60595487501,-0.7991485595703125,0.5745086669921875,-0.19427490234375,37264.595878875,-2.867508002272748,-1.342116848611037,-0.6090404294505654,-0.02167818136513233,0.01272941380739212,0.01626981794834137,0.0006271004676818848,-0.009077250957489014,-0.004116594791412354,XArbitraryZVertical,0.6197241352353687,-0.151578657488213,0.7146558496743154,-0.2867627042851266,-0.7988447546958923,0.572080671787262,-0.1859318166971207,0,0,0,-1,-1,37256.12331129167,unknown,2,2025-04-22T16:24:18.342+03:00,2025-04-21T17:08:51.449+03:00,8575,1.05484,0,0,7126.063,7,22,2025-04-22T16:23:44.810+03:00,767021066.1703798,0,-11.82999,100.3452,1,0.5,2025-04-22T16:24:21.690+03:00,112,1.866666666666667,2025-04-22T14:20:19.516+03:00,0.02197104130929222,0
2025-04-22T16:24:26.839+03:00,1745328260.926829,40.95218382987524,29.14027220483019,76.06538,-1,-1,-1,-1,30,19.93911045593109,-9999,37264.616030875,-0.8008270263671875,0.5810699462890625,-0.1948089599609375,37264.60595487501,-2.867595978977266,-1.341983530847411,-0.6091730831778202,-0.006184841971844435,0.0158771350979805,0.01386784482747316,0.001077711582183838,-0.002640008926391602,-0.004515588283538818,XArbitraryZVertical,0.6196643411069261,-0.1516758064143257,0.7146890050065383,-0.2867580056390736,-0.7987461090087891,0.5721895098686218,-0.1860211044549942,0,0,0,-1,-1,37256.12331129167,unknown,2,2025-04-22T16:24:18.342+03:00,2025-04-21T17:08:51.449+03:00,8575,1.05484,0,0,7126.063,7,22,2025-04-22T16:23:44.810+03:00,767021066.1703798,0,-11.82999,100.3452,1,0.5,2025-04-22T16:24:21.690+03:00,112,1.866666666666667,2025-04-22T14:20:19.516+03:00,0.02197104130929222,0
2025-04-22T16:24:26.849+03:00,1745328260.926829,40.95218382987524,29.14027220483019,76.06538,-1,-1,-1,-1,30,19.93911045593109,-9999,37264.626106875,-0.8021087646484375,0.5823974609375,-0.194244384765625,37264.616030875,-2.867550110908499,-1.341764172363386,-0.609328407573746,0.005349308717995882,0.01598099991679192,0.01191015541553497,-0.0002703666687011719,0.003809154033660889,-0.008739888668060303,XArbitraryZVertical,0.6195830126571947,-0.1517525147954761,0.7147260017834197,-0.2868008950923147,-0.7986186742782593,0.5723168849945068,-0.186176136136055,0,0,0,-1,-1,37256.12331129167,unknown,2,2025-04-22T16:24:18.342+03:00,2025-04-21T17:08:51.449+03:00,8575,1.05484,0,0,7126.063,7,22,2025-04-22T16:23:44.810+03:00,767021066.1703798,0,-11.82999,100.3452,1,0.5,2025-04-22T16:24:21.690+03:00,112,1.866666666666667,2025-04-22T14:20:19.516+03:00,0.02197104130929222,0
2025-04-22T16:24:26.859+03:00,1745328260.926829,40.95218382987524,29.14027220483019,76.06538,-1,-1,-1,-1,30,19.93911045593109,-9999,37264.636182875,-0.8030548095703125,0.575408935546875,-0.189178466796875,37264.626106875,-2.867401235844001,-1.341475335688523,-0.6094059547760513,0.01123276446014643,0.01664572581648827,0.007480653002858162,-0.002396821975708008,0.009406566619873047,-0.008488774299621582,XArbitraryZVertical,0.6194878801725558,-0.1517775070013707,0.7147819791706311,-0.2868537131543524,-0.7985216379165649,0.5723804235458374,-0.1863967031240463,0,0,0,-1,-1,37256.12331129167,unknown,2,2025-04-22T16:24:18.342+03:00,2025-04-21T17:08:51.449+03:00,8575,1.05484,0,0,7126.063,7,22,2025-04-22T16:23:44.810+03:00,767021066.1703798,0,-11.82999,100.3452,1,0.5,2025-04-22T16:24:21.690+03:00,112,1.866666666666667,2025-04-22T14:20:19.516+03:00,0.02197104130929222,0
2025-04-22T16:24:26.869+03:00,1745328260.926829,40.95218382987524,29.14027220483019,76.06538,-1,-1,-1,-1,30,19.93911045593109,-9999,37264.646258875,-0.8006439208984375,0.56683349609375,-0.1823577880859375,37264.636182875,-2.867274501202723,-1.34121544549219,-0.6094259145557926,0.006869973614811897,0.01558898203074932,0.006880642846226692,-0.004546880722045898,0.009207069873809814,-0.007337808609008789,XArbitraryZVertical,0.6194037908371594,-0.1517831800348202,0.714841124914167,-0.2868848275291927,-0.7984620332717896,0.5723968148231506,-0.1866016238927841,0,0,0,-1,-1,37256.12331129167,unknown,2,2025-04-22T16:24:18.342+03:00,2025-04-21T17:08:51.449+03:00,8575,1.05484,0,0,7126.063,7,22,2025-04-22T16:23:44.810+03:00,767021066.1703798,0,-11.82999,100.3452,1,0.5,2025-04-22T16:24:21.690+03:00,112,1.866666666666667,2025-04-22T14:20:19.516+03:00,0.02197104130929222,0
2025-04-22T16:24:26.879+03:00,1745328260.926829,40.95218382987524,29.14027220483019,76.06538,-1,-1,-1,-1,30,19.93911045593109,-9999,37264.656334875,-0.799072265625,0.562469482421875,-0.1839599609375,37264.646258875,-2.867216412122994,-1.340969721507611,-0.6095157724891838,-0.002229115692898631,0.02115592174232006,0.00941031239926815,-0.004139363765716553,0.001931250095367432,-0.001751706004142761,XArbitraryZVertical,0.6193166711007337,-0.1518348647681605,0.7148946840860569,-0.2869118805082837,-0.7983659505844116,0.572470486164093,-0.1867860704660416,0,0,0,-1,-1,37256.12331129167,unknown,2,2025-04-22T16:24:18.342+03:00,2025-04-21T17:08:51.449+03:00,8575,1.05484,0,0,7126.063,7,22,2025-04-22T16:23:44.810+03:00,767021066.1703798,0,-11.82999,100.3452,1,0.5,2025-04-22T16:24:21.690+03:00,112,1.866666666666667,2025-04-22T14:20:19.516+03:00,0.02197104130929222,0
2025-04-22T16:24:26.890+03:00,1745328260.926829,40.95218382987524,29.14027220483019,76.06538,-1,-1,-1,-1,30,19.93911045593109,-9999,37264.666410875,-0.796173095703125,0.556884765625,-0.188995361328125,37264.656334875,-2.86723015960579,-1.340725213539845,-0.6096048962992765,-0.01033204980194569,0.02289310097694397,0.01342449523508549,-0.002006947994232178,-0.006885170936584473,0.005054190754890442,XArbitraryZVertical,0.6192245460626705,-0.1519083223733968,0.7149584129449567,-0.2869131283105527,-0.7982706427574158,0.5725435614585876,-0.1869696527719498,0,0,0,-1,-1,37256.12331129167,unknown,2,2025-04-22T16:24:18.342+03:00,2025-04-21T17:08:51.449+03:00,8575,1.05484,0,0,7126.063,7,22,2025-04-22T16:23:44.810+03:00,767021066.1703798,0,-11.82999,100.3452,1,0.5,2025-04-22T16:24:21.690+03:00,112,1.866666666666667,2025-04-22T14:20:19.516+03:00,0.02197104130929222,0
2025-04-22T16:24:26.900+03:00,1745328260.926829,40.95218382987524,29.14027220483019,76.06538,-1,-1,-1,-1,30,19.93911045593109,-9999,37264.676486875,-0.791595458984375,0.5612640380859375,-0.1912078857421875,37264.666410875,-2.867341132660695,-1.340538470427389,-0.6097325545923374,-0.01850455813109875,0.02432528138160706,0.01969940215349197,-0.000739753246307373,-0.01089602708816528,0.002684116363525391,XArbitraryZVertical,0.6191440847112186,-0.1520183504123306,0.7150121564670919,-0.2868946826658144,-0.7981646060943604,0.5726482272148132,-0.1871020495891571,0,0,0,-1,-1,37256.12331129167,unknown,2,2025-04-22T16:24:18.342+03:00,2025-04-21T17:08:51.449+03:00,8575,1.05484,0,0,7126.063,7,22,2025-04-22T16:23:44.810+03:00,767021066.1703798,0,-11.82999,100.3452,1,0.5,2025-04-22T16:24:21.690+03:00,112,1.866666666666667,2025-04-22T14:20:19.516+03:00,0.02197104130929222,0
2025-04-22T16:24:26.910+03:00,1745328260.926829,40.95218382987524,29.14027220483019,76.06538,-1,-1,-1,-1,30,19.93911045593109,-9999,37264.686562875,-0.792724609375,0.568634033203125,-0.1924285888671875,37264.676486875,-2.867510387497874,-1.34035927641385,-0.6099167311023553,-0.01895489916205406,0.02852002717554569,0.0194927416741848,0.002297878265380859,-0.01568567752838135,-0.002079769968986511,XArbitraryZVertical,0.6190595487254476,-0.1521669966949361,0.7150629254035177,-0.2868716362147862,-0.798028290271759,0.5727992057800293,-0.187220960855484,0,0,0,-1,-1,37256.12331129167,unknown,2,2025-04-22T16:24:18.342+03:00,2025-04-21T17:08:51.449+03:00,8575,1.05484,0,0,7126.063,7,22,2025-04-22T16:23:44.810+03:00,767021066.1703798,0,-11.82999,100.3452,1,0.5,2025-04-22T16:24:21.690+03:00,112,1.866666666666667,2025-04-22T14:20:19.516+03:00,0.02197104130929222,0
2025-04-22T16:24:26.920+03:00,1745328260.926829,40.95218382987524,29.14027220483019,76.06538,-1,-1,-1,-1,30,19.93911045593109,-9999,37264.696638875,-0.7955474853515625,0.575347900390625,-0.1942138671875,37264.686562875,-2.867638732175391,-1.340100286491918,-0.6101095294969923,-0.01396400202065706,0.03474689647555351,0.01763085834681988,0.006215870380401611,-0.01057946681976318,-0.003775164484977722,XArbitraryZVertical,0.618949208132995,-0.1523177106035849,0.7151312339704852,-0.2868595055572322,-0.7978722453117371,0.5729572176933289,-0.1874023824930191,0,0,0,-1,-1,37256.12331129167,unknown,2,2025-04-22T16:24:18.342+03:00,2025-04-21T17:08:51.449+03:00,8575,1.05484,0,0,7126.063,7,22,2025-04-22T16:23:44.810+03:00,767021066.1703798,0,-11.82999,100.3452,1,0.5,2025-04-22T16:24:21.690+03:00,112,1.866666666666667,2025-04-22T14:20:19.516+03:00,0.02197104130929222,0
2025-04-22T16:24:26.930+03:00,1745328260.926829,40.95218382987524,29.14027220483019,76.06538,-1,-1,-1,-1,30,19.93911045593109,-9999,37264.706713875,-0.8003082275390625,0.5734405517578125,-0.189910888671875,37264.696638875,-2.867695444977863,-1.339731187612324,-0.6103054028982037,-0.009220645762979984,0.03825880959630013,0.01757493242621422,0.003931641578674316,-0.003247916698455811,-0.005673155188560486,XArbitraryZVertical,0.6188048066392986,-0.1524632404636836,0.7152227545768619,-0.2868654176723709,-0.79769366979599,0.573117733001709,-0.1876711398363113,0,0,0,-1,-1,37256.12331129167,unknown,2,2025-04-22T16:24:18.342+03:00,2025-04-21T17:08:51.449+03:00,8575,1.05484,0,0,7126.063,7,22,2025-04-22T16:23:44.810+03:00,767021066.1703798,0,-11.82999,100.3452,1,0.5,2025-04-22T16:24:21.690+03:00,112,1.866666666666667,2025-04-22T14:20:19.516+03:00,0.02197104130929222,0
2025-04-22T16:24:26.940+03:00,1745328260.926829,40.95218382987524,29.14027220483019,76.06538,-1,-1,-1,-1,30,19.93911045593109,-9999,37264.716789875,-0.8069000244140625,0.5698394775390625,-0.1873779296875,37264.706713875,-2.867744648062474,-1.339342676802156,-0.6105048753273122,-0.009496216662228107,0.03901441395282745,0.01426638755947351,0.001077115535736084,0.001974999904632568,-0.005465790629386902,XArbitraryZVertical,0.6186538590520931,-0.1526106078678748,0.7153186552804371,-0.2868734853389553,-0.7975094318389893,0.5732812285423279,-0.1879548132419586,0,0,0,-1,-1,37256.12331129167,unknown,2,2025-04-22T16:24:18.342+03:00,2025-04-21T17:08:51.449+03:00,8575,1.05484,0,0,7126.063,7,22,2025-04-22T16:23:44.810+03:00,767021066.1703798,0,-11.82999,100.3452,1,0.5,2025-04-22T16:24:21.690+03:00,112,1.866666666666667,2025-04-22T14:20:19.516+03:00,0.02197104130929222,0
2025-04-22T16:24:26.950+03:00,1745328260.926829,40.95218382987524,29.14027220483019,76.06538,-1,-1,-1,-1,30,19.93911045593109,-9999,37264.726865875,-0.802032470703125,0.5673828125,-0.1881256103515625,37264.716789875,-2.867862126868389,-1.339009586716355,-0.610706615239733,-0.02077097445726395,0.03606363013386726,0.01905581541359425,-0.004118263721466064,-0.0006622076034545898,-0.0008321404457092285,XArbitraryZVertical,0.6185173944585713,-0.1527719998060318,0.7154069220947479,-0.2868619408826329,-0.7973343133926392,0.57344651222229,-0.1881939023733139,0,0,0,-1,-1,37256.12331129167,unknown,2,2025-04-22T16:24:18.342+03:00,2025-04-21T17:08:51.449+03:00,8575,1.05484,0,0,7126.063,7,22,2025-04-22T16:23:44.810+03:00,767021066.1703798,0,-11.82999,100.3452,1,0.5,2025-04-22T16:24:21.690+03:00,112,1.866666666666667,2025-04-22T14:20:19.516+03:00,0.02197104130929222,0
2025-04-22T16:24:26.960+03:00,1745328260.926829,40.95218382987524,29.14027220483019,76.06538,-1,-1,-1,-1,30,19.93911045593109,-9999,37264.736941875,-0.7963409423828125,0.562591552734375,-0.1866607666015625,37264.726865875,-2.868145699206946,-1.338826069736489,-0.610937168155662,-0.0304577574133873,0.0328347459435463,0.01827347837388515,-0.009194791316986084,-0.003826498985290527,0.001465737819671631,XArbitraryZVertical,0.6184205196344656,-0.152974350089079,0.7154681067310483,-0.2868103563052972,-0.7971710562705994,0.5736353397369385,-0.1883098185062408,0,0,0,-1,-1,37256.12331129167,unknown,2,2025-04-22T16:24:18.342+03:00,2025-04-21T17:08:51.449+03:00,8575,1.05484,0,0,7126.063,7,22,2025-04-22T16:23:44.810+03:00,767021066.1703798,0,-11.82999,100.3452,1,0.5,2025-04-22T16:24:21.690+03:00,112,1.866666666666667,2025-04-22T14:20:19.516+03:00,0.02197104130929222,0
2025-04-22T16:24:26.970+03:00,1745328260.926829,40.95218382987524,29.14027220483019,76.06538,-1,-1,-1,-1,30,19.93911045593109,-9999,37264.747017875,-0.79779052734375,0.561767578125,-0.187225341796875,37264.736941875,-2.868580079505125,-1.338764620017225,-0.6111708354992761,-0.04421005398035049,0.03353302925825119,0.0209566131234169,-0.00456082820892334,-0.007100105285644531,0.000797271728515625,XArbitraryZVertical,0.6183555787846966,-0.1532069935387141,0.7155127225986302,-0.2867149955847066,-0.7970290780067444,0.5738267302513123,-0.1883279979228973,0,0,0,-1,-1,37256.12331129167,unknown,2,2025-04-22T16:24:18.342+03:00,2025-04-21T17:08:51.449+03:00,8575,1.05484,0,0,7126.063,7,22,2025-04-22T16:23:44.810+03:00,767021066.1703798,0,-11.82999,100.3452,1,0.5,2025-04-22T16:24:21.690+03:00,112,1.866666666666667,2025-04-22T14:20:19.516+03:00,0.02197104130929222,0
2025-04-22T16:24:26.980+03:00,1745328260.926829,40.95218382987524,29.14027220483019,76.06538,-1,-1,-1,-1,30,19.93911045593109,-9999,37264.757093875,-0.7985382080078125,0.5599365234375,-0.1963348388671875,37264.747017875,-2.86914111762712,-1.338746123023492,-0.6114380568476283,-0.05618096143007278,0.03754694387316704,0.02024009078741074,0.000779569149017334,-0.01124042272567749,0.001615971326828003,XArbitraryZVertical,0.6182948105390371,-0.1534854785146539,0.7155568936297332,-0.2865868977911442,-0.7968763709068298,0.5740455389022827,-0.1883074641227722,0,0,0,-1,-1,37256.12331129167,unknown,2,2025-04-22T16:24:18.342+03:00,2025-04-21T17:08:51.449+03:00,8575,1.05484,0,0,7126.063,7,22,2025-04-22T16:23:44.810+03:00,767021066.1703798,0,-11.82999,100.3452,1,0.5,2025-04-22T16:24:21.690+03:00,112,1.866666666666667,2025-04-22T14:20:19.516+03:00,0.02197104130929222,0
2025-04-22T16:24:26.990+03:00,1745328260.926829,40.95218382987524,29.14027220483019,76.06538,-1,-1,-1,-1,30,19.93911045593109,-9999,37264.76716887501,-0.7992706298828125,0.5648193359375,-0.200103759765625,37264.757093875,-2.869749194609978,-1.338686634744495,-0.6117048651849116,-0.05842467397451401,0.04571778699755669,0.02312136441469193,-0.001440584659576416,-0.0126338005065918,-0.0001266300678253174,XArbitraryZVertical,0.6182156546435152,-0.1537841861588873,0.7156205533496564,-0.2864386923914428,-0.7967161536216736,0.5742639899253845,-0.1883196532726288,0,0,0,-1,-1,37256.12331129167,unknown,2,2025-04-22T16:24:18.342+03:00,2025-04-21T17:08:51.449+03:00,8575,1.05484,0,0,7126.063,7,22,2025-04-22T16:23:44.810+03:00,767021066.1703798,0,-11.82999,100.3452,1,0.5,2025-04-22T16:24:21.690+03:00,112,1.866666666666667,2025-04-22T14:20:19.516+03:00,0.02197104130929222,0
2025-04-22T16:24:27.000+03:00,1745328260.926829,40.95218382987524,29.14027220483019,76.06538,-1,-1,-1,-1,30,19.93911045593109,-9999,37264.777244875,-0.8007049560546875,0.567474365234375,-0.1948089599609375,37264.76716887501,-2.870359822118111,-1.338550381457507,-0.612042107929913,-0.06070107966661453,0.04665741696953773,0.02473434060811996,-0.00234144926071167,-0.01493936777114868,-0.009248480200767517,XArbitraryZVertical,0.6181057584655764,-0.1541216645942095,0.7156969369857413,-0.2863031631507429,-0.7965017557144165,0.5745400786399841,-0.1883835643529892,0,0,0,-1,-1,37256.12331129167,unknown,2,2025-04-22T16:24:18.342+03:00,2025-04-21T17:08:51.449+03:00,8575,1.05484,0,0,7126.063,7,22,2025-04-22T16:23:44.810+03:00,767021066.1703798,0,-11.82999,100.3452,1,0.5,2025-04-22T16:24:21.690+03:00,112,1.866666666666667,2025-04-22T14:20:19.516+03:00,0.02197104130929222,0
2025-04-22T16:24:27.010+03:00,1745328260.926829,40.95218382987524,29.14027220483019,76.06538,-1,-1,-1,-1,30,19.93911045593109,-9999,37264.787320875,-0.805694580078125,0.5716705322265625,-0.1965484619140625,37264.777244875,-2.871021228244202,-1.33840729880332,-0.6124005812042622,-0.06314639747142792,0.05081141740083694,0.02258250676095486,-0.002706170082092285,-0.009571671485900879,-0.0108756422996521,XArbitraryZVertical,0.6179884153617065,-0.1544838530419242,0.7157796163736404,-0.2861547597459136,-0.7962744235992432,0.5748334527015686,-0.1884501129388809,0,0,0,-1,-1,37256.12331129167,unknown,2,2025-04-22T16:24:18.342+03:00,2025-04-21T17:08:51.449+03:00,8575,1.05484,0,0,7126.063,7,22,2025-04-22T16:23:44.810+03:00,767021066.1703798,0,-11.82999,100.3452,1,0.5,2025-04-22T16:24:21.690+03:00,112,1.866666666666667,2025-04-22T14:20:19.516+03:00,0.02197104130929222,0
2025-04-22T16:24:27.020+03:00,1745328260.926829,40.95218382987524,29.14027220483019,76.06538,-1,-1,-1,-1,30,19.93911045593109,-9999,37264.797396875,-0.8090057373046875,0.5726470947265625,-0.1860198974609375,37264.787320875,-2.871684882094117,-1.33820350827594,-0.6127527538821201,-0.06168438494205475,0.06331942230463028,0.0225750170648098,-0.005199968814849854,-0.007387876510620117,-0.006472349166870117,XArbitraryZVertical,0.6178492572288136,-0.1548529678413379,0.7158822043969671,-0.285999055541054,-0.7960389852523804,0.5751215815544128,-0.1885657012462616,0,0,0,-1,-1,37256.12331129167,unknown,2,2025-04-22T16:24:18.342+03:00,2025-04-21T17:08:51.449+03:00,8575,1.05484,0,0,7126.063,7,22,2025-04-22T16:23:44.810+03:00,767021066.1703798,0,-11.82999,100.3452,1,0.5,2025-04-22T16:24:21.690+03:00,112,1.866666666666667,2025-04-22T14:20:19.516+03:00,0.02197104130929222,0
2025-04-22T16:24:27.031+03:00,1745328260.926829,40.95218382987524,29.14027220483019,76.06538,-1,-1,-1,-1,30,19.93911045593109,-9999,37264.807472875,-0.808349609375,0.560546875,-0.1742401123046875,37264.797396875,-2.872409719838868,-1.337921886440854,-0.6131341592291815,-0.07208056747913361,0.07766187191009521,0.02875088714063168,-0.01008999347686768,-0.002374589443206787,-0.007611081004142761,XArbitraryZVertical,0.6176760570907689,-0.1552632515764411,0.7160128545335291,-0.2858234325964929,-0.7957722544670105,0.5754335522651672,-0.188739225268364,0,0,0,-1,-1,37256.12331129167,unknown,2,2025-04-22T16:24:18.342+03:00,2025-04-21T17:08:51.449+03:00,8575,1.05484,0,0,7126.063,7,22,2025-04-22T16:23:44.810+03:00,767021066.1703798,0,-11.82999,100.3452,1,0.5,2025-04-22T16:24:21.690+03:00,112,1.866666666666667,2025-04-22T14:20:19.516+03:00,0.02197104130929222,0
2025-04-22T16:24:27.041+03:00,1745328260.926829,40.95218382987524,29.14027220483019,76.06538,-1,-1,-1,-1,30,19.93911045593109,-9999,37264.81754887501,-0.7993316650390625,0.5613250732421875,-0.1812286376953125,37264.807472875,-2.87328948974333,-1.337567325929454,-0.6135878024587677,-0.08789262175559998,0.09585678577423096,0.03445867449045181,-0.01378327608108521,-0.003996789455413818,0.005687505006790161,XArbitraryZVertical,0.6174613533194127,-0.1557593764712344,0.716176746244632,-0.2856065510238573,-0.7954511046409607,0.5758045315742493,-0.1889609843492508,0,0,0,-1,-1,37256.12331129167,unknown,2,2025-04-22T16:24:18.342+03:00,2025-04-21T17:08:51.449+03:00,8575,1.05484,0,0,7126.063,7,22,2025-04-22T16:23:44.810+03:00,767021066.1703798,0,-11.82999,100.3452,1,0.5,2025-04-22T16:24:21.690+03:00,112,1.866666666666667,2025-04-22T14:20:19.516+03:00,0.02197104130929222,0
2025-04-22T16:24:27.051+03:00,1745328260.926829,40.95218382987524,29.14027220483019,76.06538,-1,-1,-1,-1,30,19.93911045593109,-9999,37264.827623875,-0.7976531982421875,0.5738067626953125,-0.1842041015625,37264.81754887501,-2.87428626469911,-1.337156628779254,-0.6140791765509441,-0.09576199948787689,0.09968268871307373,0.03170203790068626,-0.01212209463119507,-0.0166359543800354,0.01556169986724854,XArbitraryZVertical,0.6172154180092772,-0.1563139171410726,0.7163688321411056,-0.2853536438215644,-0.7950983047485352,0.5762061476707458,-0.1892221719026566,0,0,0,-1,-1,37256.12331129167,unknown,2,2025-04-22T16:24:18.342+03:00,2025-04-21T17:08:51.449+03:00,8575,1.05484,0,0,7126.063,7,22,2025-04-22T16:23:44.810+03:00,767021066.1703798,0,-11.82999,100.3452,1,0.5,2025-04-22T16:24:21.690+03:00,112,1.866666666666667,2025-04-22T14:20:19.516+03:00,0.02197104130929222,0
2025-04-22T16:24:27.061+03:00,1745328260.926829,40.95218382987524,29.14027220483019,76.06538,-1,-1,-1,-1,30,19.93911045593109,-9999,37264.837699875,-0.8080291748046875,0.572998046875,-0.190673828125,37264.827623875,-2.875362626140921,-1.336828634741291,-0.6145163977733223,-0.094448521733284,0.09312784671783447,0.02221732027828693,-0.003502905368804932,-0.01386523246765137,0.00729544460773468,XArbitraryZVertical,0.6169947913163121,-0.1568603233807961,0.7165549679432682,-0.2850634870371894,-0.794791042804718,0.5765634775161743,-0.189424529671669,0,0,0,-1,-1,37256.12331129167,unknown,2,2025-04-22T16:24:18.342+03:00,2025-04-21T17:08:51.449+03:00,8575,1.05484,0,0,7126.063,7,22,2025-04-22T16:23:44.810+03:00,767021066.1703798,0,-11.82999,100.3452,1,0.5,2025-04-22T16:24:21.690+03:00,112,1.866666666666667,2025-04-22T14:20:19.516+03:00,0.02197104130929222,0
2025-04-22T16:24:27.071+03:00,1745328260.926829,40.95218382987524,29.14027220483019,76.06538,-1,-1,-1,-1,30,19.93911045593109,-9999,37264.847775875,-0.8095245361328125,0.5644683837890625,-0.2040863037109375,37264.837699875,-2.876446806673477,-1.336580183158379,-0.6148577905665675,-0.09653244912624359,0.08438282459974289,0.01660683937370777,-0.004535019397735596,-0.001738667488098145,0.005326211452484131,XArbitraryZVertical,0.6168057972586014,-0.157360948727879,0.716732449025042,-0.2847500532570771,-0.7945523858070374,0.5768423676490784,-0.1895762830972672,0,0,0,-1,-1,37256.12331129167,unknown,2,2025-04-22T16:24:18.342+03:00,2025-04-21T17:08:51.449+03:00,8575,1.05484,0,0,7126.063,7,22,2025-04-22T16:23:44.810+03:00,767021066.1703798,0,-11.82999,100.3452,1,0.5,2025-04-22T16:24:21.690+03:00,112,1.866666666666667,2025-04-22T14:20:19.516+03:00,0.02197104130929222,0
2025-04-22T16:24:27.081+03:00,1745328260.926829,40.95218382987524,29.14027220483019,76.06538,-1,-1,-1,-1,30,19.93911045593109,-9999,37264.857851875,-0.7994384765625,0.5774993896484375,-0.2042388916015625,37264.847775875,-2.877552715194772,-1.336401196289553,-0.6151522163030327,-0.1008024290204048,0.07095663249492645,0.01735991612076759,-0.0145302414894104,-0.004954636096954346,-0.00230717658996582,XArbitraryZVertical,0.6166416522360321,-0.1578402290713505,0.7168989758147774,-0.2844211410599819,-0.7943533658981323,0.5770828127861023,-0.1896790713071823,0,0,0,-1,-1,37256.12331129167,unknown,2,2025-04-22T16:24:18.342+03:00,2025-04-21T17:08:51.449+03:00,8575,1.05484,0,0,7126.063,7,22,2025-04-22T16:23:44.810+03:00,767021066.1703798,0,-11.82999,100.3452,1,0.5,2025-04-22T16:24:21.690+03:00,112,1.866666666666667,2025-04-22T14:20:19.516+03:00,0.02197104130929222,0
2025-04-22T16:24:27.091+03:00,1745328260.926829,40.95218382987524,29.14027220483019,76.06538,-1,-1,-1,-1,30,19.93911045593109,-9999,37264.867927875,-0.78765869140625,0.584136962890625,-0.196044921875,37264.857851875,-2.878686014857628,-1.336365455876874,-0.6154967119064457,-0.1019686236977577,0.05838411673903465,0.01827018335461617,-0.01428794860839844,-0.01214820146560669,-0.01550859212875366,XArbitraryZVertical,0.6165241530020076,-0.1583266856935495,0.7170170877595607,-0.2841075019553269,-0.794153094291687,0.5773641467094421,-0.1896612644195557,0,0,0,-1,-1,37256.12331129167,unknown,2,2025-04-22T16:24:18.342+03:00,2025-04-21T17:08:51.449+03:00,8575,1.05484,0,0,7126.063,7,22,2025-04-22T16:23:44.810+03:00,767021066.1703798,0,-11.82999,100.3452,1,0.5,2025-04-22T16:24:21.690+03:00,112,1.866666666666667,2025-04-22T14:20:19.516+03:00,0.02197104130929222,0
2025-04-22T16:24:27.101+03:00,1745328260.926829,40.95218382987524,29.14027220483019,76.06538,-1,-1,-1,-1,30,19.93911045593109,-9999,37264.878003875,-0.785247802734375,0.5759429931640625,-0.1846466064453125,37264.867927875,-2.879924379133831,-1.336526507854082,-0.6158710035606599,-0.1169040352106094,0.04854786768555641,0.01695411652326584,-0.00400012731552124,0.001401185989379883,-0.01355050504207611,XArbitraryZVertical,0.6164671837422633,-0.1588289347438111,0.7170846211477827,-0.2837800228082498,-0.7939733266830444,0.5776697397232056,-0.1894831657409668,0,0,0,-1,-1,37256.12331129167,unknown,2,2025-04-22T16:24:18.342+03:00,2025-04-21T17:08:51.449+03:00,8575,1.05484,0,0,7126.063,7,22,2025-04-22T16:23:44.810+03:00,767021066.1703798,0,-11.82999,100.3452,1,0.5,2025-04-22T16:24:21.690+03:00,112,1.866666666666667,2025-04-22T14:20:19.516+03:00,0.02197104130929222,0
2025-04-22T16:24:27.112+03:00,1745328260.926829,40.95218382987524,29.14027220483019,76.06538,-1,-1,-1,-1,30,19.93911045593109,-9999,37264.888079875,-0.799896240234375,0.561126708984375,-0.17462158203125,37264.878003875,-2.881362817176572,-1.336804845610831,-0.6162258767743071,-0.1330984383821487,0.06016856804490089,0.01003735419362783,0.006442666053771973,0.00565868616104126,-0.005686074495315552,XArbitraryZVertical,0.6164367756376259,-0.1593687586420008,0.7171472343519827,-0.2833847986666421,-0.7938264608383179,0.5779593586921692,-0.1892146021127701,0,0,0,-1,-1,37256.12331129167,unknown,2,2025-04-22T16:24:18.342+03:00,2025-04-21T17:08:51.449+03:00,8575,1.05484,0,0,7126.063,7,22,2025-04-22T16:23:44.810+03:00,767021066.1703798,0,-11.82999,100.3452,1,0.5,2025-04-22T16:24:21.690+03:00,112,1.866666666666667,2025-04-22T14:20:19.516+03:00,0.02197104130929222,0
2025-04-22T16:24:27.122+03:00,1745328260.926829,40.95218382987524,29.14027220483019,76.06538,-1,-1,-1,-1,30,19.93911045593109,-9999,37264.898155875,-0.822265625,0.5612335205078125,-0.1679229736328125,37264.888079875,-2.883036806838632,-1.337121759509731,-0.616571234674075,-0.1424804180860519,0.07804509997367859,0.008715127594769001,0.007284939289093018,-0.004632830619812012,0.005917966365814209,XArbitraryZVertical,0.6164012720789478,-0.1599720509696636,0.7172327455468483,-0.2829056180359623,-0.7936923503875732,0.5782411694526672,-0.1889168322086334,0,0,0,-1,-1,37256.12331129167,unknown,2,2025-04-22T16:24:18.342+03:00,2025-04-21T17:08:51.449+03:00,8575,1.05484,0,0,7126.063,7,22,2025-04-22T16:23:44.810+03:00,767021066.1703798,0,-11.82999,100.3452,1,0.5,2025-04-22T16:24:21.690+03:00,112,1.866666666666667,2025-04-22T14:20:19.516+03:00,0.02197104130929222,0
2025-04-22T16:24:27.133+03:00,1745328260.926829,40.95218382987524,29.14027220483019,76.06538,-1,-1,-1,-1,30,19.93911045593109,-9999,37264.908231875,-0.8272857666015625,0.571502685546875,-0.178009033203125,37264.898155875,-2.884789208308508,-1.337343805678535,-0.6168923188656097,-0.1431896239519119,0.09292232245206833,0.009328453801572323,-0.009485840797424316,-0.01865822076797485,0.01518972218036652,XArbitraryZVertical,0.6163259371230743,-0.1606036564391092,0.717361806463257,-0.2823840479342089,-0.7935535311698914,0.5785030722618103,-0.1886976063251495,0,0,0,-1,-1,37256.12331129167,unknown,2,2025-04-22T16:24:18.342+03:00,2025-04-21T17:08:51.449+03:00,8575,1.05484,0,0,7126.063,7,22,2025-04-22T16:23:44.810+03:00,767021066.1703798,0,-11.82999,100.3452,1,0.5,2025-04-22T16:24:21.690+03:00,112,1.866666666666667,2025-04-22T14:20:19.516+03:00,0.02197104130929222,0
2025-04-22T16:24:27.142+03:00,1745328260.926829,40.95218382987524,29.14027220483019,76.06538,-1,-1,-1,-1,30,19.93911045593109,-9999,37264.918307875,-0.821197509765625,0.57415771484375,-0.1808929443359375,37264.908231875,-2.886410750088985,-1.337318021987728,-0.6172232389305969,-0.1270276308059692,0.1069085076451302,0.01112838461995125,-0.03068834543228149,-0.01659351587295532,0.02012497186660767,XArbitraryZVertical,0.6161711136573347,-0.1612335866659874,0.7175469598650555,-0.2818921804685973,-0.7933624386787415,0.5787729620933533,-0.1886737793684006,0,0,0,-1,-1,37256.12331129167,unknown,2,2025-04-22T16:24:18.342+03:00,2025-04-21T17:08:51.449+03:00,8575,1.05484,0,0,7126.063,7,22,2025-04-22T16:23:44.810+03:00,767021066.1703798,0,-11.82999,100.3452,1,0.5,2025-04-22T16:24:21.690+03:00,112,1.866666666666667,2025-04-22T14:20:19.516+03:00,0.02197104130929222,0
2025-04-22T16:24:27.152+03:00,1745328260.926829,40.95218382987524,29.14027220483019,76.06538,-1,-1,-1,-1,30,19.93911045593109,-9999,37264.92838387501,-0.8162384033203125,0.584808349609375,-0.18475341796875,37264.918307875,-2.887867424774843,-1.337081861452984,-0.6176062611140538,-0.1221684366464615,0.1102659553289413,0.01484109740704298,-0.0334053635597229,-0.007002770900726318,0.009869784116744995,XArbitraryZVertical,0.6159510958194884,-0.1618621313254254,0.7177652730863913,-0.2814568021664819,-0.7931022047996521,0.5790852904319763,-0.188809797167778,0,0,0,-1,-1,37256.12331129167,unknown,2,2025-04-22T16:24:18.342+03:00,2025-04-21T17:08:51.449+03:00,8575,1.05484,0,0,7126.063,7,22,2025-04-22T16:23:44.810+03:00,767021066.1703798,0,-11.82999,100.3452,1,0.5,2025-04-22T16:24:21.690+03:00,112,1.866666666666667,2025-04-22T14:20:19.516+03:00,0.02197104130929222,0
2025-04-22T16:24:27.163+03:00,1745328260.926829,40.95218382987524,29.14027220483019,76.06538,-1,-1,-1,-1,30,19.93911045593109,-9999,37264.938459875,-0.792724609375,0.583404541015625,-0.19439697265625,37264.92838387501,-2.889285776839607,-1.336833509160424,-0.6179832324900828,-0.1266953349113464,0.1004678532481194,0.0217230711132288,-0.02803415060043335,-0.004349946975708008,0.008200347423553467,XArbitraryZVertical,0.6157294983305357,-0.1624780728951372,0.7179824954734072,-0.2810322981515265,-0.7928428053855896,0.5793925523757935,-0.1889561265707016,0,0,0,-1,-1,37256.12331129167,unknown,2,2025-04-22T16:24:18.342+03:00,2025-04-21T17:08:51.449+03:00,8575,1.05484,0,0,7126.063,7,22,2025-04-22T16:23:44.810+03:00,767021066.1703798,0,-11.82999,100.3452,1,0.5,2025-04-22T16:24:21.690+03:00,112,1.866666666666667,2025-04-22T14:20:19.516+03:00,0.02197104130929222,0
2025-04-22T16:24:27.172+03:00,1745328260.926829,40.95218382987524,29.14027220483019,76.06538,-1,-1,-1,-1,30,19.93911045593109,-9999,37264.948535875,-0.7743377685546875,0.5731048583984375,-0.1937103271484375,37264.938459875,-2.890764025565419,-1.336724843812044,-0.6184563213610433,-0.143579512834549,0.08255143463611603,0.03411476314067841,-0.02168387174606323,0.006327211856842041,0.003019601106643677,XArbitraryZVertical,0.6155480909220028,-0.1631294009473188,0.7181500142838564,-0.2806241655325183,-0.7925556302070618,0.5797780752182007,-0.1889786869287491,0,0,0,-1,-1,37256.12331129167,unknown,2,2025-04-22T16:24:18.342+03:00,2025-04-21T17:08:51.449+03:00,8575,1.05484,0,0,7126.063,7,22,2025-04-22T16:23:44.810+03:00,767021066.1703798,0,-11.82999,100.3452,1,0.5,2025-04-22T16:24:21.690+03:00,112,1.866666666666667,2025-04-22T14:20:19.516+03:00,0.02197104130929222,0
2025-04-22T16:24:27.182+03:00,1745328260.926829,40.95218382987524,29.14027220483019,76.06538,-1,-1,-1,-1,30,19.93911045593109,-9999,37264.958610875,-0.77587890625,0.5763397216796875,-0.191802978515625,37264.948535875,-2.892418685846291,-1.336825392720902,-0.6191309951190433,-0.1527937352657318,0.07757645100355148,0.03784255310893059,0.002643167972564697,0.0009558200836181641,-0.006321310997009277,XArbitraryZVertical,0.6154172140457516,-0.1638826688508431,0.7182461850381641,-0.2802257278648018,-0.7921938300132751,0.5803276896476746,-0.1888082474470139,0,0,0,-1,-1,37256.12331129167,unknown,2,2025-04-22T16:24:18.342+03:00,2025-04-21T17:08:51.449+03:00,8575,1.05484,0,0,7126.063,7,22,2025-04-22T16:23:44.810+03:00,767021066.1703798,0,-11.82999,100.3452,1,0.5,2025-04-22T16:24:21.690+03:00,112,1.866666666666667,2025-04-22T14:20:19.516+03:00,0.02197104130929222,0
2025-04-22T16:24:27.196+03:00,1745328267.176522,40.95220410219483,29.14027548197759,76.05157,-1,-1,-1,-1,30,27.14582014682712,-9999,37264.968686875,-0.78460693359375,0.584625244140625,-0.190399169921875,37264.958610875,-2.89408476381324,-1.336955899639475,-0.6199275934143104,-0.1442559063434601,0.0840894803404808,0.04704057797789574,0.01866680383682251,-0.008314013481140137,-0.005524799227714539,XArbitraryZVertical,0.6152894357386974,-0.1646817454508745,0.7183156010770398,-0.2798595871393905,-0.791768491268158,0.5809762477874756,-0.1885976642370224,0,0,0,-1,-1,37256.12331129167,unknown,2,2025-04-22T16:24:18.342+03:00,2025-04-21T17:08:51.449+03:00,8575,1.05484,0,0,7126.063,7,22,2025-04-22T16:23:44.810+03:00,767021066.1703798,0,-11.82999,100.3452,1,0.5,2025-04-22T16:24:21.690+03:00,112,1.866666666666667,2025-04-22T14:20:19.516+03:00,0.02197104130929222,0
2025-04-22T16:24:27.202+03:00,1745328267.176522,40.95220410219483,29.14027548197759,76.05157,-1,-1,-1,-1,30,27.14582014682712,-9999,37264.97876287501,-0.790557861328125,0.5859832763671875,-0.1894378662109375,37264.968686875,-2.895586102888671,-1.336920291838851,-0.6206989803580089,-0.120672807097435,0.09851741790771484,0.04792195186018944,0.01469916105270386,-0.0043792724609375,-0.003098130226135254,XArbitraryZVertical,0.6151157990874885,-0.1654435521848585,0.7184169129322592,-0.279531928838898,-0.7913256883621216,0.5816038846969604,-0.1885219663381577,0,0,0,-1,-1,37256.12331129167,unknown,2,2025-04-22T16:24:18.342+03:00,2025-04-21T17:08:51.449+03:00,8575,1.05484,0,0,7126.063,7,22,2025-04-22T16:23:44.810+03:00,767021066.1703798,0,-11.82999,100.3452,1,0.5,2025-04-22T16:24:21.690+03:00,112,1.866666666666667,2025-04-22T14:20:19.516+03:00,0.02197104130929222,0
2025-04-22T16:24:27.212+03:00,1745328267.176522,40.95220410219483,29.14027548197759,76.05157,-1,-1,-1,-1,30,27.14582014682712,-9999,37264.988838875,-0.793792724609375,0.58856201171875,-0.1875,37264.97876287501,-2.896834724940059,-1.336643044588167,-0.621305842524516,-0.09816217422485352,0.1154964044690132,0.04789851605892181,0.005529582500457764,0.00222247838973999,-0.002243459224700928,XArbitraryZVertical,0.6148834325866421,-0.1660983076347458,0.7185824771618995,-0.2792291815266404,-0.790929913520813,0.5820974707603455,-0.1886594295501709,0,0,0,-1,-1,37256.12331129167,unknown,2,2025-04-22T16:24:18.342+03:00,2025-04-21T17:08:51.449+03:00,8575,1.05484,0,0,7126.063,7,22,2025-04-22T16:23:44.810+03:00,767021066.1703798,0,-11.82999,100.3452,1,0.5,2025-04-22T16:24:21.690+03:00,112,1.866666666666667,2025-04-22T14:20:19.516+03:00,0.02197104130929222,0
2025-04-22T16:24:27.222+03:00,1745328267.176522,40.95220410219483,29.14027548197759,76.05157,-1,-1,-1,-1,30,27.14582014682712,-9999,37264.998914875,-0.78961181640625,0.5853118896484375,-0.1853179931640625,37264.988838875,-2.897888943921833,-1.336152726902848,-0.6217789714038011,-0.08439728617668152,0.1289166659116745,0.04470235854387283,-0.001178622245788574,0.003241658210754395,-8.86768102645874e-05,XArbitraryZVertical,0.6145965918373402,-0.1666717129258145,0.7188068466178671,-0.2789411580202689,-0.7905692458152771,0.5824820995330811,-0.188983142375946,0,0,0,-1,-1,37256.12331129167,unknown,2,2025-04-22T16:24:18.342+03:00,2025-04-21T17:08:51.449+03:00,8575,1.05484,0,0,7126.063,7,22,2025-04-22T16:23:44.810+03:00,767021066.1703798,0,-11.82999,100.3452,1,0.5,2025-04-22T16:24:21.690+03:00,112,1.866666666666667,2025-04-22T14:20:19.516+03:00,0.02197104130929222,0
2025-04-22T16:24:27.232+03:00,1745328267.176522,40.95220410219483,29.14027548197759,76.05157,-1,-1,-1,-1,30,27.14582014682712,-9999,37265.008990875,-0.78125,0.5680389404296875,-0.1845245361328125,37264.998914875,-2.898857403533464,-1.335440662724718,-0.6222560034696807,-0.08590038120746613,0.139695018529892,0.04554604738950729,-0.003643631935119629,0.006027758121490479,0.002164095640182495,XArbitraryZVertical,0.6142365362538272,-0.1672509516045023,0.7190865999668157,-0.278666227529547,-0.7901641130447388,0.5828697681427002,-0.1894811987876892,0,0,0,-1,-1,37256.12331129167,unknown,2,2025-04-22T16:24:18.342+03:00,2025-04-21T17:08:51.449+03:00,8575,1.05484,0,0,7126.063,7,22,2025-04-22T16:23:44.810+03:00,767021066.1703798,0,-11.82999,100.3452,1,0.5,2025-04-22T16:24:21.690+03:00,112,1.866666666666667,2025-04-22T14:20:19.516+03:00,0.02197104130929222,0
2025-04-22T16:24:27.243+03:00,1745328267.176522,40.95220410219483,29.14027548197759,76.05157,-1,-1,-1,-1,30,27.14582014682712,-9999,37265.019066875,-0.7738189697265625,0.5514068603515625,-0.1834564208984375,37265.008990875,-2.899806974607225,-1.334591611307451,-0.6227658254027375,-0.08635224401950836,0.1506830155849457,0.04494926333427429,0.0004685521125793457,0.0006088018417358398,0.004398107528686523,XArbitraryZVertical,0.613826694672893,-0.1678557348560748,0.7194006092802208,-0.2783953093708488,-0.7897140979766846,0.5832839608192444,-0.1900824755430222,0,0,0,-1,-1,37256.12331129167,unknown,2,2025-04-22T16:24:18.342+03:00,2025-04-21T17:08:51.449+03:00,8575,1.05484,0,0,7126.063,7,22,2025-04-22T16:23:44.810+03:00,767021066.1703798,0,-11.82999,100.3452,1,0.5,2025-04-22T16:24:21.690+03:00,112,1.866666666666667,2025-04-22T14:20:19.516+03:00,0.02197104130929222,0
2025-04-22T16:24:27.253+03:00,1745328267.176522,40.95220410219483,29.14027548197759,76.05157,-1,-1,-1,-1,30,27.14582014682712,-9999,37265.029142875,-0.7690887451171875,0.5446929931640625,-0.1813201904296875,37265.019066875,-2.900910199899382,-1.333736806335769,-0.6233533978325414,-0.1121542826294899,0.1540444642305374,0.04081311076879501,0.00848686695098877,-0.01802641153335571,0.006320074200630188,XArbitraryZVertical,0.6133975042619456,-0.168537948168109,0.7197252282386789,-0.2780897525114335,-0.7892179489135742,0.5837611556053162,-0.1906769275665283,0,0,0,-1,-1,37256.12331129167,unknown,2,2025-04-22T16:24:18.342+03:00,2025-04-21T17:08:51.449+03:00,8575,1.05484,0,0,7126.063,7,22,2025-04-22T16:23:44.810+03:00,767021066.1703798,0,-11.82999,100.3452,1,0.5,2025-04-22T16:24:21.690+03:00,112,1.866666666666667,2025-04-22T14:20:19.516+03:00,0.02197104130929222,0
2025-04-22T16:24:27.262+03:00,1745328267.176522,40.95220410219483,29.14027548197759,76.05157,-1,-1,-1,-1,30,27.14582014682712,-9999,37265.039218875,-0.768829345703125,0.5371856689453125,-0.1803131103515625,37265.029142875,-2.902303091361834,-1.332995845422398,-0.6240118870878041,-0.1412834674119949,0.1493431180715561,0.03871477395296097,0.01535689830780029,-0.03400284051895142,0.00783655047416687,XArbitraryZVertical,0.6129806160014043,-0.1693199356491358,0.7200438976931585,-0.2777086930442319,-0.788702666759491,0.5842956900596619,-0.1911710500717163,0,0,0,-1,-1,37256.12331129167,unknown,2,2025-04-22T16:24:18.342+03:00,2025-04-21T17:08:51.449+03:00,8575,1.05484,0,0,7126.063,7,22,2025-04-22T16:23:44.810+03:00,767021066.1703798,0,-11.82999,100.3452,1,0.5,2025-04-22T16:24:21.690+03:00,112,1.866666666666667,2025-04-22T14:20:19.516+03:00,0.02197104130929222,0
2025-04-22T16:24:27.273+03:00,1745328267.176522,40.95220410219483,29.14027548197759,76.05157,-1,-1,-1,-1,30,27.14582014682712,-9999,37265.049294875,-0.7703704833984375,0.5487213134765625,-0.18560791015625,37265.039218875,-2.903997860221685,-1.332461213779319,-0.6247300199098303,-0.1572738885879517,0.1451726108789444,0.03345609456300735,0.01966845989227295,-0.04169601202011108,0.01089036464691162,XArbitraryZVertical,0.6126085056663172,-0.170188180134187,0.7203317429391953,-0.277252444043729,-0.7881925106048584,0.5848783254623413,-0.1914936006069183,0,0,0,-1,-1,37256.12331129167,unknown,2,2025-04-22T16:24:18.342+03:00,2025-04-21T17:08:51.449+03:00,8575,1.05484,0,0,7126.063,7,22,2025-04-22T16:23:44.810+03:00,767021066.1703798,0,-11.82999,100.3452,1,0.5,2025-04-22T16:24:21.690+03:00,112,1.866666666666667,2025-04-22T14:20:19.516+03:00,0.02197104130929222,0
2025-04-22T16:24:27.283+03:00,1745328267.176522,40.95220410219483,29.14027548197759,76.05157,-1,-1,-1,-1,30,27.14582014682712,-9999,37265.059370875,-0.7617340087890625,0.558074951171875,-0.1912078857421875,37265.049294875,-2.905843641987891,-1.332144994722617,-0.6253986653554731,-0.1637706011533737,0.1297721415758133,0.02513308264315128,0.01858681440353394,-0.04829603433609009,0.01083351671695709,XArbitraryZVertical,0.6123035834502357,-0.1710530764444482,0.7205807146311346,-0.2767462435040792,-0.7877517342567444,0.585420548915863,-0.1916503310203552,0,0,0,-1,-1,37256.12331129167,unknown,2,2025-04-22T16:24:18.342+03:00,2025-04-21T17:08:51.449+03:00,8575,1.05484,0,0,7126.063,7,22,2025-04-22T16:23:44.810+03:00,767021066.1703798,0,-11.82999,100.3452,1,0.5,2025-04-22T16:24:21.690+03:00,112,1.866666666666667,2025-04-22T14:20:19.516+03:00,0.02197104130929222,0
2025-04-22T16:24:27.293+03:00,1745328267.176522,40.95220410219483,29.14027548197759,76.05157,-1,-1,-1,-1,30,27.14582014682712,-9999,37265.069446875,-0.7650604248046875,0.566009521484375,-0.19464111328125,37265.059370875,-2.907701014434132,-1.331999514801687,-0.625935448148457,-0.1532439291477203,0.1154422163963318,0.00856475904583931,0.01732271909713745,-0.03570008277893066,0.005441665649414062,XArbitraryZVertical,0.6120647677255086,-0.171847088950221,0.7207990930026761,-0.2762135617897468,-0.7874184846878052,0.5858556032180786,-0.191690593957901,0,0,0,-1,-1,37256.12331129167,unknown,2,2025-04-22T16:24:18.342+03:00,2025-04-21T17:08:51.449+03:00,8575,1.05484,0,0,7126.063,7,22,2025-04-22T16:23:44.810+03:00,767021066.1703798,0,-11.82999,100.3452,1,0.5,2025-04-22T16:24:21.690+03:00,112,1.866666666666667,2025-04-22T14:20:19.516+03:00,0.02197104130929222,0
2025-04-22T16:24:27.303+03:00,1745328267.176522,40.95220410219483,29.14027548197759,76.05157,-1,-1,-1,-1,30,27.14582014682712,-9999,37265.079521875,-0.7713623046875,0.56488037109375,-0.1884918212890625,37265.069446875,-2.909592512710289,-1.332019899266389,-0.6263468826221813,-0.1614722311496735,0.1011959612369537,-4.320999141782522e-05,0.02571350336074829,-0.0267714262008667,-0.0009333938360214233,XArbitraryZVertical,0.6118882587151632,-0.1725804698631055,0.7209901529917145,-0.2756478576669967,-0.787187933921814,0.5861890316009521,-0.1916174739599228,0,0,0,-1,-1,37256.12331129167,unknown,2,2025-04-22T16:24:18.342+03:00,2025-04-21T17:08:51.449+03:00,8575,1.05484,0,0,7126.063,7,22,2025-04-22T16:23:44.810+03:00,767021066.1703798,0,-11.82999,100.3452,1,0.5,2025-04-22T16:24:21.690+03:00,112,1.866666666666667,2025-04-22T14:20:19.516+03:00,0.02197104130929222,0
2025-04-22T16:24:27.313+03:00,1745328267.176522,40.95220410219483,29.14027548197759,76.05157,-1,-1,-1,-1,30,27.14582014682712,-9999,37265.089597875,-0.769805908203125,0.5619659423828125,-0.1799163818359375,37265.079521875,-2.911688905630579,-1.332318629261822,-0.6267399831079838,-0.1828084141016006,0.07988214492797852,-0.008148807100951672,0.02135062217712402,-0.02023869752883911,-0.002626806497573853,XArbitraryZVertical,0.6117944295826037,-0.173331024742711,0.7211267412827401,-0.2750271646086515,-0.7870211601257324,0.5865074396133423,-0.1913278698921204,0,0,0,-1,-1,37256.12331129167,unknown,2,2025-04-22T16:24:18.342+03:00,2025-04-21T17:08:51.449+03:00,8575,1.05484,0,0,7126.063,7,22,2025-04-22T16:23:44.810+03:00,767021066.1703798,0,-11.82999,100.3452,1,0.5,2025-04-22T16:24:21.690+03:00,112,1.866666666666667,2025-04-22T14:20:19.516+03:00,0.02197104130929222,0
2025-04-22T16:24:27.323+03:00,1745328267.176522,40.95220410219483,29.14027548197759,76.05157,-1,-1,-1,-1,30,27.14582014682712,-9999,37265.099673875,-0.77850341796875,0.5604400634765625,-0.181884765625,37265.089597875,-2.914131710957363,-1.332981147301984,-0.6271327583539751,-0.2085820287466049,0.07343777269124985,-0.008281731978058815,0.01647716760635376,-0.02157914638519287,0.002839952707290649,XArbitraryZVertical,0.6118006937801147,-0.174137462942923,0.7211990532870007,-0.2743131757399157,-0.7869237661361694,0.5868255496025085,-0.1907521039247513,0,0,0,-1,-1,37256.12331129167,unknown,2,2025-04-22T16:24:18.342+03:00,2025-04-21T17:08:51.449+03:00,8575,1.05484,0,0,7126.063,7,22,2025-04-22T16:23:44.810+03:00,767021066.1703798,0,-11.82999,100.3452,1,0.5,2025-04-22T16:24:21.690+03:00,112,1.866666666666667,2025-04-22T14:20:19.516+03:00,0.02197104130929222,0
2025-04-22T16:24:27.333+03:00,1745328267.176522,40.95220410219483,29.14027548197759,76.05157,-1,-1,-1,-1,30,27.14582014682712,-9999,37265.109749875,-0.78570556640625,0.5699462890625,-0.1829071044921875,37265.099673875,-2.916774365509697,-1.333857021052686,-0.62752749553619,-0.2264116257429123,0.06425944715738297,-0.008779210969805717,0.01643407344818115,-0.02621680498123169,0.01009190082550049,XArbitraryZVertical,0.6118651076501979,-0.1749767503412197,0.7212325811627865,-0.2735466010278366,-0.7868655323982239,0.5871450901031494,-0.1900084465742111,0,0,0,-1,-1,37256.12331129167,unknown,2,2025-04-22T16:24:18.342+03:00,2025-04-21T17:08:51.449+03:00,8575,1.05484,0,0,7126.063,7,22,2025-04-22T16:23:44.810+03:00,767021066.1703798,0,-11.82999,100.3452,1,0.5,2025-04-22T16:24:21.690+03:00,112,1.866666666666667,2025-04-22T14:20:19.516+03:00,0.02197104130929222,0
2025-04-22T16:24:27.343+03:00,1745328267.176522,40.95220410219483,29.14027548197759,76.05157,-1,-1,-1,-1,30,27.14582014682712,-9999,37265.119825875,-0.7867279052734375,0.5748443603515625,-0.1865386962890625,37265.109749875,-2.919597308452457,-1.334920768965749,-0.6279528766297183,-0.2363821566104889,0.05543540045619011,-0.008536296896636486,0.007634282112121582,-0.02640849351882935,0.006953299045562744,XArbitraryZVertical,0.6119784525589205,-0.1758576454429553,0.7212273954594507,-0.2727405581426645,-0.7868242263793945,0.5874893665313721,-0.1891129314899445,0,0,0,-1,-1,37256.12331129167,unknown,2,2025-04-22T16:24:18.342+03:00,2025-04-21T17:08:51.449+03:00,8575,1.05484,0,0,7126.063,7,22,2025-04-22T16:23:44.810+03:00,767021066.1703798,0,-11.82999,100.3452,1,0.5,2025-04-22T16:24:21.690+03:00,112,1.866666666666667,2025-04-22T14:20:19.516+03:00,0.02197104130929222,0
2025-04-22T16:24:27.353+03:00,1745328267.176522,40.95220410219483,29.14027548197759,76.05157,-1,-1,-1,-1,30,27.14582014682712,-9999,37265.129901875,-0.7964019775390625,0.5796356201171875,-0.189422607421875,37265.119825875,-2.922534913773882,-1.336078485659431,-0.6283948989557021,-0.2450685948133469,0.06292926520109177,-0.007228418253362179,7.742643356323242e-05,-0.01707684993743896,0.005920827388763428,XArbitraryZVertical,0.6121131054044495,-0.1767676869528061,0.7212054725036424,-0.2719067640091373,-0.7867899537086487,0.5878470540046692,-0.1881414651870728,0,0,0,-1,-1,37256.12331129167,unknown,2,2025-04-22T16:24:18.342+03:00,2025-04-21T17:08:51.449+03:00,8575,1.05484,0,0,7126.063,7,22,2025-04-22T16:23:44.810+03:00,767021066.1703798,0,-11.82999,100.3452,1,0.5,2025-04-22T16:24:21.690+03:00,112,1.866666666666667,2025-04-22T14:20:19.516+03:00,0.02197104130929222,0
2025-04-22T16:24:27.363+03:00,1745328267.176522,40.95220410219483,29.14027548197759,76.05157,-1,-1,-1,-1,30,27.14582014682712,-9999,37265.13997787501,-0.807098388671875,0.5858154296875,-0.1877288818359375,37265.129901875,-2.925544931434883,-1.337162998421676,-0.6288096860194017,-0.2460538893938065,0.07224719971418381,-0.009373161941766739,-3.248453140258789e-05,-0.01252955198287964,-0.0002380609512329102,XArbitraryZVertical,0.6122147540458477,-0.177699985264423,0.7212188592031031,-0.2710334656807409,-0.7867563962936401,0.5881825089454651,-0.1872316151857376,0,0,0,-1,-1,37256.12331129167,unknown,2,2025-04-22T16:24:18.342+03:00,2025-04-21T17:08:51.449+03:00,8575,1.05484,0,0,7126.063,7,22,2025-04-22T16:23:44.810+03:00,767021066.1703798,0,-11.82999,100.3452,1,0.5,2025-04-22T16:24:21.690+03:00,112,1.866666666666667,2025-04-22T14:20:19.516+03:00,0.02197104130929222,0
2025-04-22T16:24:27.373+03:00,1745328267.176522,40.95220410219483,29.14027548197759,76.05157,-1,-1,-1,-1,30,27.14582014682712,-9999,37265.150053875,-0.802978515625,0.5982818603515625,-0.190704345703125,37265.13997787501,-2.928564989747321,-1.338168849740527,-0.6291940318104918,-0.2412074655294418,0.07833199203014374,-0.01708647608757019,-0.01112723350524902,-0.008338987827301025,-0.003660440444946289,XArbitraryZVertical,0.612287150523362,-0.1786349189757237,0.7212609860560729,-0.2701416535553653,-0.7867242097854614,0.5884933471679688,-0.1863880157470703,0,0,0,-1,-1,37256.12331129167,unknown,2,2025-04-22T16:24:18.342+03:00,2025-04-21T17:08:51.449+03:00,8575,1.05484,0,0,7126.063,7,22,2025-04-22T16:23:44.810+03:00,767021066.1703798,0,-11.82999,100.3452,1,0.5,2025-04-22T16:24:21.690+03:00,112,1.866666666666667,2025-04-22T14:20:19.516+03:00,0.02197104130929222,0
