loggingTime(txt),locationTimestamp_since1970(s),locationLatitude(WGS84),locationLongitude(WGS84),locationAltitude(m),locationSpeed(m/s),locationSpeedAccuracy(m/s),locationCourse(°),locationCourseAccuracy(°),locationVerticalAccuracy(m),locationHorizontalAccuracy(m),locationFloor(Z),accelerometerTimestamp_sinceReboot(s),accelerometerAccelerationX(G),accelerometerAccelerationY(G),accelerometerAccelerationZ(G),motionTimestamp_sinceReboot(s),motionYaw(rad),motionRoll(rad),motionPitch(rad),motionRotationRateX(rad/s),motionRotationRateY(rad/s),motionRotationRateZ(rad/s),motionUserAccelerationX(G),motionUserAccelerationY(G),motionUserAccelerationZ(G),motionAttitudeReferenceFrame(txt),motionQuaternionX(R),motionQuaternionY(R),motionQuaternionZ(R),motionQuaternionW(R),motionGravityX(G),motionGravityY(G),motionGravityZ(G),motionMagneticFieldX(µT),motionMagneticFieldY(µT),motionMagneticFieldZ(µT),motionHeading(°),motionMagneticFieldCalibrationAccuracy(Z),activityTimestamp_sinceReboot(s),activity(txt),activityActivityConfidence(Z),activityActivityStartDate(txt),pedometerStartDate(txt),pedometerNumberofSteps(N),pedometerAverageActivePace(s/m),pedometerCurrentPace(s/m),pedometerCurrentCadence(steps/s),pedometerDistance(m),pedometerFloorAscended(N),pedometerFloorDescended(N),pedometerEndDate(txt),altimeterTimestamp_sinceReboot(s),altimeterReset(bool),altimeterRelativeAltitude(m),altimeterPressure(kPa),batteryState(N),batteryLevel(R),heartRateBPMTimestamp(txt),heartRateBPM(N),heartRateBPS(R),heartRateVariabilityTimestamp(txt),heartRateVariability(ms),label
2025-04-22T13:30:51.852+03:00,1745317846.535418,40.95227273616753,29.14031030331255,76.46297,-1,-1,-1,-1,30,30.83114588979476,-9999,33503.850071375,0.6263275146484375,-0.764923095703125,-0.1016082763671875,33503.839994375,2.986462548229446,1.387809563419773,0.883586498794812,-0.0418427549302578,0.01573910005390644,-0.0132999075576663,-0.01946711540222168,0.001061677932739258,0.0006602853536605835,XArbitraryZVertical,-0.5509314185597987,0.3724998272305976,0.7140426515081173,-0.2187727202101096,0.6237914562225342,-0.7730190753936768,-0.1154369041323662,0,0,0,-1,-1,33499.5285815,unknown,2,2025-04-22T13:30:47.504+03:00,2025-04-21T17:08:51.449+03:00,7448,1.015038,0,0,6201.935,5,20,2025-04-22T13:27:54.669+03:00,767010650.1763785,0,-20.1,100.4436,1,0.65,2025-04-22T13:27:27.892+03:00,96,1.6,2025-04-22T09:54:17.825+03:00,0.02225348692287972,0
2025-04-22T13:30:51.854+03:00,1745317846.535418,40.95227273616753,29.14031030331255,76.46297,-1,-1,-1,-1,30,30.83114588979476,-9999,33503.860147375,0.599151611328125,-0.7532958984375,-0.10772705078125,33503.850071375,2.986803903318257,1.387862277233278,0.8832294833999412,-0.009319967590272427,0.04155818000435829,-0.01080319378525019,0.03190642595291138,0.0169941782951355,0.01207594573497772,XArbitraryZVertical,-0.5510720539857767,0.3722801103787737,0.7140413036087694,-0.2187969547223269,0.6240689158439636,-0.7727925181388855,-0.1154542192816734,0,0,0,-1,-1,33499.5285815,unknown,2,2025-04-22T13:30:47.504+03:00,2025-04-21T17:08:51.449+03:00,7448,1.015038,0,0,6201.935,5,20,2025-04-22T13:27:54.669+03:00,767010650.1763785,0,-20.1,100.4436,1,0.65,2025-04-22T13:27:27.892+03:00,96,1.6,2025-04-22T09:54:17.825+03:00,0.02225348692287972,0
2025-04-22T13:30:51.855+03:00,1745317846.535418,40.95227273616753,29.14031030331255,76.46297,-1,-1,-1,-1,30,30.83114588979476,-9999,33503.870224375,0.6302490234375,-0.7487335205078125,-0.1118316650390625,33503.860147375,2.986813890282775,1.388200807661196,0.8833027631452169,0.007005874998867512,0.02729149349033833,-0.002748263534158468,-0.004301190376281738,0.007214188575744629,0.01307506859302521,XArbitraryZVertical,-0.5511828270638751,0.3722649258925439,0.7139364321789829,-0.2188856698793621,0.624052107334137,-0.7728390097618103,-0.1152326315641403,0,0,0,-1,-1,33499.5285815,unknown,2,2025-04-22T13:30:47.504+03:00,2025-04-21T17:08:51.449+03:00,7448,1.015038,0,0,6201.935,5,20,2025-04-22T13:27:54.669+03:00,767010650.1763785,0,-20.1,100.4436,1,0.65,2025-04-22T13:27:27.892+03:00,96,1.6,2025-04-22T09:54:17.825+03:00,0.02225348692287972,0
2025-04-22T13:30:51.862+03:00,1745317846.535418,40.95227273616753,29.14031030331255,76.46297,-1,-1,-1,-1,30,30.83114588979476,-9999,33503.880300375,0.6396636962890625,-0.76055908203125,-0.11572265625,33503.870224375,2.986766745480852,1.388418150177136,0.883452659933198,0.005375754088163376,0.01612645760178566,0.005418053828179836,-0.02362155914306641,0.0215303897857666,0.006845414638519287,XArbitraryZVertical,-0.5512271572642694,0.372304466179671,0.7138605980474489,-0.2189543511035451,0.6239633560180664,-0.7729341387748718,-0.1150760129094124,0,0,0,-1,-1,33499.5285815,unknown,2,2025-04-22T13:30:47.504+03:00,2025-04-21T17:08:51.449+03:00,7448,1.015038,0,0,6201.935,5,20,2025-04-22T13:27:54.669+03:00,767010650.1763785,0,-20.1,100.4436,1,0.65,2025-04-22T13:27:27.892+03:00,96,1.6,2025-04-22T09:54:17.825+03:00,0.02225348692287972,0
2025-04-22T13:30:51.872+03:00,1745317846.535418,40.95227273616753,29.14031030331255,76.46297,-1,-1,-1,-1,30,30.83114588979476,-9999,33503.890377375,0.621246337890625,-0.767242431640625,-0.11962890625,33503.880300375,2.98681435072487,1.388515233279794,0.8835361992175608,0.004711628425866365,0.02176523208618164,0.007122376933693886,0.01062566041946411,0.02236151695251465,0.00269906222820282,XArbitraryZVertical,-0.5512570260608415,0.3723087662711058,0.7138168846483441,-0.2190145158297507,0.6239110827445984,-0.7729871273040771,-0.1150037497282028,0,0,0,-1,-1,33499.5285815,unknown,2,2025-04-22T13:30:47.504+03:00,2025-04-21T17:08:51.449+03:00,7448,1.015038,0,0,6201.935,5,20,2025-04-22T13:27:54.669+03:00,767010650.1763785,0,-20.1,100.4436,1,0.65,2025-04-22T13:27:27.892+03:00,96,1.6,2025-04-22T09:54:17.825+03:00,0.02225348692287972,0
2025-04-22T13:30:51.881+03:00,1745317846.535418,40.95227273616753,29.14031030331255,76.46297,-1,-1,-1,-1,30,30.83114588979476,-9999,33503.900453375,0.6153106689453125,-0.7722320556640625,-0.1202545166015625,33503.890377375,2.986952119244489,1.388577556652789,0.8836962785725084,-0.005809189286082983,0.02263395860791206,0.007106930483132601,0.01417356729507446,0.01118695735931396,-0.0005360841751098633,XArbitraryZVertical,-0.5512788042130607,0.3723177113471386,0.7137618353508385,-0.2191235621138315,0.6237964034080505,-0.7730886936187744,-0.1149424016475677,0,0,0,-1,-1,33499.5285815,unknown,2,2025-04-22T13:30:47.504+03:00,2025-04-21T17:08:51.449+03:00,7448,1.015038,0,0,6201.935,5,20,2025-04-22T13:27:54.669+03:00,767010650.1763785,0,-20.1,100.4436,1,0.65,2025-04-22T13:27:27.892+03:00,96,1.6,2025-04-22T09:54:17.825+03:00,0.02225348692287972,0
2025-04-22T13:30:51.891+03:00,1745317846.535418,40.95227273616753,29.14031030331255,76.46297,-1,-1,-1,-1,30,30.83114588979476,-9999,33503.910529375,0.6179351806640625,-0.778167724609375,-0.11932373046875,33503.900453375,2.987303568599442,1.388467520098652,0.8839349551976491,-0.01840940304100513,0.02160757407546043,0.005113687831908464,-0.004049777984619141,0.005631387233734131,-0.004788592457771301,XArbitraryZVertical,-0.5512659902908655,0.3723130394112466,0.7137199958287942,-0.2193002552480398,0.6236024498939514,-0.7732400894165039,-0.1149776205420494,0,0,0,-1,-1,33499.5285815,unknown,2,2025-04-22T13:30:47.504+03:00,2025-04-21T17:08:51.449+03:00,7448,1.015038,0,0,6201.935,5,20,2025-04-22T13:27:54.669+03:00,767010650.1763785,0,-20.1,100.4436,1,0.65,2025-04-22T13:27:27.892+03:00,96,1.6,2025-04-22T09:54:17.825+03:00,0.02225348692287972,0
2025-04-22T13:30:51.901+03:00,1745317846.535418,40.95227273616753,29.14031030331255,76.46297,-1,-1,-1,-1,30,30.83114588979476,-9999,33503.920606375,0.6135406494140625,-0.778472900390625,-0.1175537109375,33503.910529375,2.987749622533965,1.38827474907509,0.8841928022214762,-0.01990183815360069,0.02012765593826771,0.002456651534885168,-0.007600367069244385,0.0003933906555175781,-0.005284428596496582,XArbitraryZVertical,-0.5512381768295839,0.3722978235165676,0.7136875603361256,-0.2195012107120999,0.6233839988708496,-0.773403525352478,-0.1150616034865379,0,0,0,-1,-1,33499.5285815,unknown,2,2025-04-22T13:30:47.504+03:00,2025-04-21T17:08:51.449+03:00,7448,1.015038,0,0,6201.935,5,20,2025-04-22T13:27:54.669+03:00,767010650.1763785,0,-20.1,100.4436,1,0.65,2025-04-22T13:27:27.892+03:00,96,1.6,2025-04-22T09:54:17.825+03:00,0.02225348692287972,0
2025-04-22T13:30:51.911+03:00,1745317846.535418,40.95227273616753,29.14031030331255,76.46297,-1,-1,-1,-1,30,30.83114588979476,-9999,33503.930682375,0.6074981689453125,-0.777618408203125,-0.1134490966796875,33503.920606375,2.988051252684695,1.388283499493747,0.8842895998884212,-0.01296643447130919,0.02925191260874271,0.003100470872595906,-0.005208373069763184,-0.00522148609161377,-0.003869175910949707,XArbitraryZVertical,-0.551281657062289,0.3722462306954384,0.7136382894585147,-0.219639609976282,0.6233113408088684,-0.7734649181365967,-0.1150425598025322,0,0,0,-1,-1,33499.5285815,unknown,2,2025-04-22T13:30:47.504+03:00,2025-04-21T17:08:51.449+03:00,7448,1.015038,0,0,6201.935,5,20,2025-04-22T13:27:54.669+03:00,767010650.1763785,0,-20.1,100.4436,1,0.65,2025-04-22T13:27:27.892+03:00,96,1.6,2025-04-22T09:54:17.825+03:00,0.02225348692287972,0
2025-04-22T13:30:51.921+03:00,1745317846.535418,40.95227273616753,29.14031030331255,76.46297,-1,-1,-1,-1,30,30.83114588979476,-9999,33503.940759375,0.6158905029296875,-0.7750091552734375,-0.1134796142578125,33503.930682375,2.988176601496152,1.388572964887712,0.8840612421532246,-0.01482931617647409,0.02985458634793758,0.002875966485589743,-0.01035922765731812,-0.005732595920562744,-0.002293363213539124,XArbitraryZVertical,-0.5514454983626597,0.37210319697293,0.7135771586361863,-0.2196694482089392,0.6235184073448181,-0.7733201384544373,-0.1148941442370415,0,0,0,-1,-1,33499.5285815,unknown,2,2025-04-22T13:30:47.504+03:00,2025-04-21T17:08:51.449+03:00,7448,1.015038,0,0,6201.935,5,20,2025-04-22T13:27:54.669+03:00,767010650.1763785,0,-20.1,100.4436,1,0.65,2025-04-22T13:27:27.892+03:00,96,1.6,2025-04-22T09:54:17.825+03:00,0.02225348692287972,0
2025-04-22T13:30:51.931+03:00,1745317846.535418,40.95227273616753,29.14031030331255,76.46297,-1,-1,-1,-1,30,30.83114588979476,-9999,33503.950835375,0.6236419677734375,-0.7704315185546875,-0.11322021484375,33503.940759375,2.988242108096843,1.388842789893272,0.8840823314681612,-0.003617275040596724,0.02390415221452713,0.001613827887922525,-0.01571482419967651,-0.003445684909820557,0.001533254981040955,XArbitraryZVertical,-0.5515505043986474,0.3720625744476457,0.7134926219782551,-0.2197493302999758,0.6235334277153015,-0.7733334898948669,-0.1147229671478271,0,0,0,-1,-1,33499.5285815,unknown,2,2025-04-22T13:30:47.504+03:00,2025-04-21T17:08:51.449+03:00,7448,1.015038,0,0,6201.935,5,20,2025-04-22T13:27:54.669+03:00,767010650.1763785,0,-20.1,100.4436,1,0.65,2025-04-22T13:27:27.892+03:00,96,1.6,2025-04-22T09:54:17.825+03:00,0.02225348692287972,0
2025-04-22T13:30:51.941+03:00,1745317846.535418,40.95227273616753,29.14031030331255,76.46297,-1,-1,-1,-1,30,30.83114588979476,-9999,33503.96091237501,0.6240234375,-0.768829345703125,-0.111175537109375,33503.950835375,2.988170105527146,1.389121117040824,0.8841635904037584,0.009463906288146973,0.01918289996683598,0.005937203764915466,-0.006392180919647217,-0.001349329948425293,0.001226313412189484,XArbitraryZVertical,-0.5516231640157938,0.372079127920844,0.7134120874618634,-0.2197999904501448,0.6235032677650452,-0.7733850479125977,-0.1145380139350891,0,0,0,-1,-1,33499.5285815,unknown,2,2025-04-22T13:30:47.504+03:00,2025-04-21T17:08:51.449+03:00,7448,1.015038,0,0,6201.935,5,20,2025-04-22T13:27:54.669+03:00,767010650.1763785,0,-20.1,100.4436,1,0.65,2025-04-22T13:27:27.892+03:00,96,1.6,2025-04-22T09:54:17.825+03:00,0.02225348692287972,0
2025-04-22T13:30:51.951+03:00,1745317846.535418,40.95227273616753,29.14031030331255,76.46297,-1,-1,-1,-1,30,30.83114588979476,-9999,33503.970988375,0.62286376953125,-0.765289306640625,-0.1114501953125,33503.96091237501,2.987940858400636,1.38953190925385,0.8840985796343366,0.01969783380627632,0.02207289636135101,0.005515591707080603,0.0009577274322509766,0.003599166870117188,0.001482740044593811,XArbitraryZVertical,-0.5517376523671447,0.3720753961665999,0.713333124004387,-0.2197751071200972,0.623599648475647,-0.7733438014984131,-0.1142909228801727,0,0,0,-1,-1,33499.5285815,unknown,2,2025-04-22T13:30:47.504+03:00,2025-04-21T17:08:51.449+03:00,7448,1.015038,0,0,6201.935,5,20,2025-04-22T13:27:54.669+03:00,767010650.1763785,0,-20.1,100.4436,1,0.65,2025-04-22T13:27:27.892+03:00,96,1.6,2025-04-22T09:54:17.825+03:00,0.02225348692287972,0
2025-04-22T13:30:51.961+03:00,1745317846.535418,40.95227273616753,29.14031030331255,76.46297,-1,-1,-1,-1,30,30.83114588979476,-9999,33503.981064375,0.6270599365234375,-0.764678955078125,-0.1140899658203125,33503.970988375,2.98762708198386,1.389986290371024,0.8840861924374964,0.02202277444303036,0.01812875457108021,0.01024829503148794,0.0001028180122375488,0.004506707191467285,0.002742230892181396,XArbitraryZVertical,-0.5518433281908014,0.3721078835746879,0.7132441670888675,-0.2197438946743795,0.6236612200737,-0.7733359336853027,-0.114009328186512,0,0,0,-1,-1,33499.5285815,unknown,2,2025-04-22T13:30:47.504+03:00,2025-04-21T17:08:51.449+03:00,7448,1.015038,0,0,6201.935,5,20,2025-04-22T13:27:54.669+03:00,767010650.1763785,0,-20.1,100.4436,1,0.65,2025-04-22T13:27:27.892+03:00,96,1.6,2025-04-22T09:54:17.825+03:00,0.02225348692287972,0
2025-04-22T13:30:51.971+03:00,1745317846.535418,40.95227273616753,29.14031030331255,76.46297,-1,-1,-1,-1,30,30.83114588979476,-9999,33503.991141375,0.6246185302734375,-0.7685699462890625,-0.113250732421875,33503.981064375,2.987438469417349,1.390266763347575,0.8842046715221338,0.01402796432375908,0.01617931947112083,0.009352807886898518,-0.0005866885185241699,0.008472681045532227,0.001742169260978699,XArbitraryZVertical,-0.5518888968582712,0.3721688632702654,0.7131707861235249,-0.2197644752789447,0.6236031055450439,-0.7734110951423645,-0.1138179674744606,0,0,0,-1,-1,33499.5285815,unknown,2,2025-04-22T13:30:47.504+03:00,2025-04-21T17:08:51.449+03:00,7448,1.015038,0,0,6201.935,5,20,2025-04-22T13:27:54.669+03:00,767010650.1763785,0,-20.1,100.4436,1,0.65,2025-04-22T13:27:27.892+03:00,96,1.6,2025-04-22T09:54:17.825+03:00,0.02225348692287972,0
2025-04-22T13:30:51.981+03:00,1745317846.535418,40.95227273616753,29.14031030331255,76.46297,-1,-1,-1,-1,30,30.83114588979476,-9999,33504.001217375,0.6156463623046875,-0.770355224609375,-0.1152801513671875,33503.991141375,2.987315319608795,1.390516179280812,0.8843372240174657,0.0122236730530858,0.02368437498807907,0.006513078697025776,0.004246532917022705,0.008511066436767578,-0.001010477542877197,XArbitraryZVertical,-0.5519332659300987,0.3722199027070643,0.7130966786175591,-0.2198069498757651,0.6235305070877075,-0.773495078086853,-0.1136440262198448,0,0,0,-1,-1,33499.5285815,unknown,2,2025-04-22T13:30:47.504+03:00,2025-04-21T17:08:51.449+03:00,7448,1.015038,0,0,6201.935,5,20,2025-04-22T13:27:54.669+03:00,767010650.1763785,0,-20.1,100.4436,1,0.65,2025-04-22T13:27:27.892+03:00,96,1.6,2025-04-22T09:54:17.825+03:00,0.02225348692287972,0
2025-04-22T13:30:51.991+03:00,1745317846.535418,40.95227273616753,29.14031030331255,76.46297,-1,-1,-1,-1,30,30.83114588979476,-9999,33504.011294375,0.6166839599609375,-0.7703704833984375,-0.116607666015625,33504.001217375,2.987211649011901,1.390800684249255,0.8844570980069187,0.008078929036855698,0.02470243349671364,0.005124473478645086,7.88569450378418e-05,0.003948330879211426,0.0003671646118164062,XArbitraryZVertical,-0.5519958220155005,0.3722574464016856,0.7130125428338386,-0.2198590934800231,0.6234714984893799,-0.7735710740089417,-0.1134500131011009,0,0,0,-1,-1,33499.5285815,unknown,2,2025-04-22T13:30:47.504+03:00,2025-04-21T17:08:51.449+03:00,7448,1.015038,0,0,6201.935,5,20,2025-04-22T13:27:54.669+03:00,767010650.1763785,0,-20.1,100.4436,1,0.65,2025-04-22T13:27:27.892+03:00,96,1.6,2025-04-22T09:54:17.825+03:00,0.02225348692287972,0
2025-04-22T13:30:52.002+03:00,1745317846.535418,40.95227273616753,29.14031030331255,76.46297,-1,-1,-1,-1,30,30.83114588979476,-9999,33504.02137037501,0.62030029296875,-0.772552490234375,-0.1158905029296875,33504.011294375,2.987201380984172,1.391017189152806,0.8845970438614907,0.002310522366315126,0.0232696533203125,0.006609984673559666,-0.008323132991790771,0.003045201301574707,-0.001816630363464355,XArbitraryZVertical,-0.5520482083289531,0.3722834062453663,0.7129341791535991,-0.2199378636334775,0.6233896613121033,-0.7736597657203674,-0.1132956817746162,0,0,0,-1,-1,33499.5285815,unknown,2,2025-04-22T13:30:47.504+03:00,2025-04-21T17:08:51.449+03:00,7448,1.015038,0,0,6201.935,5,20,2025-04-22T13:27:54.669+03:00,767010650.1763785,0,-20.1,100.4436,1,0.65,2025-04-22T13:27:27.892+03:00,96,1.6,2025-04-22T09:54:17.825+03:00,0.02225348692287972,0
2025-04-22T13:30:52.012+03:00,1745317846.535418,40.95227273616753,29.14031030331255,76.46297,-1,-1,-1,-1,30,30.83114588979476,-9999,33504.031446375,0.6253509521484375,-0.777252197265625,-0.1121978759765625,33504.02137037501,2.987253601223218,1.391189445153812,0.8847653349846998,-0.005930230487138033,0.02333876304328442,0.00550750270485878,-0.006413936614990234,0.003380715847015381,-0.004052996635437012,XArbitraryZVertical,-0.552091819821499,0.3723064714991228,0.71285703712118,-0.2200392850076869,0.6232810020446777,-0.7737663388252258,-0.1131650283932686,0,0,0,-1,-1,33499.5285815,unknown,2,2025-04-22T13:30:47.504+03:00,2025-04-21T17:08:51.449+03:00,7448,1.015038,0,0,6201.935,5,20,2025-04-22T13:27:54.669+03:00,767010650.1763785,0,-20.1,100.4436,1,0.65,2025-04-22T13:27:27.892+03:00,96,1.6,2025-04-22T09:54:17.825+03:00,0.02225348692287972,0
2025-04-22T13:30:52.022+03:00,1745317846.535418,40.95227273616753,29.14031030331255,76.46297,-1,-1,-1,-1,30,30.83114588979476,-9999,33504.041523375,0.62506103515625,-0.7756195068359375,-0.11090087890625,33504.031446375,2.987424803272173,1.391249823960442,0.8848383560817827,-0.01287255901843309,0.01689551025629044,0.005579407792538404,-0.00320667028427124,9.000301361083984e-06,-0.002284884452819824,XArbitraryZVertical,-0.5521332679271571,0.3722770483883133,0.7128112093018014,-0.2201335416919087,0.6232322454452515,-0.7738125920295715,-0.1131173074245453,0,0,0,-1,-1,33499.5285815,unknown,2,2025-04-22T13:30:47.504+03:00,2025-04-21T17:08:51.449+03:00,7448,1.015038,0,0,6201.935,5,20,2025-04-22T13:27:54.669+03:00,767010650.1763785,0,-20.1,100.4436,1,0.65,2025-04-22T13:27:27.892+03:00,96,1.6,2025-04-22T09:54:17.825+03:00,0.02225348692287972,0
2025-04-22T13:30:52.032+03:00,1745317846.535418,40.95227273616753,29.14031030331255,76.46297,-1,-1,-1,-1,30,30.83114588979476,-9999,33504.051599375,0.625030517578125,-0.77154541015625,-0.1148529052734375,33504.041523375,2.987651308353174,1.391229305046164,0.8848305685619743,-0.01296423748135567,0.01010251976549625,0.004255516920238733,0.002389788627624512,-0.003307044506072998,0.001513130962848663,XArbitraryZVertical,-0.5521693927121278,0.3722141628101278,0.7127929857220898,-0.2202081383050358,0.6232357621192932,-0.7738077044487,-0.113131158053875,0,0,0,-1,-1,33499.5285815,unknown,2,2025-04-22T13:30:47.504+03:00,2025-04-21T17:08:51.449+03:00,7448,1.015038,0,0,6201.935,5,20,2025-04-22T13:27:54.669+03:00,767010650.1763785,0,-20.1,100.4436,1,0.65,2025-04-22T13:27:27.892+03:00,96,1.6,2025-04-22T09:54:17.825+03:00,0.02225348692287972,0
2025-04-22T13:30:52.042+03:00,1745317846.535418,40.95227273616753,29.14031030331255,76.46297,-1,-1,-1,-1,30,30.83114588979476,-9999,33504.061676375,0.6246795654296875,-0.7688140869140625,-0.11395263671875,33504.051599375,2.98776444060453,1.391270703791459,0.8848333413283261,-0.003300957847386599,0.01406397111713886,0.002772669075056911,0.002509355545043945,-0.0007570385932922363,0.001746311783790588,XArbitraryZVertical,-0.5522047570301971,0.3721792976394189,0.7127686280492197,-0.2202570471960235,0.623238205909729,-0.7738094329833984,-0.1131049543619156,0,0,0,-1,-1,33499.5285815,unknown,2,2025-04-22T13:30:47.504+03:00,2025-04-21T17:08:51.449+03:00,7448,1.015038,0,0,6201.935,5,20,2025-04-22T13:27:54.669+03:00,767010650.1763785,0,-20.1,100.4436,1,0.65,2025-04-22T13:27:27.892+03:00,96,1.6,2025-04-22T09:54:17.825+03:00,0.02225348692287972,0
2025-04-22T13:30:52.052+03:00,1745317846.535418,40.95227273616753,29.14031030331255,76.46297,-1,-1,-1,-1,30,30.83114588979476,-9999,33504.071752375,0.622894287109375,-0.77142333984375,-0.1119384765625,33504.061676375,2.987714772748461,1.391466402273711,0.8848176220246922,0.00740501657128334,0.01745504140853882,-0.001312719890847802,0.002139627933502197,0.002834081649780273,-0.00165412575006485,XArbitraryZVertical,-0.5522678308595014,0.3721661880532449,0.7127222434538868,-0.2202710547617417,0.6232722401618958,-0.7737994790077209,-0.1129851415753365,0,0,0,-1,-1,33499.5285815,unknown,2,2025-04-22T13:30:47.504+03:00,2025-04-21T17:08:51.449+03:00,7448,1.015038,0,0,6201.935,5,20,2025-04-22T13:27:54.669+03:00,767010650.1763785,0,-20.1,100.4436,1,0.65,2025-04-22T13:27:27.892+03:00,96,1.6,2025-04-22T09:54:17.825+03:00,0.02225348692287972,0
2025-04-22T13:30:52.062+03:00,1745317846.535418,40.95227273616753,29.14031030331255,76.46297,-1,-1,-1,-1,30,30.83114588979476,-9999,33504.08182937501,0.622711181640625,-0.7698211669921875,-0.1147613525390625,33504.071752375,2.987571424030184,1.391744176910804,0.8847605285324671,0.01235210429877043,0.01718313246965408,-0.00147330854088068,0.0005540847778320312,0.005346119403839111,-0.0006749555468559265,XArbitraryZVertical,-0.5523494618626155,0.3721560437972716,0.7126695005461604,-0.22025438898553,0.6233472228050232,-0.7737632989883423,-0.1128199025988579,0,0,0,-1,-1,33499.5285815,unknown,2,2025-04-22T13:30:47.504+03:00,2025-04-21T17:08:51.449+03:00,7448,1.015038,0,0,6201.935,5,20,2025-04-22T13:27:54.669+03:00,767010650.1763785,0,-20.1,100.4436,1,0.65,2025-04-22T13:27:27.892+03:00,96,1.6,2025-04-22T09:54:17.825+03:00,0.02225348692287972,0
2025-04-22T13:30:52.072+03:00,1745317846.535418,40.95227273616753,29.14031030331255,76.46297,-1,-1,-1,-1,30,30.83114588979476,-9999,33504.091905375,0.6236419677734375,-0.7684326171875,-0.1136322021484375,33504.08182937501,2.987359273006076,1.39207683006093,0.8847397383062506,0.01199763733893633,0.01428055297583342,-0.003589456202462316,0.0001955628395080566,0.00197601318359375,0.0009515956044197083,XArbitraryZVertical,-0.5524319156239559,0.3721710376148748,0.7126039175945581,-0.22023443450821,0.6234005093574524,-0.7737501263618469,-0.1126153916120529,0,0,0,-1,-1,33499.5285815,unknown,2,2025-04-22T13:30:47.504+03:00,2025-04-21T17:08:51.449+03:00,7448,1.015038,0,0,6201.935,5,20,2025-04-22T13:27:54.669+03:00,767010650.1763785,0,-20.1,100.4436,1,0.65,2025-04-22T13:27:27.892+03:00,96,1.6,2025-04-22T09:54:17.825+03:00,0.02225348692287972,0
2025-04-22T13:30:52.082+03:00,1745317846.535418,40.95227273616753,29.14031030331255,76.46297,-1,-1,-1,-1,30,30.83114588979476,-9999,33504.101981375,0.6249847412109375,-0.774078369140625,-0.1125335693359375,33504.091905375,2.987223947158725,1.392330551812641,0.8847339033644394,0.009241797961294651,0.01741296239197254,-0.008342932909727097,-0.0004935860633850098,0.003955960273742676,-0.002516917884349823,XArbitraryZVertical,-0.5524980862115967,0.3721785245087794,0.7125495541438481,-0.2202316769948361,0.623433530330658,-0.7737464308738708,-0.1124580204486847,0,0,0,-1,-1,33499.5285815,unknown,2,2025-04-22T13:30:47.504+03:00,2025-04-21T17:08:51.449+03:00,7448,1.015038,0,0,6201.935,5,20,2025-04-22T13:27:54.669+03:00,767010650.1763785,0,-20.1,100.4436,1,0.65,2025-04-22T13:27:27.892+03:00,96,1.6,2025-04-22T09:54:17.825+03:00,0.02225348692287972,0
2025-04-22T13:30:52.092+03:00,1745317846.535418,40.95227273616753,29.14031030331255,76.46297,-1,-1,-1,-1,30,30.83114588979476,-9999,33504.112058375,0.62579345703125,-0.773956298828125,-0.1133880615234375,33504.101981375,2.98712830165203,1.392539832732567,0.8846820787901807,0.01008408982306719,0.01670742407441139,-0.007411924656480551,0.0006030797958374023,0.00473177433013916,-0.001007616519927979,XArbitraryZVertical,-0.5525633203763864,0.3721645382207593,0.712509639157864,-0.2202208880077892,0.6234965920448303,-0.7737135887145996,-0.112334668636322,0,0,0,-1,-1,33499.5285815,unknown,2,2025-04-22T13:30:47.504+03:00,2025-04-21T17:08:51.449+03:00,7448,1.015038,0,0,6201.935,5,20,2025-04-22T13:27:54.669+03:00,767010650.1763785,0,-20.1,100.4436,1,0.65,2025-04-22T13:27:27.892+03:00,96,1.6,2025-04-22T09:54:17.825+03:00,0.02225348692287972,0
2025-04-22T13:30:52.103+03:00,1745317846.535418,40.95227273616753,29.14031030331255,76.46297,-1,-1,-1,-1,30,30.83114588979476,-9999,33504.122134375,0.62451171875,-0.7775726318359375,-0.11041259765625,33504.112058375,2.987019433930955,1.39276686694448,0.8846512858604477,0.004914095159620047,0.01527810655534267,-0.005042776465415955,0.001347541809082031,-6.383657455444336e-05,-0.000793948769569397,XArbitraryZVertical,-0.5526289684646829,0.3721593038297516,0.7124633428207602,-0.2202150028578338,0.6235456466674805,-0.7736940979957581,-0.1121973544359207,0,0,0,-1,-1,33499.5285815,unknown,2,2025-04-22T13:30:47.504+03:00,2025-04-21T17:08:51.449+03:00,7448,1.015038,0,0,6201.935,5,20,2025-04-22T13:27:54.669+03:00,767010650.1763785,0,-20.1,100.4436,1,0.65,2025-04-22T13:27:27.892+03:00,96,1.6,2025-04-22T09:54:17.825+03:00,0.02225348692287972,0
2025-04-22T13:30:52.112+03:00,1745317846.535418,40.95227273616753,29.14031030331255,76.46297,-1,-1,-1,-1,30,30.83114588979476,-9999,33504.132211375,0.62310791015625,-0.7723236083984375,-0.1109771728515625,33504.122134375,2.986957106447107,1.39295493909406,0.8846079917037336,0.0002407800639048219,0.0114066693931818,-0.005101365968585014,0.001720786094665527,-0.0009761452674865723,-0.001179993152618408,XArbitraryZVertical,-0.5526914554669884,0.3721413138201177,0.7124243197612066,-0.2202147561894295,0.623599648475647,-0.7736666798591614,-0.1120859980583191,0,0,0,-1,-1,33499.5285815,unknown,2,2025-04-22T13:30:47.504+03:00,2025-04-21T17:08:51.449+03:00,7448,1.015038,0,0,6201.935,5,20,2025-04-22T13:27:54.669+03:00,767010650.1763785,0,-20.1,100.4436,1,0.65,2025-04-22T13:27:27.892+03:00,96,1.6,2025-04-22T09:54:17.825+03:00,0.02225348692287972,0
2025-04-22T13:30:52.123+03:00,1745317846.535418,40.95227273616753,29.14031030331255,76.46297,-1,-1,-1,-1,30,30.83114588979476,-9999,33504.14228737501,0.6211700439453125,-0.769012451171875,-0.1114349365234375,33504.132211375,2.986909146621873,1.393112366825574,0.8845814050229377,0.004291447810828686,0.0129020344465971,-0.001118875108659267,0.0008131861686706543,-0.004029512405395508,0.001182138919830322,XArbitraryZVertical,-0.5527429630775146,0.3721283270580603,0.7123898199434843,-0.2202189624967151,0.6236374974250793,-0.7736498117446899,-0.1119914501905441,0,0,0,-1,-1,33499.5285815,unknown,2,2025-04-22T13:30:47.504+03:00,2025-04-21T17:08:51.449+03:00,7448,1.015038,0,0,6201.935,5,20,2025-04-22T13:27:54.669+03:00,767010650.1763785,0,-20.1,100.4436,1,0.65,2025-04-22T13:27:27.892+03:00,96,1.6,2025-04-22T09:54:17.825+03:00,0.02225348692287972,0
2025-04-22T13:30:52.132+03:00,1745317846.535418,40.95227273616753,29.14031030331255,76.46297,-1,-1,-1,-1,30,30.83114588979476,-9999,33504.152364375,0.61688232421875,-0.771636962890625,-0.1107940673828125,33504.14228737501,2.986846742069457,1.39327557664033,0.8845553777758138,0.006361323408782482,0.01323952339589596,0.0009997028391808271,-0.001132190227508545,0.00217968225479126,0.0009465962648391724,XArbitraryZVertical,-0.5527937553892728,0.3721188842579852,0.7123551774548799,-0.2202193006179821,0.6236754655838013,-0.7736333608627319,-0.1118931993842125,0,0,0,-1,-1,33499.5285815,unknown,2,2025-04-22T13:30:47.504+03:00,2025-04-21T17:08:51.449+03:00,7448,1.015038,0,0,6201.935,5,20,2025-04-22T13:27:54.669+03:00,767010650.1763785,0,-20.1,100.4436,1,0.65,2025-04-22T13:27:27.892+03:00,96,1.6,2025-04-22T09:54:17.825+03:00,0.02225348692287972,0
2025-04-22T13:30:52.143+03:00,1745317846.535418,40.95227273616753,29.14031030331255,76.46297,-1,-1,-1,-1,30,30.83114588979476,-9999,33504.162440375,0.6146240234375,-0.7709197998046875,-0.1121673583984375,33504.152364375,2.986718586932331,1.393504593233128,0.8845541731772286,0.01385466009378433,0.0163881778717041,0.003875384340062737,-0.002928674221038818,0.00407099723815918,0.0001630410552024841,XArbitraryZVertical,-0.5528516865742704,0.372128686193441,0.7123060672656484,-0.2202159609309098,0.6237018704414368,-0.7736325860023499,-0.1117505058646202,0,0,0,-1,-1,33499.5285815,unknown,2,2025-04-22T13:30:47.504+03:00,2025-04-21T17:08:51.449+03:00,7448,1.015038,0,0,6201.935,5,20,2025-04-22T13:27:54.669+03:00,767010650.1763785,0,-20.1,100.4436,1,0.65,2025-04-22T13:27:27.892+03:00,96,1.6,2025-04-22T09:54:17.825+03:00,0.02225348692287972,0
2025-04-22T13:30:52.153+03:00,1745317846.535418,40.95227273616753,29.14031030331255,76.46297,-1,-1,-1,-1,30,30.83114588979476,-9999,33504.172516375,0.6227569580078125,-0.7689971923828125,-0.115081787109375,33504.162440375,2.986508346054466,1.393807195269996,0.8846242701729221,0.01515914313495159,0.01228351518511772,0.006531121674925089,-0.00681537389755249,0.001704514026641846,0.000865057110786438,XArbitraryZVertical,-0.5529088438092289,0.3721769608199606,0.7122357500414047,-0.22021850057569,0.6236823797225952,-0.7736769914627075,-0.1115522384643555,0,0,0,-1,-1,33499.5285815,unknown,2,2025-04-22T13:30:47.504+03:00,2025-04-21T17:08:51.449+03:00,7448,1.015038,0,0,6201.935,5,20,2025-04-22T13:27:54.669+03:00,767010650.1763785,0,-20.1,100.4436,1,0.65,2025-04-22T13:27:27.892+03:00,96,1.6,2025-04-22T09:54:17.825+03:00,0.02225348692287972,0
2025-04-22T13:30:52.163+03:00,1745317846.535418,40.95227273616753,29.14031030331255,76.46297,-1,-1,-1,-1,30,30.83114588979476,-9999,33504.182593375,0.6305694580078125,-0.7721099853515625,-0.1148834228515625,33504.172516375,2.986309657130957,1.3940347802574,0.8847072797420398,0.01590242981910706,0.005889531224966049,0.008639547042548656,-0.008150875568389893,0.00322192907333374,-0.001134507358074188,XArbitraryZVertical,-0.55293930946348,0.3722346242738859,0.7121830155704364,-0.2202151472248104,0.6236445903778076,-0.7737295627593994,-0.1113990098237991,0,0,0,-1,-1,33499.5285815,unknown,2,2025-04-22T13:30:47.504+03:00,2025-04-21T17:08:51.449+03:00,7448,1.015038,0,0,6201.935,5,20,2025-04-22T13:27:54.669+03:00,767010650.1763785,0,-20.1,100.4436,1,0.65,2025-04-22T13:27:27.892+03:00,96,1.6,2025-04-22T09:54:17.825+03:00,0.02225348692287972,0
2025-04-22T13:30:52.173+03:00,1745317846.535418,40.95227273616753,29.14031030331255,76.46297,-1,-1,-1,-1,30,30.83114588979476,-9999,33504.192669375,0.633026123046875,-0.777130126953125,-0.1157684326171875,33504.182593375,2.98617344720736,1.394159639572769,0.8848037231449485,0.008882604539394379,8.57044942677021e-05,0.01146595925092697,0.0005756020545959473,0.004701912403106689,-0.003514304757118225,XArbitraryZVertical,-0.552942593299274,0.3722908218646526,0.7121500338958545,-0.2202189090540354,0.6235852241516113,-0.7737906575202942,-0.1113080680370331,0,0,0,-1,-1,33499.5285815,unknown,2,2025-04-22T13:30:47.504+03:00,2025-04-21T17:08:51.449+03:00,7448,1.015038,0,0,6201.935,5,20,2025-04-22T13:27:54.669+03:00,767010650.1763785,0,-20.1,100.4436,1,0.65,2025-04-22T13:27:27.892+03:00,96,1.6,2025-04-22T09:54:17.825+03:00,0.02225348692287972,0
2025-04-22T13:30:52.183+03:00,1745317846.535418,40.95227273616753,29.14031030331255,76.46297,-1,-1,-1,-1,30,30.83114588979476,-9999,33504.20274637501,0.631591796875,-0.7783660888671875,-0.1190185546875,33504.192669375,2.986080099650868,1.394212493614088,0.8849158265369208,0.007153680548071861,-0.003952979575842619,0.01079644076526165,0.007933676242828369,0.0005463957786560059,-0.004142396152019501,XArbitraryZVertical,-0.5529256808939201,0.3723483306500327,0.7121297108682284,-0.2202294707383881,0.6235054731369019,-0.7738617062568665,-0.111259825527668,0,0,0,-1,-1,33499.5285815,unknown,2,2025-04-22T13:30:47.504+03:00,2025-04-21T17:08:51.449+03:00,7448,1.015038,0,0,6201.935,5,20,2025-04-22T13:27:54.669+03:00,767010650.1763785,0,-20.1,100.4436,1,0.65,2025-04-22T13:27:27.892+03:00,96,1.6,2025-04-22T09:54:17.825+03:00,0.02225348692287972,0
2025-04-22T13:30:52.193+03:00,1745317846.535418,40.95227273616753,29.14031030331255,76.46297,-1,-1,-1,-1,30,30.83114588979476,-9999,33504.212822375,0.6312408447265625,-0.78033447265625,-0.1184234619140625,33504.20274637501,2.986054006595269,1.394161907210563,0.8850304089749232,0.001572493813000619,-0.007020141463726759,0.01339834928512573,0.009964466094970703,-0.003546655178070068,-0.005194529891014099,XArbitraryZVertical,-0.5528840256521784,0.3723994665466004,0.7121303987585861,-0.2202453606350062,0.623412549495697,-0.7739342451095581,-0.1112757846713066,0,0,0,-1,-1,33499.5285815,unknown,2,2025-04-22T13:30:47.504+03:00,2025-04-21T17:08:51.449+03:00,7448,1.015038,0,0,6201.935,5,20,2025-04-22T13:27:54.669+03:00,767010650.1763785,0,-20.1,100.4436,1,0.65,2025-04-22T13:27:27.892+03:00,96,1.6,2025-04-22T09:54:17.825+03:00,0.02225348692287972,0
2025-04-22T13:30:52.203+03:00,1745317846.535418,40.95227273616753,29.14031030331255,76.46297,-1,-1,-1,-1,30,30.83114588979476,-9999,33504.222898375,0.627349853515625,-0.7830963134765625,-0.11553955078125,33504.212822375,2.986107945229702,1.394017408872057,0.8851387531561511,-0.006708871573209763,-0.0116492472589016,0.009025971405208111,0.008689701557159424,-0.004378437995910645,-0.008140444755554199,XArbitraryZVertical,-0.5528248410450858,0.3724367361978883,0.712149221549966,-0.2202702999170029,0.6233140826225281,-0.7740028500556946,-0.1113511472940445,0,0,0,-1,-1,33499.5285815,unknown,2,2025-04-22T13:30:47.504+03:00,2025-04-21T17:08:51.449+03:00,7448,1.015038,0,0,6201.935,5,20,2025-04-22T13:27:54.669+03:00,767010650.1763785,0,-20.1,100.4436,1,0.65,2025-04-22T13:27:27.892+03:00,96,1.6,2025-04-22T09:54:17.825+03:00,0.02225348692287972,0
2025-04-22T13:30:52.213+03:00,1745317846.535418,40.95227273616753,29.14031030331255,76.46297,-1,-1,-1,-1,30,30.83114588979476,-9999,33504.232975375,0.6246337890625,-0.780029296875,-0.1133575439453125,33504.222898375,2.986306173824968,1.393728930409167,0.8851758249039179,-0.0135163115337491,-0.01781619712710381,0.003748318180441856,0.007651448249816895,-0.007574558258056641,-0.006806015968322754,XArbitraryZVertical,-0.5527529522914295,0.3724261305851612,0.7122018992207431,-0.22029835135094,0.6232537031173706,-0.7740263342857361,-0.1115259006619453,0,0,0,-1,-1,33499.5285815,unknown,2,2025-04-22T13:30:47.504+03:00,2025-04-21T17:08:51.449+03:00,7448,1.015038,0,0,6201.935,5,20,2025-04-22T13:27:54.669+03:00,767010650.1763785,0,-20.1,100.4436,1,0.65,2025-04-22T13:27:27.892+03:00,96,1.6,2025-04-22T09:54:17.825+03:00,0.02225348692287972,0
2025-04-22T13:30:52.250+03:00,1745317846.535418,40.95227273616753,29.14031030331255,76.46297,-1,-1,-1,-1,30,30.83114588979476,-9999,33504.243051375,0.6229248046875,-0.7741241455078125,-0.11346435546875,33504.232975375,2.986542099633112,1.393335863206097,0.8851965779577158,-0.01426039822399616,-0.02354465797543526,0.006444768980145454,0.003133475780487061,-0.00911790132522583,-0.002901747822761536,XArbitraryZVertical,-0.5526534950609663,0.3724111794155207,0.7122816737280823,-0.2203153953887798,0.6231940984725952,-0.7740394473075867,-0.111768051981926,0,0,0,-1,-1,33499.5285815,unknown,2,2025-04-22T13:30:47.504+03:00,2025-04-21T17:08:51.449+03:00,7448,1.015038,0,0,6201.935,5,20,2025-04-22T13:27:54.669+03:00,767010650.1763785,0,-20.1,100.4436,1,0.65,2025-04-22T13:27:27.892+03:00,96,1.6,2025-04-22T09:54:17.825+03:00,0.02225348692287972,0
2025-04-22T13:30:52.252+03:00,1745317846.535418,40.95227273616753,29.14031030331255,76.46297,-1,-1,-1,-1,30,30.83114588979476,-9999,33504.253128375,0.6192169189453125,-0.773895263671875,-0.1119842529296875,33504.243051375,2.986780675097169,1.392908597079797,0.8852611031332792,-0.01260657515376806,-0.02383227832615376,0.007820158265531063,0.001353740692138672,-0.004850208759307861,-0.001789860427379608,XArbitraryZVertical,-0.5525351927762305,0.3724139378798291,0.7123641732709405,-0.2203403727574671,0.6230968832969666,-0.7740803360939026,-0.1120254397392273,0,0,0,-1,-1,33499.5285815,unknown,2,2025-04-22T13:30:47.504+03:00,2025-04-21T17:08:51.449+03:00,7448,1.015038,0,0,6201.935,5,20,2025-04-22T13:27:54.669+03:00,767010650.1763785,0,-20.1,100.4436,1,0.65,2025-04-22T13:27:27.892+03:00,96,1.6,2025-04-22T09:54:17.825+03:00,0.02225348692287972,0
2025-04-22T13:30:52.255+03:00,1745317846.535418,40.95227273616753,29.14031030331255,76.46297,-1,-1,-1,-1,30,30.83114588979476,-9999,33504.26320437501,0.61700439453125,-0.775665283203125,-0.1106109619140625,33504.253128375,2.987081394400677,1.392443752925052,0.8853316459069738,-0.01831825822591782,-0.02197978459298611,0.008343469351530075,-0.0002647638320922852,0.001175820827484131,-0.001052141189575195,XArbitraryZVertical,-0.552414045599117,0.3724057167629984,0.7124495749934756,-0.2203821437109842,0.622991144657135,-0.7741249799728394,-0.1123054102063179,0,0,0,-1,-1,33499.5285815,unknown,2,2025-04-22T13:30:47.504+03:00,2025-04-21T17:08:51.449+03:00,7448,1.015038,0,0,6201.935,5,20,2025-04-22T13:27:54.669+03:00,767010650.1763785,0,-20.1,100.4436,1,0.65,2025-04-22T13:27:27.892+03:00,96,1.6,2025-04-22T09:54:17.825+03:00,0.02225348692287972,0
2025-04-22T13:30:52.258+03:00,1745317846.535418,40.95227273616753,29.14031030331255,76.46297,-1,-1,-1,-1,30,30.83114588979476,-9999,33504.273281375,0.6192474365234375,-0.7718048095703125,-0.1125335693359375,33504.26320437501,2.987389636161581,1.391957268652621,0.8853437556387621,-0.01898204907774925,-0.02526199631392956,0.007399045396596193,-0.003756105899810791,0.0004051923751831055,0.001110836863517761,XArbitraryZVertical,-0.5522961459883828,0.3723782541096949,0.7125482610193111,-0.2204050174808852,0.6229272484779358,-0.7741326093673706,-0.1126068085432053,0,0,0,-1,-1,33499.5285815,unknown,2,2025-04-22T13:30:47.504+03:00,2025-04-21T17:08:51.449+03:00,7448,1.015038,0,0,6201.935,5,20,2025-04-22T13:27:54.669+03:00,767010650.1763785,0,-20.1,100.4436,1,0.65,2025-04-22T13:27:27.892+03:00,96,1.6,2025-04-22T09:54:17.825+03:00,0.02225348692287972,0
2025-04-22T13:30:52.264+03:00,1745317846.535418,40.95227273616753,29.14031030331255,76.46297,-1,-1,-1,-1,30,30.83114588979476,-9999,33504.283357375,0.616546630859375,-0.7761688232421875,-0.1099853515625,33504.273281375,2.987700527135283,1.391468059271298,0.8853315689853012,-0.01680677942931652,-0.02471205219626427,0.00631434004753828,-0.00618213415145874,-0.0008689761161804199,0.001539334654808044,XArbitraryZVertical,-0.5521817129837527,0.3723422408560049,0.7126508282393899,-0.2204210184341918,0.6228814125061035,-0.7741249203681946,-0.1129132211208344,0,0,0,-1,-1,33499.5285815,unknown,2,2025-04-22T13:30:47.504+03:00,2025-04-21T17:08:51.449+03:00,7448,1.015038,0,0,6201.935,5,20,2025-04-22T13:27:54.669+03:00,767010650.1763785,0,-20.1,100.4436,1,0.65,2025-04-22T13:27:27.892+03:00,96,1.6,2025-04-22T09:54:17.825+03:00,0.02225348692287972,0
2025-04-22T13:30:52.279+03:00,1745317846.535418,40.95227273616753,29.14031030331255,76.46297,-1,-1,-1,-1,30,30.83114588979476,-9999,33504.293433375,0.6129913330078125,-0.7725830078125,-0.11077880859375,33504.283357375,2.987990593107399,1.391013353973743,0.8853239691607445,-0.0115121491253376,-0.02064434066414833,0.006837784312665462,-0.003084659576416016,0.001766085624694824,0.0005113482475280762,XArbitraryZVertical,-0.5520749347307838,0.3723097296767277,0.712745354900946,-0.2204375136836659,0.622835636138916,-0.7741200923919678,-0.113197460770607,0,0,0,-1,-1,33499.5285815,unknown,2,2025-04-22T13:30:47.504+03:00,2025-04-21T17:08:51.449+03:00,7448,1.015038,0,0,6201.935,5,20,2025-04-22T13:27:54.669+03:00,767010650.1763785,0,-20.1,100.4436,1,0.65,2025-04-22T13:27:27.892+03:00,96,1.6,2025-04-22T09:54:17.825+03:00,0.02225348692287972,0
2025-04-22T13:30:52.284+03:00,1745317846.535418,40.95227273616753,29.14031030331255,76.46297,-1,-1,-1,-1,30,30.83114588979476,-9999,33504.303510375,0.6172332763671875,-0.76806640625,-0.1149749755859375,33504.293433375,2.988145402049025,1.390684831110045,0.8853410269604087,-0.001674698549322784,-0.01890396513044834,0.006594371516257524,-0.007215499877929688,-0.002434670925140381,0.003597483038902283,XArbitraryZVertical,-0.5519838701991346,0.372308931142405,0.7128166543798699,-0.2204366021090304,0.6227855682373047,-0.7741309404373169,-0.1133997365832329,0,0,0,-1,-1,33499.5285815,unknown,2,2025-04-22T13:30:47.504+03:00,2025-04-21T17:08:51.449+03:00,7448,1.015038,0,0,6201.935,5,20,2025-04-22T13:27:54.669+03:00,767010650.1763785,0,-20.1,100.4436,1,0.65,2025-04-22T13:27:27.892+03:00,96,1.6,2025-04-22T09:54:17.825+03:00,0.02225348692287972,0
2025-04-22T13:30:52.294+03:00,1745317846.535418,40.95227273616753,29.14031030331255,76.46297,-1,-1,-1,-1,30,30.83114588979476,-9999,33504.313586375,0.6216583251953125,-0.77032470703125,-0.1142120361328125,33504.303510375,2.988150459244847,1.390449450547738,0.88543014191174,0.01069175638258457,-0.02293273061513901,0.009773020632565022,-0.009730100631713867,0.002870857715606689,0.001519203186035156,XArbitraryZVertical,-0.5518863659175851,0.3723633648354192,0.7128683385543917,-0.2204214748273917,0.6226908564567566,-0.7741873264312744,-0.1135339289903641,0,0,0,-1,-1,33499.5285815,unknown,2,2025-04-22T13:30:47.504+03:00,2025-04-21T17:08:51.449+03:00,7448,1.015038,0,0,6201.935,5,20,2025-04-22T13:27:54.669+03:00,767010650.1763785,0,-20.1,100.4436,1,0.65,2025-04-22T13:27:27.892+03:00,96,1.6,2025-04-22T09:54:17.825+03:00,0.02225348692287972,0
2025-04-22T13:30:52.304+03:00,1745317846.535418,40.95227273616753,29.14031030331255,76.46297,-1,-1,-1,-1,30,30.83114588979476,-9999,33504.323663375,0.618621826171875,-0.7684478759765625,-0.1154632568359375,33504.313586375,2.987984167363586,1.39035580638482,0.8855804636208953,0.01546494010835886,-0.02184243127703667,0.01114188507199287,-0.004783153533935547,0.005910992622375488,-0.001251034438610077,XArbitraryZVertical,-0.5517974663171747,0.3724699842781505,0.7128911149252488,-0.2203900782045052,0.6225656270980835,-0.7742824554443359,-0.1135713309049606,0,0,0,-1,-1,33499.5285815,unknown,2,2025-04-22T13:30:47.504+03:00,2025-04-21T17:08:51.449+03:00,7448,1.015038,0,0,6201.935,5,20,2025-04-22T13:27:54.669+03:00,767010650.1763785,0,-20.1,100.4436,1,0.65,2025-04-22T13:27:27.892+03:00,96,1.6,2025-04-22T09:54:17.825+03:00,0.02225348692287972,0
2025-04-22T13:30:52.314+03:00,1745317846.535418,40.95227273616753,29.14031030331255,76.46297,-1,-1,-1,-1,30,30.83114588979476,-9999,33504.333739375,0.6162109375,-0.770782470703125,-0.1178436279296875,33504.323663375,2.987776726165073,1.390339702007818,0.8857125892290558,0.01476213242858648,-0.0152564337477088,0.01041124761104584,-0.0001642107963562012,0.003324270248413086,-0.0005574226379394531,XArbitraryZVertical,-0.5517314750258293,0.3725733014160953,0.7128997986031521,-0.2203528471695972,0.6224633455276489,-0.7743660807609558,-0.1135630309581757,0,0,0,-1,-1,33499.5285815,unknown,2,2025-04-22T13:30:47.504+03:00,2025-04-21T17:08:51.449+03:00,7448,1.015038,0,0,6201.935,5,20,2025-04-22T13:27:54.669+03:00,767010650.1763785,0,-20.1,100.4436,1,0.65,2025-04-22T13:27:27.892+03:00,96,1.6,2025-04-22T09:54:17.825+03:00,0.02225348692287972,0
2025-04-22T13:30:52.324+03:00,1745317846.535418,40.95227273616753,29.14031030331255,76.46297,-1,-1,-1,-1,30,30.83114588979476,-9999,33504.343816375,0.6192779541015625,-0.778533935546875,-0.1150665283203125,33504.333739375,2.987630817525553,1.390294032900586,0.8858311686106273,0.007815808989107609,-0.01735500618815422,0.01217612437903881,-0.004752993583679199,0.006252706050872803,-0.002712249755859375,XArbitraryZVertical,-0.5516686338584681,0.3726583465387352,0.7129115731695115,-0.220328091001613,0.6223676800727844,-0.7744410634040833,-0.1135749518871307,0,0,0,-1,-1,33499.5285815,unknown,2,2025-04-22T13:30:47.504+03:00,2025-04-21T17:08:51.449+03:00,7448,1.015038,0,0,6201.935,5,20,2025-04-22T13:27:54.669+03:00,767010650.1763785,0,-20.1,100.4436,1,0.65,2025-04-22T13:27:27.892+03:00,96,1.6,2025-04-22T09:54:17.825+03:00,0.02225348692287972,0
2025-04-22T13:30:52.334+03:00,1745317846.535418,40.95227273616753,29.14031030331255,76.46297,-1,-1,-1,-1,30,30.83114588979476,-9999,33504.353892375,0.6170196533203125,-0.782928466796875,-0.111846923828125,33504.343816375,2.987675979579233,1.390097705320596,0.8859173779590104,-0.007604759652167559,-0.01456381194293499,0.005503141321241856,-0.005397379398345947,0.002141594886779785,-0.003822803497314453,XArbitraryZVertical,-0.5515929729909204,0.372696429131894,0.7129484832441441,-0.2203335896251395,0.6222796440124512,-0.7744956016540527,-0.113685131072998,0,0,0,-1,-1,33499.5285815,unknown,2,2025-04-22T13:30:47.504+03:00,2025-04-21T17:08:51.449+03:00,7448,1.015038,0,0,6201.935,5,20,2025-04-22T13:27:54.669+03:00,767010650.1763785,0,-20.1,100.4436,1,0.65,2025-04-22T13:27:27.892+03:00,96,1.6,2025-04-22T09:54:17.825+03:00,0.02225348692287972,0
2025-04-22T13:30:52.344+03:00,1745317846.535418,40.95227273616753,29.14031030331255,76.46297,-1,-1,-1,-1,30,30.83114588979476,-9999,33504.363968375,0.612762451171875,-0.780548095703125,-0.1154327392578125,33504.353892375,2.98783228904521,1.389826432486004,0.8859553341378056,-0.01111214328557253,-0.01464210823178291,0.001585897989571095,-0.002728462219238281,-0.005112826824188232,-0.0005311965942382812,XArbitraryZVertical,-0.5515191806732742,0.3726959401768794,0.7130007622386866,-0.2203501406792309,0.622219979763031,-0.7745196223258972,-0.1138486564159393,0,0,0,-1,-1,33499.5285815,unknown,2,2025-04-22T13:30:47.504+03:00,2025-04-21T17:08:51.449+03:00,7448,1.015038,0,0,6201.935,5,20,2025-04-22T13:27:54.669+03:00,767010650.1763785,0,-20.1,100.4436,1,0.65,2025-04-22T13:27:27.892+03:00,96,1.6,2025-04-22T09:54:17.825+03:00,0.02225348692287972,0
2025-04-22T13:30:52.354+03:00,1745317846.535418,40.95227273616753,29.14031030331255,76.46297,-1,-1,-1,-1,30,30.83114588979476,-9999,33504.374045375,0.6123199462890625,-0.7781829833984375,-0.1167449951171875,33504.363968375,2.988015868361051,1.389562647683541,0.8859455266243296,-0.01253387052565813,-0.01098971627652645,-0.0004726590414065868,-0.006413698196411133,-0.008659124374389648,0.001984119415283203,XArbitraryZVertical,-0.5514609551704285,0.3726710919220267,0.7130546180474019,-0.2203635132126727,0.6221973299980164,-0.7745134234428406,-0.1140141412615776,0,0,0,-1,-1,33499.5285815,unknown,2,2025-04-22T13:30:47.504+03:00,2025-04-21T17:08:51.449+03:00,7448,1.015038,0,0,6201.935,5,20,2025-04-22T13:27:54.669+03:00,767010650.1763785,0,-20.1,100.4436,1,0.65,2025-04-22T13:27:27.892+03:00,96,1.6,2025-04-22T09:54:17.825+03:00,0.02225348692287972,0
2025-04-22T13:30:52.365+03:00,1745317846.535418,40.95227273616753,29.14031030331255,76.46297,-1,-1,-1,-1,30,30.83114588979476,-9999,33504.38412137501,0.612213134765625,-0.77734375,-0.1167144775390625,33504.374045375,2.988240886489354,1.389311123821804,0.8859358404185522,-0.01935049891471863,-0.007545982953161001,-0.003411457408219576,-0.009337365627288818,-0.005918622016906738,-0.0009097456932067871,XArbitraryZVertical,-0.5514147803549582,0.3726335163380927,0.7131005984103636,-0.2203939282567355,0.6221761107444763,-0.7745072841644287,-0.1141720041632652,0,0,0,-1,-1,33499.5285815,unknown,2,2025-04-22T13:30:47.504+03:00,2025-04-21T17:08:51.449+03:00,7448,1.015038,0,0,6201.935,5,20,2025-04-22T13:27:54.669+03:00,767010650.1763785,0,-20.1,100.4436,1,0.65,2025-04-22T13:27:27.892+03:00,96,1.6,2025-04-22T09:54:17.825+03:00,0.02225348692287972,0
2025-04-22T13:30:52.375+03:00,1745317846.535418,40.95227273616753,29.14031030331255,76.46297,-1,-1,-1,-1,30,30.83114588979476,-9999,33504.394198375,0.6130828857421875,-0.7643890380859375,-0.1141357421875,33504.38412137501,2.988489608643257,1.389067862349865,0.8858792439135732,-0.01402011420577765,-0.002453685738146305,-0.008386341854929924,-0.009459555149078369,-0.004657566547393799,-0.003146126866340637,XArbitraryZVertical,-0.5513836103395326,0.3725727617061442,0.7131484028731229,-0.2204201932785833,0.6221915483474731,-0.7744715213775635,-0.1143313050270081,0,0,0,-1,-1,33499.5285815,unknown,2,2025-04-22T13:30:47.504+03:00,2025-04-21T17:08:51.449+03:00,7448,1.015038,0,0,6201.935,5,20,2025-04-22T13:27:54.669+03:00,767010650.1763785,0,-20.1,100.4436,1,0.65,2025-04-22T13:27:27.892+03:00,96,1.6,2025-04-22T09:54:17.825+03:00,0.02225348692287972,0
2025-04-22T13:30:52.385+03:00,1745317846.535418,40.95227273616753,29.14031030331255,76.46297,-1,-1,-1,-1,30,30.83114588979476,-9999,33504.404274375,0.6179656982421875,-0.7566986083984375,-0.110595703125,33504.394198375,2.98857806994031,1.388987477730243,0.8858049519022664,-0.002324043773114681,0.001886467449367046,-0.004841408226639032,-0.0103614330291748,-0.001820623874664307,-0.001880243420600891,XArbitraryZVertical,-0.5513835619232211,0.372532299039135,0.7131713207634103,-0.2204144421919625,0.6222388744354248,-0.7744244933128357,-0.1143917068839073,0,0,0,-1,-1,33499.5285815,unknown,2,2025-04-22T13:30:47.504+03:00,2025-04-21T17:08:51.449+03:00,7448,1.015038,0,0,6201.935,5,20,2025-04-22T13:27:54.669+03:00,767010650.1763785,0,-20.1,100.4436,1,0.65,2025-04-22T13:27:27.892+03:00,96,1.6,2025-04-22T09:54:17.825+03:00,0.02225348692287972,0
2025-04-22T13:30:52.395+03:00,1745317846.535418,40.95227273616753,29.14031030331255,76.46297,-1,-1,-1,-1,30,30.83114588979476,-9999,33504.414351375,0.6236724853515625,-0.7550811767578125,-0.109222412109375,33504.404274375,2.988510154329854,1.389053329136712,0.8857523086051059,0.004229262936860323,0.003583766985684633,-0.004143227357417345,-0.008944094181060791,0.01120775938034058,0.001183636486530304,XArbitraryZVertical,-0.5514030112602032,0.3725260959125717,0.7131679474137321,-0.2203867678428976,0.6222862601280212,-0.7743911743164062,-0.114358052611351,0,0,0,-1,-1,33499.5285815,unknown,2,2025-04-22T13:30:47.504+03:00,2025-04-21T17:08:51.449+03:00,7448,1.015038,0,0,6201.935,5,20,2025-04-22T13:27:54.669+03:00,767010650.1763785,0,-20.1,100.4436,1,0.65,2025-04-22T13:27:27.892+03:00,96,1.6,2025-04-22T09:54:17.825+03:00,0.02225348692287972,0
2025-04-22T13:30:52.405+03:00,1745317846.535418,40.95227273616753,29.14031030331255,76.46297,-1,-1,-1,-1,30,30.83114588979476,-9999,33504.424427375,0.6264495849609375,-0.7538299560546875,-0.1089935302734375,33504.414351375,2.988354415009302,1.389205479102539,0.8857547301203219,0.01755385659635067,0.00511561706662178,0.001913866261020303,-0.003817379474639893,0.01801466941833496,0.004033565521240234,XArbitraryZVertical,-0.5514278534389252,0.3725530828284727,0.7131428640665299,-0.2203602727018255,0.6223018765449524,-0.7743927240371704,-0.114263042807579,0,0,0,-1,-1,33499.5285815,unknown,2,2025-04-22T13:30:47.504+03:00,2025-04-21T17:08:51.449+03:00,7448,1.015038,0,0,6201.935,5,20,2025-04-22T13:27:54.669+03:00,767010650.1763785,0,-20.1,100.4436,1,0.65,2025-04-22T13:27:27.892+03:00,96,1.6,2025-04-22T09:54:17.825+03:00,0.02225348692287972,0
2025-04-22T13:30:52.415+03:00,1745317846.535418,40.95227273616753,29.14031030331255,76.46297,-1,-1,-1,-1,30,30.83114588979476,-9999,33504.434503375,0.627838134765625,-0.7559356689453125,-0.111297607421875,33504.424427375,2.988033163731366,1.389491689296678,0.8858253761823978,0.02813506126403809,0.003959738649427891,0.001938733505085111,0.001376450061798096,0.0199819803237915,0.004272818565368652,XArbitraryZVertical,-0.551458518238,0.3726338309884702,0.7130892887658614,-0.2203203237169423,0.6222807168960571,-0.774437427520752,-0.1140750646591187,0,0,0,-1,-1,33499.5285815,unknown,2,2025-04-22T13:30:47.504+03:00,2025-04-21T17:08:51.449+03:00,7448,1.015038,0,0,6201.935,5,20,2025-04-22T13:27:54.669+03:00,767010650.1763785,0,-20.1,100.4436,1,0.65,2025-04-22T13:27:27.892+03:00,96,1.6,2025-04-22T09:54:17.825+03:00,0.02225348692287972,0
2025-04-22T13:30:52.425+03:00,1745317846.535418,40.95227273616753,29.14031030331255,76.46297,-1,-1,-1,-1,30,30.83114588979476,-9999,33504.444580375,0.6245574951171875,-0.768829345703125,-0.11029052734375,33504.434503375,2.987482336346927,1.389981692782293,0.8859423297408178,0.04092755913734436,0.01127677410840988,0.0009355206275358796,0.004354715347290039,0.02103257179260254,0.004607751965522766,XArbitraryZVertical,-0.551511455885714,0.3727709767034639,0.712998195738669,-0.2202504959250804,0.6222473382949829,-0.7745113968849182,-0.1137538254261017,0,0,0,-1,-1,33499.5285815,unknown,2,2025-04-22T13:30:47.504+03:00,2025-04-21T17:08:51.449+03:00,7448,1.015038,0,0,6201.935,5,20,2025-04-22T13:27:54.669+03:00,767010650.1763785,0,-20.1,100.4436,1,0.65,2025-04-22T13:27:27.892+03:00,96,1.6,2025-04-22T09:54:17.825+03:00,0.02225348692287972,0
2025-04-22T13:30:52.435+03:00,1745317846.535418,40.95227273616753,29.14031030331255,76.46297,-1,-1,-1,-1,30,30.83114588979476,-9999,33504.454656375,0.6228485107421875,-0.7768402099609375,-0.11041259765625,33504.444580375,2.986842504390615,1.390578446424115,0.8860759339671592,0.03778262808918953,0.01081444881856441,-0.001014046370983124,0.004953205585479736,0.01759225130081177,0.002218961715698242,XArbitraryZVertical,-0.5515830232559085,0.3729265176141954,0.7128852637699364,-0.2201738167566449,0.6222134828567505,-0.7745959162712097,-0.1133639588952065,0,0,0,-1,-1,33499.5285815,unknown,2,2025-04-22T13:30:47.504+03:00,2025-04-21T17:08:51.449+03:00,7448,1.015038,0,0,6201.935,5,20,2025-04-22T13:27:54.669+03:00,767010650.1763785,0,-20.1,100.4436,1,0.65,2025-04-22T13:27:27.892+03:00,96,1.6,2025-04-22T09:54:17.825+03:00,0.02225348692287972,0
2025-04-22T13:30:52.445+03:00,1745317846.535418,40.95227273616753,29.14031030331255,76.46297,-1,-1,-1,-1,30,30.83114588979476,-9999,33504.464733375,0.6220855712890625,-0.7762298583984375,-0.1127777099609375,33504.454656375,2.986303573660122,1.391066403814709,0.8861888070781265,0.03348561748862267,0.005661764647811651,-0.00321514904499054,0.002374649047851562,0.00396120548248291,0.00292205810546875,XArbitraryZVertical,-0.5516379406896348,0.3730592781352525,0.7127940520270792,-0.2201067151055891,0.6221827864646912,-0.7746673226356506,-0.1130447164177895,0,0,0,-1,-1,33499.5285815,unknown,2,2025-04-22T13:30:47.504+03:00,2025-04-21T17:08:51.449+03:00,7448,1.015038,0,0,6201.935,5,20,2025-04-22T13:27:54.669+03:00,767010650.1763785,0,-20.1,100.4436,1,0.65,2025-04-22T13:27:27.892+03:00,96,1.6,2025-04-22T09:54:17.825+03:00,0.02225348692287972,0
2025-04-22T13:30:52.455+03:00,1745317846.535418,40.95227273616753,29.14031030331255,76.46297,-1,-1,-1,-1,30,30.83114588979476,-9999,33504.474809375,0.6227874755859375,-0.7874298095703125,-0.1107025146484375,33504.464733375,2.985860722561797,1.391438757019757,0.8862304282196697,0.02307818457484245,0.005608168430626392,-0.01065046153962612,0.0001364946365356445,-0.002497494220733643,0.002028524875640869,XArbitraryZVertical,-0.551681198871965,0.373154403242461,0.7127342182656407,-0.2200308757062141,0.6221931576728821,-0.7746936082839966,-0.1128072887659073,0,0,0,-1,-1,33499.5285815,unknown,2,2025-04-22T13:30:47.504+03:00,2025-04-21T17:08:51.449+03:00,7448,1.015038,0,0,6201.935,5,20,2025-04-22T13:27:54.669+03:00,767010650.1763785,0,-20.1,100.4436,1,0.65,2025-04-22T13:27:27.892+03:00,96,1.6,2025-04-22T09:54:17.825+03:00,0.02225348692287972,0
2025-04-22T13:30:52.465+03:00,1745317846.535418,40.95227273616753,29.14031030331255,76.46297,-1,-1,-1,-1,30,30.83114588979476,-9999,33504.484886375,0.6178741455078125,-0.789642333984375,-0.11102294921875,33504.474809375,2.985646086370622,1.391656008674555,0.8861945937432493,0.007961816154420376,0.0102830808609724,-0.01259217225015163,0.0005730986595153809,-0.002443909645080566,-0.0003447681665420532,XArbitraryZVertical,-0.5517244490851002,0.3731777088394961,0.7127029558253765,-0.2199841302514891,0.6222449541091919,-0.7746709585189819,-0.1126770600676537,0,0,0,-1,-1,33499.5285815,unknown,2,2025-04-22T13:30:47.504+03:00,2025-04-21T17:08:51.449+03:00,7448,1.015038,0,0,6201.935,5,20,2025-04-22T13:27:54.669+03:00,767010650.1763785,0,-20.1,100.4436,1,0.65,2025-04-22T13:27:27.892+03:00,96,1.6,2025-04-22T09:54:17.825+03:00,0.02225348692287972,0
2025-04-22T13:30:52.475+03:00,1745317846.535418,40.95227273616753,29.14031030331255,76.46297,-1,-1,-1,-1,30,30.83114588979476,-9999,33504.494962375,0.618927001953125,-0.7775726318359375,-0.1152801513671875,33504.484886375,2.985495351872037,1.391864089957497,0.8860625402386748,0.009390203282237053,0.008583584800362587,-0.0148921450600028,-0.0007259845733642578,-0.01510059833526611,0.001329243183135986,XArbitraryZVertical,-0.5517921331707889,0.3731521803817758,0.7126808001065537,-0.2199294282822319,0.6223690509796143,-0.7745874524116516,-0.1125657856464386,0,0,0,-1,-1,33499.5285815,unknown,2,2025-04-22T13:30:47.504+03:00,2025-04-21T17:08:51.449+03:00,7448,1.015038,0,0,6201.935,5,20,2025-04-22T13:27:54.669+03:00,767010650.1763785,0,-20.1,100.4436,1,0.65,2025-04-22T13:27:27.892+03:00,96,1.6,2025-04-22T09:54:17.825+03:00,0.02225348692287972,0
2025-04-22T13:30:52.485+03:00,1745317846.535418,40.95227273616753,29.14031030331255,76.46297,-1,-1,-1,-1,30,30.83114588979476,-9999,33504.505038375,0.6215667724609375,-0.7740936279296875,-0.1181793212890625,33504.494962375,2.985314291866474,1.392104032300185,0.8858797626759809,0.007745700888335705,0.00756465969607234,-0.01377095375210047,-0.004569530487060547,-0.0134614109992981,0.0002437233924865723,XArbitraryZVertical,-0.5518738485826751,0.3731145441480743,0.7126602395130535,-0.2198546206283598,0.6225351691246033,-0.7744718194007874,-0.1124415844678879,0,0,0,-1,-1,33499.5285815,unknown,2,2025-04-22T13:30:47.504+03:00,2025-04-21T17:08:51.449+03:00,7448,1.015038,0,0,6201.935,5,20,2025-04-22T13:27:54.669+03:00,767010650.1763785,0,-20.1,100.4436,1,0.65,2025-04-22T13:27:27.892+03:00,96,1.6,2025-04-22T09:54:17.825+03:00,0.02225348692287972,0
2025-04-22T13:30:52.496+03:00,1745317846.535418,40.95227273616753,29.14031030331255,76.46297,-1,-1,-1,-1,30,30.83114588979476,-9999,33504.515115375,0.6192169189453125,-0.772705078125,-0.120391845703125,33504.505038375,2.98519368220694,1.392302484424996,0.8857001642096101,0.005052180029451847,0.006697001866996288,-0.007106393575668335,-0.003279209136962891,-0.002771914005279541,-0.004081800580024719,XArbitraryZVertical,-0.5519515133817501,0.3730658749433644,0.7126442162094077,-0.2197944222178344,0.6226944923400879,-0.7743582129478455,-0.1123427599668503,0,0,0,-1,-1,33499.5285815,unknown,2,2025-04-22T13:30:47.504+03:00,2025-04-21T17:08:51.449+03:00,7448,1.015038,0,0,6201.935,5,20,2025-04-22T13:27:54.669+03:00,767010650.1763785,0,-20.1,100.4436,1,0.65,2025-04-22T13:27:27.892+03:00,96,1.6,2025-04-22T09:54:17.825+03:00,0.02225348692287972,0
2025-04-22T13:30:52.506+03:00,1745317846.535418,40.95227273616753,29.14031030331255,76.46297,-1,-1,-1,-1,30,30.83114588979476,-9999,33504.525191375,0.6184844970703125,-0.7704925537109375,-0.1201324462890625,33504.515115375,2.985112086433414,1.392446132811993,0.8855420561572775,0.002489686477929354,0.007734569720923901,-0.00563286617398262,-0.002042531967163086,0.0006985664367675781,-0.006682470440864563,XArbitraryZVertical,-0.5520134156183347,0.3730196679399014,0.7126358855702943,-0.2197444321370596,0.6228311657905579,-0.7742581367492676,-0.1122750341892242,0,0,0,-1,-1,33499.5285815,unknown,2,2025-04-22T13:30:47.504+03:00,2025-04-21T17:08:51.449+03:00,7448,1.015038,0,0,6201.935,5,20,2025-04-22T13:27:54.669+03:00,767010650.1763785,0,-20.1,100.4436,1,0.65,2025-04-22T13:27:27.892+03:00,96,1.6,2025-04-22T09:54:17.825+03:00,0.02225348692287972,0
