loggingTime(txt),locationTimestamp_since1970(s),locationLatitude(WGS84),locationLongitude(WGS84),locationAltitude(m),locationSpeed(m/s),locationSpeedAccuracy(m/s),locationCourse(°),locationCourseAccuracy(°),locationVerticalAccuracy(m),locationHorizontalAccuracy(m),locationFloor(Z),accelerometerTimestamp_sinceReboot(s),accelerometerAccelerationX(G),accelerometerAccelerationY(G),accelerometerAccelerationZ(G),motionTimestamp_sinceReboot(s),motionYaw(rad),motionRoll(rad),motionPitch(rad),motionRotationRateX(rad/s),motionRotationRateY(rad/s),motionRotationRateZ(rad/s),motionUserAccelerationX(G),motionUserAccelerationY(G),motionUserAccelerationZ(G),motionAttitudeReferenceFrame(txt),motionQuaternionX(R),motionQuaternionY(R),motionQuaternionZ(R),motionQuaternionW(R),motionGravityX(G),motionGravityY(G),motionGravityZ(G),motionMagneticFieldX(µT),motionMagneticFieldY(µT),motionMagneticFieldZ(µT),motionHeading(°),motionMagneticFieldCalibrationAccuracy(Z),activityTimestamp_sinceReboot(s),activity(txt),activityActivityConfidence(Z),activityActivityStartDate(txt),pedometerStartDate(txt),pedometerNumberofSteps(N),pedometerAverageActivePace(s/m),pedometerCurrentPace(s/m),pedometerCurrentCadence(steps/s),pedometerDistance(m),pedometerFloorAscended(N),pedometerFloorDescended(N),pedometerEndDate(txt),altimeterTimestamp_sinceReboot(s),altimeterReset(bool),altimeterRelativeAltitude(m),altimeterPressure(kPa),batteryState(N),batteryLevel(R),heartRateBPMTimestamp(txt),heartRateBPM(N),heartRateBPS(R),heartRateVariabilityTimestamp(txt),heartRateVariability(ms),label
2025-04-22T13:48:44.370+03:00,1745318923.042387,40.95227864610411,29.14031119155085,76.48793,-1,-1,-1,-1,30,29.71528515896752,-9999,34303.03536204167,0.6522674560546875,-0.7811279296875,0.0220184326171875,34303.03286004167,2.795159510870794,1.599120125180864,0.9216979001715212,0.04179087653756142,-0.0303613692522049,0.008336746133863926,0.05765455961227417,0.008665323257446289,0.006639361381530762,XArbitraryZVertical,0.5792085078561867,-0.4160249746965631,-0.6699222778347281,0.2065062013677653,0.6042258739471436,-0.7966290712356567,0.01711855083703995,0,0,0,-1,-1,34296.70367325001,unknown,2,2025-04-22T13:48:38.015+03:00,2025-04-21T17:08:51.449+03:00,7472,1.022023,0,0,6219.038,5,20,2025-04-22T13:45:01.331+03:00,767011723.2661749,0,-20.18,100.4458,1,0.65,2025-04-22T13:48:05.868+03:00,108,1.8,2025-04-22T09:54:17.825+03:00,0.02225348692287972,0
2025-04-22T13:48:44.371+03:00,1745318923.042387,40.95227864610411,29.14031119155085,76.48793,-1,-1,-1,-1,30,29.71528515896752,-9999,34303.04543804167,0.5699462890625,-0.77911376953125,0.012451171875,34303.04293604167,2.794444701869773,1.599571973159995,0.9218368094415602,0.04888100922107697,0.001611212268471718,0.002872206037864089,-0.00616145133972168,0.02287882566452026,-0.001946447417140007,XArbitraryZVertical,0.5791818148857961,-0.4162242419515841,-0.6698518238091925,0.2064083437635612,0.604107677936554,-0.7967130541801453,0.01738838851451874,0,0,0,-1,-1,34296.70367325001,unknown,2,2025-04-22T13:48:38.015+03:00,2025-04-21T17:08:51.449+03:00,7472,1.022023,0,0,6219.038,5,20,2025-04-22T13:45:01.331+03:00,767011723.2661749,0,-20.18,100.4458,1,0.65,2025-04-22T13:48:05.868+03:00,108,1.8,2025-04-22T09:54:17.825+03:00,0.02225348692287972,0
2025-04-22T13:48:44.372+03:00,1745318923.042387,40.95227864610411,29.14031119155085,76.48793,-1,-1,-1,-1,30,29.71528515896752,-9999,34303.05551504167,0.571685791015625,-0.79547119140625,0.0134124755859375,34303.05301304167,2.793696631500393,1.600103352793491,0.9218628724527279,0.04380422830581665,-0.0153906736522913,0.002027451526373625,-0.04508692026138306,0.005133450031280518,-0.005242347717285156,XArbitraryZVertical,0.5791985781104706,-0.4163933205082689,-0.6697724332084964,0.2062775002502805,0.6040773391723633,-0.796728789806366,0.01770878024399281,0,0,0,-1,-1,34296.70367325001,unknown,2,2025-04-22T13:48:38.015+03:00,2025-04-21T17:08:51.449+03:00,7472,1.022023,0,0,6219.038,5,20,2025-04-22T13:45:01.331+03:00,767011723.2661749,0,-20.18,100.4458,1,0.65,2025-04-22T13:48:05.868+03:00,108,1.8,2025-04-22T09:54:17.825+03:00,0.02225348692287972,0
2025-04-22T13:48:44.382+03:00,1745318923.042387,40.95227864610411,29.14031119155085,76.48793,-1,-1,-1,-1,30,29.71528515896752,-9999,34303.06559104167,0.6085968017578125,-0.7939453125,0.0177001953125,34303.06308904167,2.79307993835587,1.600411876192415,0.9218492057447784,0.03195502236485481,-0.01493420824408531,0.0006500645540654659,-0.004534542560577393,0.002470135688781738,-0.00231623649597168,XArbitraryZVertical,0.5791763594400167,-0.4165362931939703,-0.6697480677440921,0.2061304698405806,0.6040828227996826,-0.796720564365387,0.01789547689259052,0,0,0,-1,-1,34296.70367325001,unknown,2,2025-04-22T13:48:38.015+03:00,2025-04-21T17:08:51.449+03:00,7472,1.022023,0,0,6219.038,5,20,2025-04-22T13:45:01.331+03:00,767011723.2661749,0,-20.18,100.4458,1,0.65,2025-04-22T13:48:05.868+03:00,108,1.8,2025-04-22T09:54:17.825+03:00,0.02225348692287972,0
2025-04-22T13:48:44.394+03:00,1745318923.042387,40.95227864610411,29.14031119155085,76.48793,-1,-1,-1,-1,30,29.71528515896752,-9999,34303.07566704167,0.5992889404296875,-0.8036346435546875,0.0201416015625,34303.07316504167,2.792613594698716,1.600706181676396,0.9218370675687844,0.02525484189391136,-0.001523527782410383,-0.002195489592850208,0.002251267433166504,-0.00274050235748291,0.0009694118052721024,XArbitraryZVertical,0.5791803377595298,-0.4166376272862203,-0.669712090041402,0.2060314219848398,0.6040872931480408,-0.7967132329940796,0.01807355135679245,0,0,0,-1,-1,34296.70367325001,unknown,2,2025-04-22T13:48:38.015+03:00,2025-04-21T17:08:51.449+03:00,7472,1.022023,0,0,6219.038,5,20,2025-04-22T13:45:01.331+03:00,767011723.2661749,0,-20.18,100.4458,1,0.65,2025-04-22T13:48:05.868+03:00,108,1.8,2025-04-22T09:54:17.825+03:00,0.02225348692287972,0
2025-04-22T13:48:44.402+03:00,1745318923.042387,40.95227864610411,29.14031119155085,76.48793,-1,-1,-1,-1,30,29.71528515896752,-9999,34303.08574404167,0.5891876220703125,-0.8053131103515625,0.0224151611328125,34303.08324204167,2.792179727574614,1.60104072292266,0.9218032585381941,0.0242614820599556,-0.006183260586112738,-0.007340983022004366,-0.01542383432388306,-0.009581506252288818,0.002490758895874023,XArbitraryZVertical,0.5792091237032359,-0.416719350057751,-0.6696630352332014,0.2059443445433888,0.6041079163551331,-0.7966927886009216,0.01827645115554333,0,0,0,-1,-1,34296.70367325001,unknown,2,2025-04-22T13:48:38.015+03:00,2025-04-21T17:08:51.449+03:00,7472,1.022023,0,0,6219.038,5,20,2025-04-22T13:45:01.331+03:00,767011723.2661749,0,-20.18,100.4458,1,0.65,2025-04-22T13:48:05.868+03:00,108,1.8,2025-04-22T09:54:17.825+03:00,0.02225348692287972,0
2025-04-22T13:48:44.412+03:00,1745318923.042387,40.95227864610411,29.14031119155085,76.48793,-1,-1,-1,-1,30,29.71528515896752,-9999,34303.09582004167,0.6046905517578125,-0.80523681640625,0.025177001953125,34303.09331804167,2.791818277287843,1.601209311488968,0.9217307232690531,0.01386649999767542,-0.01472122222185135,-0.008967841975390911,-0.006536900997161865,-0.007855355739593506,0.006461262702941895,XArbitraryZVertical,0.5792055836527933,-0.4167864202605467,-0.6696584745661416,0.2058334940890667,0.6041626334190369,-0.7966489195823669,0.018380057066679,0,0,0,-1,-1,34296.70367325001,unknown,2,2025-04-22T13:48:38.015+03:00,2025-04-21T17:08:51.449+03:00,7472,1.022023,0,0,6219.038,5,20,2025-04-22T13:45:01.331+03:00,767011723.2661749,0,-20.18,100.4458,1,0.65,2025-04-22T13:48:05.868+03:00,108,1.8,2025-04-22T09:54:17.825+03:00,0.02225348692287972,0
2025-04-22T13:48:44.422+03:00,1745318923.042387,40.95227864610411,29.14031119155085,76.48793,-1,-1,-1,-1,30,29.71528515896752,-9999,34303.10589604167,0.61041259765625,-0.80120849609375,0.0231170654296875,34303.10339404167,2.791575272317925,1.601271125422256,0.9216372911383955,0.01549449004232883,-0.009928863495588303,-0.009357995353639126,0.006756603717803955,-0.006965756416320801,0.005811333656311035,XArbitraryZVertical,0.5791954013681117,-0.416824327540143,-0.6696745142432768,0.2057329861999026,0.6042357683181763,-0.7965924739837646,0.0184196662157774,0,0,0,-1,-1,34296.70367325001,unknown,2,2025-04-22T13:48:38.015+03:00,2025-04-21T17:08:51.449+03:00,7472,1.022023,0,0,6219.038,5,20,2025-04-22T13:45:01.331+03:00,767011723.2661749,0,-20.18,100.4458,1,0.65,2025-04-22T13:48:05.868+03:00,108,1.8,2025-04-22T09:54:17.825+03:00,0.02225348692287972,0
2025-04-22T13:48:44.434+03:00,1745318923.042387,40.95227864610411,29.14031119155085,76.48793,-1,-1,-1,-1,30,29.71528515896752,-9999,34303.11597304167,0.599945068359375,-0.7946929931640625,0.0212249755859375,34303.11347104167,2.791332773187893,1.601392328947318,0.9214746868822657,0.01434480305761099,-0.00403209263458848,-0.006697364151477814,-0.0006032586097717285,0.0001838803291320801,0.003353714942932129,XArbitraryZVertical,0.5792198307528218,-0.4168366812946286,-0.6696800085879424,0.2056212101067416,0.604362964630127,-0.7964941263198853,0.01849686168134212,0,0,0,-1,-1,34296.70367325001,unknown,2,2025-04-22T13:48:38.015+03:00,2025-04-21T17:08:51.449+03:00,7472,1.022023,0,0,6219.038,5,20,2025-04-22T13:45:01.331+03:00,767011723.2661749,0,-20.18,100.4458,1,0.65,2025-04-22T13:48:05.868+03:00,108,1.8,2025-04-22T09:54:17.825+03:00,0.02225348692287972,0
2025-04-22T13:48:44.445+03:00,1745318923.042387,40.95227864610411,29.14031119155085,76.48793,-1,-1,-1,-1,30,29.71528515896752,-9999,34303.12604904167,0.5993804931640625,-0.7934417724609375,0.019256591796875,34303.12354704167,2.791134106209929,1.601496620289039,0.9213815927221347,0.01225289050489664,-0.004822252783924341,-0.005786030553281307,-0.006199061870574951,0.003133654594421387,0.001655694097280502,XArbitraryZVertical,0.5792330378487618,-0.4168574941565711,-0.6696791387303366,0.2055444927073002,0.6044350266456604,-0.7964378595352173,0.01856216602027416,0,0,0,-1,-1,34296.70367325001,unknown,2,2025-04-22T13:48:38.015+03:00,2025-04-21T17:08:51.449+03:00,7472,1.022023,0,0,6219.038,5,20,2025-04-22T13:45:01.331+03:00,767011723.2661749,0,-20.18,100.4458,1,0.65,2025-04-22T13:48:05.868+03:00,108,1.8,2025-04-22T09:54:17.825+03:00,0.02225348692287972,0
2025-04-22T13:48:44.452+03:00,1745318923.042387,40.95227864610411,29.14031119155085,76.48793,-1,-1,-1,-1,30,29.71528515896752,-9999,34303.13612604167,0.601959228515625,-0.7931060791015625,0.0164794921875,34303.13362304167,2.790924886825062,1.601590490570014,0.9214019143414005,0.0153189217671752,-0.00418129563331604,-0.00460801413282752,-0.002641081809997559,0.002749204635620117,-6.365962326526642e-05,XArbitraryZVertical,0.5792165611518156,-0.4169141132220425,-0.6696714917450889,0.2055009901352887,0.604417085647583,-0.796450138092041,0.01861840486526489,0,0,0,-1,-1,34296.70367325001,unknown,2,2025-04-22T13:48:38.015+03:00,2025-04-21T17:08:51.449+03:00,7472,1.022023,0,0,6219.038,5,20,2025-04-22T13:45:01.331+03:00,767011723.2661749,0,-20.18,100.4458,1,0.65,2025-04-22T13:48:05.868+03:00,108,1.8,2025-04-22T09:54:17.825+03:00,0.02225348692287972,0
2025-04-22T13:48:44.462+03:00,1745318923.042387,40.95227864610411,29.14031119155085,76.48793,-1,-1,-1,-1,30,29.71528515896752,-9999,34303.14620204167,0.5979461669921875,-0.7903594970703125,0.0130157470703125,34303.14370004167,2.790588879036966,1.601851916941698,0.9213540969008808,0.02607462927699089,0.00427237618714571,-0.005427202675491571,-0.005054891109466553,0.004505455493927002,-0.005029439926147461,XArbitraryZVertical,0.5792441400390093,-0.416971258427059,-0.6696351047289758,0.2054263725100675,0.6044506430625916,-0.796421229839325,0.01877760887145996,0,0,0,-1,-1,34296.70367325001,unknown,2,2025-04-22T13:48:38.015+03:00,2025-04-21T17:08:51.449+03:00,7472,1.022023,0,0,6219.038,5,20,2025-04-22T13:45:01.331+03:00,767011723.2661749,0,-20.18,100.4458,1,0.65,2025-04-22T13:48:05.868+03:00,108,1.8,2025-04-22T09:54:17.825+03:00,0.02225348692287972,0
2025-04-22T13:48:44.472+03:00,1745318923.042387,40.95227864610411,29.14031119155085,76.48793,-1,-1,-1,-1,30,29.71528515896752,-9999,34303.15627804167,0.5977630615234375,-0.7873992919921875,0.015960693359375,34303.15377604167,2.790122452372247,1.602272222361879,0.921265368987536,0.02944459393620491,0.002999385120347142,-0.00868038646876812,-0.008108317852020264,0.009456634521484375,-0.005392551422119141,XArbitraryZVertical,0.5793063859893474,-0.417038430651922,-0.6695697695871055,0.2053273732521281,0.6045132875442505,-0.7963675856590271,0.01903388276696205,0,0,0,-1,-1,34296.70367325001,unknown,2,2025-04-22T13:48:38.015+03:00,2025-04-21T17:08:51.449+03:00,7472,1.022023,0,0,6219.038,5,20,2025-04-22T13:45:01.331+03:00,767011723.2661749,0,-20.18,100.4458,1,0.65,2025-04-22T13:48:05.868+03:00,108,1.8,2025-04-22T09:54:17.825+03:00,0.02225348692287972,0
2025-04-22T13:48:44.483+03:00,1745318923.042387,40.95227864610411,29.14031119155085,76.48793,-1,-1,-1,-1,30,29.71528515896752,-9999,34303.16635504167,0.6072998046875,-0.79315185546875,0.01873779296875,34303.16385204167,2.789591570908154,1.602727098026263,0.9212086564697129,0.03241029009222984,0.001561278011649847,-0.01025404874235392,-0.000713646411895752,0.005119383335113525,-0.0008165836334228516,XArbitraryZVertical,0.5793599582573525,-0.4171297031427278,-0.6694979340090008,0.205225020177483,0.6045497059822083,-0.7963332533836365,0.01931030116975307,0,0,0,-1,-1,34296.70367325001,unknown,2,2025-04-22T13:48:38.015+03:00,2025-04-21T17:08:51.449+03:00,7472,1.022023,0,0,6219.038,5,20,2025-04-22T13:45:01.331+03:00,767011723.2661749,0,-20.18,100.4458,1,0.65,2025-04-22T13:48:05.868+03:00,108,1.8,2025-04-22T09:54:17.825+03:00,0.02225348692287972,0
2025-04-22T13:48:44.493+03:00,1745318923.042387,40.95227864610411,29.14031119155085,76.48793,-1,-1,-1,-1,30,29.71528515896752,-9999,34303.17643104167,0.6126251220703125,-0.79315185546875,0.0188140869140625,34303.17392904167,2.789066992197776,1.603168823715764,0.9211341032903292,0.02817839384078979,0.00150655023753643,-0.0108404103666544,0.007551610469818115,0.00243455171585083,-0.0004905462265014648,XArbitraryZVertical,0.579414185169269,-0.4172155741331835,-0.6694309422584319,0.2051159145952083,0.6046004891395569,-0.7962881922721863,0.01957926712930202,0,0,0,-1,-1,34296.70367325001,unknown,2,2025-04-22T13:48:38.015+03:00,2025-04-21T17:08:51.449+03:00,7472,1.022023,0,0,6219.038,5,20,2025-04-22T13:45:01.331+03:00,767011723.2661749,0,-20.18,100.4458,1,0.65,2025-04-22T13:48:05.868+03:00,108,1.8,2025-04-22T09:54:17.825+03:00,0.02225348692287972,0
2025-04-22T13:48:44.502+03:00,1745318923.042387,40.95227864610411,29.14031119155085,76.48793,-1,-1,-1,-1,30,29.71528515896752,-9999,34303.18650704167,0.6097564697265625,-0.7967681884765625,0.019287109375,34303.18400504167,2.788649299222648,1.603526312308837,0.9210250660278025,0.01911086216568947,0.003115632105618715,-0.009023335762321949,0.007060050964355469,0.002124428749084473,-0.00032806396484375,XArbitraryZVertical,0.5794698075727658,-0.417269530978853,-0.6693805318487077,0.2050132753674586,0.6046800017356873,-0.7962222099304199,0.01979823783040047,0,0,0,-1,-1,34296.70367325001,unknown,2,2025-04-22T13:48:38.015+03:00,2025-04-21T17:08:51.449+03:00,7472,1.022023,0,0,6219.038,5,20,2025-04-22T13:45:01.331+03:00,767011723.2661749,0,-20.18,100.4458,1,0.65,2025-04-22T13:48:05.868+03:00,108,1.8,2025-04-22T09:54:17.825+03:00,0.02225348692287972,0
2025-04-22T13:48:44.513+03:00,1745318923.042387,40.95227864610411,29.14031119155085,76.48793,-1,-1,-1,-1,30,29.71528515896752,-9999,34303.19658404167,0.6081085205078125,-0.8003387451171875,0.017822265625,34303.19408204167,2.788407495850081,1.603756798575914,0.9209324842436581,0.01235788594931364,0.00338647561147809,-0.00872426200658083,0.003008425235748291,-0.003928244113922119,-0.001293780282139778,XArbitraryZVertical,0.579516117929437,-0.4172901713853123,-0.6693473508038583,0.2049486140168253,0.6047490835189819,-0.7961661815643311,0.01994003541767597,0,0,0,-1,-1,34296.70367325001,unknown,2,2025-04-22T13:48:38.015+03:00,2025-04-21T17:08:51.449+03:00,7472,1.022023,0,0,6219.038,5,20,2025-04-22T13:45:01.331+03:00,767011723.2661749,0,-20.18,100.4458,1,0.65,2025-04-22T13:48:05.868+03:00,108,1.8,2025-04-22T09:54:17.825+03:00,0.02225348692287972,0
2025-04-22T13:48:44.523+03:00,1745318923.042387,40.95227864610411,29.14031119155085,76.48793,-1,-1,-1,-1,30,29.71528515896752,-9999,34303.20666004167,0.6077423095703125,-0.80047607421875,0.0201568603515625,34303.20415804167,2.788223420705101,1.603924724726696,0.9208282885697774,0.009151173755526543,0.002424009144306183,-0.01054559834301472,0.003020346164703369,-0.004235446453094482,-0.001230241730809212,XArbitraryZVertical,0.5795559878326587,-0.4172972877664655,-0.6693275412566907,0.2048861635219922,0.6048287153244019,-0.7961031198501587,0.02004433795809746,0,0,0,-1,-1,34296.70367325001,unknown,2,2025-04-22T13:48:38.015+03:00,2025-04-21T17:08:51.449+03:00,7472,1.022023,0,0,6219.038,5,20,2025-04-22T13:45:01.331+03:00,767011723.2661749,0,-20.18,100.4458,1,0.65,2025-04-22T13:48:05.868+03:00,108,1.8,2025-04-22T09:54:17.825+03:00,0.02225348692287972,0
2025-04-22T13:48:44.533+03:00,1745318923.042387,40.95227864610411,29.14031119155085,76.48793,-1,-1,-1,-1,30,29.71528515896752,-9999,34303.21673604167,0.6063232421875,-0.7997894287109375,0.0246734619140625,34303.21423404167,2.78807042418271,1.604022446112425,0.9207322810937562,0.008453091606497765,-0.002498910296708345,-0.007431730162352324,0.001801490783691406,-0.004140973091125488,0.002705929800868034,XArbitraryZVertical,0.5795771144526782,-0.4173048765623082,-0.6693240724220094,0.2048223028167775,0.6049031615257263,-0.7960450649261475,0.02010598406195641,0,0,0,-1,-1,34296.70367325001,unknown,2,2025-04-22T13:48:38.015+03:00,2025-04-21T17:08:51.449+03:00,7472,1.022023,0,0,6219.038,5,20,2025-04-22T13:45:01.331+03:00,767011723.2661749,0,-20.18,100.4458,1,0.65,2025-04-22T13:48:05.868+03:00,108,1.8,2025-04-22T09:54:17.825+03:00,0.02225348692287972,0
2025-04-22T13:48:44.543+03:00,1745318923.042387,40.95227864610411,29.14031119155085,76.48793,-1,-1,-1,-1,30,29.71528515896752,-9999,34303.22681304167,0.6044769287109375,-0.7987213134765625,0.021026611328125,34303.22431104167,2.787976433270046,1.604061361421722,0.9206631870106218,0.007171046920120716,-0.001758818048983812,-0.007049034349620342,0.0001451969146728516,-0.002870500087738037,0.003641841933131218,XArbitraryZVertical,0.5795851774637688,-0.4173088740525377,-0.6693289435368356,0.2047752519728583,0.6049572229385376,-0.7960032224655151,0.02013134770095348,0,0,0,-1,-1,34296.70367325001,unknown,2,2025-04-22T13:48:38.015+03:00,2025-04-21T17:08:51.449+03:00,7472,1.022023,0,0,6219.038,5,20,2025-04-22T13:45:01.331+03:00,767011723.2661749,0,-20.18,100.4458,1,0.65,2025-04-22T13:48:05.868+03:00,108,1.8,2025-04-22T09:54:17.825+03:00,0.02225348692287972,0
2025-04-22T13:48:44.553+03:00,1745318923.042387,40.95227864610411,29.14031119155085,76.48793,-1,-1,-1,-1,30,29.71528515896752,-9999,34303.23688904167,0.60430908203125,-0.8007659912109375,0.017059326171875,34303.23438704167,2.787915970479507,1.604067312952327,0.9206041046302943,0.003541424404829741,-0.003970040474087,-0.005295609124004841,-0.001488566398620605,-0.003455579280853271,-0.002405764535069466,XArbitraryZVertical,0.5795870753754934,-0.4173093323020092,-0.6693390462589245,0.204735925565434,0.6050040721893311,-0.7959674596786499,0.0201365128159523,0,0,0,-1,-1,34296.70367325001,unknown,2,2025-04-22T13:48:38.015+03:00,2025-04-21T17:08:51.449+03:00,7472,1.022023,0,0,6219.038,5,20,2025-04-22T13:45:01.331+03:00,767011723.2661749,0,-20.18,100.4458,1,0.65,2025-04-22T13:48:05.868+03:00,108,1.8,2025-04-22T09:54:17.825+03:00,0.02225348692287972,0
2025-04-22T13:48:44.563+03:00,1745318923.042387,40.95227864610411,29.14031119155085,76.48793,-1,-1,-1,-1,30,29.71528515896752,-9999,34303.24696604167,0.60467529296875,-0.79852294921875,0.0156402587890625,34303.24446304167,2.78786629989689,1.604045440787805,0.9205506324363298,0.00314567843452096,-0.006338390056043863,-0.005016243550926447,0.0005738735198974609,-0.00417482852935791,-0.00393509678542614,XArbitraryZVertical,0.5795806996423747,-0.4173111155099513,-0.6693558066681441,0.2046961252122546,0.6050474643707275,-0.7959350943565369,0.02012470923364162,0,0,0,-1,-1,34296.70367325001,unknown,2,2025-04-22T13:48:38.015+03:00,2025-04-21T17:08:51.449+03:00,7472,1.022023,0,0,6219.038,5,20,2025-04-22T13:45:01.331+03:00,767011723.2661749,0,-20.18,100.4458,1,0.65,2025-04-22T13:48:05.868+03:00,108,1.8,2025-04-22T09:54:17.825+03:00,0.02225348692287972,0
2025-04-22T13:48:44.573+03:00,1745318923.042387,40.95227864610411,29.14031119155085,76.48793,-1,-1,-1,-1,30,29.71528515896752,-9999,34303.25704204167,0.6034088134765625,-0.7957763671875,0.016754150390625,34303.25454004167,2.787889306815144,1.60393737247326,0.9205123651852958,-0.004210105165839195,-0.008684234693646431,0.0008311927085742354,-0.0009386539459228516,-0.0006883144378662109,-0.003535032272338867,XArbitraryZVertical,0.5795574542885467,-0.4173048280807912,-0.6693882933182141,0.2046682185427296,0.6050798892974854,-0.7959119081497192,0.02006032504141331,0,0,0,-1,-1,34296.70367325001,unknown,2,2025-04-22T13:48:38.015+03:00,2025-04-21T17:08:51.449+03:00,7472,1.022023,0,0,6219.038,5,20,2025-04-22T13:45:01.331+03:00,767011723.2661749,0,-20.18,100.4458,1,0.65,2025-04-22T13:48:05.868+03:00,108,1.8,2025-04-22T09:54:17.825+03:00,0.02225348692287972,0
2025-04-22T13:48:44.583+03:00,1745318923.042387,40.95227864610411,29.14031119155085,76.48793,-1,-1,-1,-1,30,29.71528515896752,-9999,34303.26711804167,0.602874755859375,-0.7951507568359375,0.0202178955078125,34303.26461604167,2.787993052842077,1.60376948961674,0.9204942319180492,-0.008704456500709057,-0.008976118639111519,-0.001067641191184521,-0.002238273620605469,0.0001856088638305664,-0.001190898939967155,XArbitraryZVertical,0.5795267448177274,-0.4172869071812494,-0.66942812624688,0.2046616104184361,0.605097770690918,-0.7959009408950806,0.0199592225253582,0,0,0,-1,-1,34296.70367325001,unknown,2,2025-04-22T13:48:38.015+03:00,2025-04-21T17:08:51.449+03:00,7472,1.022023,0,0,6219.038,5,20,2025-04-22T13:45:01.331+03:00,767011723.2661749,0,-20.18,100.4458,1,0.65,2025-04-22T13:48:05.868+03:00,108,1.8,2025-04-22T09:54:17.825+03:00,0.02225348692287972,0
2025-04-22T13:48:44.593+03:00,1745318923.042387,40.95227864610411,29.14031119155085,76.48793,-1,-1,-1,-1,30,29.71528515896752,-9999,34303.27719504167,0.6033477783203125,-0.799224853515625,0.019683837890625,34303.27469204167,2.788184416496986,1.603530259980613,0.9204959355259154,-0.01174585241824389,-0.005507417023181915,0.001309729646891356,-0.001310884952545166,-0.001705348491668701,0.0006324052810668945,XArbitraryZVertical,0.5794862366670417,-0.4172564081966044,-0.6694776597315021,0.2046763732919781,0.6051011085510254,-0.7959019541740417,0.01981441676616669,0,0,0,-1,-1,34296.70367325001,unknown,2,2025-04-22T13:48:38.015+03:00,2025-04-21T17:08:51.449+03:00,7472,1.022023,0,0,6219.038,5,20,2025-04-22T13:45:01.331+03:00,767011723.2661749,0,-20.18,100.4458,1,0.65,2025-04-22T13:48:05.868+03:00,108,1.8,2025-04-22T09:54:17.825+03:00,0.02225348692287972,0
2025-04-22T13:48:44.603+03:00,1745318923.042387,40.95227864610411,29.14031119155085,76.48793,-1,-1,-1,-1,30,29.71528515896752,-9999,34303.28727104167,0.6036376953125,-0.7993621826171875,0.0170440673828125,34303.28476904167,2.788396571532628,1.603315688235684,0.9205090145831364,-0.01186835765838623,-0.002748914994299412,-0.0004420978075359017,-0.00141143798828125,-0.004993319511413574,-0.002960562705993652,XArbitraryZVertical,0.5794559021444141,-0.4172205373261752,-0.6695168261971963,0.2047071635833123,0.6050949096679688,-0.7959098815917969,0.01968423835933208,0,0,0,-1,-1,34296.70367325001,unknown,2,2025-04-22T13:48:38.015+03:00,2025-04-21T17:08:51.449+03:00,7472,1.022023,0,0,6219.038,5,20,2025-04-22T13:45:01.331+03:00,767011723.2661749,0,-20.18,100.4458,1,0.65,2025-04-22T13:48:05.868+03:00,108,1.8,2025-04-22T09:54:17.825+03:00,0.02225348692287972,0
2025-04-22T13:48:44.613+03:00,1745318923.042387,40.95227864610411,29.14031119155085,76.48793,-1,-1,-1,-1,30,29.71528515896752,-9999,34303.29734704167,0.6035614013671875,-0.79583740234375,0.01971435546875,34303.29484504167,2.788569134273218,1.603167824282726,0.9205138111889496,-0.01177088636904955,-0.0009944243356585503,-0.0002121339202858508,-0.001471519470214844,-0.0007789731025695801,-0.001665594056248665,XArbitraryZVertical,0.5794413902749639,-0.4171870024225612,-0.6695414784562786,0.2047357950002351,0.6050938367843628,-0.7959128022193909,0.01959463953971863,0,0,0,-1,-1,34296.70367325001,unknown,2,2025-04-22T13:48:38.015+03:00,2025-04-21T17:08:51.449+03:00,7472,1.022023,0,0,6219.038,5,20,2025-04-22T13:45:01.331+03:00,767011723.2661749,0,-20.18,100.4458,1,0.65,2025-04-22T13:48:05.868+03:00,108,1.8,2025-04-22T09:54:17.825+03:00,0.02225348692287972,0
2025-04-22T13:48:44.623+03:00,1745318923.042387,40.95227864610411,29.14031119155085,76.48793,-1,-1,-1,-1,30,29.71528515896752,-9999,34303.30742404167,0.6049041748046875,-0.800506591796875,0.0223236083984375,34303.30492104167,2.788818241473324,1.60296753695627,0.9205217849074203,-0.01676005125045776,-0.004228300414979458,-0.001637457753531635,-0.001377463340759277,-0.002284705638885498,0.002331612631678581,XArbitraryZVertical,0.5794246161838517,-0.4171375473320948,-0.6695731679736148,0.2047802205906277,0.6050913333892822,-0.7959176301956177,0.0194732379168272,0,0,0,-1,-1,34296.70367325001,unknown,2,2025-04-22T13:48:38.015+03:00,2025-04-21T17:08:51.449+03:00,7472,1.022023,0,0,6219.038,5,20,2025-04-22T13:45:01.331+03:00,767011723.2661749,0,-20.18,100.4458,1,0.65,2025-04-22T13:48:05.868+03:00,108,1.8,2025-04-22T09:54:17.825+03:00,0.02225348692287972,0
2025-04-22T13:48:44.633+03:00,1745318923.042387,40.95227864610411,29.14031119155085,76.48793,-1,-1,-1,-1,30,29.71528515896752,-9999,34303.31750004167,0.602996826171875,-0.7986907958984375,0.0234832763671875,34303.31499804167,2.789121881548422,1.602691026729055,0.9205129987337152,-0.01980644091963768,-0.002094842493534088,-0.00170630041975528,-0.0009474754333496094,-0.004777252674102783,0.003429410979151726,XArbitraryZVertical,0.5793972146337857,-0.417075465670212,-0.6696231333753847,0.204821091611112,0.6051038503646851,-0.7959123253822327,0.01930615305900574,0,0,0,-1,-1,34296.70367325001,unknown,2,2025-04-22T13:48:38.015+03:00,2025-04-21T17:08:51.449+03:00,7472,1.022023,0,0,6219.038,5,20,2025-04-22T13:45:01.331+03:00,767011723.2661749,0,-20.18,100.4458,1,0.65,2025-04-22T13:48:05.868+03:00,108,1.8,2025-04-22T09:54:17.825+03:00,0.02225348692287972,0
2025-04-22T13:48:44.644+03:00,1745318923.042387,40.95227864610411,29.14031119155085,76.48793,-1,-1,-1,-1,30,29.71528515896752,-9999,34303.32757604167,0.6021728515625,-0.7991790771484375,0.026885986328125,34303.32507404167,2.789531777454198,1.602318176904674,0.9204867397943632,-0.02637752518057823,-0.007390804588794708,-0.007085619494318962,-0.003111720085144043,-0.001893997192382812,0.00614154152572155,XArbitraryZVertical,0.5793634003554061,-0.4169875888390475,-0.6696916867892313,0.2048715529258011,0.6051319241523743,-0.7958964109420776,0.01908119767904282,0,0,0,-1,-1,34296.70367325001,unknown,2,2025-04-22T13:48:38.015+03:00,2025-04-21T17:08:51.449+03:00,7472,1.022023,0,0,6219.038,5,20,2025-04-22T13:45:01.331+03:00,767011723.2661749,0,-20.18,100.4458,1,0.65,2025-04-22T13:48:05.868+03:00,108,1.8,2025-04-22T09:54:17.825+03:00,0.02225348692287972,0
2025-04-22T13:48:44.654+03:00,1745318923.042387,40.95227864610411,29.14031119155085,76.48793,-1,-1,-1,-1,30,29.71528515896752,-9999,34303.33765304167,0.60406494140625,-0.803131103515625,0.025665283203125,34303.33515104167,2.790017568721927,1.601852698965158,0.9204348038478284,-0.03015788272023201,-0.006778011098504066,-0.006295858882367611,-0.001437604427337646,-0.006197929382324219,0.008542895317077637,XArbitraryZVertical,0.5793197851292935,-0.4168800650524641,-0.6697817416863482,0.2049193310513082,0.6051820516586304,-0.7958649396896362,0.01880080439150333,0,0,0,-1,-1,34296.70367325001,unknown,2,2025-04-22T13:48:38.015+03:00,2025-04-21T17:08:51.449+03:00,7472,1.022023,0,0,6219.038,5,20,2025-04-22T13:45:01.331+03:00,767011723.2661749,0,-20.18,100.4458,1,0.65,2025-04-22T13:48:05.868+03:00,108,1.8,2025-04-22T09:54:17.825+03:00,0.02225348692287972,0
2025-04-22T13:48:44.664+03:00,1745318923.042387,40.95227864610411,29.14031119155085,76.48793,-1,-1,-1,-1,30,29.71528515896752,-9999,34303.34772904167,0.604736328125,-0.7948455810546875,0.0213623046875,34303.34522704167,2.790506056765506,1.601405580606163,0.9203920596474333,-0.02985135279595852,-0.006252835504710674,-0.005976545624434948,-0.000213623046875,-0.003401041030883789,0.004097582772374153,XArbitraryZVertical,0.5792808738351619,-0.4167724799490334,-0.669865417635568,0.2049749478768999,0.605224609375,-0.7958390712738037,0.01853126101195812,0,0,0,-1,-1,34296.70367325001,unknown,2,2025-04-22T13:48:38.015+03:00,2025-04-21T17:08:51.449+03:00,7472,1.022023,0,0,6219.038,5,20,2025-04-22T13:45:01.331+03:00,767011723.2661749,0,-20.18,100.4458,1,0.65,2025-04-22T13:48:05.868+03:00,108,1.8,2025-04-22T09:54:17.825+03:00,0.02225348692287972,0
2025-04-22T13:48:44.674+03:00,1745318923.042387,40.95227864610411,29.14031119155085,76.48793,-1,-1,-1,-1,30,29.71528515896752,-9999,34303.35780604167,0.60504150390625,-0.788604736328125,0.0189971923828125,34303.35530304167,2.791044959014861,1.60089468704765,0.9203560156824743,-0.03566649928689003,-0.01143121998757124,-0.003782301209867001,-0.0009992718696594238,0.006236076354980469,0.0009115934371948242,XArbitraryZVertical,0.5792296587552604,-0.4166586838181984,-0.6699615262180798,0.2050367000827708,0.6052625179290771,-0.7958172559738159,0.01822291314601898,0,0,0,-1,-1,34296.70367325001,unknown,2,2025-04-22T13:48:38.015+03:00,2025-04-21T17:08:51.449+03:00,7472,1.022023,0,0,6219.038,5,20,2025-04-22T13:45:01.331+03:00,767011723.2661749,0,-20.18,100.4458,1,0.65,2025-04-22T13:48:05.868+03:00,108,1.8,2025-04-22T09:54:17.825+03:00,0.02225348692287972,0
2025-04-22T13:48:44.684+03:00,1745318923.042387,40.95227864610411,29.14031119155085,76.48793,-1,-1,-1,-1,30,29.71528515896752,-9999,34303.36788204167,0.6065216064453125,-0.797882080078125,0.020904541015625,34303.36538004167,2.791644150024328,1.600326876648599,0.9203240006400593,-0.03599965944886208,-0.008577908389270306,-0.006973566953092813,0.001101255416870117,0.001227021217346191,0.002994060516357422,XArbitraryZVertical,0.5791710113483577,-0.4165344327698599,-0.6700676156172122,0.2051081557599786,0.6052982807159424,-0.7957978844642639,0.01787998899817467,0,0,0,-1,-1,34296.70367325001,unknown,2,2025-04-22T13:48:38.015+03:00,2025-04-21T17:08:51.449+03:00,7472,1.022023,0,0,6219.038,5,20,2025-04-22T13:45:01.331+03:00,767011723.2661749,0,-20.18,100.4458,1,0.65,2025-04-22T13:48:05.868+03:00,108,1.8,2025-04-22T09:54:17.825+03:00,0.02225348692287972,0
2025-04-22T13:48:44.694+03:00,1745318923.042387,40.95227864610411,29.14031119155085,76.48793,-1,-1,-1,-1,30,29.71528515896752,-9999,34303.37795804167,0.600555419921875,-0.798736572265625,0.0166778564453125,34303.37545604167,2.79221687077782,1.599792182388148,0.920305922304545,-0.03418451547622681,-0.008215518668293953,-0.003447974566370249,-0.002523601055145264,-0.003605663776397705,0.00137937068939209,XArbitraryZVertical,0.5791149435769477,-0.4164183680169274,-0.6701653843920347,0.2051825531340821,0.605322003364563,-0.7957869172096252,0.01755674928426743,0,0,0,-1,-1,34296.70367325001,unknown,2,2025-04-22T13:48:38.015+03:00,2025-04-21T17:08:51.449+03:00,7472,1.022023,0,0,6219.038,5,20,2025-04-22T13:45:01.331+03:00,767011723.2661749,0,-20.18,100.4458,1,0.65,2025-04-22T13:48:05.868+03:00,108,1.8,2025-04-22T09:54:17.825+03:00,0.02225348692287972,0
2025-04-22T13:48:44.704+03:00,1745318923.042387,40.95227864610411,29.14031119155085,76.48793,-1,-1,-1,-1,30,29.71528515896752,-9999,34303.38803504167,0.5969696044921875,-0.7918243408203125,0.015960693359375,34303.38553204167,2.792769670274296,1.59930104052084,0.920290284380463,-0.03148699924349785,-0.003114234190434217,-0.003812561277300119,-0.008144736289978027,0.000992894172668457,-0.001192329451441765,XArbitraryZVertical,0.579068726642686,-0.4163043541710975,-0.6702525292970385,0.205260052066008,0.605343222618103,-0.795777440071106,0.01725981011986732,0,0,0,-1,-1,34296.70367325001,unknown,2,2025-04-22T13:48:38.015+03:00,2025-04-21T17:08:51.449+03:00,7472,1.022023,0,0,6219.038,5,20,2025-04-22T13:45:01.331+03:00,767011723.2661749,0,-20.18,100.4458,1,0.65,2025-04-22T13:48:05.868+03:00,108,1.8,2025-04-22T09:54:17.825+03:00,0.02225348692287972,0
2025-04-22T13:48:44.714+03:00,1745318923.042387,40.95227864610411,29.14031119155085,76.48793,-1,-1,-1,-1,30,29.71528515896752,-9999,34303.39811104167,0.6009979248046875,-0.787841796875,0.0177001953125,34303.39560904167,2.793255300635269,1.59890150675766,0.9202819448330736,-0.02765584364533424,-0.0004082624800503254,-0.002677954733371735,-0.006067574024200439,0.007106781005859375,0.0001327972859144211,XArbitraryZVertical,0.5790376780977652,-0.4162023945016607,-0.6703189649002865,0.2053369657335214,0.6053563952445984,-0.7957723736763,0.01701813191175461,0,0,0,-1,-1,34296.70367325001,unknown,2,2025-04-22T13:48:38.015+03:00,2025-04-21T17:08:51.449+03:00,7472,1.022023,0,0,6219.038,5,20,2025-04-22T13:45:01.331+03:00,767011723.2661749,0,-20.18,100.4458,1,0.65,2025-04-22T13:48:05.868+03:00,108,1.8,2025-04-22T09:54:17.825+03:00,0.02225348692287972,0
2025-04-22T13:48:44.724+03:00,1745318923.042387,40.95227864610411,29.14031119155085,76.48793,-1,-1,-1,-1,30,29.71528515896752,-9999,34303.40818704167,0.599761962890625,-0.7910614013671875,0.02130126953125,34303.40568504167,2.793602969554177,1.598661228428902,0.9202602144493688,-0.01728815585374832,0.002686863299459219,-0.005072402767837048,-0.004578351974487305,0.006559491157531738,0.00320744514465332,XArbitraryZVertical,0.5790340615447972,-0.416120339483223,-0.6703550141310808,0.2053959688604061,0.6053779125213623,-0.7957592606544495,0.01687316223978996,0,0,0,-1,-1,34296.70367325001,unknown,2,2025-04-22T13:48:38.015+03:00,2025-04-21T17:08:51.449+03:00,7472,1.022023,0,0,6219.038,5,20,2025-04-22T13:45:01.331+03:00,767011723.2661749,0,-20.18,100.4458,1,0.65,2025-04-22T13:48:05.868+03:00,108,1.8,2025-04-22T09:54:17.825+03:00,0.02225348692287972,0
2025-04-22T13:48:44.734+03:00,1745318923.042387,40.95227864610411,29.14031119155085,76.48793,-1,-1,-1,-1,30,29.71528515896752,-9999,34303.41826404167,0.5984039306640625,-0.792877197265625,0.0206451416015625,34303.41576104167,2.793881344095924,1.598511563415239,0.9202493608223478,-0.01721771620213985,0.006843924522399902,-0.001478799851611257,-0.007427632808685303,0.003180742263793945,0.005479812622070312,XArbitraryZVertical,0.5790441016567326,-0.4160520720422524,-0.6703707750530198,0.2054544398571285,0.6053889989852905,-0.7957526445388794,0.01678279601037502,0,0,0,-1,-1,34296.70367325001,unknown,2,2025-04-22T13:48:38.015+03:00,2025-04-21T17:08:51.449+03:00,7472,1.022023,0,0,6219.038,5,20,2025-04-22T13:45:01.331+03:00,767011723.2661749,0,-20.18,100.4458,1,0.65,2025-04-22T13:48:05.868+03:00,108,1.8,2025-04-22T09:54:17.825+03:00,0.02225348692287972,0
2025-04-22T13:48:44.745+03:00,1745318923.042387,40.95227864610411,29.14031119155085,76.48793,-1,-1,-1,-1,30,29.71528515896752,-9999,34303.42834004167,0.60101318359375,-0.78521728515625,0.0165863037109375,34303.42583804167,2.794072441048751,1.598439460046671,0.9202424327114097,-0.008508114144206047,0.007031677290797234,-1.219706609845161e-05,-0.006183147430419922,0.007799863815307617,0.001052500680088997,XArbitraryZVertical,0.5790611406563249,-0.4160022181043047,-0.6703727280206687,0.2055010835140145,0.6053957939147949,-0.7957484722137451,0.01673929952085018,0,0,0,-1,-1,34296.70367325001,unknown,2,2025-04-22T13:48:38.015+03:00,2025-04-21T17:08:51.449+03:00,7472,1.022023,0,0,6219.038,5,20,2025-04-22T13:45:01.331+03:00,767011723.2661749,0,-20.18,100.4458,1,0.65,2025-04-22T13:48:05.868+03:00,108,1.8,2025-04-22T09:54:17.825+03:00,0.02225348692287972,0
2025-04-22T13:48:44.755+03:00,1745318923.042387,40.95227864610411,29.14031119155085,76.48793,-1,-1,-1,-1,30,29.71528515896752,-9999,34303.43841604167,0.6056060791015625,-0.7853851318359375,0.014923095703125,34303.43591404167,2.794188073931618,1.598428377183397,0.9202227871360421,-0.002898831618949771,0.009151154197752476,-0.001281925709918141,-0.0008737444877624512,0.01210629940032959,-0.002038836479187012,XArbitraryZVertical,0.5790856104747496,-0.4159643836335916,-0.6703660212620326,0.2055307429819713,0.60541170835495,-0.79573655128479,0.01673302613198757,0,0,0,-1,-1,34296.70367325001,unknown,2,2025-04-22T13:48:38.015+03:00,2025-04-21T17:08:51.449+03:00,7472,1.022023,0,0,6219.038,5,20,2025-04-22T13:45:01.331+03:00,767011723.2661749,0,-20.18,100.4458,1,0.65,2025-04-22T13:48:05.868+03:00,108,1.8,2025-04-22T09:54:17.825+03:00,0.02225348692287972,0
2025-04-22T13:48:44.765+03:00,1745318923.042387,40.95227864610411,29.14031119155085,76.48793,-1,-1,-1,-1,30,29.71528515896752,-9999,34303.44849279167,0.604095458984375,-0.79296875,0.01837158203125,34303.44599104167,2.794179926171843,1.598530699498027,0.9201991358464321,-7.135339546948671e-05,0.01046169549226761,-0.0006062817992642522,-0.0003871321678161621,0.004691481590270996,0.0002332907170057297,XArbitraryZVertical,0.579123211454162,-0.4159495759431295,-0.6703393784333644,0.2055413076761022,0.6054285764694214,-0.7957222461700439,0.01679548807442188,0,0,0,-1,-1,34296.70367325001,unknown,2,2025-04-22T13:48:38.015+03:00,2025-04-21T17:08:51.449+03:00,7472,1.022023,0,0,6219.038,5,20,2025-04-22T13:45:01.331+03:00,767011723.2661749,0,-20.18,100.4458,1,0.65,2025-04-22T13:48:05.868+03:00,108,1.8,2025-04-22T09:54:17.825+03:00,0.02225348692287972,0
2025-04-22T13:48:44.777+03:00,1745318923.042387,40.95227864610411,29.14031119155085,76.48793,-1,-1,-1,-1,30,29.71528515896752,-9999,34303.45856879167,0.5988311767578125,-0.794647216796875,0.021240234375,34303.45606679167,2.794187203428241,1.598644116802858,0.9201840477354347,-0.002267928561195731,0.01068034116178751,-0.005654037464410067,-0.004608571529388428,0.0008219480514526367,0.003902669996023178,XArbitraryZVertical,0.5791659247162305,-0.4159315736848834,-0.6703071842083977,0.2055622165143911,0.6054385304450989,-0.7957131266593933,0.0168644841760397,0,0,0,-1,-1,34296.70367325001,unknown,2,2025-04-22T13:48:38.015+03:00,2025-04-21T17:08:51.449+03:00,7472,1.022023,0,0,6219.038,5,20,2025-04-22T13:45:01.331+03:00,767011723.2661749,0,-20.18,100.4458,1,0.65,2025-04-22T13:48:05.868+03:00,108,1.8,2025-04-22T09:54:17.825+03:00,0.02225348692287972,0
2025-04-22T13:48:44.785+03:00,1745318923.042387,40.95227864610411,29.14031119155085,76.48793,-1,-1,-1,-1,30,29.71528515896752,-9999,34303.46864479167,0.5968017578125,-0.793426513671875,0.01837158203125,34303.46614279167,2.794227058951882,1.598751356125506,0.9201462224234188,0.001101769041270018,0.01353551633656025,-0.006768570281565189,-0.008726179599761963,0.002294421195983887,0.002234812825918198,XArbitraryZVertical,0.5792181284658614,-0.4158984073770329,-0.6702756672679634,0.2055849249852351,0.6054667234420776,-0.7956901788711548,0.01693025045096874,0,0,0,-1,-1,34296.70367325001,unknown,2,2025-04-22T13:48:38.015+03:00,2025-04-21T17:08:51.449+03:00,7472,1.022023,0,0,6219.038,5,20,2025-04-22T13:45:01.331+03:00,767011723.2661749,0,-20.18,100.4458,1,0.65,2025-04-22T13:48:05.868+03:00,108,1.8,2025-04-22T09:54:17.825+03:00,0.02225348692287972,0
2025-04-22T13:48:44.796+03:00,1745318923.042387,40.95227864610411,29.14031119155085,76.48793,-1,-1,-1,-1,30,29.71528515896752,-9999,34303.47872179167,0.59722900390625,-0.79522705078125,0.0178070068359375,34303.47621979167,2.794260306614059,1.598879253654743,0.9201059220744632,-0.004920370411127806,0.01777427084743977,-0.002151813823729753,-0.008298516273498535,0.001598477363586426,0.000477910041809082,XArbitraryZVertical,0.5792763755325222,-0.4158643771951202,-0.670239320841461,0.2056086523596421,0.6054970026016235,-0.7956658005714417,0.01700859889388084,0,0,0,-1,-1,34296.70367325001,unknown,2,2025-04-22T13:48:38.015+03:00,2025-04-21T17:08:51.449+03:00,7472,1.022023,0,0,6219.038,5,20,2025-04-22T13:45:01.331+03:00,767011723.2661749,0,-20.18,100.4458,1,0.65,2025-04-22T13:48:05.868+03:00,108,1.8,2025-04-22T09:54:17.825+03:00,0.02225348692287972,0
2025-04-22T13:48:44.806+03:00,1745318923.042387,40.95227864610411,29.14031119155085,76.48793,-1,-1,-1,-1,30,29.71528515896752,-9999,34303.48879779167,0.601959228515625,-0.7954559326171875,0.0164794921875,34303.48629579167,2.79434365539205,1.598977612555088,0.9200810633741915,-0.007174736354500055,0.0148911327123642,-0.001055923174135387,-0.005356252193450928,-0.0004917383193969727,-0.0005129575729370117,XArbitraryZVertical,0.5793319171283026,-0.4158231392939108,-0.6702045560282623,0.2056486059976807,0.6055148839950562,-0.7956507205963135,0.01706870645284653,0,0,0,-1,-1,34296.70367325001,unknown,2,2025-04-22T13:48:38.015+03:00,2025-04-21T17:08:51.449+03:00,7472,1.022023,0,0,6219.038,5,20,2025-04-22T13:45:01.331+03:00,767011723.2661749,0,-20.18,100.4458,1,0.65,2025-04-22T13:48:05.868+03:00,108,1.8,2025-04-22T09:54:17.825+03:00,0.02225348692287972,0
2025-04-22T13:48:44.815+03:00,1745318923.042387,40.95227864610411,29.14031119155085,76.48793,-1,-1,-1,-1,30,29.71528515896752,-9999,34303.49887479167,0.606964111328125,-0.7955322265625,0.017547607421875,34303.49637179167,2.794429946328441,1.599052857331879,0.9200831497280979,-0.005808135028928518,0.01245100982487202,-0.0004013848083559424,0.000353395938873291,0.001630485057830811,-0.0002533197402954102,XArbitraryZVertical,0.5793746258533473,-0.4157909992992803,-0.6701737407440554,0.2056938306367761,0.6055120229721069,-0.7956519722938538,0.01711422391235828,0,0,0,-1,-1,34296.70367325001,unknown,2,2025-04-22T13:48:38.015+03:00,2025-04-21T17:08:51.449+03:00,7472,1.022023,0,0,6219.038,5,20,2025-04-22T13:45:01.331+03:00,767011723.2661749,0,-20.18,100.4458,1,0.65,2025-04-22T13:48:05.868+03:00,108,1.8,2025-04-22T09:54:17.825+03:00,0.02225348692287972,0
2025-04-22T13:48:44.825+03:00,1745318923.042387,40.95227864610411,29.14031119155085,76.48793,-1,-1,-1,-1,30,29.71528515896752,-9999,34303.50895079167,0.605804443359375,-0.797607421875,0.0186920166015625,34303.50644879167,2.794547783044955,1.599093491556555,0.9200776910247809,-0.008216165006160736,0.01218442805111408,2.084125299006701e-06,0.001952052116394043,-0.002752006053924561,0.002178667113184929,XArbitraryZVertical,0.5794139006946081,-0.4157511331496486,-0.6701502584982824,0.2057399947048545,0.6055154800415039,-0.7956486940383911,0.01713894680142403,0,0,0,-1,-1,34296.70367325001,unknown,2,2025-04-22T13:48:38.015+03:00,2025-04-21T17:08:51.449+03:00,7472,1.022023,0,0,6219.038,5,20,2025-04-22T13:45:01.331+03:00,767011723.2661749,0,-20.18,100.4458,1,0.65,2025-04-22T13:48:05.868+03:00,108,1.8,2025-04-22T09:54:17.825+03:00,0.02225348692287972,0
2025-04-22T13:48:44.835+03:00,1745318923.042387,40.95227864610411,29.14031119155085,76.48793,-1,-1,-1,-1,30,29.71528515896752,-9999,34303.51902679167,0.6042938232421875,-0.7931060791015625,0.0167083740234375,34303.51652479167,2.794654861164033,1.599128645675731,0.9200633034169636,-0.004204712808132172,0.009535315446555614,0.00122457486577332,-0.0005002021789550781,0.001771152019500732,0.0004023294895887375,XArbitraryZVertical,0.579450963791579,-0.4157124729101557,-0.6701305036906114,0.2057781987661665,0.6055263876914978,-0.7956399917602539,0.01716055907309055,0,0,0,-1,-1,34296.70367325001,unknown,2,2025-04-22T13:48:38.015+03:00,2025-04-21T17:08:51.449+03:00,7472,1.022023,0,0,6219.038,5,20,2025-04-22T13:45:01.331+03:00,767011723.2661749,0,-20.18,100.4458,1,0.65,2025-04-22T13:48:05.868+03:00,108,1.8,2025-04-22T09:54:17.825+03:00,0.02225348692287972,0
2025-04-22T13:48:44.845+03:00,1745318923.042387,40.95227864610411,29.14031119155085,76.48793,-1,-1,-1,-1,30,29.71528515896752,-9999,34303.52910379167,0.604583740234375,-0.7969970703125,0.0160980224609375,34303.52660079167,2.794780179637453,1.599140049297861,0.9200802775771718,-0.00945619959384203,0.01104080025106668,0.001268783351406455,-0.0009748935699462891,0.0007132887840270996,-0.001069070771336555,XArbitraryZVertical,0.5794772520980611,-0.4156797516678247,-0.6701126938098477,0.2058283513966405,0.605512797832489,-0.7956502437591553,0.01716708391904831,0,0,0,-1,-1,34296.70367325001,unknown,2,2025-04-22T13:48:38.015+03:00,2025-04-21T17:08:51.449+03:00,7472,1.022023,0,0,6219.038,5,20,2025-04-22T13:45:01.331+03:00,767011723.2661749,0,-20.18,100.4458,1,0.65,2025-04-22T13:48:05.868+03:00,108,1.8,2025-04-22T09:54:17.825+03:00,0.02225348692287972,0
2025-04-22T13:48:44.855+03:00,1745318923.042387,40.95227864610411,29.14031119155085,76.48793,-1,-1,-1,-1,30,29.71528515896752,-9999,34303.53917979167,0.606170654296875,-0.79852294921875,0.01702880859375,34303.53667779167,2.794995941224746,1.599082354779395,0.9201248012260383,-0.0184937696903944,0.009731190279126167,0.004193799570202827,-0.0003909468650817871,-0.002570807933807373,-0.0008347053080797195,XArbitraryZVertical,0.5794933965734651,-0.4156356259893035,-0.6701027551490784,0.2059040414632667,0.6054781079292297,-0.7956772446632385,0.0171311404556036,0,0,0,-1,-1,34296.70367325001,unknown,2,2025-04-22T13:48:38.015+03:00,2025-04-21T17:08:51.449+03:00,7472,1.022023,0,0,6219.038,5,20,2025-04-22T13:45:01.331+03:00,767011723.2661749,0,-20.18,100.4458,1,0.65,2025-04-22T13:48:05.868+03:00,108,1.8,2025-04-22T09:54:17.825+03:00,0.02225348692287972,0
2025-04-22T13:48:44.865+03:00,1745318923.042387,40.95227864610411,29.14031119155085,76.48793,-1,-1,-1,-1,30,29.71528515896752,-9999,34303.54925579167,0.60504150390625,-0.7967529296875,0.0183563232421875,34303.54675379167,2.795339734803238,1.598913518035405,0.9201991442678027,-0.02440252527594566,0.01106064021587372,0.003769291797652841,0.0001991391181945801,-0.001854538917541504,0.0007492303848266602,XArbitraryZVertical,0.5794925928456487,-0.4155742580112211,-0.6701092214657954,0.2060095054055936,0.6054221391677856,-0.7957222461700439,0.01702725887298584,0,0,0,-1,-1,34296.70367325001,unknown,2,2025-04-22T13:48:38.015+03:00,2025-04-21T17:08:51.449+03:00,7472,1.022023,0,0,6219.038,5,20,2025-04-22T13:45:01.331+03:00,767011723.2661749,0,-20.18,100.4458,1,0.65,2025-04-22T13:48:05.868+03:00,108,1.8,2025-04-22T09:54:17.825+03:00,0.02225348692287972,0
2025-04-22T13:48:44.875+03:00,1745318923.042387,40.95227864610411,29.14031119155085,76.48793,-1,-1,-1,-1,30,29.71528515896752,-9999,34303.55933279167,0.6060333251953125,-0.7941131591796875,0.020050048828125,34303.55683079167,2.795732058830707,1.598699919919837,0.9202897541938393,-0.02061198279261589,0.008675579912960529,0.007919728755950928,0.0006185770034790039,0.0001230239868164062,0.003062603995203972,XArbitraryZVertical,0.5794834647195545,-0.4155079749030653,-0.6701218206112621,0.2061277144820559,0.6053535938262939,-0.7957771420478821,0.01689592562615871,0,0,0,-1,-1,34296.70367325001,unknown,2,2025-04-22T13:48:38.015+03:00,2025-04-21T17:08:51.449+03:00,7472,1.022023,0,0,6219.038,5,20,2025-04-22T13:45:01.331+03:00,767011723.2661749,0,-20.18,100.4458,1,0.65,2025-04-22T13:48:05.868+03:00,108,1.8,2025-04-22T09:54:17.825+03:00,0.02225348692287972,0
2025-04-22T13:48:44.886+03:00,1745318923.042387,40.95227864610411,29.14031119155085,76.48793,-1,-1,-1,-1,30,29.71528515896752,-9999,34303.56940879167,0.6076507568359375,-0.7886199951171875,0.0146942138671875,34303.56690679167,2.796072067656057,1.598495509711841,0.9204041684369261,-0.01973180845379829,0.0037719018291682,0.01124734804034233,0.002155721187591553,0.005242884159088135,0.0003507118672132492,XArbitraryZVertical,0.5794615195776511,-0.4154626090065043,-0.6701348784399314,0.2062384044433614,0.6052660346031189,-0.7958464026451111,0.01676966436207294,0,0,0,-1,-1,34296.70367325001,unknown,2,2025-04-22T13:48:38.015+03:00,2025-04-21T17:08:51.449+03:00,7472,1.022023,0,0,6219.038,5,20,2025-04-22T13:45:01.331+03:00,767011723.2661749,0,-20.18,100.4458,1,0.65,2025-04-22T13:48:05.868+03:00,108,1.8,2025-04-22T09:54:17.825+03:00,0.02225348692287972,0
2025-04-22T13:48:44.896+03:00,1745318923.042387,40.95227864610411,29.14031119155085,76.48793,-1,-1,-1,-1,30,29.71528515896752,-9999,34303.57948479167,0.6074676513671875,-0.79144287109375,0.0163726806640625,34303.57698279167,2.796371787408715,1.598274818575398,0.9205287245008325,-0.0171649195253849,-0.001527655869722366,0.01246794126927853,0.001686513423919678,0.006600022315979004,-0.001313567161560059,XArbitraryZVertical,0.5794236044516007,-0.415433472709881,-0.6701558591600042,0.2063356301709383,0.6051707863807678,-0.795921802520752,0.01663336716592312,0,0,0,-1,-1,34296.70367325001,unknown,2,2025-04-22T13:48:38.015+03:00,2025-04-21T17:08:51.449+03:00,7472,1.022023,0,0,6219.038,5,20,2025-04-22T13:45:01.331+03:00,767011723.2661749,0,-20.18,100.4458,1,0.65,2025-04-22T13:48:05.868+03:00,108,1.8,2025-04-22T09:54:17.825+03:00,0.02225348692287972,0
2025-04-22T13:48:44.906+03:00,1745318923.042387,40.95227864610411,29.14031119155085,76.48793,-1,-1,-1,-1,30,29.71528515896752,-9999,34303.58956179167,0.6049041748046875,-0.7991180419921875,0.0203399658203125,34303.58705979167,2.796635568874104,1.598059377930913,0.9206633322331699,-0.01495955605059862,-0.0009604026563465595,0.01282640267163515,0.001347601413726807,-0.001008868217468262,0.003443121910095215,XArbitraryZVertical,0.5793778804496076,-0.4154170246876791,-0.6701778819912542,0.2064254690961764,0.6050671935081482,-0.7960032820701599,0.01650006510317326,0,0,0,-1,-1,34296.70367325001,unknown,2,2025-04-22T13:48:38.015+03:00,2025-04-21T17:08:51.449+03:00,7472,1.022023,0,0,6219.038,5,20,2025-04-22T13:45:01.331+03:00,767011723.2661749,0,-20.18,100.4458,1,0.65,2025-04-22T13:48:05.868+03:00,108,1.8,2025-04-22T09:54:17.825+03:00,0.02225348692287972,0
2025-04-22T13:48:44.916+03:00,1745318923.042387,40.95227864610411,29.14031119155085,76.48793,-1,-1,-1,-1,30,29.71528515896752,-9999,34303.59963779167,0.5991973876953125,-0.7960968017578125,0.0196075439453125,34303.59713579167,2.796957269974581,1.597827136360239,0.9208022165159526,-0.02072583138942719,0.005139567889273167,0.01348074246197939,-0.004023492336273193,-0.001672446727752686,0.003922341391444206,XArbitraryZVertical,0.57933766160615,-0.4153867462507913,-0.6701982856909134,0.206532742734959,0.6049602627754211,-0.796087384223938,0.01635655015707016,0,0,0,-1,-1,34296.70367325001,unknown,2,2025-04-22T13:48:38.015+03:00,2025-04-21T17:08:51.449+03:00,7472,1.022023,0,0,6219.038,5,20,2025-04-22T13:45:01.331+03:00,767011723.2661749,0,-20.18,100.4458,1,0.65,2025-04-22T13:48:05.868+03:00,108,1.8,2025-04-22T09:54:17.825+03:00,0.02225348692287972,0
2025-04-22T13:48:44.926+03:00,1745318923.042387,40.95227864610411,29.14031119155085,76.48793,-1,-1,-1,-1,30,29.71528515896752,-9999,34303.60971479167,0.5990753173828125,-0.794708251953125,0.0171356201171875,34303.60721179167,2.797319220399854,1.597576944771312,0.9209395361386717,-0.0237200241535902,0.002303834306076169,0.01351642888039351,-0.00646674633026123,0.001843750476837158,0.001650571823120117,XArbitraryZVertical,0.5793000820973162,-0.4153463041794351,-0.6702201494646954,0.2066489734759424,0.6048554182052612,-0.7961704730987549,0.01620227470993996,0,0,0,-1,-1,34296.70367325001,unknown,2,2025-04-22T13:48:38.015+03:00,2025-04-21T17:08:51.449+03:00,7472,1.022023,0,0,6219.038,5,20,2025-04-22T13:45:01.331+03:00,767011723.2661749,0,-20.18,100.4458,1,0.65,2025-04-22T13:48:05.868+03:00,108,1.8,2025-04-22T09:54:17.825+03:00,0.02225348692287972,0
2025-04-22T13:48:44.947+03:00,1745318923.042387,40.95227864610411,29.14031119155085,76.48793,-1,-1,-1,-1,30,29.71528515896752,-9999,34303.61979079167,0.6001129150390625,-0.7993316650390625,0.0142364501953125,34303.61728879167,2.797695401923222,1.597339701096958,0.9210871002760292,-0.02558303810656071,0.009480919688940048,0.01487976778298616,-0.005437672138214111,-0.0008135437965393066,-0.0003544092178344727,XArbitraryZVertical,0.5792676540182601,-0.4153032806824832,-0.6702355934437056,0.2067763095470025,0.6047418117523193,-0.7962597608566284,0.01605566032230854,0,0,0,-1,-1,34296.70367325001,unknown,2,2025-04-22T13:48:38.015+03:00,2025-04-21T17:08:51.449+03:00,7472,1.022023,0,0,6219.038,5,20,2025-04-22T13:45:01.331+03:00,767011723.2661749,0,-20.18,100.4458,1,0.65,2025-04-22T13:48:05.868+03:00,108,1.8,2025-04-22T09:54:17.825+03:00,0.02225348692287972,0
2025-04-22T13:48:44.950+03:00,1745318923.042387,40.95227864610411,29.14031119155085,76.48793,-1,-1,-1,-1,30,29.71528515896752,-9999,34303.62986679167,0.6013641357421875,-0.8011474609375,0.0130462646484375,34303.62736479167,2.79810833158745,1.597114607093828,0.9212262738376861,-0.02489487826824188,0.00793096050620079,0.01253085862845182,-0.004246950149536133,-0.00491023063659668,-0.002794027328491211,XArbitraryZVertical,0.5792487007190877,-0.4152460120925294,-0.6702443730302609,0.2069157140210887,0.6046345233917236,-0.7963439226150513,0.0159166157245636,0,0,0,-1,-1,34296.70367325001,unknown,2,2025-04-22T13:48:38.015+03:00,2025-04-21T17:08:51.449+03:00,7472,1.022023,0,0,6219.038,5,20,2025-04-22T13:45:01.331+03:00,767011723.2661749,0,-20.18,100.4458,1,0.65,2025-04-22T13:48:05.868+03:00,108,1.8,2025-04-22T09:54:17.825+03:00,0.02225348692287972,0
2025-04-22T13:48:44.956+03:00,1745318923.042387,40.95227864610411,29.14031119155085,76.48793,-1,-1,-1,-1,30,29.71528515896752,-9999,34303.63994379167,0.6088714599609375,-0.7963714599609375,0.01251220703125,34303.63744079167,2.798499847579448,1.596863061239628,0.9213497231208028,-0.02498249523341656,0.003439539112150669,0.01325017865747213,0.0006232857704162598,-0.001066625118255615,-0.003280282020568848,XArbitraryZVertical,0.5792197255676665,-0.4151933162280649,-0.6702646346597474,0.2070369681397261,0.6045402884483337,-0.7964186072349548,0.01576196029782295,0,0,0,-1,-1,34296.70367325001,unknown,2,2025-04-22T13:48:38.015+03:00,2025-04-21T17:08:51.449+03:00,7472,1.022023,0,0,6219.038,5,20,2025-04-22T13:45:01.331+03:00,767011723.2661749,0,-20.18,100.4458,1,0.65,2025-04-22T13:48:05.868+03:00,108,1.8,2025-04-22T09:54:17.825+03:00,0.02225348692287972,0
2025-04-22T13:48:44.966+03:00,1745318923.042387,40.95227864610411,29.14031119155085,76.48793,-1,-1,-1,-1,30,29.71528515896752,-9999,34303.65001979167,0.613922119140625,-0.796051025390625,0.012908935546875,34303.64751779167,2.798906779033258,1.596545008283991,0.9214762001166671,-0.02704910933971405,-0.00300717493519187,0.01098595932126045,0.008668899536132812,0.001252889633178711,-0.003726244904100895,XArbitraryZVertical,0.5791710279940636,-0.415143907572781,-0.6703021185627306,0.2071507132750494,0.6044444441795349,-0.7964950799942017,0.01556708756834269,0,0,0,-1,-1,34296.70367325001,unknown,2,2025-04-22T13:48:38.015+03:00,2025-04-21T17:08:51.449+03:00,7472,1.022023,0,0,6219.038,5,20,2025-04-22T13:45:01.331+03:00,767011723.2661749,0,-20.18,100.4458,1,0.65,2025-04-22T13:48:05.868+03:00,108,1.8,2025-04-22T09:54:17.825+03:00,0.02225348692287972,0
2025-04-22T13:48:44.976+03:00,1745318923.042387,40.95227864610411,29.14031119155085,76.48793,-1,-1,-1,-1,30,29.71528515896752,-9999,34303.66009579167,0.6125030517578125,-0.794403076171875,0.0184783935546875,34303.65759379167,2.799314925186503,1.596165461896546,0.9215713510327563,-0.02530207484960556,-0.005635980982333422,0.009730012156069279,0.009608626365661621,0.001386702060699463,0.0006706714630126953,XArbitraryZVertical,0.5791085393432148,-0.4150917652544209,-0.6703603641358735,0.2072413402907382,0.6043744683265686,-0.7965525984764099,0.01533574797213078,0,0,0,-1,-1,34296.70367325001,unknown,2,2025-04-22T13:48:38.015+03:00,2025-04-21T17:08:51.449+03:00,7472,1.022023,0,0,6219.038,5,20,2025-04-22T13:45:01.331+03:00,767011723.2661749,0,-20.18,100.4458,1,0.65,2025-04-22T13:48:05.868+03:00,108,1.8,2025-04-22T09:54:17.825+03:00,0.02225348692287972,0
2025-04-22T13:48:44.986+03:00,1745318923.042387,40.95227864610411,29.14031119155085,76.48793,-1,-1,-1,-1,30,29.71528515896752,-9999,34303.67017279167,0.6053924560546875,-0.7961578369140625,0.01995849609375,34303.66767079167,2.79968657256651,1.595834946743162,0.9216654735496902,-0.02504587918519974,-0.002914230804890394,0.007570188492536545,0.004002213478088379,0.001474082469940186,0.005480527877807617,XArbitraryZVertical,0.5790551059560847,-0.4150448680310745,-0.6704083178357957,0.2073295162414251,0.6043046116828918,-0.7966095209121704,0.01513411663472652,0,0,0,-1,-1,34296.70367325001,unknown,2,2025-04-22T13:48:38.015+03:00,2025-04-21T17:08:51.449+03:00,7472,1.022023,0,0,6219.038,5,20,2025-04-22T13:45:01.331+03:00,767011723.2661749,0,-20.18,100.4458,1,0.65,2025-04-22T13:48:05.868+03:00,108,1.8,2025-04-22T09:54:17.825+03:00,0.02225348692287972,0
2025-04-22T13:48:44.996+03:00,1745318923.042387,40.95227864610411,29.14031119155085,76.48793,-1,-1,-1,-1,30,29.71528515896752,-9999,34303.68024879167,0.6022796630859375,-0.7969512939453125,0.0139923095703125,34303.67774679167,2.800178373181436,1.595421987182782,0.9217690532746762,-0.03411194682121277,-0.003236872609704733,0.007794093806296587,-0.001597940921783447,-0.0004165172576904297,0.0006966609507799149,XArbitraryZVertical,0.5789969550382722,-0.4149744503014323,-0.6704668377505448,0.2074439992302872,0.6042286157608032,-0.7966721057891846,0.0148825366050005,0,0,0,-1,-1,34296.70367325001,unknown,2,2025-04-22T13:48:38.015+03:00,2025-04-21T17:08:51.449+03:00,7472,1.022023,0,0,6219.038,5,20,2025-04-22T13:45:01.331+03:00,767011723.2661749,0,-20.18,100.4458,1,0.65,2025-04-22T13:48:05.868+03:00,108,1.8,2025-04-22T09:54:17.825+03:00,0.02225348692287972,0
2025-04-22T13:48:45.007+03:00,1745318923.042387,40.95227864610411,29.14031119155085,76.48793,-1,-1,-1,-1,30,29.71528515896752,-9999,34303.69032579167,0.6019439697265625,-0.793609619140625,0.014862060546875,34303.68782279167,2.800791695903976,1.594905677797917,0.9218187140101186,-0.04114455729722977,-0.0004629236645996571,-0.0001698228879831731,-0.001763999462127686,0.002146720886230469,-0.0005315560847520828,XArbitraryZVertical,0.5789407054967378,-0.4148643869865992,-0.6705474737967173,0.2075597566520029,0.6041961312294006,-0.7967021465301514,0.01456960011273623,0,0,0,-1,-1,34296.70367325001,unknown,2,2025-04-22T13:48:38.015+03:00,2025-04-21T17:08:51.449+03:00,7472,1.022023,0,0,6219.038,5,20,2025-04-22T13:45:01.331+03:00,767011723.2661749,0,-20.18,100.4458,1,0.65,2025-04-22T13:48:05.868+03:00,108,1.8,2025-04-22T09:54:17.825+03:00,0.02225348692287972,0
2025-04-22T13:48:45.017+03:00,1745318923.042387,40.95227864610411,29.14031119155085,76.48793,-1,-1,-1,-1,30,29.71528515896752,-9999,34303.70040179167,0.5985870361328125,-0.7945556640625,0.01507568359375,34303.69789979167,2.80141437919815,1.594449551426182,0.9218619167653145,-0.03743057698011398,0.00666362838819623,0.001693690661340952,-0.003613173961639404,0.002599895000457764,0.002079486846923828,XArbitraryZVertical,0.5789078368503714,-0.4147436759245883,-0.6706107399397536,0.2076885860933212,0.6041685938835144,-0.796728253364563,0.01429320033639669,0,0,0,-1,-1,34296.70367325001,unknown,2,2025-04-22T13:48:38.015+03:00,2025-04-21T17:08:51.449+03:00,7472,1.022023,0,0,6219.038,5,20,2025-04-22T13:45:01.331+03:00,767011723.2661749,0,-20.18,100.4458,1,0.65,2025-04-22T13:48:05.868+03:00,108,1.8,2025-04-22T09:54:17.825+03:00,0.02225348692287972,0
2025-04-22T13:48:45.027+03:00,1745318923.042387,40.95227864610411,29.14031119155085,76.48793,-1,-1,-1,-1,30,29.71528515896752,-9999,34303.71047779167,0.5970001220703125,-0.7897186279296875,0.010101318359375,34303.70797579167,2.801871708503729,1.594150179869477,0.9218975214040996,-0.01961802318692207,0.008167781867086887,0.001812734175473452,-0.007174909114837646,0.00364375114440918,-0.002560734748840332,XArbitraryZVertical,0.5788948112002705,-0.4146524220844641,-0.6706463802704019,0.2077920264678007,0.6041445136070251,-0.7967497706413269,0.01411166694015265,0,0,0,-1,-1,34296.70367325001,unknown,2,2025-04-22T13:48:38.015+03:00,2025-04-21T17:08:51.449+03:00,7472,1.022023,0,0,6219.038,5,20,2025-04-22T13:45:01.331+03:00,767011723.2661749,0,-20.18,100.4458,1,0.65,2025-04-22T13:48:05.868+03:00,108,1.8,2025-04-22T09:54:17.825+03:00,0.02225348692287972,0
