loggingTime(txt),locationTimestamp_since1970(s),locationLatitude(WGS84),locationLongitude(WGS84),locationAltitude(m),locationSpeed(m/s),locationSpeedAccuracy(m/s),locationCourse(°),locationCourseAccuracy(°),locationVerticalAccuracy(m),locationHorizontalAccuracy(m),locationFloor(Z),accelerometerTimestamp_sinceReboot(s),accelerometerAccelerationX(G),accelerometerAccelerationY(G),accelerometerAccelerationZ(G),motionTimestamp_sinceReboot(s),motionYaw(rad),motionRoll(rad),motionPitch(rad),motionRotationRateX(rad/s),motionRotationRateY(rad/s),motionRotationRateZ(rad/s),motionUserAccelerationX(G),motionUserAccelerationY(G),motionUserAccelerationZ(G),motionAttitudeReferenceFrame(txt),motionQuaternionX(R),motionQuaternionY(R),motionQuaternionZ(R),motionQuaternionW(R),motionGravityX(G),motionGravityY(G),motionGravityZ(G),motionMagneticFieldX(µT),motionMagneticFieldY(µT),motionMagneticFieldZ(µT),motionHeading(°),motionMagneticFieldCalibrationAccuracy(Z),activityTimestamp_sinceReboot(s),activity(txt),activityActivityConfidence(Z),activityActivityStartDate(txt),pedometerStartDate(txt),pedometerNumberofSteps(N),pedometerAverageActivePace(s/m),pedometerCurrentPace(s/m),pedometerCurrentCadence(steps/s),pedometerDistance(m),pedometerFloorAscended(N),pedometerFloorDescended(N),pedometerEndDate(txt),altimeterTimestamp_sinceReboot(s),altimeterReset(bool),altimeterRelativeAltitude(m),altimeterPressure(kPa),batteryState(N),batteryLevel(R),heartRateBPMTimestamp(txt),heartRateBPM(N),heartRateBPS(R),heartRateVariabilityTimestamp(txt),heartRateVariability(ms),label
2025-04-21T10:50:59.425+03:00,1745221858.034492,40.95361963094089,29.14097085298671,92.82853,-1,-1,-1,-1,30,24.9532621481264,-9999,12657.21246204167,-0.6724395751953125,0.6943206787109375,-0.2832489013671875,12657.19858204167,-1.996745875243025,-1.172519610370457,-0.7444183202811007,-0.0007873864960856736,0.02479111030697823,0.007817053236067295,0.01293849945068359,0.01334333419799805,0.0007728636264801025,XArbitraryZVertical,0.597309211091278,0.02450488259778184,0.5432927969397247,-0.5894524556075661,-0.6779165267944336,0.677544116973877,-0.2852424383163452,0,0,0,-1,-1,12638.664264,unknown,2,2025-04-21T10:50:40.858+03:00,2025-04-20T21:57:49.637+03:00,1480,1.071516,0,0,1109.802,1,4,2025-04-21T10:45:26.169+03:00,766914659.0172858,0,-47.47,100.3013,1,0.7,2025-04-21T10:50:54.212+03:00,92.00000000000001,1.533333333333333,2025-04-21T09:28:58.093+03:00,0.01174319131481236,0
2025-04-21T10:50:59.426+03:00,1745221858.034492,40.95361963094089,29.14097085298671,92.82853,-1,-1,-1,-1,30,24.9532621481264,-9999,12657.22253804167,-0.668609619140625,0.68780517578125,-0.2858734130859375,12657.20865804167,-1.996618841224302,-1.172242827793685,-0.7444412022741882,0.009184554219245911,0.008741304278373718,0.001727469614706933,0.002591311931610107,0.005987048149108887,0.00307542085647583,XArbitraryZVertical,0.5972353555695837,0.0244525015744097,0.5433318614194897,-0.589493387327183,-0.6778231859207153,0.6775609254837036,-0.2854240238666534,0,0,0,-1,-1,12638.664264,unknown,2,2025-04-21T10:50:40.858+03:00,2025-04-20T21:57:49.637+03:00,1480,1.071516,0,0,1109.802,1,4,2025-04-21T10:45:26.169+03:00,766914659.0172858,0,-47.47,100.3013,1,0.7,2025-04-21T10:50:54.212+03:00,92.00000000000001,1.533333333333333,2025-04-21T09:28:58.093+03:00,0.01174319131481236,0
2025-04-21T10:50:59.428+03:00,1745221858.034492,40.95361963094089,29.14097085298671,92.82853,-1,-1,-1,-1,30,24.9532621481264,-9999,12657.23261404167,-0.677093505859375,0.673492431640625,-0.291717529296875,12657.21873404167,-1.996535379296824,-1.172120395743623,-0.7444459698835393,-0.003271516412496567,0.003573240246623755,0.0009069828665815294,0.006398677825927734,0.01730555295944214,0.001738131046295166,XArbitraryZVertical,0.5972016617810193,0.0244395470091153,0.5433425837385194,-0.589518234697852,-0.6777852773666382,0.6775644421577454,-0.2855057716369629,0,0,0,-1,-1,12638.664264,unknown,2,2025-04-21T10:50:40.858+03:00,2025-04-20T21:57:49.637+03:00,1480,1.071516,0,0,1109.802,1,4,2025-04-21T10:45:26.169+03:00,766914659.0172858,0,-47.47,100.3013,1,0.7,2025-04-21T10:50:54.212+03:00,92.00000000000001,1.533333333333333,2025-04-21T09:28:58.093+03:00,0.01174319131481236,0
2025-04-21T10:50:59.438+03:00,1745221858.034492,40.95361963094089,29.14097085298671,92.82853,-1,-1,-1,-1,30,24.9532621481264,-9999,12657.24269004167,-0.6820831298828125,0.67010498046875,-0.2940521240234375,12657.22881004167,-1.996631581073496,-1.172099624275279,-0.7444653362141127,-0.01407702639698982,0.008417529985308647,-0.001860840478911996,0.00776904821395874,0.00810551643371582,-0.0007553696632385254,XArbitraryZVertical,0.5971996501597023,0.02439727832433194,0.5433719026807848,-0.5894948863312534,-0.6777671575546265,0.6775786876678467,-0.2855147123336792,0,0,0,-1,-1,12638.664264,unknown,2,2025-04-21T10:50:40.858+03:00,2025-04-20T21:57:49.637+03:00,1480,1.071516,0,0,1109.802,1,4,2025-04-21T10:45:26.169+03:00,766914659.0172858,0,-47.47,100.3013,1,0.7,2025-04-21T10:50:54.212+03:00,92.00000000000001,1.533333333333333,2025-04-21T09:28:58.093+03:00,0.01174319131481236,0
2025-04-21T10:50:59.450+03:00,1745221858.034492,40.95361963094089,29.14097085298671,92.82853,-1,-1,-1,-1,30,24.9532621481264,-9999,12657.25276504167,-0.6726531982421875,0.6748199462890625,-0.28826904296875,12657.23888604167,-1.996872232322316,-1.172168740409808,-0.7445128812714381,-0.02035383135080338,0.007446008734405041,-0.004122796468436718,-0.00083160400390625,-0.005586147308349609,-0.007803231477737427,XArbitraryZVertical,0.5972273403523117,0.02432767624422673,0.5434094817224171,-0.5894350335776462,-0.6777571439743042,0.6776136755943298,-0.2854553461074829,0,0,0,-1,-1,12638.664264,unknown,2,2025-04-21T10:50:40.858+03:00,2025-04-20T21:57:49.637+03:00,1480,1.071516,0,0,1109.802,1,4,2025-04-21T10:45:26.169+03:00,766914659.0172858,0,-47.47,100.3013,1,0.7,2025-04-21T10:50:54.212+03:00,92.00000000000001,1.533333333333333,2025-04-21T09:28:58.093+03:00,0.01174319131481236,0
2025-04-21T10:50:59.458+03:00,1745221858.034492,40.95361963094089,29.14097085298671,92.82853,-1,-1,-1,-1,30,24.9532621481264,-9999,12657.26284104167,-0.665740966796875,0.671722412109375,-0.2810516357421875,12657.24896104167,-1.997182747986708,-1.172357829509526,-0.7445324663604982,-0.02381567284464836,0.0003681257367134094,0.002508208388462663,-0.003673791885375977,-0.007309556007385254,-0.008272260427474976,XArbitraryZVertical,0.5972849575307876,0.02428320215556724,0.5434392751424857,-0.5893509795670372,-0.677798867225647,0.6776280403137207,-0.2853220105171204,0,0,0,-1,-1,12638.664264,unknown,2,2025-04-21T10:50:40.858+03:00,2025-04-20T21:57:49.637+03:00,1480,1.071516,0,0,1109.802,1,4,2025-04-21T10:45:26.169+03:00,766914659.0172858,0,-47.47,100.3013,1,0.7,2025-04-21T10:50:54.212+03:00,92.00000000000001,1.533333333333333,2025-04-21T09:28:58.093+03:00,0.01174319131481236,0
2025-04-21T10:50:59.468+03:00,1745221858.034492,40.95361963094089,29.14097085298671,92.82853,-1,-1,-1,-1,30,24.9532621481264,-9999,12657.27291704167,-0.670623779296875,0.6587982177734375,-0.2788848876953125,12657.25903704167,-1.997537250367704,-1.172661876138075,-0.7446693353177369,-0.03310737758874893,-0.007694527506828308,0.007272902876138687,0.006093025207519531,-0.002878308296203613,-0.002090424299240112,XArbitraryZVertical,0.5973890506037518,0.02421478826881657,0.5434163612922616,-0.5892693625180311,-0.6778000593185425,0.6777287125587463,-0.2850799262523651,0,0,0,-1,-1,12638.664264,unknown,2,2025-04-21T10:50:40.858+03:00,2025-04-20T21:57:49.637+03:00,1480,1.071516,0,0,1109.802,1,4,2025-04-21T10:45:26.169+03:00,766914659.0172858,0,-47.47,100.3013,1,0.7,2025-04-21T10:50:54.212+03:00,92.00000000000001,1.533333333333333,2025-04-21T09:28:58.093+03:00,0.01174319131481236,0
2025-04-21T10:50:59.478+03:00,1745221858.034492,40.95361963094089,29.14097085298671,92.82853,-1,-1,-1,-1,30,24.9532621481264,-9999,12657.28299304167,-0.6796722412109375,0.664825439453125,-0.2800750732421875,12657.26911304167,-1.997997146756288,-1.173064256434925,-0.744930863727805,-0.04491450265049934,-0.01061388477683067,0.007087280973792076,0.01271241903305054,-0.008182287216186523,0.003900617361068726,XArbitraryZVertical,0.5975366803353519,0.02409643086737136,0.5433619011071843,-0.5891748370786039,-0.677751362323761,0.6779209971427917,-0.2847385406494141,0,0,0,-1,-1,12638.664264,unknown,2,2025-04-21T10:50:40.858+03:00,2025-04-20T21:57:49.637+03:00,1480,1.071516,0,0,1109.802,1,4,2025-04-21T10:45:26.169+03:00,766914659.0172858,0,-47.47,100.3013,1,0.7,2025-04-21T10:50:54.212+03:00,92.00000000000001,1.533333333333333,2025-04-21T09:28:58.093+03:00,0.01174319131481236,0
2025-04-21T10:50:59.488+03:00,1745221858.034492,40.95361963094089,29.14097085298671,92.82853,-1,-1,-1,-1,30,24.9532621481264,-9999,12657.29306804167,-0.6814117431640625,0.67987060546875,-0.2844696044921875,12657.27918904167,-1.998567977086454,-1.173552223339258,-0.7451773139856013,-0.04837807267904282,-0.01010056119412184,0.0006807140889577568,0.006105482578277588,-0.01986849308013916,0.006114482879638672,XArbitraryZVertical,0.597706913155135,0.02397582937252806,0.5433185236769947,-0.5890471986371623,-0.6777362823486328,0.6781021356582642,-0.2843432128429413,0,0,0,-1,-1,12638.664264,unknown,2,2025-04-21T10:50:40.858+03:00,2025-04-20T21:57:49.637+03:00,1480,1.071516,0,0,1109.802,1,4,2025-04-21T10:45:26.169+03:00,766914659.0172858,0,-47.47,100.3013,1,0.7,2025-04-21T10:50:54.212+03:00,92.00000000000001,1.533333333333333,2025-04-21T09:28:58.093+03:00,0.01174319131481236,0
2025-04-21T10:50:59.498+03:00,1745221858.034492,40.95361963094089,29.14097085298671,92.82853,-1,-1,-1,-1,30,24.9532621481264,-9999,12657.30314404167,-0.6733856201171875,0.6811981201171875,-0.2876739501953125,12657.28926404167,-1.999189513822423,-1.174061461703282,-0.7453933589150437,-0.05029022321105003,-0.007420888170599937,0.0005153318052180111,-0.00265878438949585,-0.01168066263198853,0.003698557615280151,XArbitraryZVertical,0.5978796511687591,0.02385779951376783,0.5432917109539249,-0.5889014615521589,-0.6777458786964417,0.6782609224319458,-0.2839414477348328,0,0,0,-1,-1,12638.664264,unknown,2,2025-04-21T10:50:40.858+03:00,2025-04-20T21:57:49.637+03:00,1480,1.071516,0,0,1109.802,1,4,2025-04-21T10:45:26.169+03:00,766914659.0172858,0,-47.47,100.3013,1,0.7,2025-04-21T10:50:54.212+03:00,92.00000000000001,1.533333333333333,2025-04-21T09:28:58.093+03:00,0.01174319131481236,0
2025-04-21T10:50:59.508+03:00,1745221858.034492,40.95361963094089,29.14097085298671,92.82853,-1,-1,-1,-1,30,24.9532621481264,-9999,12657.31322004167,-0.6681976318359375,0.6786346435546875,-0.2845916748046875,12657.29934004167,-1.999843618468412,-1.174581134831389,-0.7456349853223105,-0.05137519538402557,-0.01002066675573587,0.0005622034077532589,-0.002998232841491699,0.002286672592163086,-0.001767635345458984,XArbitraryZVertical,0.5980587353503277,0.02372320905711666,0.5432643502629798,-0.5887501926280894,-0.677742063999176,0.6784384250640869,-0.2835259139537811,0,0,0,-1,-1,12638.664264,unknown,2,2025-04-21T10:50:40.858+03:00,2025-04-20T21:57:49.637+03:00,1480,1.071516,0,0,1109.802,1,4,2025-04-21T10:45:26.169+03:00,766914659.0172858,0,-47.47,100.3013,1,0.7,2025-04-21T10:50:54.212+03:00,92.00000000000001,1.533333333333333,2025-04-21T09:28:58.093+03:00,0.01174319131481236,0
2025-04-21T10:50:59.518+03:00,1745221858.034492,40.95361963094089,29.14097085298671,92.82853,-1,-1,-1,-1,30,24.9532621481264,-9999,12657.32329466667,-0.672332763671875,0.6815338134765625,-0.2816009521484375,12657.30941604167,-2.000394126483781,-1.175052951362199,-0.7458239337779928,-0.03799493983387947,-0.01185877900570631,-0.001021578442305326,0.004829645156860352,0.002529323101043701,-0.004761338233947754,XArbitraryZVertical,0.59821692870441,0.0236255032034395,0.5432348188549175,-0.5886206174780451,-0.6777574419975281,0.6785772442817688,-0.28315669298172,0,0,0,-1,-1,12638.664264,unknown,2,2025-04-21T10:50:40.858+03:00,2025-04-20T21:57:49.637+03:00,1480,1.071516,0,0,1109.802,1,4,2025-04-21T10:45:26.169+03:00,766914659.0172858,0,-47.47,100.3013,1,0.7,2025-04-21T10:50:54.212+03:00,92.00000000000001,1.533333333333333,2025-04-21T09:28:58.093+03:00,0.01174319131481236,0
2025-04-21T10:50:59.528+03:00,1745221858.034492,40.95361963094089,29.14097085298671,92.82853,-1,-1,-1,-1,30,24.9532621481264,-9999,12657.33336966667,-0.6767730712890625,0.680267333984375,-0.278289794921875,12657.31949066667,-2.000702277635219,-1.175335035785937,-0.7458973179247412,-0.01448528841137886,-0.008316708728671074,-0.003912939224392176,0.008830845355987549,-0.0001949071884155273,-0.0007145106792449951,XArbitraryZVertical,0.5983063186278406,0.02358837619717491,0.5432214906552885,-0.588543484171186,-0.6777912974357605,0.6786311268806458,-0.2829462885856628,0,0,0,-1,-1,12638.664264,unknown,2,2025-04-21T10:50:40.858+03:00,2025-04-20T21:57:49.637+03:00,1480,1.071516,0,0,1109.802,1,4,2025-04-21T10:45:26.169+03:00,766914659.0172858,0,-47.47,100.3013,1,0.7,2025-04-21T10:50:54.212+03:00,92.00000000000001,1.533333333333333,2025-04-21T09:28:58.093+03:00,0.01174319131481236,0
2025-04-21T10:50:59.539+03:00,1745221858.034492,40.95361963094089,29.14097085298671,92.82853,-1,-1,-1,-1,30,24.9532621481264,-9999,12657.34344566667,-0.6827850341796875,0.6770477294921875,-0.2780303955078125,12657.32956566667,-2.000871295241316,-1.175542668442277,-0.7458821514759845,-0.01063622254878283,-0.01022513024508953,-0.007968933321535587,0.004138350486755371,0.003951370716094971,0.001590073108673096,XArbitraryZVertical,0.5983628080549107,0.02360471633044302,0.5432132065313273,-0.5884931209523386,-0.6778596043586731,0.6786199808120728,-0.2828095257282257,0,0,0,-1,-1,12638.664264,unknown,2,2025-04-21T10:50:40.858+03:00,2025-04-20T21:57:49.637+03:00,1480,1.071516,0,0,1109.802,1,4,2025-04-21T10:45:26.169+03:00,766914659.0172858,0,-47.47,100.3013,1,0.7,2025-04-21T10:50:54.212+03:00,92.00000000000001,1.533333333333333,2025-04-21T09:28:58.093+03:00,0.01174319131481236,0
2025-04-21T10:50:59.549+03:00,1745221858.034492,40.95361963094089,29.14097085298671,92.82853,-1,-1,-1,-1,30,24.9532621481264,-9999,12657.35352166667,-0.6879119873046875,0.6792449951171875,-0.282135009765625,12657.33964166667,-2.001038088831353,-1.175729195958169,-0.7458533981789328,-0.009150777012109756,-0.00710530299693346,-0.007098645437508821,0.001035153865814209,0.000920712947845459,0.005178987979888916,XArbitraryZVertical,0.5984118934409907,0.02362059036200687,0.543214077859659,-0.5884416472337007,-0.6779302358627319,0.6785988807678223,-0.282690554857254,0,0,0,-1,-1,12638.664264,unknown,2,2025-04-21T10:50:40.858+03:00,2025-04-20T21:57:49.637+03:00,1480,1.071516,0,0,1109.802,1,4,2025-04-21T10:45:26.169+03:00,766914659.0172858,0,-47.47,100.3013,1,0.7,2025-04-21T10:50:54.212+03:00,92.00000000000001,1.533333333333333,2025-04-21T09:28:58.093+03:00,0.01174319131481236,0
2025-04-21T10:50:59.559+03:00,1745221858.034492,40.95361963094089,29.14097085298671,92.82853,-1,-1,-1,-1,30,24.9532621481264,-9999,12657.36359766667,-0.6858367919921875,0.675201416015625,-0.2850799560546875,12657.34971766667,-2.001198947949176,-1.175881927566407,-0.7458566360902554,-0.01341529749333858,-0.002991518005728722,-0.004890352487564087,-0.005545973777770996,-0.001324713230133057,0.004098087549209595,XArbitraryZVertical,0.598455670471579,0.02361617690833531,0.543214862793978,-0.588396614649794,-0.677971363067627,0.6786012649536133,-0.2825861871242523,0,0,0,-1,-1,12638.664264,unknown,2,2025-04-21T10:50:40.858+03:00,2025-04-20T21:57:49.637+03:00,1480,1.071516,0,0,1109.802,1,4,2025-04-21T10:45:26.169+03:00,766914659.0172858,0,-47.47,100.3013,1,0.7,2025-04-21T10:50:54.212+03:00,92.00000000000001,1.533333333333333,2025-04-21T09:28:58.093+03:00,0.01174319131481236,0
2025-04-21T10:50:59.569+03:00,1745221858.034492,40.95361963094089,29.14097085298671,92.82853,-1,-1,-1,-1,30,24.9532621481264,-9999,12657.37367366667,-0.6813201904296875,0.6776275634765625,-0.2872772216796875,12657.35979366667,-2.001461772985278,-1.176090358744237,-0.7458708995182846,-0.02205918543040752,-0.0002083154395222664,-0.00531063275411725,-0.009570062160491943,0.00051116943359375,0.0004587769508361816,XArbitraryZVertical,0.5985171398088863,0.02359344441853583,0.5432260439876366,-0.5883247455048086,-0.6780214309692383,0.6786117553710938,-0.2824411690235138,0,0,0,-1,-1,12638.664264,unknown,2,2025-04-21T10:50:40.858+03:00,2025-04-20T21:57:49.637+03:00,1480,1.071516,0,0,1109.802,1,4,2025-04-21T10:45:26.169+03:00,766914659.0172858,0,-47.47,100.3013,1,0.7,2025-04-21T10:50:54.212+03:00,92.00000000000001,1.533333333333333,2025-04-21T09:28:58.093+03:00,0.01174319131481236,0
2025-04-21T10:50:59.579+03:00,1745221858.034492,40.95361963094089,29.14097085298671,92.82853,-1,-1,-1,-1,30,24.9532621481264,-9999,12657.38374866667,-0.6760101318359375,0.688629150390625,-0.286346435546875,12657.36986966667,-2.001755301688413,-1.176315699023425,-0.7458652281778323,-0.01355917472392321,-0.0005121822468936443,-0.008111745119094849,-0.006847918033599854,-0.003925025463104248,-0.002881616353988647,XArbitraryZVertical,0.5985811308722722,0.02357398372358084,0.5432463769793356,-0.5882415110901801,-0.6780884265899658,0.6786075830459595,-0.2822898030281067,0,0,0,-1,-1,12638.664264,unknown,2,2025-04-21T10:50:40.858+03:00,2025-04-20T21:57:49.637+03:00,1480,1.071516,0,0,1109.802,1,4,2025-04-21T10:45:26.169+03:00,766914659.0172858,0,-47.47,100.3013,1,0.7,2025-04-21T10:50:54.212+03:00,92.00000000000001,1.533333333333333,2025-04-21T09:28:58.093+03:00,0.01174319131481236,0
2025-04-21T10:50:59.589+03:00,1745221858.034492,40.95361963094089,29.14097085298671,92.82853,-1,-1,-1,-1,30,24.9532621481264,-9999,12657.39382466667,-0.6676177978515625,0.6856231689453125,-0.2849273681640625,12657.37994466667,-2.001883573983283,-1.176418608529588,-0.7458584271945016,-0.00178893469274044,-0.00415764981880784,-0.002062308602035046,-0.00193178653717041,0.0004745125770568848,-0.004475533962249756,XArbitraryZVertical,0.5986097383353214,0.02356847891630272,0.5432551635211688,-0.588204576925017,-0.6781218647956848,0.6786025762557983,-0.2822218239307404,0,0,0,-1,-1,12638.664264,unknown,2,2025-04-21T10:50:40.858+03:00,2025-04-20T21:57:49.637+03:00,1480,1.071516,0,0,1109.802,1,4,2025-04-21T10:45:26.169+03:00,766914659.0172858,0,-47.47,100.3013,1,0.7,2025-04-21T10:50:54.212+03:00,92.00000000000001,1.533333333333333,2025-04-21T09:28:58.093+03:00,0.01174319131481236,0
2025-04-21T10:50:59.599+03:00,1745221858.034492,40.95361963094089,29.14097085298671,92.82853,-1,-1,-1,-1,30,24.9532621481264,-9999,12657.40390066667,-0.6668853759765625,0.6727142333984375,-0.2773590087890625,12657.39002066667,-2.001930151251407,-1.176526314627861,-0.7458411782928113,-0.002309316536411643,-0.01420708931982517,-0.004815218038856983,0.00341951847076416,0.01058858633041382,-0.004528790712356567,XArbitraryZVertical,0.5986373814536643,0.0235928335895373,0.5432413068816417,-0.5881883890244427,-0.6781631708145142,0.678589940071106,-0.2821533381938934,0,0,0,-1,-1,12638.664264,unknown,2,2025-04-21T10:50:40.858+03:00,2025-04-20T21:57:49.637+03:00,1480,1.071516,0,0,1109.802,1,4,2025-04-21T10:45:26.169+03:00,766914659.0172858,0,-47.47,100.3013,1,0.7,2025-04-21T10:50:54.212+03:00,92.00000000000001,1.533333333333333,2025-04-21T09:28:58.093+03:00,0.01174319131481236,0
2025-04-21T10:50:59.609+03:00,1745221858.034492,40.95361963094089,29.14097085298671,92.82853,-1,-1,-1,-1,30,24.9532621481264,-9999,12657.41397666667,-0.6790313720703125,0.6722564697265625,-0.2745361328125,12657.40009666667,-2.001964372534607,-1.176723966334045,-0.7457933912349267,-0.001938670873641968,-0.01828525215387344,-0.008409054018557072,0.01102781295776367,0.005374610424041748,-0.001552820205688477,XArbitraryZVertical,0.5986855648172072,0.02365888157165482,0.5432049264567271,-0.5881702288706723,-0.6782488226890564,0.6785548329353333,-0.2820317149162292,0,0,0,-1,-1,12638.664264,unknown,2,2025-04-21T10:50:40.858+03:00,2025-04-20T21:57:49.637+03:00,1480,1.071516,0,0,1109.802,1,4,2025-04-21T10:45:26.169+03:00,766914659.0172858,0,-47.47,100.3013,1,0.7,2025-04-21T10:50:54.212+03:00,92.00000000000001,1.533333333333333,2025-04-21T09:28:58.093+03:00,0.01174319131481236,0
2025-04-21T10:50:59.619+03:00,1745221858.034492,40.95361963094089,29.14097085298671,92.82853,-1,-1,-1,-1,30,24.9532621481264,-9999,12657.42405166667,-0.685150146484375,0.6799774169921875,-0.2772369384765625,12657.41017266667,-2.002030942563753,-1.176931428049485,-0.7457376385004859,-0.001789267640560865,-0.01093519572168589,-0.007614899426698685,0.01066339015960693,-0.007508635520935059,0.005751967430114746,XArbitraryZVertical,0.5987358056756905,0.02372116582295758,0.5431772534871089,-0.5881420852277474,-0.6783421635627747,0.6785138845443726,-0.281905472278595,0,0,0,-1,-1,12638.664264,unknown,2,2025-04-21T10:50:40.858+03:00,2025-04-20T21:57:49.637+03:00,1480,1.071516,0,0,1109.802,1,4,2025-04-21T10:45:26.169+03:00,766914659.0172858,0,-47.47,100.3013,1,0.7,2025-04-21T10:50:54.212+03:00,92.00000000000001,1.533333333333333,2025-04-21T09:28:58.093+03:00,0.01174319131481236,0
2025-04-21T10:50:59.629+03:00,1745221858.034492,40.95361963094089,29.14097085298671,92.82853,-1,-1,-1,-1,30,24.9532621481264,-9999,12657.43412766667,-0.680419921875,0.6795806884765625,-0.27655029296875,12657.42024766667,-2.002101514402404,-1.177053969576769,-0.7456683165979913,-0.003473850199952722,-0.005450814962387085,-0.00880713015794754,-0.00201493501663208,-0.004650115966796875,0.006816059350967407,XArbitraryZVertical,0.5987613446325901,0.02376245790222165,0.5431798230999872,-0.5881120350628899,-0.6784201264381409,0.6784629225730896,-0.2818403840065002,0,0,0,-1,-1,12638.664264,unknown,2,2025-04-21T10:50:40.858+03:00,2025-04-20T21:57:49.637+03:00,1480,1.071516,0,0,1109.802,1,4,2025-04-21T10:45:26.169+03:00,766914659.0172858,0,-47.47,100.3013,1,0.7,2025-04-21T10:50:54.212+03:00,92.00000000000001,1.533333333333333,2025-04-21T09:28:58.093+03:00,0.01174319131481236,0
2025-04-21T10:50:59.639+03:00,1745221858.034492,40.95361963094089,29.14097085298671,92.82853,-1,-1,-1,-1,30,24.9532621481264,-9999,12657.44420366667,-0.6810760498046875,0.676544189453125,-0.2777252197265625,12657.43032366667,-2.002221142295578,-1.17719954277424,-0.7456165557662577,-0.005296251270920038,-0.006334717385470867,-0.00790352001786232,-0.006244480609893799,0.001476168632507324,0.004914969205856323,XArbitraryZVertical,0.5987958992933041,0.02378914602018041,0.5431852281797657,-0.5880707687702935,-0.6784935593605042,0.6784248948097229,-0.2817550897598267,0,0,0,-1,-1,12638.664264,unknown,2,2025-04-21T10:50:40.858+03:00,2025-04-20T21:57:49.637+03:00,1480,1.071516,0,0,1109.802,1,4,2025-04-21T10:45:26.169+03:00,766914659.0172858,0,-47.47,100.3013,1,0.7,2025-04-21T10:50:54.212+03:00,92.00000000000001,1.533333333333333,2025-04-21T09:28:58.093+03:00,0.01174319131481236,0
2025-04-21T10:50:59.650+03:00,1745221858.034492,40.95361963094089,29.14097085298671,92.82853,-1,-1,-1,-1,30,24.9532621481264,-9999,12657.45427966667,-0.6826324462890625,0.6844024658203125,-0.27764892578125,12657.44039966667,-2.002333614778621,-1.177275504181414,-0.7455631944732378,-0.003958279266953468,0.006054840050637722,-0.006421337369829416,-0.001932442188262939,0.0004930496215820312,0.005426585674285889,XArbitraryZVertical,0.5988112554660934,0.02379814023942394,0.5432098327772232,-0.5880320898169389,-0.6785484552383423,0.6783856749534607,-0.281717449426651,0,0,0,-1,-1,12638.664264,unknown,2,2025-04-21T10:50:40.858+03:00,2025-04-20T21:57:49.637+03:00,1480,1.071516,0,0,1109.802,1,4,2025-04-21T10:45:26.169+03:00,766914659.0172858,0,-47.47,100.3013,1,0.7,2025-04-21T10:50:54.212+03:00,92.00000000000001,1.533333333333333,2025-04-21T09:28:58.093+03:00,0.01174319131481236,0
2025-04-21T10:50:59.662+03:00,1745221858.034492,40.95361963094089,29.14097085298671,92.82853,-1,-1,-1,-1,30,24.9532621481264,-9999,12657.46435466667,-0.6729278564453125,0.679412841796875,-0.2824249267578125,12657.45047566667,-2.002407107409963,-1.177267477245717,-0.7454849747860028,-0.00756020424887538,0.004976525902748108,-0.006124661304056644,-0.002938568592071533,-0.001173794269561768,0.003850191831588745,XArbitraryZVertical,0.598800292656345,0.02380350789610241,0.5432546615646301,-0.5880015187857121,-0.6785951256752014,0.6783282160758972,-0.281743198633194,0,0,0,-1,-1,12638.664264,unknown,2,2025-04-21T10:50:40.858+03:00,2025-04-20T21:57:49.637+03:00,1480,1.071516,0,0,1109.802,1,4,2025-04-21T10:45:26.169+03:00,766914659.0172858,0,-47.47,100.3013,1,0.7,2025-04-21T10:50:54.212+03:00,92.00000000000001,1.533333333333333,2025-04-21T09:28:58.093+03:00,0.01174319131481236,0
2025-04-21T10:50:59.670+03:00,1745221858.034492,40.95361963094089,29.14097085298671,92.82853,-1,-1,-1,-1,30,24.9532621481264,-9999,12657.47443066667,-0.671783447265625,0.6685791015625,-0.2866363525390625,12657.46055066667,-2.002551819672154,-1.177347429781941,-0.7454621504271517,-0.01196047943085432,-0.002070930320769548,-0.007442359812557697,-0.002749145030975342,0.006960690021514893,0.003573030233383179,XArbitraryZVertical,0.5988208977558614,0.02379239760314474,0.5432793947679125,-0.5879581863365301,-0.6786319613456726,0.6783114671707153,-0.2816949188709259,0,0,0,-1,-1,12638.664264,unknown,2,2025-04-21T10:50:40.858+03:00,2025-04-20T21:57:49.637+03:00,1480,1.071516,0,0,1109.802,1,4,2025-04-21T10:45:26.169+03:00,766914659.0172858,0,-47.47,100.3013,1,0.7,2025-04-21T10:50:54.212+03:00,92.00000000000001,1.533333333333333,2025-04-21T09:28:58.093+03:00,0.01174319131481236,0
2025-04-21T10:50:59.697+03:00,1745221858.034492,40.95361963094089,29.14097085298671,92.82853,-1,-1,-1,-1,30,24.9532621481264,-9999,12657.48450666667,-0.6765594482421875,0.6743621826171875,-0.2866973876953125,12657.47062666667,-2.002764284225323,-1.17748879646879,-0.7454786047142791,-0.01635336317121983,0.001866819569841027,-0.007064990233629942,0.007106959819793701,-0.0007265806198120117,-0.001760989427566528,XArbitraryZVertical,0.5988638711683367,0.02376405028653501,0.5432950960635251,-0.5879009965333648,-0.6786614060401917,0.6783235669136047,-0.2815946638584137,0,0,0,-1,-1,12638.664264,unknown,2,2025-04-21T10:50:40.858+03:00,2025-04-20T21:57:49.637+03:00,1480,1.071516,0,0,1109.802,1,4,2025-04-21T10:45:26.169+03:00,766914659.0172858,0,-47.47,100.3013,1,0.7,2025-04-21T10:50:54.212+03:00,92.00000000000001,1.533333333333333,2025-04-21T09:28:58.093+03:00,0.01174319131481236,0
2025-04-21T10:50:59.698+03:00,1745221858.034492,40.95361963094089,29.14097085298671,92.82853,-1,-1,-1,-1,30,24.9532621481264,-9999,12657.49458266667,-0.6746368408203125,0.6833648681640625,-0.285980224609375,12657.48070266667,-2.002940930337253,-1.177579137479738,-0.7455041762240349,-0.005874489899724722,0.003706664545461535,-0.004091504029929638,0.005697369575500488,-0.01009899377822876,-0.004560261964797974,XArbitraryZVertical,0.5988936649714947,0.02372798765869983,0.5433131587152257,-0.587855436739362,-0.6786708831787109,0.678342342376709,-0.2815267145633698,0,0,0,-1,-1,12638.664264,unknown,2,2025-04-21T10:50:40.858+03:00,2025-04-20T21:57:49.637+03:00,1480,1.071516,0,0,1109.802,1,4,2025-04-21T10:45:26.169+03:00,766914659.0172858,0,-47.47,100.3013,1,0.7,2025-04-21T10:50:54.212+03:00,92.00000000000001,1.533333333333333,2025-04-21T09:28:58.093+03:00,0.01174319131481236,0
2025-04-21T10:50:59.700+03:00,1745221858.034492,40.95361963094089,29.14097085298671,92.82853,-1,-1,-1,-1,30,24.9532621481264,-9999,12657.50465766667,-0.6744842529296875,0.67999267578125,-0.283050537109375,12657.49077866667,-2.002991623928256,-1.177566751230928,-0.745490711784113,-0.000131117005366832,0.00688674533739686,-0.003278707386925817,0.002345383167266846,-0.002658069133758545,-0.005326569080352783,XArbitraryZVertical,0.5988892282026008,0.02371431245994771,0.5433353908278622,-0.5878400064738151,-0.6786758899688721,0.6783324480056763,-0.2815386354923248,0,0,0,-1,-1,12638.664264,unknown,2,2025-04-21T10:50:40.858+03:00,2025-04-20T21:57:49.637+03:00,1480,1.071516,0,0,1109.802,1,4,2025-04-21T10:45:26.169+03:00,766914659.0172858,0,-47.47,100.3013,1,0.7,2025-04-21T10:50:54.212+03:00,92.00000000000001,1.533333333333333,2025-04-21T09:28:58.093+03:00,0.01174319131481236,0
2025-04-21T10:50:59.710+03:00,1745221858.034492,40.95361963094089,29.14097085298671,92.82853,-1,-1,-1,-1,30,24.9532621481264,-9999,12657.51473366667,-0.67449951171875,0.6776275634765625,-0.2799072265625,12657.50085366667,-2.002985781685561,-1.177478760109376,-0.7454648116433976,0.007530065253376961,0.01047115959227085,0.0005410978337749839,0.004701912403106689,0.00526505708694458,-0.004741311073303223,XArbitraryZVertical,0.5988620616610537,0.02370004115901009,0.5433669086780942,-0.587839083401666,-0.6786672472953796,0.6783134341239929,-0.281605064868927,0,0,0,-1,-1,12638.664264,unknown,2,2025-04-21T10:50:40.858+03:00,2025-04-20T21:57:49.637+03:00,1480,1.071516,0,0,1109.802,1,4,2025-04-21T10:45:26.169+03:00,766914659.0172858,0,-47.47,100.3013,1,0.7,2025-04-21T10:50:54.212+03:00,92.00000000000001,1.533333333333333,2025-04-21T09:28:58.093+03:00,0.01174319131481236,0
2025-04-21T10:50:59.720+03:00,1745221858.034492,40.95361963094089,29.14097085298671,92.82853,-1,-1,-1,-1,30,24.9532621481264,-9999,12657.52480966667,-0.6704254150390625,0.6757965087890625,-0.275543212890625,12657.51092966667,-2.002900072439881,-1.177312367555916,-0.7453948553879741,0.00998976081609726,0.00932147353887558,-0.00385471573099494,0.00363081693649292,0.001517057418823242,-0.001237988471984863,XArbitraryZVertical,0.5988071717982822,0.02370346869527313,0.5434102684292554,-0.5878548727748657,-0.6786643266677856,0.6782619953155518,-0.2817362248897552,0,0,0,-1,-1,12638.664264,unknown,2,2025-04-21T10:50:40.858+03:00,2025-04-20T21:57:49.637+03:00,1480,1.071516,0,0,1109.802,1,4,2025-04-21T10:45:26.169+03:00,766914659.0172858,0,-47.47,100.3013,1,0.7,2025-04-21T10:50:54.212+03:00,92.00000000000001,1.533333333333333,2025-04-21T09:28:58.093+03:00,0.01174319131481236,0
2025-04-21T10:50:59.730+03:00,1745221858.034492,40.95361963094089,29.14097085298671,92.82853,-1,-1,-1,-1,30,24.9532621481264,-9999,12657.53488566667,-0.6683807373046875,0.67535400390625,-0.27783203125,12657.52100566667,-2.002874457338498,-1.177217537853298,-0.7453328270594527,0.0004846058436669409,0.004056070931255817,-0.004991918802261353,0.003917574882507324,-0.001229822635650635,0.002260476350784302,XArbitraryZVertical,0.5987734463267417,0.02370684737806893,0.5434476413834883,-0.5878544672852439,-0.6786763668060303,0.6782164573669434,-0.281816691160202,0,0,0,-1,-1,12638.664264,unknown,2,2025-04-21T10:50:40.858+03:00,2025-04-20T21:57:49.637+03:00,1480,1.071516,0,0,1109.802,1,4,2025-04-21T10:45:26.169+03:00,766914659.0172858,0,-47.47,100.3013,1,0.7,2025-04-21T10:50:54.212+03:00,92.00000000000001,1.533333333333333,2025-04-21T09:28:58.093+03:00,0.01174319131481236,0
2025-04-21T10:50:59.740+03:00,1745221858.034492,40.95361963094089,29.14097085298671,92.82853,-1,-1,-1,-1,30,24.9532621481264,-9999,12657.54496166667,-0.6741485595703125,0.6850738525390625,-0.282470703125,12657.53108166667,-2.00296281544347,-1.17727999382309,-0.7452931736914463,-0.005524284671992064,-0.002066003624349833,-0.005298182368278503,0.008873343467712402,-0.002268731594085693,0.006622970104217529,XArbitraryZVertical,0.5987865499918881,0.02371387138713158,0.5434655321577556,-0.5878243534576596,-0.6787188649177551,0.6781873106956482,-0.2817846536636353,0,0,0,-1,-1,12638.664264,unknown,2,2025-04-21T10:50:40.858+03:00,2025-04-20T21:57:49.637+03:00,1480,1.071516,0,0,1109.802,1,4,2025-04-21T10:45:26.169+03:00,766914659.0172858,0,-47.47,100.3013,1,0.7,2025-04-21T10:50:54.212+03:00,92.00000000000001,1.533333333333333,2025-04-21T09:28:58.093+03:00,0.01174319131481236,0
2025-04-21T10:50:59.750+03:00,1745221858.034492,40.95361963094089,29.14097085298671,92.82853,-1,-1,-1,-1,30,24.9532621481264,-9999,12657.55503666667,-0.6720123291015625,0.690216064453125,-0.289337158203125,12657.54115766667,-2.003065345805979,-1.177355590084351,-0.7452641934934296,-0.003927120007574558,-0.0001702988520264626,-0.006281920708715916,0.009889364242553711,-0.001820266246795654,0.003130704164505005,XArbitraryZVertical,0.5988047346642225,0.02371640443870091,0.5434807377430338,-0.5877916200766232,-0.6787582635879517,0.6781659722328186,-0.2817408442497253,0,0,0,-1,-1,12638.664264,unknown,2,2025-04-21T10:50:40.858+03:00,2025-04-20T21:57:49.637+03:00,1480,1.071516,0,0,1109.802,1,4,2025-04-21T10:45:26.169+03:00,766914659.0172858,0,-47.47,100.3013,1,0.7,2025-04-21T10:50:54.212+03:00,92.00000000000001,1.533333333333333,2025-04-21T09:28:58.093+03:00,0.01174319131481236,0
2025-04-21T10:50:59.760+03:00,1745221858.034492,40.95361963094089,29.14097085298671,92.82853,-1,-1,-1,-1,30,24.9532621481264,-9999,12657.56511266667,-0.6697845458984375,0.677001953125,-0.29205322265625,12657.55123266667,-2.003065107689861,-1.177372014418805,-0.745205848009176,0.006823794916272163,-0.005446020513772964,-0.005917600356042385,0.004635751247406006,0.008369803428649902,-0.001763403415679932,XArbitraryZVertical,0.5988019766653596,0.02374352643320288,0.5434913388577741,-0.5877835593770088,-0.6787995100021362,0.6781231164932251,-0.2817448675632477,0,0,0,-1,-1,12638.664264,unknown,2,2025-04-21T10:50:40.858+03:00,2025-04-20T21:57:49.637+03:00,1480,1.071516,0,0,1109.802,1,4,2025-04-21T10:45:26.169+03:00,766914659.0172858,0,-47.47,100.3013,1,0.7,2025-04-21T10:50:54.212+03:00,92.00000000000001,1.533333333333333,2025-04-21T09:28:58.093+03:00,0.01174319131481236,0
2025-04-21T10:50:59.770+03:00,1745221858.034492,40.95361963094089,29.14097085298671,92.82853,-1,-1,-1,-1,30,24.9532621481264,-9999,12657.57518866667,-0.6726837158203125,0.666351318359375,-0.2830657958984375,12657.56130866667,-2.002990659504686,-1.17737942403661,-0.7451272252838268,0.006494761444628239,-0.01120976638048887,-0.004246932920068502,0.007647335529327393,0.01129627227783203,-0.008309215307235718,XArbitraryZVertical,0.5987933649915945,0.02379796648482347,0.5434882838219767,-0.5877930516748653,-0.6788508892059326,0.678065299987793,-0.2817603349685669,0,0,0,-1,-1,12638.664264,unknown,2,2025-04-21T10:50:40.858+03:00,2025-04-20T21:57:49.637+03:00,1480,1.071516,0,0,1109.802,1,4,2025-04-21T10:45:26.169+03:00,766914659.0172858,0,-47.47,100.3013,1,0.7,2025-04-21T10:50:54.212+03:00,92.00000000000001,1.533333333333333,2025-04-21T09:28:58.093+03:00,0.01174319131481236,0
2025-04-21T10:50:59.781+03:00,1745221858.034492,40.95361963094089,29.14097085298671,92.82853,-1,-1,-1,-1,30,24.9532621481264,-9999,12657.58526466667,-0.678192138671875,0.6697845458984375,-0.27606201171875,12657.57138466667,-2.002915008792461,-1.177441817843474,-0.745069371131026,0.007109152618795633,-0.0124609200283885,-0.003749454393982887,0.00936424732208252,-0.002439975738525391,-0.01013711094856262,XArbitraryZVertical,0.5988023035184792,0.02386089433369359,0.5434626871308443,-0.587804864870305,-0.6789045333862305,0.6780228018760681,-0.2817329168319702,0,0,0,-1,-1,12638.664264,unknown,2,2025-04-21T10:50:40.858+03:00,2025-04-20T21:57:49.637+03:00,1480,1.071516,0,0,1109.802,1,4,2025-04-21T10:45:26.169+03:00,766914659.0172858,0,-47.47,100.3013,1,0.7,2025-04-21T10:50:54.212+03:00,92.00000000000001,1.533333333333333,2025-04-21T09:28:58.093+03:00,0.01174319131481236,0
2025-04-21T10:50:59.790+03:00,1745221858.034492,40.95361963094089,29.14097085298671,92.82853,-1,-1,-1,-1,30,24.9532621481264,-9999,12657.59533966667,-0.68194580078125,0.6772003173828125,-0.276153564453125,12657.58146066667,-2.002849540513493,-1.177518868319221,-0.7450229418823494,0.003650904633104801,-0.01263229548931122,-0.003233000868931413,0.005203604698181152,-0.01203417778015137,-0.0001828372478485107,XArbitraryZVertical,0.5988167158439044,0.02392081620795033,0.5434327677399517,-0.5878154088453577,-0.6789553165435791,0.6779886484146118,-0.2816926836967468,0,0,0,-1,-1,12638.664264,unknown,2,2025-04-21T10:50:40.858+03:00,2025-04-20T21:57:49.637+03:00,1480,1.071516,0,0,1109.802,1,4,2025-04-21T10:45:26.169+03:00,766914659.0172858,0,-47.47,100.3013,1,0.7,2025-04-21T10:50:54.212+03:00,92.00000000000001,1.533333333333333,2025-04-21T09:28:58.093+03:00,0.01174319131481236,0
2025-04-21T10:50:59.801+03:00,1745221858.034492,40.95361963094089,29.14097085298671,92.82853,-1,-1,-1,-1,30,24.9532621481264,-9999,12657.60541566667,-0.6846160888671875,0.6700897216796875,-0.2794036865234375,12657.59153566667,-2.00286818349583,-1.177639543032572,-0.745000554148476,-0.007741033565253019,-0.009266058914363384,-0.002679595956578851,0.0004450678825378418,-0.006814479827880859,0.006058186292648315,XArbitraryZVertical,0.5988469565047556,0.02395922860506483,0.5434080974518164,-0.5878058557547696,-0.6790032982826233,0.6779721975326538,-0.2816165685653687,0,0,0,-1,-1,12638.664264,unknown,2,2025-04-21T10:50:40.858+03:00,2025-04-20T21:57:49.637+03:00,1480,1.071516,0,0,1109.802,1,4,2025-04-21T10:45:26.169+03:00,766914659.0172858,0,-47.47,100.3013,1,0.7,2025-04-21T10:50:54.212+03:00,92.00000000000001,1.533333333333333,2025-04-21T09:28:58.093+03:00,0.01174319131481236,0
2025-04-21T10:50:59.811+03:00,1745221858.034492,40.95361963094089,29.14097085298671,92.82853,-1,-1,-1,-1,30,24.9532621481264,-9999,12657.61549166667,-0.6903076171875,0.6756744384765625,-0.2868499755859375,12657.60161166667,-2.003048582917118,-1.177822944917838,-0.7450460185618692,-0.01427017245441675,-0.0007211738266050816,0.0001261107390746474,-0.003193795680999756,-0.001080036163330078,0.005235224962234497,XArbitraryZVertical,0.5989045570845838,0.0239418266809942,0.5433940975187328,-0.5877608741680123,-0.6790265440940857,0.6780056357383728,-0.2814802527427673,0,0,0,-1,-1,12638.664264,unknown,2,2025-04-21T10:50:40.858+03:00,2025-04-20T21:57:49.637+03:00,1480,1.071516,0,0,1109.802,1,4,2025-04-21T10:45:26.169+03:00,766914659.0172858,0,-47.47,100.3013,1,0.7,2025-04-21T10:50:54.212+03:00,92.00000000000001,1.533333333333333,2025-04-21T09:28:58.093+03:00,0.01174319131481236,0
2025-04-21T10:50:59.821+03:00,1745221858.034492,40.95361963094089,29.14097085298671,92.82853,-1,-1,-1,-1,30,24.9532621481264,-9999,12657.62556766667,-0.6884613037109375,0.689666748046875,-0.2904815673828125,12657.61168766667,-2.003217784428725,-1.177887142331286,-0.7450968159753099,-0.008806164376437664,0.01003826316446066,-0.001806278945878148,-0.006488204002380371,-0.008121192455291748,0.00217244029045105,XArbitraryZVertical,0.598930298433742,0.02389068985736026,0.5434110438954836,-0.5877210643717405,-0.6790127754211426,0.6780429482460022,-0.2814234793186188,0,0,0,-1,-1,12638.664264,unknown,2,2025-04-21T10:50:40.858+03:00,2025-04-20T21:57:49.637+03:00,1480,1.071516,0,0,1109.802,1,4,2025-04-21T10:45:26.169+03:00,766914659.0172858,0,-47.47,100.3013,1,0.7,2025-04-21T10:50:54.212+03:00,92.00000000000001,1.533333333333333,2025-04-21T09:28:58.093+03:00,0.01174319131481236,0
2025-04-21T10:50:59.830+03:00,1745221858.034492,40.95361963094089,29.14097085298671,92.82853,-1,-1,-1,-1,30,24.9532621481264,-9999,12657.63564266667,-0.6773834228515625,0.6912384033203125,-0.288818359375,12657.62176366667,-2.003221251749095,-1.177791031149034,-0.7450563578103608,0.009922183118760586,0.006502850446850061,-0.006860725581645966,-0.01096069812774658,-0.0005534887313842773,-0.007074922323226929,XArbitraryZVertical,0.5988992070847119,0.02387685032658786,0.5434517008072846,-0.5877158116389384,-0.6790111660957336,0.6780132651329041,-0.2814992666244507,0,0,0,-1,-1,12638.664264,unknown,2,2025-04-21T10:50:40.858+03:00,2025-04-20T21:57:49.637+03:00,1480,1.071516,0,0,1109.802,1,4,2025-04-21T10:45:26.169+03:00,766914659.0172858,0,-47.47,100.3013,1,0.7,2025-04-21T10:50:54.212+03:00,92.00000000000001,1.533333333333333,2025-04-21T09:28:58.093+03:00,0.01174319131481236,0
2025-04-21T10:50:59.859+03:00,1745221858.034492,40.95361963094089,29.14097085298671,92.82853,-1,-1,-1,-1,30,24.9532621481264,-9999,12657.64571866667,-0.671905517578125,0.6809234619140625,-0.2870941162109375,12657.63183866667,-2.003068062513578,-1.17761321426118,-0.744924271886894,0.01973113790154457,0.005938526708632708,-0.01336443144828081,-0.008913934230804443,0.01251345872879028,-0.009040862321853638,XArbitraryZVertical,0.5988327513567173,0.02392070587452242,0.5434951153571074,-0.5877414968491211,-0.679043710231781,0.6779161691665649,-0.2816542685031891,0,0,0,-1,-1,12638.664264,unknown,2,2025-04-21T10:50:40.858+03:00,2025-04-20T21:57:49.637+03:00,1480,1.071516,0,0,1109.802,1,4,2025-04-21T10:45:26.169+03:00,766914659.0172858,0,-47.47,100.3013,1,0.7,2025-04-21T10:50:54.212+03:00,92.00000000000001,1.533333333333333,2025-04-21T09:28:58.093+03:00,0.01174319131481236,0
2025-04-21T10:50:59.862+03:00,1745221858.034492,40.95361963094089,29.14097085298671,92.82853,-1,-1,-1,-1,30,24.9532621481264,-9999,12657.65579466667,-0.673004150390625,0.6743927001953125,-0.2817535400390625,12657.64191466667,-2.002834601059003,-1.177386109543171,-0.7447451201930567,0.02805751003324986,0.0008385730907320976,-0.01174482982605696,0.003097116947174072,0.01235532760620117,-0.006261348724365234,XArbitraryZVertical,0.5987460775453668,0.02399206215114424,0.5435423077245433,-0.5877832502187789,-0.6790919303894043,0.6777844429016113,-0.2818550169467926,0,0,0,-1,-1,12638.664264,unknown,2,2025-04-21T10:50:40.858+03:00,2025-04-20T21:57:49.637+03:00,1480,1.071516,0,0,1109.802,1,4,2025-04-21T10:45:26.169+03:00,766914659.0172858,0,-47.47,100.3013,1,0.7,2025-04-21T10:50:54.212+03:00,92.00000000000001,1.533333333333333,2025-04-21T09:28:58.093+03:00,0.01174319131481236,0
2025-04-21T10:50:59.864+03:00,1745221858.034492,40.95361963094089,29.14097085298671,92.82853,-1,-1,-1,-1,30,24.9532621481264,-9999,12657.66587066667,-0.67242431640625,0.680328369140625,-0.2772216796875,12657.65199066667,-2.0024924406461,-1.177105051340341,-0.7445039823112142,0.02951612323522568,0.003530496265739202,-0.01431051921099424,0.007441222667694092,0.001256346702575684,-0.00457349419593811,XArbitraryZVertical,0.5986357303304752,0.02410365908188569,0.5435901924144728,-0.5878467490023206,-0.6791635155677795,0.6776071190834045,-0.2821085453033447,0,0,0,-1,-1,12638.664264,unknown,2,2025-04-21T10:50:40.858+03:00,2025-04-20T21:57:49.637+03:00,1480,1.071516,0,0,1109.802,1,4,2025-04-21T10:45:26.169+03:00,766914659.0172858,0,-47.47,100.3013,1,0.7,2025-04-21T10:50:54.212+03:00,92.00000000000001,1.533333333333333,2025-04-21T09:28:58.093+03:00,0.01174319131481236,0
2025-04-21T10:50:59.872+03:00,1745221858.034492,40.95361963094089,29.14097085298671,92.82853,-1,-1,-1,-1,30,24.9532621481264,-9999,12657.67594566667,-0.6729888916015625,0.6731719970703125,-0.2769012451171875,12657.66206666667,-2.002255696692322,-1.176942381971994,-0.7442894688963627,0.02021663263440132,-0.005223313812166452,-0.01432689838111401,0.006263136863708496,-0.003438174724578857,0.0007654726505279541,XArbitraryZVertical,0.5985620665861099,0.02420837553852592,0.5436265435592709,-0.587883869416339,-0.6792519092559814,0.6774493455886841,-0.2822748124599457,0,0,0,-1,-1,12638.664264,unknown,2,2025-04-21T10:50:40.858+03:00,2025-04-20T21:57:49.637+03:00,1480,1.071516,0,0,1109.802,1,4,2025-04-21T10:45:26.169+03:00,766914659.0172858,0,-47.47,100.3013,1,0.7,2025-04-21T10:50:54.212+03:00,92.00000000000001,1.533333333333333,2025-04-21T09:28:58.093+03:00,0.01174319131481236,0
2025-04-21T10:50:59.881+03:00,1745221858.034492,40.95361963094089,29.14097085298671,92.82853,-1,-1,-1,-1,30,24.9532621481264,-9999,12657.68602166667,-0.6789398193359375,0.66796875,-0.2771148681640625,12657.67214166667,-2.002134638990746,-1.176919349364768,-0.7441019468249445,0.01191635802388191,-0.003743395674973726,-0.01369519531726837,0.006480753421783447,0.003322124481201172,0.005132853984832764,XArbitraryZVertical,0.5985310609781408,0.02430926763535279,0.5436479510641572,-0.587891591675629,-0.6793627738952637,0.6773113608360291,-0.2823392450809479,0,0,0,-1,-1,12638.664264,unknown,2,2025-04-21T10:50:40.858+03:00,2025-04-20T21:57:49.637+03:00,1480,1.071516,0,0,1109.802,1,4,2025-04-21T10:45:26.169+03:00,766914659.0172858,0,-47.47,100.3013,1,0.7,2025-04-21T10:50:54.212+03:00,92.00000000000001,1.533333333333333,2025-04-21T09:28:58.093+03:00,0.01174319131481236,0
2025-04-21T10:50:59.891+03:00,1745221858.034492,40.95361963094089,29.14097085298671,92.82853,-1,-1,-1,-1,30,24.9532621481264,-9999,12657.69609766667,-0.680908203125,0.673309326171875,-0.2837677001953125,12657.68221766667,-2.002083607498168,-1.176913436989341,-0.7439489505309859,0.008751058019697666,0.0005084741860628128,-0.01329552195966244,0.005903363227844238,-0.005766332149505615,0.005802273750305176,XArbitraryZVertical,0.5985098608155754,0.02438102680050981,0.5436755117617482,-0.5878846806769934,-0.6794567704200745,0.6771988272666931,-0.2823830246925354,0,0,0,-1,-1,12638.664264,unknown,2,2025-04-21T10:50:40.858+03:00,2025-04-20T21:57:49.637+03:00,1480,1.071516,0,0,1109.802,1,4,2025-04-21T10:45:26.169+03:00,766914659.0172858,0,-47.47,100.3013,1,0.7,2025-04-21T10:50:54.212+03:00,92.00000000000001,1.533333333333333,2025-04-21T09:28:58.093+03:00,0.01174319131481236,0
2025-04-21T10:50:59.901+03:00,1745221858.034492,40.95361963094089,29.14097085298671,92.82853,-1,-1,-1,-1,30,24.9532621481264,-9999,12657.70617366667,-0.673828125,0.670135498046875,-0.284271240234375,12657.69229366667,-2.002069867275053,-1.176905301479545,-0.7437940140055842,0.004299850203096867,-0.001448949333280325,-0.009646991267800331,-0.0003497600555419922,-0.008185386657714844,0.003818601369857788,XArbitraryZVertical,0.5984882791577385,0.02444167933681749,0.5437151679908421,-0.5878673484611453,-0.6795512437820435,0.6770848035812378,-0.2824287712574005,0,0,0,-1,-1,12638.664264,unknown,2,2025-04-21T10:50:40.858+03:00,2025-04-20T21:57:49.637+03:00,1480,1.071516,0,0,1109.802,1,4,2025-04-21T10:45:26.169+03:00,766914659.0172858,0,-47.47,100.3013,1,0.7,2025-04-21T10:50:54.212+03:00,92.00000000000001,1.533333333333333,2025-04-21T09:28:58.093+03:00,0.01174319131481236,0
2025-04-21T10:50:59.911+03:00,1745221858.034492,40.95361963094089,29.14097085298671,92.82853,-1,-1,-1,-1,30,24.9532621481264,-9999,12657.71624966667,-0.6724853515625,0.6730194091796875,-0.2799530029296875,12657.70236966667,-2.002100053282027,-1.176959874623815,-0.743698468425147,-0.001642793882638216,-0.004774505272507668,-0.008978438563644886,-0.0005187392234802246,-0.003842532634735107,-0.002388745546340942,XArbitraryZVertical,0.5984916286255957,0.024485056692603,0.543733193343613,-0.5878454591913289,-0.6796264052391052,0.6770144701004028,-0.2824164927005768,0,0,0,-1,-1,12638.664264,unknown,2,2025-04-21T10:50:40.858+03:00,2025-04-20T21:57:49.637+03:00,1480,1.071516,0,0,1109.802,1,4,2025-04-21T10:45:26.169+03:00,766914659.0172858,0,-47.47,100.3013,1,0.7,2025-04-21T10:50:54.212+03:00,92.00000000000001,1.533333333333333,2025-04-21T09:28:58.093+03:00,0.01174319131481236,0
2025-04-21T10:50:59.921+03:00,1745221858.034492,40.95361963094089,29.14097085298671,92.82853,-1,-1,-1,-1,30,24.9532621481264,-9999,12657.72632466667,-0.6788482666015625,0.67449951171875,-0.2800750732421875,12657.71244566667,-2.002177418602066,-1.177058543423957,-0.743624020444031,-0.003128038719296455,-0.007108499296009541,-0.01113373413681984,0.006681561470031738,-0.007068336009979248,-0.001200437545776367,XArbitraryZVertical,0.5985101443592156,0.02451928552956458,0.5437463217886056,-0.5878131325854625,-0.6797009110450745,0.6769596934318542,-0.2823688089847565,0,0,0,-1,-1,12638.664264,unknown,2,2025-04-21T10:50:40.858+03:00,2025-04-20T21:57:49.637+03:00,1480,1.071516,0,0,1109.802,1,4,2025-04-21T10:45:26.169+03:00,766914659.0172858,0,-47.47,100.3013,1,0.7,2025-04-21T10:50:54.212+03:00,92.00000000000001,1.533333333333333,2025-04-21T09:28:58.093+03:00,0.01174319131481236,0
2025-04-21T10:50:59.932+03:00,1745221858.034492,40.95361963094089,29.14097085298671,92.82853,-1,-1,-1,-1,30,24.9532621481264,-9999,12657.73640066667,-0.684295654296875,0.67181396484375,-0.2810211181640625,12657.72252066667,-2.002283305911094,-1.177169542687145,-0.7435490685571605,-0.006504793651401997,-0.004456656984984875,-0.01315993349999189,0.006088435649871826,-0.003015398979187012,0.002588808536529541,XArbitraryZVertical,0.5985323046558784,0.02454878903168356,0.5437642699030089,-0.5877728221700462,-0.6797791719436646,0.676904559135437,-0.2823128700256348,0,0,0,-1,-1,12638.664264,unknown,2,2025-04-21T10:50:40.858+03:00,2025-04-20T21:57:49.637+03:00,1480,1.071516,0,0,1109.802,1,4,2025-04-21T10:45:26.169+03:00,766914659.0172858,0,-47.47,100.3013,1,0.7,2025-04-21T10:50:54.212+03:00,92.00000000000001,1.533333333333333,2025-04-21T09:28:58.093+03:00,0.01174319131481236,0
2025-04-21T10:50:59.942+03:00,1745221858.034492,40.95361963094089,29.14097085298671,92.82853,-1,-1,-1,-1,30,24.9532621481264,-9999,12657.74647666667,-0.68389892578125,0.67510986328125,-0.2813720703125,12657.73259666667,-2.002361011303314,-1.177235589262837,-0.7434625983404168,0.0006913337274454534,0.0005548796616494656,-0.008504727855324745,0.0001796483993530273,-0.002844929695129395,0.002184867858886719,XArbitraryZVertical,0.5985405027106557,0.02457783223269227,0.5437903618066768,-0.5877390566634791,-0.6798518300056458,0.6768409013748169,-0.2822903990745544,0,0,0,-1,-1,12638.664264,unknown,2,2025-04-21T10:50:40.858+03:00,2025-04-20T21:57:49.637+03:00,1480,1.071516,0,0,1109.802,1,4,2025-04-21T10:45:26.169+03:00,766914659.0172858,0,-47.47,100.3013,1,0.7,2025-04-21T10:50:54.212+03:00,92.00000000000001,1.533333333333333,2025-04-21T09:28:58.093+03:00,0.01174319131481236,0
2025-04-21T10:50:59.952+03:00,1745221858.034492,40.95361963094089,29.14097085298671,92.82853,-1,-1,-1,-1,30,24.9532621481264,-9999,12657.75655266667,-0.68255615234375,0.6701812744140625,-0.2804107666015625,12657.74267266667,-2.002393005306462,-1.177229864569934,-0.7433921183492251,-0.001189989969134331,0.005392977967858315,-0.005160230677574873,-0.00461500883102417,-0.00462418794631958,0.001016825437545776,XArbitraryZVertical,0.5985306146438369,0.0245933660193884,0.5438202174592772,-0.5877207634338668,-0.6798941493034363,0.6767889857292175,-0.2823125422000885,0,0,0,-1,-1,12638.664264,unknown,2,2025-04-21T10:50:40.858+03:00,2025-04-20T21:57:49.637+03:00,1480,1.071516,0,0,1109.802,1,4,2025-04-21T10:45:26.169+03:00,766914659.0172858,0,-47.47,100.3013,1,0.7,2025-04-21T10:50:54.212+03:00,92.00000000000001,1.533333333333333,2025-04-21T09:28:58.093+03:00,0.01174319131481236,0
2025-04-21T10:50:59.962+03:00,1745221858.034492,40.95361963094089,29.14097085298671,92.82853,-1,-1,-1,-1,30,24.9532621481264,-9999,12657.76662766667,-0.6810760498046875,0.669769287109375,-0.281097412109375,12657.75274866667,-2.002409053707376,-1.177171081349652,-0.7433393201994148,0.00375763070769608,0.01028280798345804,-0.007496355567127466,-0.004140794277191162,-0.00179290771484375,0.0009179413318634033,XArbitraryZVertical,0.5985082699783868,0.02459140444270393,0.543856629129967,-0.5877099469219331,-0.6799106001853943,0.676750123500824,-0.2823662161827087,0,0,0,-1,-1,12638.664264,unknown,2,2025-04-21T10:50:40.858+03:00,2025-04-20T21:57:49.637+03:00,1480,1.071516,0,0,1109.802,1,4,2025-04-21T10:45:26.169+03:00,766914659.0172858,0,-47.47,100.3013,1,0.7,2025-04-21T10:50:54.212+03:00,92.00000000000001,1.533333333333333,2025-04-21T09:28:58.093+03:00,0.01174319131481236,0
2025-04-21T10:50:59.972+03:00,1745221858.034492,40.95361963094089,29.14097085298671,92.82853,-1,-1,-1,-1,30,24.9532621481264,-9999,12657.77670366667,-0.6790618896484375,0.6707000732421875,-0.2830963134765625,12657.76282366667,-2.002375307285318,-1.177033035324053,-0.7432804927449006,0.004286401439458132,0.01623191125690937,-0.003825121326372027,-0.002998590469360352,-0.007563173770904541,0.001820504665374756,XArbitraryZVertical,0.5984630061556138,0.02458335117491623,0.5439037383601224,-0.5877128291904538,-0.6799084544181824,0.6767067909240723,-0.2824753820896149,0,0,0,-1,-1,12638.664264,unknown,2,2025-04-21T10:50:40.858+03:00,2025-04-20T21:57:49.637+03:00,1480,1.071516,0,0,1109.802,1,4,2025-04-21T10:45:26.169+03:00,766914659.0172858,0,-47.47,100.3013,1,0.7,2025-04-21T10:50:54.212+03:00,92.00000000000001,1.533333333333333,2025-04-21T09:28:58.093+03:00,0.01174319131481236,0
2025-04-21T10:50:59.982+03:00,1745221858.034492,40.95361963094089,29.14097085298671,92.82853,-1,-1,-1,-1,30,24.9532621481264,-9999,12657.78677966667,-0.673004150390625,0.6650848388671875,-0.280120849609375,12657.77289966667,-2.002380466688158,-1.176872916864111,-0.7432144024465913,-0.002011442091315985,0.0153069943189621,-0.003834708826616406,-0.001064598560333252,-0.006919384002685547,0.001427769660949707,XArbitraryZVertical,0.5984112987953052,0.02455995970772128,0.5439708528534971,-0.5877044476410699,-0.679904580116272,0.6766581535339355,-0.2826014459133148,0,0,0,-1,-1,12638.664264,unknown,2,2025-04-21T10:50:40.858+03:00,2025-04-20T21:57:49.637+03:00,1480,1.071516,0,0,1109.802,1,4,2025-04-21T10:45:26.169+03:00,766914659.0172858,0,-47.47,100.3013,1,0.7,2025-04-21T10:50:54.212+03:00,92.00000000000001,1.533333333333333,2025-04-21T09:28:58.093+03:00,0.01174319131481236,0
2025-04-21T10:50:59.992+03:00,1745221858.034492,40.95361963094089,29.14097085298671,92.82853,-1,-1,-1,-1,30,24.9532621481264,-9999,12657.79685566667,-0.6715240478515625,0.668609619140625,-0.2807159423828125,12657.78297566667,-2.002526322575211,-1.176851704643678,-0.7431946429871735,-0.01811338029801846,0.008878190070390701,-0.005907546728849411,0.001505196094512939,-0.006141901016235352,0.0003639459609985352,XArbitraryZVertical,0.5984048729114995,0.02451759403397805,0.5440253059239752,-0.5876623213173175,-0.6799108982086182,0.6766436100006104,-0.2826209962368011,0,0,0,-1,-1,12638.664264,unknown,2,2025-04-21T10:50:40.858+03:00,2025-04-20T21:57:49.637+03:00,1480,1.071516,0,0,1109.802,1,4,2025-04-21T10:45:26.169+03:00,766914659.0172858,0,-47.47,100.3013,1,0.7,2025-04-21T10:50:54.212+03:00,92.00000000000001,1.533333333333333,2025-04-21T09:28:58.093+03:00,0.01174319131481236,0
2025-04-21T10:51:00.002+03:00,1745221858.034492,40.95361963094089,29.14097085298671,92.82853,-1,-1,-1,-1,30,24.9532621481264,-9999,12657.80693066667,-0.6748199462890625,0.6772003173828125,-0.2842254638671875,12657.79305166667,-2.002795104951148,-1.176934228845527,-0.7432325973703982,-0.02008784748613834,0.01244469545781612,-0.001551946974359453,0.007882893085479736,-0.01222759485244751,0.002510488033294678,XArbitraryZVertical,0.5984353401742243,0.02444692772556574,0.5440694059546849,-0.5875933117784667,-0.67991042137146,0.67667156457901,-0.2825549840927124,0,0,0,-1,-1,12638.664264,unknown,2,2025-04-21T10:50:40.858+03:00,2025-04-20T21:57:49.637+03:00,1480,1.071516,0,0,1109.802,1,4,2025-04-21T10:45:26.169+03:00,766914659.0172858,0,-47.47,100.3013,1,0.7,2025-04-21T10:50:54.212+03:00,92.00000000000001,1.533333333333333,2025-04-21T09:28:58.093+03:00,0.01174319131481236,0
2025-04-21T10:51:00.012+03:00,1745221858.034492,40.95361963094089,29.14097085298671,92.82853,-1,-1,-1,-1,30,24.9532621481264,-9999,12657.81700666667,-0.677642822265625,0.6778717041015625,-0.287872314453125,12657.80312666667,-2.003034070668611,-1.176999549433221,-0.7433079450583475,-0.01704904623329639,0.008880454115569592,0.001351231476292014,0.008830785751342773,-0.007034063339233398,0.0009968876838684082,XArbitraryZVertical,0.5984653838528998,0.02436589731928459,0.5440999315163861,-0.5875377394396522,-0.6798816919326782,0.6767270565032959,-0.2824909687042236,0,0,0,-1,-1,12638.664264,unknown,2,2025-04-21T10:50:40.858+03:00,2025-04-20T21:57:49.637+03:00,1480,1.071516,0,0,1109.802,1,4,2025-04-21T10:45:26.169+03:00,766914659.0172858,0,-47.47,100.3013,1,0.7,2025-04-21T10:50:54.212+03:00,92.00000000000001,1.533333333333333,2025-04-21T09:28:58.093+03:00,0.01174319131481236,0
2025-04-21T10:51:00.022+03:00,1745221858.034492,40.95361963094089,29.14097085298671,92.82853,-1,-1,-1,-1,30,24.9532621481264,-9999,12657.82708266667,-0.67657470703125,0.6795196533203125,-0.287841796875,12657.81320266667,-2.003207628277806,-1.177023935576349,-0.7433611897713824,-0.01124069280922413,0.01016036979854107,-0.001161727355793118,0.004699826240539551,0.0005103349685668945,-0.002298861742019653,XArbitraryZVertical,0.5984807212758283,0.02430087219282728,0.5441294481550834,-0.5874975135878618,-0.6798553466796875,0.6767662167549133,-0.2824606001377106,0,0,0,-1,-1,12638.664264,unknown,2,2025-04-21T10:50:40.858+03:00,2025-04-20T21:57:49.637+03:00,1480,1.071516,0,0,1109.802,1,4,2025-04-21T10:45:26.169+03:00,766914659.0172858,0,-47.47,100.3013,1,0.7,2025-04-21T10:50:54.212+03:00,92.00000000000001,1.533333333333333,2025-04-21T09:28:58.093+03:00,0.01174319131481236,0
2025-04-21T10:51:00.032+03:00,1745221858.034492,40.95361963094089,29.14097085298671,92.82853,-1,-1,-1,-1,30,24.9532621481264,-9999,12657.83715866667,-0.677764892578125,0.687957763671875,-0.2899169921875,12657.82327866667,-2.003308127245601,-1.17698131263834,-0.74338472161428,-0.002578495535999537,0.0145740257576108,-0.001565861981362104,0.002552151679992676,0.0008592009544372559,-0.005114138126373291,XArbitraryZVertical,0.5984732445676949,0.02424935338278924,0.5441654991386673,-0.5874739466408194,-0.6798287034034729,0.676783561706543,-0.2824834883213043,0,0,0,-1,-1,12638.664264,unknown,2,2025-04-21T10:50:40.858+03:00,2025-04-20T21:57:49.637+03:00,1480,1.071516,0,0,1109.802,1,4,2025-04-21T10:45:26.169+03:00,766914659.0172858,0,-47.47,100.3013,1,0.7,2025-04-21T10:50:54.212+03:00,92.00000000000001,1.533333333333333,2025-04-21T09:28:58.093+03:00,0.01174319131481236,0
2025-04-21T10:51:00.042+03:00,1745221858.034492,40.95361963094089,29.14097085298671,92.82853,-1,-1,-1,-1,30,24.9532621481264,-9999,12657.84723366667,-0.6743316650390625,0.6862640380859375,-0.29119873046875,12657.83335466667,-2.003234487526932,-1.176789793163939,-0.7433296230158999,0.01456666924059391,0.01348639093339443,-0.002383985091000795,0.003493726253509521,0.003920972347259521,-0.005290061235427856,XArbitraryZVertical,0.5984134289740995,0.0242360728541342,0.5442158109923976,-0.5874887371607048,-0.6798089146614075,0.6767429709434509,-0.2826279699802399,0,0,0,-1,-1,12638.664264,unknown,2,2025-04-21T10:50:40.858+03:00,2025-04-20T21:57:49.637+03:00,1480,1.071516,0,0,1109.802,1,4,2025-04-21T10:45:26.169+03:00,766914659.0172858,0,-47.47,100.3013,1,0.7,2025-04-21T10:50:54.212+03:00,92.00000000000001,1.533333333333333,2025-04-21T09:28:58.093+03:00,0.01174319131481236,0
2025-04-21T10:51:00.052+03:00,1745221858.034492,40.95361963094089,29.14097085298671,92.82853,-1,-1,-1,-1,30,24.9532621481264,-9999,12657.85730966667,-0.6707305908203125,0.6779632568359375,-0.285675048828125,12657.84342966667,-2.003010498698864,-1.176524734093506,-0.7432101124336989,0.0203851442784071,0.006430611945688725,-0.001798755489289761,0.002501726150512695,0.01221829652786255,-0.008100032806396484,XArbitraryZVertical,0.5983237432755041,0.02427077355455414,0.5442612414663454,-0.5875366731202829,-0.6798087954521179,0.6766549944877625,-0.2828392684459686,0,0,0,-1,-1,12638.664264,unknown,2,2025-04-21T10:50:40.858+03:00,2025-04-20T21:57:49.637+03:00,1480,1.071516,0,0,1109.802,1,4,2025-04-21T10:45:26.169+03:00,766914659.0172858,0,-47.47,100.3013,1,0.7,2025-04-21T10:50:54.212+03:00,92.00000000000001,1.533333333333333,2025-04-21T09:28:58.093+03:00,0.01174319131481236,0
2025-04-21T10:51:00.063+03:00,1745221858.034492,40.95361963094089,29.14097085298671,92.82853,-1,-1,-1,-1,30,24.9532621481264,-9999,12657.86738566667,-0.673492431640625,0.6690826416015625,-0.2802886962890625,12657.85350566667,-2.002756137015361,-1.176266993070265,-0.7431014955262186,0.02288318984210491,0.009361420758068562,-0.005087226629257202,0.006174027919769287,0.008712470531463623,-0.007835507392883301,XArbitraryZVertical,0.5982370260000335,0.02431251399738555,0.5442925903055867,-0.5875942424956412,-0.679803729057312,0.6765750050544739,-0.2830427289009094,0,0,0,-1,-1,12638.664264,unknown,2,2025-04-21T10:50:40.858+03:00,2025-04-20T21:57:49.637+03:00,1480,1.071516,0,0,1109.802,1,4,2025-04-21T10:45:26.169+03:00,766914659.0172858,0,-47.47,100.3013,1,0.7,2025-04-21T10:50:54.212+03:00,92.00000000000001,1.533333333333333,2025-04-21T09:28:58.093+03:00,0.01174319131481236,0
