loggingTime(txt),locationTimestamp_since1970(s),locationLatitude(WGS84),locationLongitude(WGS84),locationAltitude(m),locationSpeed(m/s),locationSpeedAccuracy(m/s),locationCourse(°),locationCourseAccuracy(°),locationVerticalAccuracy(m),locationHorizontalAccuracy(m),locationFloor(Z),accelerometerTimestamp_sinceReboot(s),accelerometerAccelerationX(G),accelerometerAccelerationY(G),accelerometerAccelerationZ(G),motionTimestamp_sinceReboot(s),motionYaw(rad),motionRoll(rad),motionPitch(rad),motionRotationRateX(rad/s),motionRotationRateY(rad/s),motionRotationRateZ(rad/s),motionUserAccelerationX(G),motionUserAccelerationY(G),motionUserAccelerationZ(G),motionAttitudeReferenceFrame(txt),motionQuaternionX(R),motionQuaternionY(R),motionQuaternionZ(R),motionQuaternionW(R),motionGravityX(G),motionGravityY(G),motionGravityZ(G),motionMagneticFieldX(µT),motionMagneticFieldY(µT),motionMagneticFieldZ(µT),motionHeading(°),motionMagneticFieldCalibrationAccuracy(Z),activityTimestamp_sinceReboot(s),activity(txt),activityActivityConfidence(Z),activityActivityStartDate(txt),pedometerStartDate(txt),pedometerNumberofSteps(N),pedometerAverageActivePace(s/m),pedometerCurrentPace(s/m),pedometerCurrentCadence(steps/s),pedometerDistance(m),pedometerFloorAscended(N),pedometerFloorDescended(N),pedometerEndDate(txt),altimeterTimestamp_sinceReboot(s),altimeterReset(bool),altimeterRelativeAltitude(m),altimeterPressure(kPa),batteryState(N),batteryLevel(R),heartRateBPMTimestamp(txt),heartRateBPM(N),heartRateBPS(R),heartRateVariabilityTimestamp(txt),heartRateVariability(ms),label
2025-04-22T11:59:06.680+03:00,1745312342.454455,40.95222556299963,29.14028007482035,75.7154,-1,-1,-1,-1,30,17.58087778887199,-9999,29007.10278454167,-0.966064453125,0.646575927734375,-0.35369873046875,29007.09524454167,-0.5189504713421701,-1.16632685074489,-0.7038382137921499,0.1363700479269028,0.4061403870582581,0.06442876905202866,-0.02206593751907349,0.06491798162460327,-0.1104322671890259,XArbitraryZVertical,-0.4107253099023232,-0.4257907586893729,-0.01758156298857729,0.8060383432936885,-0.700849711894989,0.6471485495567322,-0.3000138998031616,0,0,0,-1,-1,29005.72874525,unknown,2,2025-04-22T11:59:05.284+03:00,2025-04-21T17:08:51.449+03:00,7184,0.9570276,0,0,5997.434,5,20,2025-04-22T11:58:03.382+03:00,767005145.3888587,0,-20.29,100.4445,1,0.9,2025-04-22T11:59:05.251+03:00,94,1.566666666666667,2025-04-22T09:54:17.825+03:00,0.02225348692287972,0
2025-04-22T11:59:06.681+03:00,1745312342.454455,40.95222556299963,29.14028007482035,75.7154,-1,-1,-1,-1,30,17.58087778887199,-9999,29007.11285954167,-0.731658935546875,0.6870574951171875,-0.316070556640625,29007.10532054167,-0.516830577412746,-1.161238543364581,-0.7037455072343015,0.1494762599468231,0.2761589586734772,0.02572104893624783,-0.2714255452156067,-0.008726537227630615,-0.06956887245178223,XArbitraryZVertical,-0.4101969480330157,-0.4241915277025248,-0.01779742647722483,0.8071451066498641,-0.6993691325187683,0.6470778584480286,-0.303600013256073,0,0,0,-1,-1,29005.72874525,unknown,2,2025-04-22T11:59:05.284+03:00,2025-04-21T17:08:51.449+03:00,7184,0.9570276,0,0,5997.434,5,20,2025-04-22T11:58:03.382+03:00,767005145.3888587,0,-20.29,100.4445,1,0.9,2025-04-22T11:59:05.251+03:00,94,1.566666666666667,2025-04-22T09:54:17.825+03:00,0.02225348692287972,0
2025-04-22T11:59:06.683+03:00,1745312342.454455,40.95222556299963,29.14028007482035,75.7154,-1,-1,-1,-1,30,17.58087778887199,-9999,29007.12293554167,-0.56085205078125,0.6442108154296875,-0.2835845947265625,29007.11539554167,-0.5154822072711491,-1.159419605573535,-0.7030436620508894,0.08722260594367981,-0.0871586799621582,-0.07550323754549026,-0.134294867515564,0.03518939018249512,-0.02296504378318787,XArbitraryZVertical,-0.4096454121470651,-0.4238680053533429,-0.01782629731651506,0.8075943186006891,-0.6992316842079163,0.6465426087379456,-0.3050531148910522,0,0,0,-1,-1,29005.72874525,unknown,2,2025-04-22T11:59:05.284+03:00,2025-04-21T17:08:51.449+03:00,7184,0.9570276,0,0,5997.434,5,20,2025-04-22T11:58:03.382+03:00,767005145.3888587,0,-20.29,100.4445,1,0.9,2025-04-22T11:59:05.251+03:00,94,1.566666666666667,2025-04-22T09:54:17.825+03:00,0.02225348692287972,0
2025-04-22T11:59:06.693+03:00,1745312342.454455,40.95222556299963,29.14028007482035,75.7154,-1,-1,-1,-1,30,17.58087778887199,-9999,29007.13301054167,-0.5740203857421875,0.61932373046875,-0.274200439453125,29007.12547154167,-0.515320247446806,-1.161278837982658,-0.7018494568848116,0.03229091316461563,-0.2603424489498138,-0.1245703846216202,0.09824103116989136,0.01783609390258789,0.008374959230422974,XArbitraryZVertical,-0.4092028499981745,-0.4248801689126588,-0.0177212688789508,0.8072890483809677,-0.7005053758621216,0.6456311345100403,-0.3040597438812256,0,0,0,-1,-1,29005.72874525,unknown,2,2025-04-22T11:59:05.284+03:00,2025-04-21T17:08:51.449+03:00,7184,0.9570276,0,0,5997.434,5,20,2025-04-22T11:58:03.382+03:00,767005145.3888587,0,-20.29,100.4445,1,0.9,2025-04-22T11:59:05.251+03:00,94,1.566666666666667,2025-04-22T09:54:17.825+03:00,0.02225348692287972,0
2025-04-22T11:59:06.703+03:00,1745312342.454455,40.95222556299963,29.14028007482035,75.7154,-1,-1,-1,-1,30,17.58087778887199,-9999,29007.14308654167,-0.7013702392578125,0.6182098388671875,-0.285858154296875,29007.13554654167,-0.5156969358829574,-1.163677050495581,-0.7007736380557208,-0.0004395338473841548,-0.1354923248291016,-0.08779396116733551,0.1520653963088989,-0.02133524417877197,0.02930787205696106,XArbitraryZVertical,-0.4089217813246483,-0.4259766216961577,-0.01769036140622635,0.8068542644675896,-0.7018700838088989,0.6448091864585876,-0.3026537895202637,0,0,0,-1,-1,29005.72874525,unknown,2,2025-04-22T11:59:05.284+03:00,2025-04-21T17:08:51.449+03:00,7184,0.9570276,0,0,5997.434,5,20,2025-04-22T11:58:03.382+03:00,767005145.3888587,0,-20.29,100.4445,1,0.9,2025-04-22T11:59:05.251+03:00,94,1.566666666666667,2025-04-22T09:54:17.825+03:00,0.02225348692287972,0
2025-04-22T11:59:06.713+03:00,1745312342.454455,40.95222556299963,29.14028007482035,75.7154,-1,-1,-1,-1,30,17.58087778887199,-9999,29007.15316154167,-0.7879180908203125,0.608154296875,-0.293914794921875,29007.14562254167,-0.5162210538150288,-1.164236083482471,-0.7003979697825441,-0.04037123918533325,0.08541182428598404,-0.01290960051119328,0.05228298902511597,-0.02580869197845459,0.02057310938835144,XArbitraryZVertical,-0.4089049067605461,-0.4261668422457109,-0.01789503747466245,0.8067579437293022,-0.7022616863250732,0.6445220112800598,-0.3023571968078613,0,0,0,-1,-1,29005.72874525,unknown,2,2025-04-22T11:59:05.284+03:00,2025-04-21T17:08:51.449+03:00,7184,0.9570276,0,0,5997.434,5,20,2025-04-22T11:58:03.382+03:00,767005145.3888587,0,-20.29,100.4445,1,0.9,2025-04-22T11:59:05.251+03:00,94,1.566666666666667,2025-04-22T09:54:17.825+03:00,0.02225348692287972,0
2025-04-22T11:59:06.723+03:00,1745312342.454455,40.95222556299963,29.14028007482035,75.7154,-1,-1,-1,-1,30,17.58087778887199,-9999,29007.16323754167,-0.7631378173828125,0.60260009765625,-0.3009490966796875,29007.15569754167,-0.5168975270198396,-1.163227665675663,-0.7007070237471585,-0.0795452669262886,0.1768629103899002,0.01967936754226685,-0.06647604703903198,-0.03230112791061401,0.0121537446975708,XArbitraryZVertical,-0.4091496363228677,-0.4255625236467899,-0.01828572693479201,0.8069440485172327,-0.701773464679718,0.6447582840919495,-0.3029862344264984,0,0,0,-1,-1,29005.72874525,unknown,2,2025-04-22T11:59:05.284+03:00,2025-04-21T17:08:51.449+03:00,7184,0.9570276,0,0,5997.434,5,20,2025-04-22T11:58:03.382+03:00,767005145.3888587,0,-20.29,100.4445,1,0.9,2025-04-22T11:59:05.251+03:00,94,1.566666666666667,2025-04-22T09:54:17.825+03:00,0.02225348692287972,0
2025-04-22T11:59:06.733+03:00,1745312342.454455,40.95222556299963,29.14028007482035,75.7154,-1,-1,-1,-1,30,17.58087778887199,-9999,29007.17331254167,-0.6858367919921875,0.6112060546875,-0.305267333984375,29007.16577354167,-0.5178593818111085,-1.162372917711763,-0.7012329437581826,-0.09430930018424988,0.1033508777618408,0.01342520117759705,-0.08248847723007202,-0.04242295026779175,0.004470497369766235,XArbitraryZVertical,-0.4095331063984698,-0.4249200281689836,-0.01869833740143756,0.807078585990132,-0.7012028694152832,0.6451601982116699,-0.3034512102603912,0,0,0,-1,-1,29005.72874525,unknown,2,2025-04-22T11:59:05.284+03:00,2025-04-21T17:08:51.449+03:00,7184,0.9570276,0,0,5997.434,5,20,2025-04-22T11:58:03.382+03:00,767005145.3888587,0,-20.29,100.4445,1,0.9,2025-04-22T11:59:05.251+03:00,94,1.566666666666667,2025-04-22T09:54:17.825+03:00,0.02225348692287972,0
2025-04-22T11:59:06.743+03:00,1745312342.454455,40.95222556299963,29.14028007482035,75.7154,-1,-1,-1,-1,30,17.58087778887199,-9999,29007.18338854167,-0.639404296875,0.6264801025390625,-0.312103271484375,29007.17584854167,-0.5190528364258279,-1.162654382912415,-0.7016829399244164,-0.1054388508200645,-0.0003059394657611847,-0.002598340390250087,-0.01299798488616943,-0.03916555643081665,-0.0002976655960083008,XArbitraryZVertical,-0.4099490472675495,-0.4247028050887051,-0.01899356874997322,0.8069749229106479,-0.7010217905044556,0.6455039381980896,-0.3031386137008667,0,0,0,-1,-1,29005.72874525,unknown,2,2025-04-22T11:59:05.284+03:00,2025-04-21T17:08:51.449+03:00,7184,0.9570276,0,0,5997.434,5,20,2025-04-22T11:58:03.382+03:00,767005145.3888587,0,-20.29,100.4445,1,0.9,2025-04-22T11:59:05.251+03:00,94,1.566666666666667,2025-04-22T09:54:17.825+03:00,0.02225348692287972,0
2025-04-22T11:59:06.753+03:00,1745312342.454455,40.95222556299963,29.14028007482035,75.7154,-1,-1,-1,-1,30,17.58087778887199,-9999,29007.19346354167,-0.653594970703125,0.6409912109375,-0.321868896484375,29007.18592454167,-0.5203082743585309,-1.163698317485339,-0.702083953325177,-0.1015024334192276,-0.03491078689694405,-0.0003455724217928946,0.05160969495773315,-0.02563214302062988,-0.007128924131393433,XArbitraryZVertical,-0.4103679810209581,-0.4247894654478177,-0.01917115765293175,0.8067120546362251,-0.7011000514030457,0.6458101868629456,-0.3023040592670441,0,0,0,-1,-1,29005.72874525,unknown,2,2025-04-22T11:59:05.284+03:00,2025-04-21T17:08:51.449+03:00,7184,0.9570276,0,0,5997.434,5,20,2025-04-22T11:58:03.382+03:00,767005145.3888587,0,-20.29,100.4445,1,0.9,2025-04-22T11:59:05.251+03:00,94,1.566666666666667,2025-04-22T09:54:17.825+03:00,0.02225348692287972,0
2025-04-22T11:59:06.763+03:00,1745312342.454455,40.95222556299963,29.14028007482035,75.7154,-1,-1,-1,-1,30,17.58087778887199,-9999,29007.20353954167,-0.689208984375,0.650665283203125,-0.32928466796875,29007.19599954167,-0.5214610222531935,-1.164639966056354,-0.7024870790380787,-0.08999824523925781,-0.001833129208534956,0.003932063467800617,0.05873489379882812,-0.009948670864105225,-0.01662012934684753,XArbitraryZVertical,-0.4107648590280136,-0.4248550460603102,-0.01932728694116106,0.8064717465849017,-0.7011451125144958,0.6461179256439209,-0.3015408515930176,0,0,0,-1,-1,29005.72874525,unknown,2,2025-04-22T11:59:05.284+03:00,2025-04-21T17:08:51.449+03:00,7184,0.9570276,0,0,5997.434,5,20,2025-04-22T11:58:03.382+03:00,767005145.3888587,0,-20.29,100.4445,1,0.9,2025-04-22T11:59:05.251+03:00,94,1.566666666666667,2025-04-22T09:54:17.825+03:00,0.02225348692287972,0
2025-04-22T11:59:06.773+03:00,1745312342.454455,40.95222556299963,29.14028007482035,75.7154,-1,-1,-1,-1,30,17.58087778887199,-9999,29007.21361454167,-0.7022705078125,0.6558990478515625,-0.33013916015625,29007.20607554167,-0.5223514818429007,-1.165101957074336,-0.7028740141002463,-0.06770306080579758,0.02330285124480724,0.009669311344623566,0.02480047941207886,0.001001834869384766,-0.02595385909080505,XArbitraryZVertical,-0.4110955647469269,-0.4247838432958493,-0.01948055023521363,0.8063371314208775,-0.7010546922683716,0.6464132070541382,-0.3011182546615601,0,0,0,-1,-1,29005.72874525,unknown,2,2025-04-22T11:59:05.284+03:00,2025-04-21T17:08:51.449+03:00,7184,0.9570276,0,0,5997.434,5,20,2025-04-22T11:58:03.382+03:00,767005145.3888587,0,-20.29,100.4445,1,0.9,2025-04-22T11:59:05.251+03:00,94,1.566666666666667,2025-04-22T09:54:17.825+03:00,0.02225348692287972,0
2025-04-22T11:59:06.784+03:00,1745312342.454455,40.95222556299963,29.14028007482035,75.7154,-1,-1,-1,-1,30,17.58087778887199,-9999,29007.22369054167,-0.69476318359375,0.6634368896484375,-0.32757568359375,29007.21615054167,-0.5229808659876276,-1.165366911450132,-0.7031402062882444,-0.03931509703397751,0.0014489502646029,0.0004258787957951427,-0.0002870559692382812,0.00763469934463501,-0.03011375665664673,XArbitraryZVertical,-0.4113260934151591,-0.4247099383983015,-0.01960351370047744,0.8062555403945748,-0.7009763717651367,0.6466162800788879,-0.3008646368980408,0,0,0,-1,-1,29005.72874525,unknown,2,2025-04-22T11:59:05.284+03:00,2025-04-21T17:08:51.449+03:00,7184,0.9570276,0,0,5997.434,5,20,2025-04-22T11:58:03.382+03:00,767005145.3888587,0,-20.29,100.4445,1,0.9,2025-04-22T11:59:05.251+03:00,94,1.566666666666667,2025-04-22T09:54:17.825+03:00,0.02225348692287972,0
2025-04-22T11:59:06.794+03:00,1745312342.454455,40.95222556299963,29.14028007482035,75.7154,-1,-1,-1,-1,30,17.58087778887199,-9999,29007.23376554167,-0.6902923583984375,0.66552734375,-0.3249969482421875,29007.22622654167,-0.5232815112979554,-1.165704122647703,-0.7031923985865238,-0.00874626636505127,-0.02756592258810997,-0.01156260725110769,0.002545058727264404,0.01462912559509277,-0.0277542769908905,XArbitraryZVertical,-0.4114117808380834,-0.4247739603970867,-0.01964033445361404,0.8061770684049451,-0.7010465860366821,0.6466560959815979,-0.3006148636341095,0,0,0,-1,-1,29005.72874525,unknown,2,2025-04-22T11:59:05.284+03:00,2025-04-21T17:08:51.449+03:00,7184,0.9570276,0,0,5997.434,5,20,2025-04-22T11:58:03.382+03:00,767005145.3888587,0,-20.29,100.4445,1,0.9,2025-04-22T11:59:05.251+03:00,94,1.566666666666667,2025-04-22T09:54:17.825+03:00,0.02225348692287972,0
2025-04-22T11:59:06.804+03:00,1745312342.454455,40.95222556299963,29.14028007482035,75.7154,-1,-1,-1,-1,30,17.58087778887199,-9999,29007.24384154167,-0.700225830078125,0.6636810302734375,-0.3212432861328125,29007.23630154167,-0.5233321286979349,-1.165985983287033,-0.7030746615900292,0.01131645869463682,-0.02007438614964485,-0.01169559918344021,0.01049709320068359,0.01864051818847656,-0.02532786130905151,XArbitraryZVertical,-0.4113835699900327,-0.424899879496251,-0.0196365696044073,0.8061253169320843,-0.7012014389038086,0.6465662717819214,-0.3004473149776459,0,0,0,-1,-1,29005.72874525,unknown,2,2025-04-22T11:59:05.284+03:00,2025-04-21T17:08:51.449+03:00,7184,0.9570276,0,0,5997.434,5,20,2025-04-22T11:58:03.382+03:00,767005145.3888587,0,-20.29,100.4445,1,0.9,2025-04-22T11:59:05.251+03:00,94,1.566666666666667,2025-04-22T09:54:17.825+03:00,0.02225348692287972,0
2025-04-22T11:59:06.814+03:00,1745312342.454455,40.95222556299963,29.14028007482035,75.7154,-1,-1,-1,-1,30,17.58087778887199,-9999,29007.25391654167,-0.713714599609375,0.6582183837890625,-0.314727783203125,29007.24637754167,-0.5231604722755846,-1.16597161721305,-0.7028886385620522,0.02252543717622757,0.005029903259128332,-0.006598840933293104,0.006269752979278564,0.01898074150085449,-0.02255436778068542,XArbitraryZVertical,-0.4112811310592957,-0.4249652750042051,-0.01962365615217599,0.8061433455634396,-0.7013075351715088,0.6464243531227112,-0.3005046844482422,0,0,0,-1,-1,29005.72874525,unknown,2,2025-04-22T11:59:05.284+03:00,2025-04-21T17:08:51.449+03:00,7184,0.9570276,0,0,5997.434,5,20,2025-04-22T11:58:03.382+03:00,767005145.3888587,0,-20.29,100.4445,1,0.9,2025-04-22T11:59:05.251+03:00,94,1.566666666666667,2025-04-22T09:54:17.825+03:00,0.02225348692287972,0
2025-04-22T11:59:06.824+03:00,1745312342.454455,40.95222556299963,29.14028007482035,75.7154,-1,-1,-1,-1,30,17.58087778887199,-9999,29007.26399254167,-0.7108612060546875,0.64532470703125,-0.31134033203125,29007.25645254167,-0.522906994112471,-1.165674459750525,-0.7027470925029318,0.02157921530306339,0.02065600082278252,-0.003903988283127546,-0.008460164070129395,0.01455694437026978,-0.01613008975982666,XArbitraryZVertical,-0.4111741962616045,-0.4249249132043245,-0.01962321161510143,0.8062192801102955,-0.7013024091720581,0.6463163495063782,-0.3007491827011108,0,0,0,-1,-1,29005.72874525,unknown,2,2025-04-22T11:59:05.284+03:00,2025-04-21T17:08:51.449+03:00,7184,0.9570276,0,0,5997.434,5,20,2025-04-22T11:58:03.382+03:00,767005145.3888587,0,-20.29,100.4445,1,0.9,2025-04-22T11:59:05.251+03:00,94,1.566666666666667,2025-04-22T09:54:17.825+03:00,0.02225348692287972,0
2025-04-22T11:59:06.834+03:00,1745312342.454455,40.95222556299963,29.14028007482035,75.7154,-1,-1,-1,-1,30,17.58087778887199,-9999,29007.27406754167,-0.6999359130859375,0.632293701171875,-0.309600830078125,29007.26652854167,-0.5228026527553725,-1.165420721527918,-0.7026766318626849,-0.0005077107925899327,0.0163709744811058,-0.004816653672605753,-0.01299601793289185,0.004814624786376953,-0.01236364245414734,XArbitraryZVertical,-0.4111245744252525,-0.4248576603462308,-0.01965352164273952,0.8062793101483894,-0.7012679576873779,0.6462625861167908,-0.3009451031684875,0,0,0,-1,-1,29005.72874525,unknown,2,2025-04-22T11:59:05.284+03:00,2025-04-21T17:08:51.449+03:00,7184,0.9570276,0,0,5997.434,5,20,2025-04-22T11:58:03.382+03:00,767005145.3888587,0,-20.29,100.4445,1,0.9,2025-04-22T11:59:05.251+03:00,94,1.566666666666667,2025-04-22T09:54:17.825+03:00,0.02225348692287972,0
2025-04-22T11:59:06.844+03:00,1745312342.454455,40.95222556299963,29.14028007482035,75.7154,-1,-1,-1,-1,30,17.58087778887199,-9999,29007.28414354167,-0.69183349609375,0.628631591796875,-0.3110198974609375,29007.27660354167,-0.5229528044032867,-1.165421514217043,-0.7026786794254564,-0.02129841037094593,0.001716731116175652,-0.005475752986967564,-0.003414452075958252,-0.009530246257781982,-0.008794128894805908,XArbitraryZVertical,-0.4111572162445887,-0.4248267170631941,-0.01971329074452184,0.8062774768000643,-0.7012669444084167,0.6462641358375549,-0.3009440004825592,0,0,0,-1,-1,29005.72874525,unknown,2,2025-04-22T11:59:05.284+03:00,2025-04-21T17:08:51.449+03:00,7184,0.9570276,0,0,5997.434,5,20,2025-04-22T11:58:03.382+03:00,767005145.3888587,0,-20.29,100.4445,1,0.9,2025-04-22T11:59:05.251+03:00,94,1.566666666666667,2025-04-22T09:54:17.825+03:00,0.02225348692287972,0
2025-04-22T11:59:06.854+03:00,1745312342.454455,40.95222556299963,29.14028007482035,75.7154,-1,-1,-1,-1,30,17.58087778887199,-9999,29007.29421854167,-0.6951904296875,0.63043212890625,-0.3116455078125,29007.28667954167,-0.5233299573522087,-1.165680706604394,-0.7027406962351336,-0.0381423681974411,-0.005230923648923635,-0.006252597086131573,0.007704555988311768,-0.01745110750198364,-0.009373188018798828,XArbitraryZVertical,-0.4112618603550922,-0.424841698549669,-0.01979424923530531,0.8062142081268855,-0.7013080716133118,0.6463114619255066,-0.3007464408874512,0,0,0,-1,-1,29005.72874525,unknown,2,2025-04-22T11:59:05.284+03:00,2025-04-21T17:08:51.449+03:00,7184,0.9570276,0,0,5997.434,5,20,2025-04-22T11:58:03.382+03:00,767005145.3888587,0,-20.29,100.4445,1,0.9,2025-04-22T11:59:05.251+03:00,94,1.566666666666667,2025-04-22T09:54:17.825+03:00,0.02225348692287972,0
2025-04-22T11:59:06.864+03:00,1745312342.454455,40.95222556299963,29.14028007482035,75.7154,-1,-1,-1,-1,30,17.58087778887199,-9999,29007.30429454167,-0.7008514404296875,0.6329498291015625,-0.310272216796875,29007.29675454167,-0.5238403030192176,-1.165967178547899,-0.7028893523299107,-0.04449201375246048,0.008514583110809326,0.003268936183303595,0.008404195308685303,-0.01696944236755371,-0.01083266735076904,XArbitraryZVertical,-0.4114257528854988,-0.4248235243643131,-0.01989839856745001,0.8061375650479213,-0.7013058066368103,0.6464248895645142,-0.3005076348781586,0,0,0,-1,-1,29005.72874525,unknown,2,2025-04-22T11:59:05.284+03:00,2025-04-21T17:08:51.449+03:00,7184,0.9570276,0,0,5997.434,5,20,2025-04-22T11:58:03.382+03:00,767005145.3888587,0,-20.29,100.4445,1,0.9,2025-04-22T11:59:05.251+03:00,94,1.566666666666667,2025-04-22T09:54:17.825+03:00,0.02225348692287972,0
2025-04-22T11:59:06.874+03:00,1745312342.454455,40.95222556299963,29.14028007482035,75.7154,-1,-1,-1,-1,30,17.58087778887199,-9999,29007.31436954167,-0.7021026611328125,0.6359405517578125,-0.3092803955078125,29007.30683054167,-0.5243593482289231,-1.166121139357425,-0.703126551544485,-0.04923883080482483,0.02452337741851807,0.006672455929219723,0.002190768718719482,-0.0148158073425293,-0.01087892055511475,XArbitraryZVertical,-0.4116214843323915,-0.4247329845210926,-0.02000788241270839,0.8060826434341885,-0.7012110948562622,0.6466058492660522,-0.3003392815589905,0,0,0,-1,-1,29005.72874525,unknown,2,2025-04-22T11:59:05.284+03:00,2025-04-21T17:08:51.449+03:00,7184,0.9570276,0,0,5997.434,5,20,2025-04-22T11:58:03.382+03:00,767005145.3888587,0,-20.29,100.4445,1,0.9,2025-04-22T11:59:05.251+03:00,94,1.566666666666667,2025-04-22T09:54:17.825+03:00,0.02225348692287972,0
2025-04-22T11:59:06.884+03:00,1745312342.454455,40.95222556299963,29.14028007482035,75.7154,-1,-1,-1,-1,30,17.58087778887199,-9999,29007.32444554167,-0.6927642822265625,0.6388702392578125,-0.308990478515625,29007.31690554167,-0.5248506601158998,-1.166132025861613,-0.7034125578750526,-0.04443781822919846,0.02702927775681019,0.007706627715379,-0.002263784408569336,-0.01161599159240723,-0.008975744247436523,XArbitraryZVertical,-0.4118271228762631,-0.4245809770891615,-0.02012160239279609,0.8060548487456884,-0.7010443806648254,0.6468240022659302,-0.3002588152885437,0,0,0,-1,-1,29005.72874525,unknown,2,2025-04-22T11:59:05.284+03:00,2025-04-21T17:08:51.449+03:00,7184,0.9570276,0,0,5997.434,5,20,2025-04-22T11:58:03.382+03:00,767005145.3888587,0,-20.29,100.4445,1,0.9,2025-04-22T11:59:05.251+03:00,94,1.566666666666667,2025-04-22T09:54:17.825+03:00,0.02225348692287972,0
2025-04-22T11:59:06.895+03:00,1745312342.454455,40.95222556299963,29.14028007482035,75.7154,-1,-1,-1,-1,30,17.58087778887199,-9999,29007.33452054167,-0.68408203125,0.6426849365234375,-0.3092498779296875,29007.32698154167,-0.5252231419648458,-1.166115426896211,-0.703662560947391,-0.03231989964842796,0.009458007290959358,0.004564630798995495,0.004143953323364258,-0.009349942207336426,-0.008203804492950439,XArbitraryZVertical,-0.4119944483240909,-0.424449251526624,-0.02020343095347414,0.8060367150803774,-0.7008907794952393,0.6470146179199219,-0.3002068102359772,0,0,0,-1,-1,29005.72874525,unknown,2,2025-04-22T11:59:05.284+03:00,2025-04-21T17:08:51.449+03:00,7184,0.9570276,0,0,5997.434,5,20,2025-04-22T11:58:03.382+03:00,767005145.3888587,0,-20.29,100.4445,1,0.9,2025-04-22T11:59:05.251+03:00,94,1.566666666666667,2025-04-22T09:54:17.825+03:00,0.02225348692287972,0
2025-04-22T11:59:06.905+03:00,1745312342.454455,40.95222556299963,29.14028007482035,75.7154,-1,-1,-1,-1,30,17.58087778887199,-9999,29007.34459654167,-0.6846771240234375,0.64813232421875,-0.3099517822265625,29007.33705654167,-0.5255101819401758,-1.166275148323307,-0.7037748352741856,-0.02338925749063492,-0.008096484467387199,-0.003336036112159491,0.01411962509155273,-0.006170094013214111,-0.009305626153945923,XArbitraryZVertical,-0.4120966755449395,-0.4244327751404558,-0.02025400748285021,0.8059919097034005,-0.700872004032135,0.6471002697944641,-0.3000662922859192,0,0,0,-1,-1,29005.72874525,unknown,2,2025-04-22T11:59:05.284+03:00,2025-04-21T17:08:51.449+03:00,7184,0.9570276,0,0,5997.434,5,20,2025-04-22T11:58:03.382+03:00,767005145.3888587,0,-20.29,100.4445,1,0.9,2025-04-22T11:59:05.251+03:00,94,1.566666666666667,2025-04-22T09:54:17.825+03:00,0.02225348692287972,0
2025-04-22T11:59:06.914+03:00,1745312342.454455,40.95222556299963,29.14028007482035,75.7154,-1,-1,-1,-1,30,17.58087778887199,-9999,29007.35467154167,-0.692718505859375,0.6453857421875,-0.31005859375,29007.34713254167,-0.5257824007342194,-1.16652912991565,-0.7038019290171226,-0.0224267914891243,-0.01065045595169067,-0.004814622923731804,0.01761293411254883,-0.0005298256874084473,-0.01052814722061157,XArbitraryZVertical,-0.4121666157933901,-0.424473787979688,-0.02030358403171952,0.8059332718350518,-0.7009320259094238,0.6471208930015564,-0.2998813688755035,0,0,0,-1,-1,29005.72874525,unknown,2,2025-04-22T11:59:05.284+03:00,2025-04-21T17:08:51.449+03:00,7184,0.9570276,0,0,5997.434,5,20,2025-04-22T11:58:03.382+03:00,767005145.3888587,0,-20.29,100.4445,1,0.9,2025-04-22T11:59:05.251+03:00,94,1.566666666666667,2025-04-22T09:54:17.825+03:00,0.02225348692287972,0
2025-04-22T11:59:06.925+03:00,1745312342.454455,40.95222556299963,29.14028007482035,75.7154,-1,-1,-1,-1,30,17.58087778887199,-9999,29007.36474754167,-0.703857421875,0.643798828125,-0.3095550537109375,29007.35720754167,-0.5260575931116617,-1.166722321755816,-0.7038157164844471,-0.02369125932455063,0.004314911086112261,-0.0009513084078207612,0.012032151222229,-0.000402987003326416,-0.01033139228820801,XArbitraryZVertical,-0.4122318610845423,-0.4244922510512572,-0.02037070190836646,0.8058884868420764,-0.7009817361831665,0.6471313834190369,-0.2997424304485321,0,0,0,-1,-1,29005.72874525,unknown,2,2025-04-22T11:59:05.284+03:00,2025-04-21T17:08:51.449+03:00,7184,0.9570276,0,0,5997.434,5,20,2025-04-22T11:58:03.382+03:00,767005145.3888587,0,-20.29,100.4445,1,0.9,2025-04-22T11:59:05.251+03:00,94,1.566666666666667,2025-04-22T09:54:17.825+03:00,0.02225348692287972,0
2025-04-22T11:59:06.935+03:00,1745312342.454455,40.95222556299963,29.14028007482035,75.7154,-1,-1,-1,-1,30,17.58087778887199,-9999,29007.37482354167,-0.710479736328125,0.643890380859375,-0.30780029296875,29007.36728354167,-0.5263164057895581,-1.166731544634148,-0.7038765153585052,-0.02528516203165054,0.02033622190356255,0.004297781735658646,0.00185161828994751,-0.00276869535446167,-0.009590387344360352,XArbitraryZVertical,-0.4123083763575122,-0.4244308498178696,-0.0204556377678838,0.8058795399309602,-0.7009483575820923,0.6471777558326721,-0.2997205257415771,0,0,0,-1,-1,29005.72874525,unknown,2,2025-04-22T11:59:05.284+03:00,2025-04-21T17:08:51.449+03:00,7184,0.9570276,0,0,5997.434,5,20,2025-04-22T11:58:03.382+03:00,767005145.3888587,0,-20.29,100.4445,1,0.9,2025-04-22T11:59:05.251+03:00,94,1.566666666666667,2025-04-22T09:54:17.825+03:00,0.02225348692287972,0
2025-04-22T11:59:06.945+03:00,1745312342.454455,40.95222556299963,29.14028007482035,75.7154,-1,-1,-1,-1,30,17.58087778887199,-9999,29007.38489854167,-0.7052764892578125,0.63922119140625,-0.3066558837890625,29007.37735954167,-0.5265563393542817,-1.166611828038923,-0.7039771209458331,-0.02800491452217102,0.02967899106442928,0.003577996045351028,-0.008620202541351318,-0.002601325511932373,-0.008845478296279907,XArbitraryZVertical,-0.4123936756357435,-0.4243136601063132,-0.02054807488741195,0.8058951326755933,-0.7008523941040039,0.647254467010498,-0.2997787594795227,0,0,0,-1,-1,29005.72874525,unknown,2,2025-04-22T11:59:05.284+03:00,2025-04-21T17:08:51.449+03:00,7184,0.9570276,0,0,5997.434,5,20,2025-04-22T11:58:03.382+03:00,767005145.3888587,0,-20.29,100.4445,1,0.9,2025-04-22T11:59:05.251+03:00,94,1.566666666666667,2025-04-22T09:54:17.825+03:00,0.02225348692287972,0
2025-04-22T11:59:06.955+03:00,1745312342.454455,40.95222556299963,29.14028007482035,75.7154,-1,-1,-1,-1,30,17.58087778887199,-9999,29007.39497454167,-0.6974334716796875,0.6367034912109375,-0.3028411865234375,29007.38743454167,-0.5268446649618337,-1.166494422358973,-0.7040824602857867,-0.03232403099536896,0.02383628115057945,0.004247781354933977,-0.007268428802490234,-0.006053805351257324,-0.007325142621994019,XArbitraryZVertical,-0.4124908527095956,-0.4241864948623832,-0.02065824436292601,0.8059095615942974,-0.7007545828819275,0.6473347544670105,-0.2998342216014862,0,0,0,-1,-1,29005.72874525,unknown,2,2025-04-22T11:59:05.284+03:00,2025-04-21T17:08:51.449+03:00,7184,0.9570276,0,0,5997.434,5,20,2025-04-22T11:58:03.382+03:00,767005145.3888587,0,-20.29,100.4445,1,0.9,2025-04-22T11:59:05.251+03:00,94,1.566666666666667,2025-04-22T09:54:17.825+03:00,0.02225348692287972,0
2025-04-22T11:59:06.965+03:00,1745312342.454455,40.95222556299963,29.14028007482035,75.7154,-1,-1,-1,-1,30,17.58087778887199,-9999,29007.40504954167,-0.692169189453125,0.6331939697265625,-0.3000640869140625,29007.39751054167,-0.527295374530747,-1.166585522535216,-0.7042499762511175,-0.04759346321225166,0.01083080098032951,0.006515096873044968,0.0002121925354003906,-0.009889304637908936,-0.004501998424530029,XArbitraryZVertical,-0.4126465887969432,-0.4240977761205645,-0.02077297942592209,0.8058735821150934,-0.7006821632385254,0.6474624276161194,-0.299727737903595,0,0,0,-1,-1,29005.72874525,unknown,2,2025-04-22T11:59:05.284+03:00,2025-04-21T17:08:51.449+03:00,7184,0.9570276,0,0,5997.434,5,20,2025-04-22T11:58:03.382+03:00,767005145.3888587,0,-20.29,100.4445,1,0.9,2025-04-22T11:59:05.251+03:00,94,1.566666666666667,2025-04-22T09:54:17.825+03:00,0.02225348692287972,0
2025-04-22T11:59:06.975+03:00,1745312342.454455,40.95222556299963,29.14028007482035,75.7154,-1,-1,-1,-1,30,17.58087778887199,-9999,29007.41512554167,-0.6937713623046875,0.6291961669921875,-0.2997589111328125,29007.40758554167,-0.5279571805727727,-1.166887065504143,-0.7045190495965594,-0.06862658262252808,0.01163560803979635,0.005560353398323059,0.007268190383911133,-0.01323765516281128,-0.001058578491210938,XArbitraryZVertical,-0.4128851305684052,-0.4240305247636174,-0.02090014924116997,0.8057835102973385,-0.7006123065948486,0.6476674675941467,-0.2994479537010193,0,0,0,-1,-1,29005.72874525,unknown,2,2025-04-22T11:59:05.284+03:00,2025-04-21T17:08:51.449+03:00,7184,0.9570276,0,0,5997.434,5,20,2025-04-22T11:58:03.382+03:00,767005145.3888587,0,-20.29,100.4445,1,0.9,2025-04-22T11:59:05.251+03:00,94,1.566666666666667,2025-04-22T09:54:17.825+03:00,0.02225348692287972,0
2025-04-22T11:59:06.985+03:00,1745312342.454455,40.95222556299963,29.14028007482035,75.7154,-1,-1,-1,-1,30,17.58087778887199,-9999,29007.42520054167,-0.70086669921875,0.6322174072265625,-0.299560546875,29007.41766154167,-0.5287957950429708,-1.167208245369189,-0.704875542032746,-0.07857520878314972,0.02350039035081863,0.006534471176564693,0.008998334407806396,-0.01791900396347046,-0.000733494758605957,XArbitraryZVertical,-0.4131921824208858,-0.4239175560615396,-0.0210692992148859,0.8056811767984248,-0.7004961371421814,0.6479390263557434,-0.2991322576999664,0,0,0,-1,-1,29005.72874525,unknown,2,2025-04-22T11:59:05.284+03:00,2025-04-21T17:08:51.449+03:00,7184,0.9570276,0,0,5997.434,5,20,2025-04-22T11:58:03.382+03:00,767005145.3888587,0,-20.29,100.4445,1,0.9,2025-04-22T11:59:05.251+03:00,94,1.566666666666667,2025-04-22T09:54:17.825+03:00,0.02225348692287972,0
2025-04-22T11:59:06.995+03:00,1745312342.454455,40.95222556299963,29.14028007482035,75.7154,-1,-1,-1,-1,30,17.58087778887199,-9999,29007.43527654167,-0.701751708984375,0.63800048828125,-0.2970733642578125,29007.42773654167,-0.5296366367279006,-1.167431639915765,-0.7053039863090846,-0.0762002021074295,0.03075217828154564,0.01372979953885078,0.001653432846069336,-0.01794010400772095,-0.0007395148277282715,XArbitraryZVertical,-0.4135239788402209,-0.4237505421959368,-0.02123877414517066,0.8055943999460168,-0.7003076076507568,0.6482653021812439,-0.2988668084144592,0,0,0,-1,-1,29005.72874525,unknown,2,2025-04-22T11:59:05.284+03:00,2025-04-21T17:08:51.449+03:00,7184,0.9570276,0,0,5997.434,5,20,2025-04-22T11:58:03.382+03:00,767005145.3888587,0,-20.29,100.4445,1,0.9,2025-04-22T11:59:05.251+03:00,94,1.566666666666667,2025-04-22T09:54:17.825+03:00,0.02225348692287972,0
2025-04-22T11:59:07.005+03:00,1745312342.454455,40.95222556299963,29.14028007482035,75.7154,-1,-1,-1,-1,30,17.58087778887199,-9999,29007.44535154167,-0.699859619140625,0.644744873046875,-0.29461669921875,29007.43781254167,-0.5304058212139311,-1.167552431249112,-0.7057241728467514,-0.06771857291460037,0.03513973578810692,0.01187117956578732,-0.00171971321105957,-0.01339244842529297,0.000472724437713623,XArbitraryZVertical,-0.413836513179307,-0.4235583971307722,-0.02140284520149594,0.805530549326206,-0.7000930309295654,0.6485852003097534,-0.2986752390861511,0,0,0,-1,-1,29005.72874525,unknown,2,2025-04-22T11:59:05.284+03:00,2025-04-21T17:08:51.449+03:00,7184,0.9570276,0,0,5997.434,5,20,2025-04-22T11:58:03.382+03:00,767005145.3888587,0,-20.29,100.4445,1,0.9,2025-04-22T11:59:05.251+03:00,94,1.566666666666667,2025-04-22T09:54:17.825+03:00,0.02225348692287972,0
2025-04-22T11:59:07.016+03:00,1745312342.454455,40.95222556299963,29.14028007482035,75.7154,-1,-1,-1,-1,30,17.58087778887199,-9999,29007.45542754167,-0.6971282958984375,0.6451568603515625,-0.2919921875,29007.44788754167,-0.5310825889351947,-1.167570838521651,-0.7060533563599194,-0.05962948873639107,0.03802180662751198,0.009969149716198444,-0.0006442070007324219,-0.006135642528533936,0.002573311328887939,XArbitraryZVertical,-0.4140961412752734,-0.4233616718605474,-0.02157700383917627,0.8054958795640671,-0.6999020576477051,0.6488357186317444,-0.2985785603523254,0,0,0,-1,-1,29005.72874525,unknown,2,2025-04-22T11:59:05.284+03:00,2025-04-21T17:08:51.449+03:00,7184,0.9570276,0,0,5997.434,5,20,2025-04-22T11:58:03.382+03:00,767005145.3888587,0,-20.29,100.4445,1,0.9,2025-04-22T11:59:05.251+03:00,94,1.566666666666667,2025-04-22T09:54:17.825+03:00,0.02225348692287972,0
2025-04-22T11:59:07.028+03:00,1745312342.454455,40.95222556299963,29.14028007482035,75.7154,-1,-1,-1,-1,30,17.58087778887199,-9999,29007.46550254167,-0.6978759765625,0.6436767578125,-0.28887939453125,29007.45796354167,-0.5317573881433263,-1.167571347831436,-0.7063444420472972,-0.06001225113868713,0.04525568708777428,0.008635139092803001,0.002462923526763916,-0.003641068935394287,0.005291223526000977,XArbitraryZVertical,-0.4143416003148798,-0.4231654325673104,-0.02176502721977532,0.8054677589240127,-0.6997285485267639,0.6490572094917297,-0.298504114151001,0,0,0,-1,-1,29005.72874525,unknown,2,2025-04-22T11:59:05.284+03:00,2025-04-21T17:08:51.449+03:00,7184,0.9570276,0,0,5997.434,5,20,2025-04-22T11:58:03.382+03:00,767005145.3888587,0,-20.29,100.4445,1,0.9,2025-04-22T11:59:05.251+03:00,94,1.566666666666667,2025-04-22T09:54:17.825+03:00,0.02225348692287972,0
2025-04-22T11:59:07.042+03:00,1745312342.454455,40.95222556299963,29.14028007482035,75.7154,-1,-1,-1,-1,30,17.58087778887199,-9999,29007.47557854167,-0.6978759765625,0.639251708984375,-0.2890167236328125,29007.46803854167,-0.5325607334541581,-1.167579850316487,-0.7066673775710086,-0.08011911809444427,0.05399565026164055,0.008704381063580513,0.001814901828765869,-0.005244672298431396,0.008498936891555786,XArbitraryZVertical,-0.4146254564095417,-0.4229394286425213,-0.02199399850414499,0.8054342420955466,-0.6995383501052856,0.6493028402328491,-0.2984159290790558,0,0,0,-1,-1,29005.72874525,unknown,2,2025-04-22T11:59:05.284+03:00,2025-04-21T17:08:51.449+03:00,7184,0.9570276,0,0,5997.434,5,20,2025-04-22T11:58:03.382+03:00,767005145.3888587,0,-20.29,100.4445,1,0.9,2025-04-22T11:59:05.251+03:00,94,1.566666666666667,2025-04-22T09:54:17.825+03:00,0.02225348692287972,0
2025-04-22T11:59:07.052+03:00,1745312342.454455,40.95222556299963,29.14028007482035,75.7154,-1,-1,-1,-1,30,17.58087778887199,-9999,29007.48565354167,-0.700164794921875,0.6310577392578125,-0.2929229736328125,29007.47811454167,-0.5336495568188717,-1.167684633920618,-0.7070709910804944,-0.1064079105854034,0.06538711488246918,0.009064741432666779,0.001131892204284668,-0.007703185081481934,0.009451895952224731,XArbitraryZVertical,-0.4149991221930254,-0.4226770344099249,-0.02229463924678242,0.8053710931928988,-0.6993282437324524,0.6496097445487976,-0.2982397079467773,0,0,0,-1,-1,29005.72874525,unknown,2,2025-04-22T11:59:05.284+03:00,2025-04-21T17:08:51.449+03:00,7184,0.9570276,0,0,5997.434,5,20,2025-04-22T11:58:03.382+03:00,767005145.3888587,0,-20.29,100.4445,1,0.9,2025-04-22T11:59:05.251+03:00,94,1.566666666666667,2025-04-22T09:54:17.825+03:00,0.02225348692287972,0
2025-04-22T11:59:07.056+03:00,1745312342.454455,40.95222556299963,29.14028007482035,75.7154,-1,-1,-1,-1,30,17.58087778887199,-9999,29007.49572954167,-0.701141357421875,0.6331787109375,-0.298583984375,29007.48818954167,-0.5350317357245821,-1.167857016326679,-0.7076068634025733,-0.1274977475404739,0.07555960118770599,0.01181392185389996,0.0001305937767028809,-0.0168842077255249,0.007272243499755859,XArbitraryZVertical,-0.4154817833712093,-0.4223547767248012,-0.02266135023264855,0.8052811560614802,-0.6990594267845154,0.6500170230865479,-0.2979826629161835,0,0,0,-1,-1,29005.72874525,unknown,2,2025-04-22T11:59:05.284+03:00,2025-04-21T17:08:51.449+03:00,7184,0.9570276,0,0,5997.434,5,20,2025-04-22T11:58:03.382+03:00,767005145.3888587,0,-20.29,100.4445,1,0.9,2025-04-22T11:59:05.251+03:00,94,1.566666666666667,2025-04-22T09:54:17.825+03:00,0.02225348692287972,0
2025-04-22T11:59:07.074+03:00,1745312342.454455,40.95222556299963,29.14028007482035,75.7154,-1,-1,-1,-1,30,17.58087778887199,-9999,29007.50580454167,-0.70111083984375,0.640594482421875,-0.3026885986328125,29007.49826554167,-0.5365331627577331,-1.168050898773454,-0.7082007797125492,-0.131278783082962,0.07463321834802628,0.01229588780552149,-0.001998066902160645,-0.01980739831924438,0.001354783773422241,XArbitraryZVertical,-0.4160100461189689,-0.4220044891332599,-0.02305468376668193,0.805180815907511,-0.6987618207931519,0.6504682302474976,-0.2976956963539124,0,0,0,-1,-1,29005.72874525,unknown,2,2025-04-22T11:59:05.284+03:00,2025-04-21T17:08:51.449+03:00,7184,0.9570276,0,0,5997.434,5,20,2025-04-22T11:58:03.382+03:00,767005145.3888587,0,-20.29,100.4445,1,0.9,2025-04-22T11:59:05.251+03:00,94,1.566666666666667,2025-04-22T09:54:17.825+03:00,0.02225348692287972,0
2025-04-22T11:59:07.076+03:00,1745312342.454455,40.95222556299963,29.14028007482035,75.7154,-1,-1,-1,-1,30,17.58087778887199,-9999,29007.51588054167,-0.698486328125,0.646240234375,-0.3016815185546875,29007.50834054167,-0.5380079740413201,-1.168290015865459,-0.7087523854399551,-0.1217611655592918,0.06639153510332108,0.01089000515639782,-0.003081083297729492,-0.01198655366897583,-0.004308730363845825,XArbitraryZVertical,-0.4165179546017656,-0.4216856541176602,-0.02343990458382767,0.8050741345357196,-0.6985027194023132,0.650887131690979,-0.2973880171775818,0,0,0,-1,-1,29005.72874525,unknown,2,2025-04-22T11:59:05.284+03:00,2025-04-21T17:08:51.449+03:00,7184,0.9570276,0,0,5997.434,5,20,2025-04-22T11:58:03.382+03:00,767005145.3888587,0,-20.29,100.4445,1,0.9,2025-04-22T11:59:05.251+03:00,94,1.566666666666667,2025-04-22T09:54:17.825+03:00,0.02225348692287972,0
2025-04-22T11:59:07.086+03:00,1745312342.454455,40.95222556299963,29.14028007482035,75.7154,-1,-1,-1,-1,30,17.58087778887199,-9999,29007.52595554167,-0.6973419189453125,0.6512603759765625,-0.3001556396484375,29007.51841654167,-0.5393826998160068,-1.168503927296431,-0.7092761426088708,-0.1124243959784508,0.06895162910223007,0.01240534335374832,-0.001103460788726807,-0.00774538516998291,-0.004805237054824829,XArbitraryZVertical,-0.4169943509642414,-0.4213824507169736,-0.02379793885851482,0.8049757994250123,-0.6982525587081909,0.6512846350669861,-0.297105073928833,0,0,0,-1,-1,29005.72874525,unknown,2,2025-04-22T11:59:05.284+03:00,2025-04-21T17:08:51.449+03:00,7184,0.9570276,0,0,5997.434,5,20,2025-04-22T11:58:03.382+03:00,767005145.3888587,0,-20.29,100.4445,1,0.9,2025-04-22T11:59:05.251+03:00,94,1.566666666666667,2025-04-22T09:54:17.825+03:00,0.02225348692287972,0
2025-04-22T11:59:07.096+03:00,1745312342.454455,40.95222556299963,29.14028007482035,75.7154,-1,-1,-1,-1,30,17.58087778887199,-9999,29007.53603154167,-0.696807861328125,0.6506195068359375,-0.2959442138671875,29007.52849154167,-0.540685980739474,-1.168612903293903,-0.7097998927305198,-0.113872617483139,0.07883276045322418,0.01177417393773794,0.0005069971084594727,-0.001611948013305664,-0.004282534122467041,XArbitraryZVertical,-0.4174541553409791,-0.4210514329140089,-0.02414895575228883,0.8049002513155626,-0.697970986366272,0.6516820192337036,-0.296895444393158,0,0,0,-1,-1,29005.72874525,unknown,2,2025-04-22T11:59:05.284+03:00,2025-04-21T17:08:51.449+03:00,7184,0.9570276,0,0,5997.434,5,20,2025-04-22T11:58:03.382+03:00,767005145.3888587,0,-20.29,100.4445,1,0.9,2025-04-22T11:59:05.251+03:00,94,1.566666666666667,2025-04-22T09:54:17.825+03:00,0.02225348692287972,0
2025-04-22T11:59:07.106+03:00,1745312342.454455,40.95222556299963,29.14028007482035,75.7154,-1,-1,-1,-1,30,17.58087778887199,-9999,29007.54610654167,-0.692901611328125,0.647857666015625,-0.2931671142578125,29007.53856754167,-0.5420729739856559,-1.16872174558506,-0.7103528329309842,-0.1246154829859734,0.07821976393461227,0.008122081868350506,5.507469177246094e-05,-0.0006731748580932617,-0.001218914985656738,XArbitraryZVertical,-0.4179414924564787,-0.4206966636992368,-0.0245251909041832,0.8048215475228281,-0.69767165184021,0.6521012783050537,-0.2966784536838531,0,0,0,-1,-1,29005.72874525,unknown,2,2025-04-22T11:59:05.284+03:00,2025-04-21T17:08:51.449+03:00,7184,0.9570276,0,0,5997.434,5,20,2025-04-22T11:58:03.382+03:00,767005145.3888587,0,-20.29,100.4445,1,0.9,2025-04-22T11:59:05.251+03:00,94,1.566666666666667,2025-04-22T09:54:17.825+03:00,0.02225348692287972,0
2025-04-22T11:59:07.116+03:00,1745312342.454455,40.95222556299963,29.14028007482035,75.7154,-1,-1,-1,-1,30,17.58087778887199,-9999,29007.55618254167,-0.689849853515625,0.64617919921875,-0.294647216796875,29007.54864254167,-0.5436423914472284,-1.169010392638555,-0.7108970481065602,-0.1351767778396606,0.06986569613218307,0.00212384364567697,0.003094613552093506,-0.00309985876083374,0.002820193767547607,XArbitraryZVertical,-0.4184660291649014,-0.4203772824313635,-0.02493958078959098,0.8047031481744148,-0.6974305510520935,0.6525138020515442,-0.2963382601737976,0,0,0,-1,-1,29005.72874525,unknown,2,2025-04-22T11:59:05.284+03:00,2025-04-21T17:08:51.449+03:00,7184,0.9570276,0,0,5997.434,5,20,2025-04-22T11:58:03.382+03:00,767005145.3888587,0,-20.29,100.4445,1,0.9,2025-04-22T11:59:05.251+03:00,94,1.566666666666667,2025-04-22T09:54:17.825+03:00,0.02225348692287972,0
2025-04-22T11:59:07.126+03:00,1745312342.454455,40.95222556299963,29.14028007482035,75.7154,-1,-1,-1,-1,30,17.58087778887199,-9999,29007.56625754167,-0.688995361328125,0.648895263671875,-0.2954254150390625,29007.55871854167,-0.5454037705939276,-1.16953530627072,-0.7114198211358059,-0.1435783803462982,0.05779185146093369,-0.003460471983999014,0.006689608097076416,-0.005693137645721436,0.001969844102859497,XArbitraryZVertical,-0.4190260392203242,-0.4201163559886669,-0.02538764589332439,0.804533989917383,-0.6972719430923462,0.6529098749160767,-0.295838862657547,0,0,0,-1,-1,29005.72874525,unknown,2,2025-04-22T11:59:05.284+03:00,2025-04-21T17:08:51.449+03:00,7184,0.9570276,0,0,5997.434,5,20,2025-04-22T11:58:03.382+03:00,767005145.3888587,0,-20.29,100.4445,1,0.9,2025-04-22T11:59:05.251+03:00,94,1.566666666666667,2025-04-22T09:54:17.825+03:00,0.02225348692287972,0
2025-04-22T11:59:07.136+03:00,1745312342.454455,40.95222556299963,29.14028007482035,75.7154,-1,-1,-1,-1,30,17.58087778887199,-9999,29007.57633354167,-0.6955108642578125,0.64886474609375,-0.296630859375,29007.56879354167,-0.5472510591919558,-1.170211660700533,-0.7118806245481201,-0.1508080661296844,0.05390869826078415,-0.008019537664949894,0.008733391761779785,-0.006484568119049072,0.0002363622188568115,XArbitraryZVertical,-0.4195840807694493,-0.4199098569470754,-0.02585597696818975,0.8043360098380165,-0.6971947550773621,0.6532588005065918,-0.2952498197555542,0,0,0,-1,-1,29005.72874525,unknown,2,2025-04-22T11:59:05.284+03:00,2025-04-21T17:08:51.449+03:00,7184,0.9570276,0,0,5997.434,5,20,2025-04-22T11:58:03.382+03:00,767005145.3888587,0,-20.29,100.4445,1,0.9,2025-04-22T11:59:05.251+03:00,94,1.566666666666667,2025-04-22T09:54:17.825+03:00,0.02225348692287972,0
2025-04-22T11:59:07.146+03:00,1745312342.454455,40.95222556299963,29.14028007482035,75.7154,-1,-1,-1,-1,30,17.58087778887199,-9999,29007.58640854167,-0.70794677734375,0.64971923828125,-0.295654296875,29007.57886954167,-0.5491412185532464,-1.17086587451296,-0.7123172985112041,-0.1486168205738068,0.06495042890310287,-0.009759513661265373,0.004528403282165527,-0.004953622817993164,-0.001749992370605469,XArbitraryZVertical,-0.4201422338235802,-0.4196894732542797,-0.02635267275089103,0.804143447690969,-0.6971248388290405,0.6535893678665161,-0.294682502746582,0,0,0,-1,-1,29005.72874525,unknown,2,2025-04-22T11:59:05.284+03:00,2025-04-21T17:08:51.449+03:00,7184,0.9570276,0,0,5997.434,5,20,2025-04-22T11:58:03.382+03:00,767005145.3888587,0,-20.29,100.4445,1,0.9,2025-04-22T11:59:05.251+03:00,94,1.566666666666667,2025-04-22T09:54:17.825+03:00,0.02225348692287972,0
2025-04-22T11:59:07.156+03:00,1745312342.454455,40.95222556299963,29.14028007482035,75.7154,-1,-1,-1,-1,30,17.58087778887199,-9999,29007.59648454167,-0.7160797119140625,0.6513519287109375,-0.29388427734375,29007.58894454167,-0.5509580141439825,-1.171288264590458,-0.7127756966650729,-0.1460250318050385,0.08758516609668732,-0.005904854275286198,-0.005953490734100342,-0.004980087280273438,-0.00136759877204895,XArbitraryZVertical,-0.4206892711355173,-0.4193862460318878,-0.02686194244376658,0.803998752339914,-0.6969730854034424,0.6539362668991089,-0.2942714393138885,0,0,0,-1,-1,29005.72874525,unknown,2,2025-04-22T11:59:05.284+03:00,2025-04-21T17:08:51.449+03:00,7184,0.9570276,0,0,5997.434,5,20,2025-04-22T11:58:03.382+03:00,767005145.3888587,0,-20.29,100.4445,1,0.9,2025-04-22T11:59:05.251+03:00,94,1.566666666666667,2025-04-22T09:54:17.825+03:00,0.02225348692287972,0
2025-04-22T11:59:07.167+03:00,1745312342.454455,40.95222556299963,29.14028007482035,75.7154,-1,-1,-1,-1,30,17.58087778887199,-9999,29007.60655954167,-0.7135467529296875,0.6498260498046875,-0.2914886474609375,29007.59902054167,-0.5527658437932746,-1.171447369654937,-0.7132910963582999,-0.1498530507087708,0.1127469763159752,-0.0007104920805431902,-0.01804286241531372,-0.003493070602416992,-0.0003583431243896484,XArbitraryZVertical,-0.4212504070183224,-0.4189670194923503,-0.02740630713535778,0.8039051651540923,-0.6967093348503113,0.6543260812759399,-0.2940294742584229,0,0,0,-1,-1,29005.72874525,unknown,2,2025-04-22T11:59:05.284+03:00,2025-04-21T17:08:51.449+03:00,7184,0.9570276,0,0,5997.434,5,20,2025-04-22T11:58:03.382+03:00,767005145.3888587,0,-20.29,100.4445,1,0.9,2025-04-22T11:59:05.251+03:00,94,1.566666666666667,2025-04-22T09:54:17.825+03:00,0.02225348692287972,0
2025-04-22T11:59:07.177+03:00,1745312342.454455,40.95222556299963,29.14028007482035,75.7154,-1,-1,-1,-1,30,17.58087778887199,-9999,29007.61663554167,-0.704376220703125,0.656005859375,-0.290863037109375,29007.60909554167,-0.5545812812240912,-1.1713997305269,-0.7138847176494014,-0.1488016396760941,0.1278284639120102,0.005330356303602457,-0.01917773485183716,-0.004521667957305908,0.001598954200744629,XArbitraryZVertical,-0.4218370709988328,-0.4184467628009693,-0.02797456104905719,0.8038489770209952,-0.6963374018669128,0.6547748446464539,-0.2939115762710571,0,0,0,-1,-1,29005.72874525,unknown,2,2025-04-22T11:59:05.284+03:00,2025-04-21T17:08:51.449+03:00,7184,0.9570276,0,0,5997.434,5,20,2025-04-22T11:58:03.382+03:00,767005145.3888587,0,-20.29,100.4445,1,0.9,2025-04-22T11:59:05.251+03:00,94,1.566666666666667,2025-04-22T09:54:17.825+03:00,0.02225348692287972,0
2025-04-22T11:59:07.187+03:00,1745312342.454455,40.95222556299963,29.14028007482035,75.7154,-1,-1,-1,-1,30,17.58087778887199,-9999,29007.62671054167,-0.6910858154296875,0.6603240966796875,-0.2918701171875,29007.61917154167,-0.5563857702334011,-1.171299495142653,-0.714504826539474,-0.1491615772247314,0.1264259070158005,0.005961858201771975,-0.01204359531402588,-0.001663863658905029,0.002975612878799438,XArbitraryZVertical,-0.4224293583584173,-0.4179016165978898,-0.02854175044820875,0.8038015209764453,-0.6959336400032043,0.655243456363678,-0.2938233613967896,0,0,0,-1,-1,29005.72874525,unknown,2,2025-04-22T11:59:05.284+03:00,2025-04-21T17:08:51.449+03:00,7184,0.9570276,0,0,5997.434,5,20,2025-04-22T11:58:03.382+03:00,767005145.3888587,0,-20.29,100.4445,1,0.9,2025-04-22T11:59:05.251+03:00,94,1.566666666666667,2025-04-22T09:54:17.825+03:00,0.02225348692287972,0
2025-04-22T11:59:07.197+03:00,1745312342.454455,40.95222556299963,29.14028007482035,75.7154,-1,-1,-1,-1,30,17.58087778887199,-9999,29007.63678654167,-0.6821746826171875,0.6616058349609375,-0.2920684814453125,29007.62924654167,-0.558207312585702,-1.17126367464985,-0.7151213603725215,-0.1502643823623657,0.1144028007984161,0.0006424603052437305,-0.0009670853614807129,0.003180623054504395,0.002370297908782959,XArbitraryZVertical,-0.4230241876968331,-0.417378708873498,-0.02910319971390743,0.803740284698059,-0.6955508589744568,0.6557090282440186,-0.293691098690033,0,0,0,-1,-1,29005.72874525,unknown,2,2025-04-22T11:59:05.284+03:00,2025-04-21T17:08:51.449+03:00,7184,0.9570276,0,0,5997.434,5,20,2025-04-22T11:58:03.382+03:00,767005145.3888587,0,-20.29,100.4445,1,0.9,2025-04-22T11:59:05.251+03:00,94,1.566666666666667,2025-04-22T09:54:17.825+03:00,0.02225348692287972,0
2025-04-22T11:59:07.207+03:00,1745312342.454455,40.95222556299963,29.14028007482035,75.7154,-1,-1,-1,-1,30,17.58087778887199,-9999,29007.64686154167,-0.6816253662109375,0.66229248046875,-0.2953643798828125,29007.63932254167,-0.5600775570617987,-1.171414115900649,-0.7156609569177527,-0.1504258364439011,0.1001617461442947,-0.0109387282282114,0.01065284013748169,0.005428314208984375,0.001960217952728271,XArbitraryZVertical,-0.4236045151331453,-0.4169350100501855,-0.02966691121322011,0.8036442968389698,-0.695268988609314,0.6561163663864136,-0.2934488356113434,0,0,0,-1,-1,29005.72874525,unknown,2,2025-04-22T11:59:05.284+03:00,2025-04-21T17:08:51.449+03:00,7184,0.9570276,0,0,5997.434,5,20,2025-04-22T11:58:03.382+03:00,767005145.3888587,0,-20.29,100.4445,1,0.9,2025-04-22T11:59:05.251+03:00,94,1.566666666666667,2025-04-22T09:54:17.825+03:00,0.02225348692287972,0
2025-04-22T11:59:07.217+03:00,1745312342.454455,40.95222556299963,29.14028007482035,75.7154,-1,-1,-1,-1,30,17.58087778887199,-9999,29007.65693754167,-0.6898345947265625,0.662841796875,-0.2978057861328125,29007.64939754167,-0.561937692518847,-1.171655014536752,-0.7161045590550473,-0.1433692574501038,0.0949225127696991,-0.01251638494431973,0.0142548680305481,0.005246222019195557,-0.001082241535186768,XArbitraryZVertical,-0.4241501277426953,-0.4165483702136193,-0.03023500470422383,0.8035359427508204,-0.6950715184211731,0.6564510464668274,-0.2931682467460632,0,0,0,-1,-1,29005.72874525,unknown,2,2025-04-22T11:59:05.284+03:00,2025-04-21T17:08:51.449+03:00,7184,0.9570276,0,0,5997.434,5,20,2025-04-22T11:58:03.382+03:00,767005145.3888587,0,-20.29,100.4445,1,0.9,2025-04-22T11:59:05.251+03:00,94,1.566666666666667,2025-04-22T09:54:17.825+03:00,0.02225348692287972,0
2025-04-22T11:59:07.227+03:00,1745312342.454455,40.95222556299963,29.14028007482035,75.7154,-1,-1,-1,-1,30,17.58087778887199,-9999,29007.66701379167,-0.7044219970703125,0.6659698486328125,-0.30047607421875,29007.65947354167,-0.5636849463853213,-1.171772825283233,-0.7165069221661443,-0.1304418742656708,0.1097303479909897,-0.01109166070818901,0.009849667549133301,0.005034208297729492,-0.00393715500831604,XArbitraryZVertical,-0.4246557055766296,-0.416143862918013,-0.03079550822808399,0.8034570749486381,-0.694862425327301,0.6567545533180237,-0.2929836213588715,0,0,0,-1,-1,29005.72874525,unknown,2,2025-04-22T11:59:05.284+03:00,2025-04-21T17:08:51.449+03:00,7184,0.9570276,0,0,5997.434,5,20,2025-04-22T11:58:03.382+03:00,767005145.3888587,0,-20.29,100.4445,1,0.9,2025-04-22T11:59:05.251+03:00,94,1.566666666666667,2025-04-22T09:54:17.825+03:00,0.02225348692287972,0
2025-04-22T11:59:07.237+03:00,1745312342.454455,40.95222556299963,29.14028007482035,75.7154,-1,-1,-1,-1,30,17.58087778887199,-9999,29007.67708879167,-0.7102203369140625,0.66644287109375,-0.297943115234375,29007.66954979167,-0.5652846910615875,-1.171617027582798,-0.7168910060107202,-0.1227048560976982,0.1300888806581497,-0.005493163131177425,-0.005549848079681396,0.007415056228637695,-0.007039695978164673,XArbitraryZVertical,-0.4251194628247632,-0.4156639239245691,-0.03136017088900341,0.8034385303441336,-0.6945844888687134,0.6570441126823425,-0.2929939031600952,0,0,0,-1,-1,29005.72874525,unknown,2,2025-04-22T11:59:05.284+03:00,2025-04-21T17:08:51.449+03:00,7184,0.9570276,0,0,5997.434,5,20,2025-04-22T11:58:03.382+03:00,767005145.3888587,0,-20.29,100.4445,1,0.9,2025-04-22T11:59:05.251+03:00,94,1.566666666666667,2025-04-22T09:54:17.825+03:00,0.02225348692287972,0
2025-04-22T11:59:07.247+03:00,1745312342.454455,40.95222556299963,29.14028007482035,75.7154,-1,-1,-1,-1,30,17.58087778887199,-9999,29007.68716479167,-0.7041168212890625,0.6626129150390625,-0.294708251953125,29007.67962479167,-0.5668309108335943,-1.171318245833072,-0.7172469349456112,-0.1199251860380173,0.1347024142742157,-0.007359173614531755,-0.01485556364059448,0.01004588603973389,-0.006343305110931396,XArbitraryZVertical,-0.4255595875242775,-0.41514313295265,-0.03194187454072006,0.803451884804731,-0.6942813992500305,0.6573123931884766,-0.2931104302406311,0,0,0,-1,-1,29005.72874525,unknown,2,2025-04-22T11:59:05.284+03:00,2025-04-21T17:08:51.449+03:00,7184,0.9570276,0,0,5997.434,5,20,2025-04-22T11:58:03.382+03:00,767005145.3888587,0,-20.29,100.4445,1,0.9,2025-04-22T11:59:05.251+03:00,94,1.566666666666667,2025-04-22T09:54:17.825+03:00,0.02225348692287972,0
2025-04-22T11:59:07.257+03:00,1745312342.454455,40.95222556299963,29.14028007482035,75.7154,-1,-1,-1,-1,30,17.58087778887199,-9999,29007.69723979167,-0.6939697265625,0.6572723388671875,-0.2923431396484375,29007.68970079167,-0.5684279272456428,-1.171081367809775,-0.7176202872520392,-0.1313674598932266,0.1270713955163956,-0.005477117840200663,-0.01347267627716064,0.006956934928894043,-0.002215564250946045,XArbitraryZVertical,-0.4260167707754938,-0.4146324122380288,-0.03252581937965631,0.8034498754327223,-0.6939858198165894,0.6575937271118164,-0.2931793332099915,0,0,0,-1,-1,29005.72874525,unknown,2,2025-04-22T11:59:05.284+03:00,2025-04-21T17:08:51.449+03:00,7184,0.9570276,0,0,5997.434,5,20,2025-04-22T11:58:03.382+03:00,767005145.3888587,0,-20.29,100.4445,1,0.9,2025-04-22T11:59:05.251+03:00,94,1.566666666666667,2025-04-22T09:54:17.825+03:00,0.02225348692287972,0
2025-04-22T11:59:07.267+03:00,1745312342.454455,40.95222556299963,29.14028007482035,75.7154,-1,-1,-1,-1,30,17.58087778887199,-9999,29007.70731579167,-0.686767578125,0.650970458984375,-0.2890472412109375,29007.69977579167,-0.5701731084619517,-1.171011557174693,-0.7180546425874986,-0.1423474699258804,0.1167531758546829,-0.006455463357269764,-0.004311203956604004,0.0009382367134094238,0.0009717941284179688,XArbitraryZVertical,-0.4265280380559349,-0.4141443526307753,-0.03311604584350278,0.8034062006948743,-0.6937021017074585,0.6579208970069885,-0.293116569519043,0,0,0,-1,-1,29005.72874525,unknown,2,2025-04-22T11:59:05.284+03:00,2025-04-21T17:08:51.449+03:00,7184,0.9570276,0,0,5997.434,5,20,2025-04-22T11:58:03.382+03:00,767005145.3888587,0,-20.29,100.4445,1,0.9,2025-04-22T11:59:05.251+03:00,94,1.566666666666667,2025-04-22T09:54:17.825+03:00,0.02225348692287972,0
2025-04-22T11:59:07.277+03:00,1745312342.454455,40.95222556299963,29.14028007482035,75.7154,-1,-1,-1,-1,30,17.58087778887199,-9999,29007.71739079167,-0.6865081787109375,0.6489410400390625,-0.2872314453125,29007.70985179167,-0.572057716941599,-1.17110639853734,-0.7185573415135923,-0.1571668982505798,0.1118100807070732,-0.008342579007148743,0.005055427551269531,-0.004719853401184082,0.002089530229568481,XArbitraryZVertical,-0.4270940766516295,-0.4136781723279229,-0.03370729732285557,0.8033210609437744,-0.693425178527832,0.6582993865013123,-0.2929220497608185,0,0,0,-1,-1,29005.72874525,unknown,2,2025-04-22T11:59:05.284+03:00,2025-04-21T17:08:51.449+03:00,7184,0.9570276,0,0,5997.434,5,20,2025-04-22T11:58:03.382+03:00,767005145.3888587,0,-20.29,100.4445,1,0.9,2025-04-22T11:59:05.251+03:00,94,1.566666666666667,2025-04-22T09:54:17.825+03:00,0.02225348692287972,0
2025-04-22T11:59:07.287+03:00,1745312342.454455,40.95222556299963,29.14028007482035,75.7154,-1,-1,-1,-1,30,17.58087778887199,-9999,29007.72746679167,-0.69268798828125,0.6461029052734375,-0.2863311767578125,29007.71992679167,-0.5741026611516369,-1.171304248695866,-0.7191486731348751,-0.1672433018684387,0.1180817559361458,-0.006170005537569523,0.00696718692779541,-0.009895026683807373,0.005127310752868652,XArbitraryZVertical,-0.4277251566207328,-0.4132002973696043,-0.03431511875727982,0.8032055451978917,-0.6931244134902954,0.6587443947792053,-0.2926334142684937,0,0,0,-1,-1,29005.72874525,unknown,2,2025-04-22T11:59:05.284+03:00,2025-04-21T17:08:51.449+03:00,7184,0.9570276,0,0,5997.434,5,20,2025-04-22T11:58:03.382+03:00,767005145.3888587,0,-20.29,100.4445,1,0.9,2025-04-22T11:59:05.251+03:00,94,1.566666666666667,2025-04-22T09:54:17.825+03:00,0.02225348692287972,0
2025-04-22T11:59:07.298+03:00,1745312342.454455,40.95222556299963,29.14028007482035,75.7154,-1,-1,-1,-1,30,17.58087778887199,-9999,29007.73754179167,-0.69927978515625,0.6468048095703125,-0.2867584228515625,29007.73000279167,-0.5762584415909364,-1.171458736773726,-0.7198440181072433,-0.1801801323890686,0.1301163136959076,0.001931863138452172,0.003568947315216064,-0.01240164041519165,0.005955934524536133,XArbitraryZVertical,-0.4284137733252502,-0.4126591286318811,-0.03494633647428131,0.8030895459377524,-0.6927474737167358,0.6592674255371094,-0.292348176240921,0,0,0,-1,-1,29005.72874525,unknown,2,2025-04-22T11:59:05.284+03:00,2025-04-21T17:08:51.449+03:00,7184,0.9570276,0,0,5997.434,5,20,2025-04-22T11:58:03.382+03:00,767005145.3888587,0,-20.29,100.4445,1,0.9,2025-04-22T11:59:05.251+03:00,94,1.566666666666667,2025-04-22T09:54:17.825+03:00,0.02225348692287972,0
2025-04-22T11:59:07.308+03:00,1745312342.454455,40.95222556299963,29.14028007482035,75.7154,-1,-1,-1,-1,30,17.58087778887199,-9999,29007.74761779167,-0.6972808837890625,0.6507720947265625,-0.288726806640625,29007.74007779167,-0.5784900062851224,-1.171501565802616,-0.7206340808123093,-0.1865156590938568,0.145212322473526,0.007232419215142727,-0.005016326904296875,-0.01406359672546387,0.005845725536346436,XArbitraryZVertical,-0.4291480399312313,-0.4120364229587167,-0.03560422143512281,0.8029883081448127,-0.6922798156738281,0.6598612666130066,-0.2921158969402313,0,0,0,-1,-1,29005.72874525,unknown,2,2025-04-22T11:59:05.284+03:00,2025-04-21T17:08:51.449+03:00,7184,0.9570276,0,0,5997.434,5,20,2025-04-22T11:58:03.382+03:00,767005145.3888587,0,-20.29,100.4445,1,0.9,2025-04-22T11:59:05.251+03:00,94,1.566666666666667,2025-04-22T09:54:17.825+03:00,0.02225348692287972,0
2025-04-22T11:59:07.318+03:00,1745312342.454455,40.95222556299963,29.14028007482035,75.7154,-1,-1,-1,-1,30,17.58087778887199,-9999,29007.75769279167,-0.689422607421875,0.6508636474609375,-0.2881622314453125,29007.75015379167,-0.5807429085662549,-1.171538517703661,-0.7214198139781217,-0.1882150173187256,0.1392071545124054,0.005733858328312635,-0.008230090141296387,-0.01042717695236206,0.003543287515640259,XArbitraryZVertical,-0.4298841820017435,-0.4114064638149463,-0.03627297014305601,0.8028875321969845,-0.6918125748634338,0.6604514122009277,-0.2918886244297028,0,0,0,-1,-1,29005.72874525,unknown,2,2025-04-22T11:59:05.284+03:00,2025-04-21T17:08:51.449+03:00,7184,0.9570276,0,0,5997.434,5,20,2025-04-22T11:58:03.382+03:00,767005145.3888587,0,-20.29,100.4445,1,0.9,2025-04-22T11:59:05.251+03:00,94,1.566666666666667,2025-04-22T09:54:17.825+03:00,0.02225348692287972,0
2025-04-22T11:59:07.328+03:00,1745312342.454455,40.95222556299963,29.14028007482035,75.7154,-1,-1,-1,-1,30,17.58087778887199,-9999,29007.76776879167,-0.6844635009765625,0.6514739990234375,-0.2882080078125,29007.76022879167,-0.5831209932252687,-1.171753381028837,-0.7221686857182993,-0.2010444104671478,0.1322628259658813,-0.0009254423785023391,-0.001726269721984863,-0.01076036691665649,0.003812789916992188,XArbitraryZVertical,-0.4306355758075016,-0.4108273526534725,-0.03696421836380422,0.8027499505628204,-0.6914194822311401,0.6610135436058044,-0.2915477752685547,0,0,0,-1,-1,29005.72874525,unknown,2,2025-04-22T11:59:05.284+03:00,2025-04-21T17:08:51.449+03:00,7184,0.9570276,0,0,5997.434,5,20,2025-04-22T11:58:03.382+03:00,767005145.3888587,0,-20.29,100.4445,1,0.9,2025-04-22T11:59:05.251+03:00,94,1.566666666666667,2025-04-22T09:54:17.825+03:00,0.02225348692287972,0
