loggingTime(txt),locationTimestamp_since1970(s),locationLatitude(WGS84),locationLongitude(WGS84),locationAltitude(m),locationSpeed(m/s),locationSpeedAccuracy(m/s),locationCourse(°),locationCourseAccuracy(°),locationVerticalAccuracy(m),locationHorizontalAccuracy(m),locationFloor(Z),accelerometerTimestamp_sinceReboot(s),accelerometerAccelerationX(G),accelerometerAccelerationY(G),accelerometerAccelerationZ(G),motionTimestamp_sinceReboot(s),motionYaw(rad),motionRoll(rad),motionPitch(rad),motionRotationRateX(rad/s),motionRotationRateY(rad/s),motionRotationRateZ(rad/s),motionUserAccelerationX(G),motionUserAccelerationY(G),motionUserAccelerationZ(G),motionAttitudeReferenceFrame(txt),motionQuaternionX(R),motionQuaternionY(R),motionQuaternionZ(R),motionQuaternionW(R),motionGravityX(G),motionGravityY(G),motionGravityZ(G),motionMagneticFieldX(µT),motionMagneticFieldY(µT),motionMagneticFieldZ(µT),motionHeading(°),motionMagneticFieldCalibrationAccuracy(Z),activityTimestamp_sinceReboot(s),activity(txt),activityActivityConfidence(Z),activityActivityStartDate(txt),pedometerStartDate(txt),pedometerNumberofSteps(N),pedometerAverageActivePace(s/m),pedometerCurrentPace(s/m),pedometerCurrentCadence(steps/s),pedometerDistance(m),pedometerFloorAscended(N),pedometerFloorDescended(N),pedometerEndDate(txt),altimeterTimestamp_sinceReboot(s),altimeterReset(bool),altimeterRelativeAltitude(m),altimeterPressure(kPa),batteryState(N),batteryLevel(R),heartRateBPMTimestamp(txt),heartRateBPM(N),heartRateBPS(R),heartRateVariabilityTimestamp(txt),heartRateVariability(ms),label
2025-04-22T12:20:47.841+03:00,1745313647.224662,40.95219657099274,29.14025835744745,76.12379,-1,-1,-1,-1,30,22.47268558134142,-9999,29970.07476329167,-0.8171234130859375,0.4123077392578125,-0.203369140625,29970.06468729167,-0.2996991736902836,-1.288934516000807,-0.4734946801666618,-0.0437099002301693,-0.2021753042936325,-0.01428639329969883,0.09576660394668579,-0.001363664865493774,0.02406284213066101,XArbitraryZVertical,-0.2725835162972794,-0.5494785580508859,0.02331138519277497,0.7894480428491593,-0.8548609614372253,0.4559992551803589,-0.2475430816411972,0,0,0,-1,-1,29965.0025325,unknown,2,2025-04-22T12:20:42.742+03:00,2025-04-21T17:08:51.449+03:00,7264,0.976367,0,0,6055.744,5,20,2025-04-22T12:20:40.163+03:00,767006414.4773123,0,-20.82999,100.4528,1,0.85,2025-04-22T12:20:02.679+03:00,82,1.366666666666667,2025-04-22T09:54:17.825+03:00,0.02225348692287972,0
2025-04-22T12:20:47.843+03:00,1745313647.224662,40.95219657099274,29.14025835744745,76.12379,-1,-1,-1,-1,30,22.47268558134142,-9999,29970.08484029167,-0.998321533203125,0.4176025390625,-0.24591064453125,29970.07476329167,-0.3001642640168681,-1.289894841946515,-0.4735353318264923,-0.0275007039308548,0.05620471388101578,0.006014018785208464,0.1114737987518311,-0.0385856032371521,0.06127680838108063,XArbitraryZVertical,-0.2727153695789633,-0.549788973985648,0.02327110119586925,0.7891873665017797,-0.855080246925354,0.4560354351997375,-0.2467168271541595,0,0,0,-1,-1,29965.0025325,unknown,2,2025-04-22T12:20:42.742+03:00,2025-04-21T17:08:51.449+03:00,7264,0.976367,0,0,6055.744,5,20,2025-04-22T12:20:40.163+03:00,767006414.4773123,0,-20.82999,100.4528,1,0.85,2025-04-22T12:20:02.679+03:00,82,1.366666666666667,2025-04-22T09:54:17.825+03:00,0.02225348692287972,0
2025-04-22T12:20:47.844+03:00,1745313647.224662,40.95219657099274,29.14025835744745,76.12379,-1,-1,-1,-1,30,22.47268558134142,-9999,29970.09491629167,-0.9190521240234375,0.446258544921875,-0.24664306640625,29970.08484029167,-0.3003519108045334,-1.289029636649346,-0.4736674776732892,-0.01125755067914724,0.1173042878508568,0.01803845725953579,-0.1023904085159302,-0.04384544491767883,0.01051661372184753,XArbitraryZVertical,-0.2728263403482724,-0.5494050398214742,0.0231190715156267,0.7894207900367265,-0.854808509349823,0.4561530351638794,-0.2474397867918015,0,0,0,-1,-1,29965.0025325,unknown,2,2025-04-22T12:20:42.742+03:00,2025-04-21T17:08:51.449+03:00,7264,0.976367,0,0,6055.744,5,20,2025-04-22T12:20:40.163+03:00,767006414.4773123,0,-20.82999,100.4528,1,0.85,2025-04-22T12:20:02.679+03:00,82,1.366666666666667,2025-04-22T09:54:17.825+03:00,0.02225348692287972,0
2025-04-22T12:20:47.852+03:00,1745313647.224662,40.95219657099274,29.14025835744745,76.12379,-1,-1,-1,-1,30,22.47268558134142,-9999,29970.10499329167,-0.7926788330078125,0.4551849365234375,-0.2424468994140625,29970.09491629167,-0.3004236697570812,-1.288450053323017,-0.4737432092996846,-0.01218652818351984,-0.006695224437862635,0.009648268111050129,-0.1153234839439392,-0.02064314484596252,4.656612873077393e-05,XArbitraryZVertical,-0.2728810272224858,-0.5491567774702196,0.0230345911419865,0.7895771138157482,-0.8546318411827087,0.456220418214798,-0.2479255646467209,0,0,0,-1,-1,29965.0025325,unknown,2,2025-04-22T12:20:42.742+03:00,2025-04-21T17:08:51.449+03:00,7264,0.976367,0,0,6055.744,5,20,2025-04-22T12:20:40.163+03:00,767006414.4773123,0,-20.82999,100.4528,1,0.85,2025-04-22T12:20:02.679+03:00,82,1.366666666666667,2025-04-22T09:54:17.825+03:00,0.02225348692287972,0
2025-04-22T12:20:47.865+03:00,1745313647.224662,40.95219657099274,29.14025835744745,76.12379,-1,-1,-1,-1,30,22.47268558134142,-9999,29970.11506929167,-0.7960205078125,0.4493255615234375,-0.2490692138671875,29970.10499329167,-0.3005606697704822,-1.289001286720708,-0.4739471777613581,-0.02215607091784477,-0.07855529338121414,0.01050074584782124,0.02598947286605835,-0.001400113105773926,0.004203468561172485,XArbitraryZVertical,-0.2729884791470428,-0.5493295931611906,0.02311745172381273,0.7894174277592407,-0.8546791076660156,0.456401914358139,-0.2474285811185837,0,0,0,-1,-1,29965.0025325,unknown,2,2025-04-22T12:20:42.742+03:00,2025-04-21T17:08:51.449+03:00,7264,0.976367,0,0,6055.744,5,20,2025-04-22T12:20:40.163+03:00,767006414.4773123,0,-20.82999,100.4528,1,0.85,2025-04-22T12:20:02.679+03:00,82,1.366666666666667,2025-04-22T09:54:17.825+03:00,0.02225348692287972,0
2025-04-22T12:20:47.870+03:00,1745313647.224662,40.95219657099274,29.14025835744745,76.12379,-1,-1,-1,-1,30,22.47268558134142,-9999,29970.12514629167,-0.8739013671875,0.450286865234375,-0.2563018798828125,29970.11506929167,-0.300776165929684,-1.289640985229682,-0.4741706591939139,-0.02248364128172398,-0.02771102823317051,0.01217680610716343,0.07612895965576172,-0.004925519227981567,0.00190386176109314,XArbitraryZVertical,-0.2731237812002451,-0.5495240541082057,0.02318745238542276,0.7892330643412049,-0.8547390103340149,0.4566007554531097,-0.2468534260988235,0,0,0,-1,-1,29965.0025325,unknown,2,2025-04-22T12:20:42.742+03:00,2025-04-21T17:08:51.449+03:00,7264,0.976367,0,0,6055.744,5,20,2025-04-22T12:20:40.163+03:00,767006414.4773123,0,-20.82999,100.4528,1,0.85,2025-04-22T12:20:02.679+03:00,82,1.366666666666667,2025-04-22T09:54:17.825+03:00,0.02225348692287972,0
2025-04-22T12:20:47.880+03:00,1745313647.224662,40.95219657099274,29.14025835744745,76.12379,-1,-1,-1,-1,30,22.47268558134142,-9999,29970.13522229167,-0.8900909423828125,0.458648681640625,-0.2545623779296875,29970.12514629167,-0.3009410366481529,-1.289618640041763,-0.4743425261018747,-0.02040397934615612,0.03067345172166824,0.01309612952172756,0.007932782173156738,-0.007809668779373169,-0.00707070529460907,XArbitraryZVertical,-0.273233511798211,-0.5494707126981412,0.0231713819696992,0.7892327468415937,-0.8546581864356995,0.456753671169281,-0.246850773692131,0,0,0,-1,-1,29965.0025325,unknown,2,2025-04-22T12:20:42.742+03:00,2025-04-21T17:08:51.449+03:00,7264,0.976367,0,0,6055.744,5,20,2025-04-22T12:20:40.163+03:00,767006414.4773123,0,-20.82999,100.4528,1,0.85,2025-04-22T12:20:02.679+03:00,82,1.366666666666667,2025-04-22T09:54:17.825+03:00,0.02225348692287972,0
2025-04-22T12:20:47.890+03:00,1745313647.224662,40.95219657099274,29.14025835744745,76.12379,-1,-1,-1,-1,30,22.47268558134142,-9999,29970.14529929167,-0.8444366455078125,0.461029052734375,-0.2449951171875,29970.13522229167,-0.3011020213596332,-1.289397382691602,-0.4745455877336043,-0.02020850032567978,0.01007123850286007,0.01403942052274942,-0.040108323097229,-0.0007270872592926025,-0.008952021598815918,XArbitraryZVertical,-0.2733561248490512,-0.5493353936256233,0.02313911251345643,0.7892854563448077,-0.8545144200325012,0.4569343030452728,-0.2470141053199768,0,0,0,-1,-1,29965.0025325,unknown,2,2025-04-22T12:20:42.742+03:00,2025-04-21T17:08:51.449+03:00,7264,0.976367,0,0,6055.744,5,20,2025-04-22T12:20:40.163+03:00,767006414.4773123,0,-20.82999,100.4528,1,0.85,2025-04-22T12:20:02.679+03:00,82,1.366666666666667,2025-04-22T09:54:17.825+03:00,0.02225348692287972,0
2025-04-22T12:20:47.900+03:00,1745313647.224662,40.95219657099274,29.14025835744745,76.12379,-1,-1,-1,-1,30,22.47268558134142,-9999,29970.15537529167,-0.825439453125,0.4635162353515625,-0.2390289306640625,29970.14529929167,-0.3012759605197784,-1.289546952341382,-0.4747289669980717,-0.0165338721126318,-0.02435651049017906,0.008171678520739079,-0.008428871631622314,0.003931581974029541,-0.002282440662384033,XArbitraryZVertical,-0.2734706515923341,-0.5493471456525256,0.02314645820133239,0.7892373801447998,-0.8544708490371704,0.4570974111557007,-0.2468630373477936,0,0,0,-1,-1,29965.0025325,unknown,2,2025-04-22T12:20:42.742+03:00,2025-04-21T17:08:51.449+03:00,7264,0.976367,0,0,6055.744,5,20,2025-04-22T12:20:40.163+03:00,767006414.4773123,0,-20.82999,100.4528,1,0.85,2025-04-22T12:20:02.679+03:00,82,1.366666666666667,2025-04-22T09:54:17.825+03:00,0.02225348692287972,0
2025-04-22T12:20:47.910+03:00,1745313647.224662,40.95219657099274,29.14025835744745,76.12379,-1,-1,-1,-1,30,22.47268558134142,-9999,29970.16545229167,-0.85382080078125,0.4619293212890625,-0.2437744140625,29970.15537529167,-0.301401859100043,-1.28982723017023,-0.4748220373430279,-0.00670580891892314,-0.01083277817815542,0.002355034928768873,0.0291208028793335,0.005603551864624023,0.00738447904586792,XArbitraryZVertical,-0.2735367353425234,-0.5494285953083788,0.02316329186876654,0.7891573113080229,-0.8544991612434387,0.4571801722049713,-0.2466117441654205,0,0,0,-1,-1,29965.0025325,unknown,2,2025-04-22T12:20:42.742+03:00,2025-04-21T17:08:51.449+03:00,7264,0.976367,0,0,6055.744,5,20,2025-04-22T12:20:40.163+03:00,767006414.4773123,0,-20.82999,100.4528,1,0.85,2025-04-22T12:20:02.679+03:00,82,1.366666666666667,2025-04-22T09:54:17.825+03:00,0.02225348692287972,0
2025-04-22T12:20:47.920+03:00,1745313647.224662,40.95219657099274,29.14025835744745,76.12379,-1,-1,-1,-1,30,22.47268558134142,-9999,29970.17552829167,-0.8735809326171875,0.45623779296875,-0.2462158203125,29970.16545229167,-0.3014251402688782,-1.28981569211538,-0.4748115508887822,0.001773429568856955,0.02152809128165245,0.004873319994658232,0.01386380195617676,0.005734950304031372,0.004862725734710693,XArbitraryZVertical,-0.273539338275911,-0.5494221994828589,0.02314933760444284,0.7891613239085825,-0.8545010089874268,0.457170844078064,-0.2466229498386383,0,0,0,-1,-1,29965.0025325,unknown,2,2025-04-22T12:20:42.742+03:00,2025-04-21T17:08:51.449+03:00,7264,0.976367,0,0,6055.744,5,20,2025-04-22T12:20:40.163+03:00,767006414.4773123,0,-20.82999,100.4528,1,0.85,2025-04-22T12:20:02.679+03:00,82,1.366666666666667,2025-04-22T09:54:17.825+03:00,0.02225348692287972,0
2025-04-22T12:20:47.930+03:00,1745313647.224662,40.95219657099274,29.14025835744745,76.12379,-1,-1,-1,-1,30,22.47268558134142,-9999,29970.18560529167,-0.8601837158203125,0.4467010498046875,-0.2445068359375,29970.17552829167,-0.3014331603853146,-1.289574522712445,-0.4748248078838576,-0.007907959632575512,0.02621632069349289,0.007633952889591455,-0.01554423570632935,0.002061009407043457,0.001557543873786926,XArbitraryZVertical,-0.273549307841396,-0.5493242464471642,0.02311723573969846,0.7892268678900267,-0.8544355034828186,0.4571826457977295,-0.2468272894620895,0,0,0,-1,-1,29965.0025325,unknown,2,2025-04-22T12:20:42.742+03:00,2025-04-21T17:08:51.449+03:00,7264,0.976367,0,0,6055.744,5,20,2025-04-22T12:20:40.163+03:00,767006414.4773123,0,-20.82999,100.4528,1,0.85,2025-04-22T12:20:02.679+03:00,82,1.366666666666667,2025-04-22T09:54:17.825+03:00,0.02225348692287972,0
2025-04-22T12:20:47.940+03:00,1745313647.224662,40.95219657099274,29.14025835744745,76.12379,-1,-1,-1,-1,30,22.47268558134142,-9999,29970.19568129167,-0.839202880859375,0.443878173828125,-0.2437896728515625,29970.18560529167,-0.3016325572409511,-1.289501473937895,-0.474959711090157,-0.02739244513213634,0.005135269835591316,0.00834182184189558,-0.01408040523529053,-0.007031083106994629,0.001160383224487305,XArbitraryZVertical,-0.2736552712108634,-0.5492508408542026,0.02306940004260967,0.7892426875597239,-0.8543583154678345,0.4573026299476624,-0.2468726187944412,0,0,0,-1,-1,29965.0025325,unknown,2,2025-04-22T12:20:42.742+03:00,2025-04-21T17:08:51.449+03:00,7264,0.976367,0,0,6055.744,5,20,2025-04-22T12:20:40.163+03:00,767006414.4773123,0,-20.82999,100.4528,1,0.85,2025-04-22T12:20:02.679+03:00,82,1.366666666666667,2025-04-22T09:54:17.825+03:00,0.02225348692287972,0
2025-04-22T12:20:47.951+03:00,1745313647.224662,40.95219657099274,29.14025835744745,76.12379,-1,-1,-1,-1,30,22.47268558134142,-9999,29970.20575829167,-0.842529296875,0.448211669921875,-0.2445831298828125,29970.19568129167,-0.3019712251565452,-1.289694733179048,-0.4751622342114201,-0.03875508904457092,-0.01043916214257479,0.007555655669420958,0.009636282920837402,-0.01365038752555847,0.002663254737854004,XArbitraryZVertical,-0.2738216567662238,-0.5492547644096377,0.02302354738319174,0.7891836127565747,-0.8543170094490051,0.4574827253818512,-0.246681809425354,0,0,0,-1,-1,29965.0025325,unknown,2,2025-04-22T12:20:42.742+03:00,2025-04-21T17:08:51.449+03:00,7264,0.976367,0,0,6055.744,5,20,2025-04-22T12:20:40.163+03:00,767006414.4773123,0,-20.82999,100.4528,1,0.85,2025-04-22T12:20:02.679+03:00,82,1.366666666666667,2025-04-22T09:54:17.825+03:00,0.02225348692287972,0
2025-04-22T12:20:47.960+03:00,1745313647.224662,40.95219657099274,29.14025835744745,76.12379,-1,-1,-1,-1,30,22.47268558134142,-9999,29970.21583429167,-0.857879638671875,0.4525604248046875,-0.2456207275390625,29970.20575829167,-0.302385444876597,-1.289966026037134,-0.4753361073511164,-0.04102916270494461,-0.003015068359673023,0.009160743094980717,0.01646268367767334,-0.01098212599754333,0.002684116363525391,XArbitraryZVertical,-0.2739971962337479,-0.5492827537057777,0.02294993276516057,0.7891053641656561,-0.8543074727058411,0.4576373100280762,-0.246427983045578,0,0,0,-1,-1,29965.0025325,unknown,2,2025-04-22T12:20:42.742+03:00,2025-04-21T17:08:51.449+03:00,7264,0.976367,0,0,6055.744,5,20,2025-04-22T12:20:40.163+03:00,767006414.4773123,0,-20.82999,100.4528,1,0.85,2025-04-22T12:20:02.679+03:00,82,1.366666666666667,2025-04-22T09:54:17.825+03:00,0.02225348692287972,0
2025-04-22T12:20:47.970+03:00,1745313647.224662,40.95219657099274,29.14025835744745,76.12379,-1,-1,-1,-1,30,22.47268558134142,-9999,29970.22591129167,-0.859527587890625,0.456634521484375,-0.244598388671875,29970.21583429167,-0.3028098332692682,-1.290141406849618,-0.4755185747647823,-0.04057615995407104,0.008126532658934593,0.006518887355923653,0.001029551029205322,-0.006002128124237061,0.000466465950012207,XArbitraryZVertical,-0.2741798348756618,-0.5492703393917118,0.0228618135783306,0.7890531380949413,-0.8542704582214355,0.4577995538711548,-0.246255025267601,0,0,0,-1,-1,29965.0025325,unknown,2,2025-04-22T12:20:42.742+03:00,2025-04-21T17:08:51.449+03:00,7264,0.976367,0,0,6055.744,5,20,2025-04-22T12:20:40.163+03:00,767006414.4773123,0,-20.82999,100.4528,1,0.85,2025-04-22T12:20:02.679+03:00,82,1.366666666666667,2025-04-22T09:54:17.825+03:00,0.02225348692287972,0
2025-04-22T12:20:47.980+03:00,1745313647.224662,40.95219657099274,29.14025835744745,76.12379,-1,-1,-1,-1,30,22.47268558134142,-9999,29970.23598729167,-0.8515777587890625,0.46197509765625,-0.2411956787109375,29970.22591129167,-0.3032069540795588,-1.290265019242193,-0.4756680866256715,-0.03212089091539383,0.001214563846588135,0.001341169467195868,-0.00623852014541626,-0.003602117300033569,0.001120090484619141,XArbitraryZVertical,-0.2743432815152117,-0.5492454226254586,0.02276740936539303,0.7890163675509134,-0.8542351126670837,0.4579324722290039,-0.2461304664611816,0,0,0,-1,-1,29965.0025325,unknown,2,2025-04-22T12:20:42.742+03:00,2025-04-21T17:08:51.449+03:00,7264,0.976367,0,0,6055.744,5,20,2025-04-22T12:20:40.163+03:00,767006414.4773123,0,-20.82999,100.4528,1,0.85,2025-04-22T12:20:02.679+03:00,82,1.366666666666667,2025-04-22T09:54:17.825+03:00,0.02225348692287972,0
2025-04-22T12:20:47.990+03:00,1745313647.224662,40.95219657099274,29.14025835744745,76.12379,-1,-1,-1,-1,30,22.47268558134142,-9999,29970.24606429167,-0.84906005859375,0.46240234375,-0.2404632568359375,29970.23598729167,-0.3035265957856377,-1.290420396248709,-0.4757834551819728,-0.02809019386768341,0.0007743434980511665,0.002001633401960135,-0.0009410381317138672,0.002154648303985596,0.003643006086349487,XArbitraryZVertical,-0.2744723640664304,-0.5492480219587881,0.02269762450521411,0.7889715572803072,-0.8542224168777466,0.45803502202034,-0.2459830641746521,0,0,0,-1,-1,29965.0025325,unknown,2,2025-04-22T12:20:42.742+03:00,2025-04-21T17:08:51.449+03:00,7264,0.976367,0,0,6055.744,5,20,2025-04-22T12:20:40.163+03:00,767006414.4773123,0,-20.82999,100.4528,1,0.85,2025-04-22T12:20:02.679+03:00,82,1.366666666666667,2025-04-22T09:54:17.825+03:00,0.02225348692287972,0
2025-04-22T12:20:48.001+03:00,1745313647.224662,40.95219657099274,29.14025835744745,76.12379,-1,-1,-1,-1,30,22.47268558134142,-9999,29970.25614029167,-0.8558197021484375,0.4630126953125,-0.243804931640625,29970.24606429167,-0.3038240087347764,-1.290534485957203,-0.4758676902157509,-0.02521957270801067,0.006169641390442848,-0.004423775244504213,0.004817783832550049,0.004368722438812256,0.006220430135726929,XArbitraryZVertical,-0.2745841345070503,-0.5492413460440784,0.02262145090179703,0.7889396705420967,-0.8542135953903198,0.4581099152565002,-0.2458750009536743,0,0,0,-1,-1,29965.0025325,unknown,2,2025-04-22T12:20:42.742+03:00,2025-04-21T17:08:51.449+03:00,7264,0.976367,0,0,6055.744,5,20,2025-04-22T12:20:40.163+03:00,767006414.4773123,0,-20.82999,100.4528,1,0.85,2025-04-22T12:20:02.679+03:00,82,1.366666666666667,2025-04-22T09:54:17.825+03:00,0.02225348692287972,0
2025-04-22T12:20:48.011+03:00,1745313647.224662,40.95219657099274,29.14025835744745,76.12379,-1,-1,-1,-1,30,22.47268558134142,-9999,29970.26621729167,-0.8573150634765625,0.458221435546875,-0.245635986328125,29970.25614029167,-0.3041129522111037,-1.29059284391528,-0.4758530809039715,-0.02298131957650185,0.012735266238451,-0.004265783354640007,0.00131380558013916,0.005327671766281128,0.002510368824005127,XArbitraryZVertical,-0.2746573828320818,-0.5492265756852799,0.02251106572569133,0.7889275790746069,-0.8542343378067017,0.4580969214439392,-0.2458269745111465,0,0,0,-1,-1,29965.0025325,unknown,2,2025-04-22T12:20:42.742+03:00,2025-04-21T17:08:51.449+03:00,7264,0.976367,0,0,6055.744,5,20,2025-04-22T12:20:40.163+03:00,767006414.4773123,0,-20.82999,100.4528,1,0.85,2025-04-22T12:20:02.679+03:00,82,1.366666666666667,2025-04-22T09:54:17.825+03:00,0.02225348692287972,0
2025-04-22T12:20:48.021+03:00,1745313647.224662,40.95219657099274,29.14025835744745,76.12379,-1,-1,-1,-1,30,22.47268558134142,-9999,29970.27629329167,-0.85418701171875,0.4528045654296875,-0.24774169921875,29970.26621729167,-0.3043573557258821,-1.290573591254282,-0.4758193385855383,-0.01994711346924305,0.01535508409142494,-0.002639091107994318,-0.003650426864624023,0.001970231533050537,0.001340866088867188,XArbitraryZVertical,-0.2747121350306462,-0.5491897650241926,0.02240179271051682,0.7889372175548162,-0.8542444109916687,0.4580669403076172,-0.245847687125206,0,0,0,-1,-1,29965.0025325,unknown,2,2025-04-22T12:20:42.742+03:00,2025-04-21T17:08:51.449+03:00,7264,0.976367,0,0,6055.744,5,20,2025-04-22T12:20:40.163+03:00,767006414.4773123,0,-20.82999,100.4528,1,0.85,2025-04-22T12:20:02.679+03:00,82,1.366666666666667,2025-04-22T09:54:17.825+03:00,0.02225348692287972,0
2025-04-22T12:20:48.031+03:00,1745313647.224662,40.95219657099274,29.14025835744745,76.12379,-1,-1,-1,-1,30,22.47268558134142,-9999,29970.28637029167,-0.852508544921875,0.4476776123046875,-0.2484893798828125,29970.27629329167,-0.3046162735104062,-1.290515999428774,-0.4757980480705878,-0.0269149411469698,0.01506539806723595,-0.003561576828360558,-0.0007102489471435547,-0.003168314695358276,-0.0009875893592834473,XArbitraryZVertical,-0.2747759272205795,-0.5491342221217266,0.02228528608597981,0.7889569834515834,-0.8542396426200867,0.4580479860305786,-0.2458995878696442,0,0,0,-1,-1,29965.0025325,unknown,2,2025-04-22T12:20:42.742+03:00,2025-04-21T17:08:51.449+03:00,7264,0.976367,0,0,6055.744,5,20,2025-04-22T12:20:40.163+03:00,767006414.4773123,0,-20.82999,100.4528,1,0.85,2025-04-22T12:20:02.679+03:00,82,1.366666666666667,2025-04-22T09:54:17.825+03:00,0.02225348692287972,0
2025-04-22T12:20:48.041+03:00,1745313647.224662,40.95219657099274,29.14025835744745,76.12379,-1,-1,-1,-1,30,22.47268558134142,-9999,29970.29644629167,-0.851104736328125,0.44305419921875,-0.244110107421875,29970.28637029167,-0.3049401972677725,-1.29048050331635,-0.4758737004090409,-0.0356873944401741,0.01533650793135166,0.003510713577270508,0.00110924243927002,-0.009400129318237305,-0.001928195357322693,XArbitraryZVertical,-0.2748934843468337,-0.549065953158114,0.02217557542508441,0.788966573825856,-0.8541975021362305,0.4581152498722076,-0.2459203004837036,0,0,0,-1,-1,29965.0025325,unknown,2,2025-04-22T12:20:42.742+03:00,2025-04-21T17:08:51.449+03:00,7264,0.976367,0,0,6055.744,5,20,2025-04-22T12:20:40.163+03:00,767006414.4773123,0,-20.82999,100.4528,1,0.85,2025-04-22T12:20:02.679+03:00,82,1.366666666666667,2025-04-22T09:54:17.825+03:00,0.02225348692287972,0
2025-04-22T12:20:48.051+03:00,1745313647.224662,40.95219657099274,29.14025835744745,76.12379,-1,-1,-1,-1,30,22.47268558134142,-9999,29970.30652329167,-0.8511810302734375,0.444122314453125,-0.2399749755859375,29970.29644629167,-0.3053993066034842,-1.290518034546098,-0.4759976403224231,-0.05091201886534691,0.01463010441511869,0.003865779377520084,0.002727150917053223,-0.01355385780334473,-0.0006789565086364746,XArbitraryZVertical,-0.275065306154407,-0.5490016340907914,0.0220371761554199,0.7889554090733347,-0.8541523218154907,0.4582253992557526,-0.2458725720643997,0,0,0,-1,-1,29965.0025325,unknown,2,2025-04-22T12:20:42.742+03:00,2025-04-21T17:08:51.449+03:00,7264,0.976367,0,0,6055.744,5,20,2025-04-22T12:20:40.163+03:00,767006414.4773123,0,-20.82999,100.4528,1,0.85,2025-04-22T12:20:02.679+03:00,82,1.366666666666667,2025-04-22T09:54:17.825+03:00,0.02225348692287972,0
2025-04-22T12:20:48.061+03:00,1745313647.224662,40.95219657099274,29.14025835744745,76.12379,-1,-1,-1,-1,30,22.47268558134142,-9999,29970.31659929167,-0.8495330810546875,0.448211669921875,-0.236114501953125,29970.30652329167,-0.3060134422788026,-1.290677988724713,-0.476170867089602,-0.06396710127592087,0.01186920516192913,0.007503923960030079,0.002384960651397705,-0.01489794254302979,0.005128651857376099,XArbitraryZVertical,-0.2752967074430195,-0.5489578499464866,0.02186943607311482,0.7889098708342477,-0.85411536693573,0.4583793878555298,-0.245714008808136,0,0,0,-1,-1,29970.16168229167,unknown,2,2025-04-22T12:20:47.902+03:00,2025-04-21T17:08:51.449+03:00,7264,0.976367,0,0,6055.744,5,20,2025-04-22T12:20:40.163+03:00,767006447.992437,0,-20.97,100.456,1,0.85,2025-04-22T12:20:02.679+03:00,82,1.366666666666667,2025-04-22T09:54:17.825+03:00,0.02225348692287972,0
2025-04-22T12:20:48.071+03:00,1745313647.224662,40.95219657099274,29.14025835744745,76.12379,-1,-1,-1,-1,30,22.47268558134142,-9999,29970.32667629167,-0.8541259765625,0.4537200927734375,-0.2379608154296875,29970.31659929167,-0.3067443823904932,-1.290911732337464,-0.476426005408789,-0.07115077972412109,0.01235756278038025,0.002365987282246351,0.004481494426727295,-0.01236289739608765,0.008284151554107666,XArbitraryZVertical,-0.2755899016689466,-0.5489163814435798,0.02169069087188513,0.7888412533650339,-0.8540602922439575,0.4586061239242554,-0.2454820275306702,0,0,0,-1,-1,29970.16168229167,unknown,2,2025-04-22T12:20:47.902+03:00,2025-04-21T17:08:51.449+03:00,7264,0.976367,0,0,6055.744,5,20,2025-04-22T12:20:40.163+03:00,767006447.992437,0,-20.97,100.456,1,0.85,2025-04-22T12:20:02.679+03:00,82,1.366666666666667,2025-04-22T09:54:17.825+03:00,0.02225348692287972,0
2025-04-22T12:20:48.081+03:00,1745313647.224662,40.95219657099274,29.14025835744745,76.12379,-1,-1,-1,-1,30,22.47268558134142,-9999,29970.33675229167,-0.8583984375,0.4606781005859375,-0.2389373779296875,29970.32667629167,-0.3075407354698981,-1.291141232133376,-0.4766916681446288,-0.07223229110240936,0.01953504793345928,0.000895123346708715,0.002818405628204346,-0.007548332214355469,0.00864960253238678,XArbitraryZVertical,-0.2759050105459767,-0.5488626955786036,0.02148884747271046,0.7887738716290119,-0.8539993166923523,0.4588421881198883,-0.245252326130867,0,0,0,-1,-1,29970.16168229167,unknown,2,2025-04-22T12:20:47.902+03:00,2025-04-21T17:08:51.449+03:00,7264,0.976367,0,0,6055.744,5,20,2025-04-22T12:20:40.163+03:00,767006447.992437,0,-20.97,100.456,1,0.85,2025-04-22T12:20:02.679+03:00,82,1.366666666666667,2025-04-22T09:54:17.825+03:00,0.02225348692287972,0
2025-04-22T12:20:48.091+03:00,1745313647.224662,40.95219657099274,29.14025835744745,76.12379,-1,-1,-1,-1,30,22.47268558134142,-9999,29970.34682929167,-0.858245849609375,0.4605255126953125,-0.2396087646484375,29970.33675229167,-0.3083419678986041,-1.291307307060541,-0.476913267934728,-0.07201237976551056,0.02240187302231789,-0.006695584859699011,-0.002670705318450928,-0.000176846981048584,0.006404519081115723,XArbitraryZVertical,-0.2762056534301469,-0.5487888491190979,0.02126298655394303,0.7887262245981429,-0.8539423942565918,0.4590390622615814,-0.2450824677944183,0,0,0,-1,-1,29970.16168229167,unknown,2,2025-04-22T12:20:47.902+03:00,2025-04-21T17:08:51.449+03:00,7264,0.976367,0,0,6055.744,5,20,2025-04-22T12:20:40.163+03:00,767006447.992437,0,-20.97,100.456,1,0.85,2025-04-22T12:20:02.679+03:00,82,1.366666666666667,2025-04-22T09:54:17.825+03:00,0.02225348692287972,0
2025-04-22T12:20:48.101+03:00,1745313647.224662,40.95219657099274,29.14025835744745,76.12379,-1,-1,-1,-1,30,22.47268558134142,-9999,29970.35690629167,-0.8586578369140625,0.457550048828125,-0.239410400390625,29970.34682929167,-0.3091855958085165,-1.291453049828832,-0.4770388767189179,-0.07967615872621536,0.02846216224133968,-0.01124506257474422,-0.004185736179351807,0.002046167850494385,0.005287587642669678,XArbitraryZVertical,-0.2764823644303297,-0.5487134384716387,0.02098853374927277,0.7886891328889002,-0.8539227247238159,0.459150642156601,-0.2449421286582947,0,0,0,-1,-1,29970.16168229167,unknown,2,2025-04-22T12:20:47.902+03:00,2025-04-21T17:08:51.449+03:00,7264,0.976367,0,0,6055.744,5,20,2025-04-22T12:20:40.163+03:00,767006447.992437,0,-20.97,100.456,1,0.85,2025-04-22T12:20:02.679+03:00,82,1.366666666666667,2025-04-22T09:54:17.825+03:00,0.02225348692287972,0
2025-04-22T12:20:48.111+03:00,1745313647.224662,40.95219657099274,29.14025835744745,76.12379,-1,-1,-1,-1,30,22.47268558134142,-9999,29970.36698229167,-0.86126708984375,0.4497222900390625,-0.2389678955078125,29970.35690629167,-0.3101145061497159,-1.291533928778902,-0.477118666544837,-0.08581241220235825,0.03925215825438499,-0.01322835218161345,-0.003529787063598633,0.0004036426544189453,0.005757749080657959,XArbitraryZVertical,-0.2767660730036888,-0.5486064757226039,0.02065763325025603,0.7886727346724843,-0.8539072871208191,0.4592215418815613,-0.2448629438877106,0,0,0,-1,-1,29970.16168229167,unknown,2,2025-04-22T12:20:47.902+03:00,2025-04-21T17:08:51.449+03:00,7264,0.976367,0,0,6055.744,5,20,2025-04-22T12:20:40.163+03:00,767006447.992437,0,-20.97,100.456,1,0.85,2025-04-22T12:20:02.679+03:00,82,1.366666666666667,2025-04-22T09:54:17.825+03:00,0.02225348692287972,0
2025-04-22T12:20:48.122+03:00,1745313647.224662,40.95219657099274,29.14025835744745,76.12379,-1,-1,-1,-1,30,22.47268558134142,-9999,29970.37705929167,-0.859649658203125,0.446533203125,-0.238433837890625,29970.36698229167,-0.3111205543605958,-1.291574689910104,-0.4771708996109078,-0.09661579132080078,0.04382800310850143,-0.01408269442617893,-0.006747305393218994,-0.006661802530288696,0.006357192993164062,XArbitraryZVertical,-0.277061046143207,-0.548476453931016,0.0202824217763089,0.7886692802007209,-0.8538941144943237,0.4592679440975189,-0.2448215186595917,0,0,0,-1,-1,29970.16168229167,unknown,2,2025-04-22T12:20:47.902+03:00,2025-04-21T17:08:51.449+03:00,7264,0.976367,0,0,6055.744,5,20,2025-04-22T12:20:40.163+03:00,767006447.992437,0,-20.97,100.456,1,0.85,2025-04-22T12:20:02.679+03:00,82,1.366666666666667,2025-04-22T09:54:17.825+03:00,0.02225348692287972,0
2025-04-22T12:20:48.132+03:00,1745313647.224662,40.95219657099274,29.14025835744745,76.12379,-1,-1,-1,-1,30,22.47268558134142,-9999,29970.38713529167,-0.858306884765625,0.441741943359375,-0.236175537109375,29970.37705929167,-0.3122984413208124,-1.291646776715417,-0.477237493833563,-0.1129105389118195,0.04671147465705872,-0.01340941339731216,-0.006133437156677246,-0.011985182762146,0.006241410970687866,XArbitraryZVertical,-0.2774080678892828,-0.5483329084264988,0.01984811885927144,0.7886582707251043,-0.8538824915885925,0.4593271017074585,-0.2447515726089478,0,0,0,-1,-1,29970.16168229167,unknown,2,2025-04-22T12:20:47.902+03:00,2025-04-21T17:08:51.449+03:00,7264,0.976367,0,0,6055.744,5,20,2025-04-22T12:20:40.163+03:00,767006447.992437,0,-20.97,100.456,1,0.85,2025-04-22T12:20:02.679+03:00,82,1.366666666666667,2025-04-22T09:54:17.825+03:00,0.02225348692287972,0
2025-04-22T12:20:48.142+03:00,1745313647.224662,40.95219657099274,29.14025835744745,76.12379,-1,-1,-1,-1,30,22.47268558134142,-9999,29970.39721229167,-0.85723876953125,0.4367828369140625,-0.2347869873046875,29970.38713529167,-0.3136997827014505,-1.291823128876007,-0.4773707303896632,-0.1349982768297195,0.05095229297876358,-0.01174973137676716,-0.005508244037628174,-0.01564362645149231,0.007813453674316406,XArbitraryZVertical,-0.2778400908510394,-0.5481905094575918,0.01936048834898238,0.7886172222233128,-0.8538666963577271,0.45944544672966,-0.2445840984582901,0,0,0,-1,-1,29970.16168229167,unknown,2,2025-04-22T12:20:47.902+03:00,2025-04-21T17:08:51.449+03:00,7264,0.976367,0,0,6055.744,5,20,2025-04-22T12:20:40.163+03:00,767006447.992437,0,-20.97,100.456,1,0.85,2025-04-22T12:20:02.679+03:00,82,1.366666666666667,2025-04-22T09:54:17.825+03:00,0.02225348692287972,0
2025-04-22T12:20:48.152+03:00,1745313647.224662,40.95219657099274,29.14025835744745,76.12379,-1,-1,-1,-1,30,22.47268558134142,-9999,29970.40728829167,-0.857391357421875,0.4379425048828125,-0.2332305908203125,29970.39721229167,-0.3153574237901619,-1.292063860945523,-0.4776079184458281,-0.1581241488456726,0.05709373950958252,-0.01292608305811882,-0.003524720668792725,-0.02102702856063843,0.009820997714996338,XArbitraryZVertical,-0.2783802999311031,-0.5480238373920397,0.01881237252312368,0.7885558625322132,-0.8538208603858948,0.4596560895442963,-0.2443485707044601,0,0,0,-1,-1,29970.16168229167,unknown,2,2025-04-22T12:20:47.902+03:00,2025-04-21T17:08:51.449+03:00,7264,0.976367,0,0,6055.744,5,20,2025-04-22T12:20:40.163+03:00,767006447.992437,0,-20.97,100.456,1,0.85,2025-04-22T12:20:02.679+03:00,82,1.366666666666667,2025-04-22T09:54:17.825+03:00,0.02225348692287972,0
2025-04-22T12:20:48.162+03:00,1745313647.224662,40.95219657099274,29.14025835744745,76.12379,-1,-1,-1,-1,30,22.47268558134142,-9999,29970.41736529167,-0.8590850830078125,0.446044921875,-0.2315216064453125,29970.40728829167,-0.3172215699597052,-1.292361167662359,-0.477879831765897,-0.1754442900419235,0.06413780152797699,-0.01799780689179897,-0.003206074237823486,-0.02378618717193604,0.009929537773132324,XArbitraryZVertical,-0.2789893687482448,-0.5478455623627203,0.0182014303159046,0.7884788171971208,-0.8537732362747192,0.4598975479602814,-0.2440603375434875,0,0,0,-1,-1,29970.16168229167,unknown,2,2025-04-22T12:20:47.902+03:00,2025-04-21T17:08:51.449+03:00,7264,0.976367,0,0,6055.744,5,20,2025-04-22T12:20:40.163+03:00,767006447.992437,0,-20.97,100.456,1,0.85,2025-04-22T12:20:02.679+03:00,82,1.366666666666667,2025-04-22T09:54:17.825+03:00,0.02225348692287972,0
2025-04-22T12:20:48.172+03:00,1745313647.224662,40.95219657099274,29.14025835744745,76.12379,-1,-1,-1,-1,30,22.47268558134142,-9999,29970.42744129167,-0.8599853515625,0.4440765380859375,-0.2284698486328125,29970.41736529167,-0.3193044344143344,-1.292639409974272,-0.4781913471859277,-0.1880845874547958,0.07921089231967926,-0.02384524419903755,-0.004710376262664795,-0.01721161603927612,0.01114793121814728,XArbitraryZVertical,-0.2796730962329215,-0.5476232807542825,0.01751384264786753,0.788406509711688,-0.8537032008171082,0.4601741433143616,-0.2437833994626999,0,0,0,-1,-1,29970.16168229167,unknown,2,2025-04-22T12:20:47.902+03:00,2025-04-21T17:08:51.449+03:00,7264,0.976367,0,0,6055.744,5,20,2025-04-22T12:20:40.163+03:00,767006447.992437,0,-20.97,100.456,1,0.85,2025-04-22T12:20:02.679+03:00,82,1.366666666666667,2025-04-22T09:54:17.825+03:00,0.02225348692287972,0
2025-04-22T12:20:48.182+03:00,1745313647.224662,40.95219657099274,29.14025835744745,76.12379,-1,-1,-1,-1,30,22.47268558134142,-9999,29970.43751829167,-0.8618621826171875,0.440032958984375,-0.2254180908203125,29970.42744129167,-0.3215143635447518,-1.292860652731777,-0.4784776220223663,-0.1988818347454071,0.08685204386711121,-0.02767513692378998,-0.006354868412017822,-0.014841228723526,0.01409673690795898,XArbitraryZVertical,-0.2803824865682649,-0.5473632003639142,0.01676068490583158,0.788351548912496,-0.8536304235458374,0.4604282975196838,-0.2435583770275116,0,0,0,-1,-1,29970.16168229167,unknown,2,2025-04-22T12:20:47.902+03:00,2025-04-21T17:08:51.449+03:00,7264,0.976367,0,0,6055.744,5,20,2025-04-22T12:20:40.163+03:00,767006447.992437,0,-20.97,100.456,1,0.85,2025-04-22T12:20:02.679+03:00,82,1.366666666666667,2025-04-22T09:54:17.825+03:00,0.02225348692287972,0
2025-04-22T12:20:48.192+03:00,1745313647.224662,40.95219657099274,29.14025835744745,76.12379,-1,-1,-1,-1,30,22.47268558134142,-9999,29970.44759429167,-0.865875244140625,0.440185546875,-0.2238616943359375,29970.43751829167,-0.3238909147772109,-1.293024722354592,-0.4787423443409545,-0.2141368240118027,0.1023914441466331,-0.03263081237673759,-0.007210314273834229,-0.02003532648086548,0.01668508350849152,XArbitraryZVertical,-0.2811296550694522,-0.5470591126162889,0.01592743458090165,0.7883138118037007,-0.8535531759262085,0.4606632888317108,-0.2433848828077316,0,0,0,-1,-1,29970.16168229167,unknown,2,2025-04-22T12:20:47.902+03:00,2025-04-21T17:08:51.449+03:00,7264,0.976367,0,0,6055.744,5,20,2025-04-22T12:20:40.163+03:00,767006447.992437,0,-20.97,100.456,1,0.85,2025-04-22T12:20:02.679+03:00,82,1.366666666666667,2025-04-22T09:54:17.825+03:00,0.02225348692287972,0
2025-04-22T12:20:48.206+03:00,1745313647.224662,40.95219657099274,29.14025835744745,76.12379,-1,-1,-1,-1,30,22.47268558134142,-9999,29970.45767129167,-0.8692626953125,0.4353790283203125,-0.22601318359375,29970.44759429167,-0.3264572732390973,-1.293132586547395,-0.4789485845556685,-0.2365832775831223,0.1209624707698822,-0.040861576795578,-0.01139527559280396,-0.02125594019889832,0.01938986778259277,XArbitraryZVertical,-0.2819070862146585,-0.5467129060787589,0.01499378577357254,0.7882947071162492,-0.8534880876541138,0.460846334695816,-0.2432667911052704,0,0,0,-1,-1,29970.16168229167,unknown,2,2025-04-22T12:20:47.902+03:00,2025-04-21T17:08:51.449+03:00,7264,0.976367,0,0,6055.744,5,20,2025-04-22T12:20:40.163+03:00,767006447.992437,0,-20.97,100.456,1,0.85,2025-04-22T12:20:02.679+03:00,82,1.366666666666667,2025-04-22T09:54:17.825+03:00,0.02225348692287972,0
2025-04-22T12:20:48.212+03:00,1745313647.224662,40.95219657099274,29.14025835744745,76.12379,-1,-1,-1,-1,30,22.47268558134142,-9999,29970.46774729167,-0.86993408203125,0.42462158203125,-0.2234954833984375,29970.45767129167,-0.3293583265207051,-1.293240276975288,-0.4791611840826748,-0.268770694732666,0.1308654993772507,-0.04286104813218117,-0.01524758338928223,-0.02240586280822754,0.01753160357475281,XArbitraryZVertical,-0.282777862620184,-0.5463173602408915,0.01393020779660532,0.7882766261815106,-0.853420078754425,0.4610349833965302,-0.2431480437517166,0,0,0,-1,-1,29970.16168229167,unknown,2,2025-04-22T12:20:47.902+03:00,2025-04-21T17:08:51.449+03:00,7264,0.976367,0,0,6055.744,5,20,2025-04-22T12:20:40.163+03:00,767006447.992437,0,-20.97,100.456,1,0.85,2025-04-22T12:20:02.679+03:00,82,1.366666666666667,2025-04-22T09:54:17.825+03:00,0.02225348692287972,0
2025-04-22T12:20:48.242+03:00,1745313647.224662,40.95219657099274,29.14025835744745,76.12379,-1,-1,-1,-1,30,22.47268558134142,-9999,29970.47782429167,-0.8690032958984375,0.42401123046875,-0.2232818603515625,29970.46774729167,-0.3326383292415032,-1.293432342174595,-0.4793873833935169,-0.3001779019832611,0.1420912593603134,-0.0490502342581749,-0.01603364944458008,-0.03371506929397583,0.01866663992404938,XArbitraryZVertical,-0.2837560502220174,-0.5458981074717547,0.01273352417972058,0.788235682113109,-0.8533663153648376,0.4612357020378113,-0.2429555207490921,0,0,0,-1,-1,29970.16168229167,unknown,2,2025-04-22T12:20:47.902+03:00,2025-04-21T17:08:51.449+03:00,7264,0.976367,0,0,6055.744,5,20,2025-04-22T12:20:40.163+03:00,767006447.992437,0,-20.97,100.456,1,0.85,2025-04-22T12:20:02.679+03:00,82,1.366666666666667,2025-04-22T09:54:17.825+03:00,0.02225348692287972,0
2025-04-22T12:20:48.243+03:00,1745313647.224662,40.95219657099274,29.14025835744745,76.12379,-1,-1,-1,-1,30,22.47268558134142,-9999,29970.48790029167,-0.8667449951171875,0.4267578125,-0.2218780517578125,29970.47782429167,-0.3362682841868734,-1.293693691742569,-0.4796006764273186,-0.32773157954216,0.1464332044124603,-0.0564742237329483,-0.01679718494415283,-0.03903120756149292,0.01989680528640747,XArbitraryZVertical,-0.2848238224297044,-0.5454563128243785,0.0114049943684147,0.7881768536245607,-0.8533352613449097,0.4614249467849731,-0.2427055984735489,0,0,0,-1,-1,29970.16168229167,unknown,2,2025-04-22T12:20:47.902+03:00,2025-04-21T17:08:51.449+03:00,7264,0.976367,0,0,6055.744,5,20,2025-04-22T12:20:40.163+03:00,767006447.992437,0,-20.97,100.456,1,0.85,2025-04-22T12:20:02.679+03:00,82,1.366666666666667,2025-04-22T09:54:17.825+03:00,0.02225348692287972,0
2025-04-22T12:20:48.244+03:00,1745313647.224662,40.95219657099274,29.14025835744745,76.12379,-1,-1,-1,-1,30,22.47268558134142,-9999,29970.49797729167,-0.8636932373046875,0.4251251220703125,-0.2157440185546875,29970.48790029167,-0.3402659004160589,-1.29412090185649,-0.4798345007958292,-0.3622104525566101,0.1443189233541489,-0.06279097497463226,-0.01427978277206421,-0.03514930605888367,0.01919752359390259,XArbitraryZVertical,-0.2859978997998703,-0.5450224280610688,0.009961883482945268,0.7880712983064336,-0.853334903717041,0.4616323709487915,-0.2423115074634552,0,0,0,-1,-1,29970.16168229167,unknown,2,2025-04-22T12:20:47.902+03:00,2025-04-21T17:08:51.449+03:00,7264,0.976367,0,0,6055.744,5,20,2025-04-22T12:20:40.163+03:00,767006447.992437,0,-20.97,100.456,1,0.85,2025-04-22T12:20:02.679+03:00,82,1.366666666666667,2025-04-22T09:54:17.825+03:00,0.02225348692287972,0
2025-04-22T12:20:48.253+03:00,1745313647.224662,40.95219657099274,29.14025835744745,76.12379,-1,-1,-1,-1,30,22.47268558134142,-9999,29970.50805329167,-0.8658294677734375,0.4255218505859375,-0.2114105224609375,29970.49797729167,-0.344610621840547,-1.294721830682976,-0.4801003953440676,-0.3896372616291046,0.1451338529586792,-0.07108139991760254,-0.0109260082244873,-0.03567510843276978,0.02327461540699005,XArbitraryZVertical,-0.2872769359649532,-0.5446001841980312,0.008417223480891188,0.7879159859070153,-0.8533622622489929,0.4618682265281677,-0.2417652010917664,0,0,0,-1,-1,29970.16168229167,unknown,2,2025-04-22T12:20:47.902+03:00,2025-04-21T17:08:51.449+03:00,7264,0.976367,0,0,6055.744,5,20,2025-04-22T12:20:40.163+03:00,767006447.992437,0,-20.97,100.456,1,0.85,2025-04-22T12:20:02.679+03:00,82,1.366666666666667,2025-04-22T09:54:17.825+03:00,0.02225348692287972,0
2025-04-22T12:20:48.263+03:00,1745313647.224662,40.95219657099274,29.14025835744745,76.12379,-1,-1,-1,-1,30,22.47268558134142,-9999,29970.51813029167,-0.872650146484375,0.430694580078125,-0.21240234375,29970.50805329167,-0.3493283097769259,-1.295466824519963,-0.4803688699409372,-0.4187336266040802,0.155290886759758,-0.0830371305346489,-0.01094180345535278,-0.03675234317779541,0.02834239602088928,XArbitraryZVertical,-0.2886573234860373,-0.5441774509230567,0.006747992341884271,0.7877196979586225,-0.8534228801727295,0.462106317281723,-0.241095706820488,0,0,0,-1,-1,29970.16168229167,unknown,2,2025-04-22T12:20:47.902+03:00,2025-04-21T17:08:51.449+03:00,7264,0.976367,0,0,6055.744,5,20,2025-04-22T12:20:40.163+03:00,767006447.992437,0,-20.97,100.456,1,0.85,2025-04-22T12:20:02.679+03:00,82,1.366666666666667,2025-04-22T09:54:17.825+03:00,0.02225348692287972,0
2025-04-22T12:20:48.273+03:00,1745313647.224662,40.95219657099274,29.14025835744745,76.12379,-1,-1,-1,-1,30,22.47268558134142,-9999,29970.52820629167,-0.8752593994140625,0.43646240234375,-0.2122039794921875,29970.51813029167,-0.3543311191714359,-1.296230972571855,-0.4805669542387067,-0.4386080801486969,0.1695448607206345,-0.09407570213079453,-0.01598811149597168,-0.03381529450416565,0.02914547920227051,XArbitraryZVertical,-0.2900887752897743,-0.5437271161904175,0.004948862547168784,0.7875181051911584,-0.8535186648368835,0.4622819721698761,-0.2404186576604843,0,0,0,-1,-1,29970.16168229167,unknown,2,2025-04-22T12:20:47.902+03:00,2025-04-21T17:08:51.449+03:00,7264,0.976367,0,0,6055.744,5,20,2025-04-22T12:20:40.163+03:00,767006447.992437,0,-20.97,100.456,1,0.85,2025-04-22T12:20:02.679+03:00,82,1.366666666666667,2025-04-22T09:54:17.825+03:00,0.02225348692287972,0
2025-04-22T12:20:48.283+03:00,1745313647.224662,40.95219657099274,29.14025835744745,76.12379,-1,-1,-1,-1,30,22.47268558134142,-9999,29970.53828329167,-0.8770599365234375,0.43280029296875,-0.2084197998046875,29970.52820629167,-0.3595328517383116,-1.296845854870889,-0.48082957240292,-0.4607037901878357,0.1859547197818756,-0.1048164963722229,-0.02140474319458008,-0.02818876504898071,0.02646678686141968,XArbitraryZVertical,-0.2915976832356663,-0.5431761406379655,0.003070471457620649,0.7873506131852351,-0.8535494208335876,0.4625148475170135,-0.239860936999321,0,0,0,-1,-1,29970.16168229167,unknown,2,2025-04-22T12:20:47.902+03:00,2025-04-21T17:08:51.449+03:00,7264,0.976367,0,0,6055.744,5,20,2025-04-22T12:20:40.163+03:00,767006447.992437,0,-20.97,100.456,1,0.85,2025-04-22T12:20:02.679+03:00,82,1.366666666666667,2025-04-22T09:54:17.825+03:00,0.02225348692287972,0
2025-04-22T12:20:48.293+03:00,1745313647.224662,40.95219657099274,29.14025835744745,76.12379,-1,-1,-1,-1,30,22.47268558134142,-9999,29970.54835929167,-0.8766937255859375,0.4234161376953125,-0.206390380859375,29970.53828329167,-0.3650914375405978,-1.297455435202841,-0.4810618513135825,-0.4939977526664734,0.2026573419570923,-0.1141656190156937,-0.02281171083450317,-0.0269756019115448,0.0303119421005249,XArbitraryZVertical,-0.2931912754807278,-0.5425708112196743,0.001042539561898062,0.7871814533454095,-0.8535920381546021,0.4627207815647125,-0.2393115758895874,0,0,0,-1,-1,29970.16168229167,unknown,2,2025-04-22T12:20:47.902+03:00,2025-04-21T17:08:51.449+03:00,7264,0.976367,0,0,6055.744,5,20,2025-04-22T12:20:40.163+03:00,767006447.992437,0,-20.97,100.456,1,0.85,2025-04-22T12:20:02.679+03:00,82,1.366666666666667,2025-04-22T09:54:17.825+03:00,0.02225348692287972,0
2025-04-22T12:20:48.316+03:00,1745313647.224662,40.95219657099274,29.14025835744745,76.12379,-1,-1,-1,-1,30,22.47268558134142,-9999,29970.55843629167,-0.8777008056640625,0.4136810302734375,-0.205230712890625,29970.54835929167,-0.3710807956239261,-1.298065063123768,-0.4813071965408144,-0.5318828821182251,0.2240254729986191,-0.1220352649688721,-0.02347725629806519,-0.03526505827903748,0.03204980492591858,XArbitraryZVertical,-0.2949052195520277,-0.5418954139738831,-0.001149861364563049,0.7870061901176344,-0.8536282777786255,0.4629382491111755,-0.2387605458498001,0,0,0,-1,-1,29970.16168229167,unknown,2,2025-04-22T12:20:47.902+03:00,2025-04-21T17:08:51.449+03:00,7264,0.976367,0,0,6055.744,5,20,2025-04-22T12:20:40.163+03:00,767006447.992437,0,-20.97,100.456,1,0.85,2025-04-22T12:20:02.679+03:00,82,1.366666666666667,2025-04-22T09:54:17.825+03:00,0.02225348692287972,0
2025-04-22T12:20:48.318+03:00,1745313647.224662,40.95219657099274,29.14025835744745,76.12379,-1,-1,-1,-1,30,22.47268558134142,-9999,29970.56851329167,-0.8810577392578125,0.41387939453125,-0.202667236328125,29970.55843629167,-0.3775027427227746,-1.29865164962508,-0.4816052452100283,-0.5684251189231873,0.249738022685051,-0.1252893805503845,-0.02340930700302124,-0.04593569040298462,0.03328187763690948,XArbitraryZVertical,-0.2967539702401568,-0.5411337569575605,-0.003498638928428611,0.7868283736850339,-0.8536352515220642,0.4632024168968201,-0.238222673535347,0,0,0,-1,-1,29970.16168229167,unknown,2,2025-04-22T12:20:47.902+03:00,2025-04-21T17:08:51.449+03:00,7264,0.976367,0,0,6055.744,5,20,2025-04-22T12:20:40.163+03:00,767006447.992437,0,-20.97,100.456,1,0.85,2025-04-22T12:20:02.679+03:00,82,1.366666666666667,2025-04-22T09:54:17.825+03:00,0.02225348692287972,0
2025-04-22T12:20:48.323+03:00,1745313647.224662,40.95219657099274,29.14025835744745,76.12379,-1,-1,-1,-1,30,22.47268558134142,-9999,29970.57858929167,-0.882354736328125,0.420684814453125,-0.2024993896484375,29970.56851329167,-0.3842956778613443,-1.299146157926508,-0.4819487626412117,-0.6007396578788757,0.2751666605472565,-0.1311025172472,-0.02709180116653442,-0.05110764503479004,0.03423614799976349,XArbitraryZVertical,-0.2987173648963937,-0.5402675539007631,-0.005991963010424136,0.7866656274447827,-0.8535996079444885,0.4635068476200104,-0.2377578169107437,0,0,0,-1,-1,29970.16168229167,unknown,2,2025-04-22T12:20:47.902+03:00,2025-04-21T17:08:51.449+03:00,7264,0.976367,0,0,6055.744,5,20,2025-04-22T12:20:40.163+03:00,767006447.992437,0,-20.97,100.456,1,0.85,2025-04-22T12:20:02.679+03:00,82,1.366666666666667,2025-04-22T09:54:17.825+03:00,0.02225348692287972,0
2025-04-22T12:20:48.333+03:00,1745313647.224662,40.95219657099274,29.14025835744745,76.12379,-1,-1,-1,-1,30,22.47268558134142,-9999,29970.58866629167,-0.8798370361328125,0.4226226806640625,-0.200653076171875,29970.57858929167,-0.3914523773042607,-1.299616167914346,-0.4823358625387669,-0.6324383616447449,0.2927582561969757,-0.132891058921814,-0.02898412942886353,-0.04594218730926514,0.0350838303565979,XArbitraryZVertical,-0.3007921128170615,-0.5393235018592124,-0.008617544839113759,0.7864985164784045,-0.853538453578949,0.463849812746048,-0.237308531999588,0,0,0,-1,-1,29970.16168229167,unknown,2,2025-04-22T12:20:47.902+03:00,2025-04-21T17:08:51.449+03:00,7264,0.976367,0,0,6055.744,5,20,2025-04-22T12:20:40.163+03:00,767006447.992437,0,-20.97,100.456,1,0.85,2025-04-22T12:20:02.679+03:00,82,1.366666666666667,2025-04-22T09:54:17.825+03:00,0.02225348692287972,0
2025-04-22T12:20:48.343+03:00,1745313647.224662,40.95219657099274,29.14025835744745,76.12379,-1,-1,-1,-1,30,22.47268558134142,-9999,29970.59874229167,-0.881103515625,0.4247894287109375,-0.2017974853515625,29970.58866629167,-0.3989625082124055,-1.300084840025441,-0.4827283468141885,-0.6618375778198242,0.3076700866222382,-0.1420864313840866,-0.02784299850463867,-0.04171222448348999,0.03501653671264648,XArbitraryZVertical,-0.3029609446070353,-0.5383166135600451,-0.01137943563658528,0.7863207627778419,-0.8534740805625916,0.4641974866390228,-0.2368597835302353,0,0,0,-1,-1,29970.16168229167,unknown,2,2025-04-22T12:20:47.902+03:00,2025-04-21T17:08:51.449+03:00,7264,0.976367,0,0,6055.744,5,20,2025-04-22T12:20:40.163+03:00,767006447.992437,0,-20.97,100.456,1,0.85,2025-04-22T12:20:02.679+03:00,82,1.366666666666667,2025-04-22T09:54:17.825+03:00,0.02225348692287972,0
2025-04-22T12:20:48.354+03:00,1745313647.224662,40.95219657099274,29.14025835744745,76.12379,-1,-1,-1,-1,30,22.47268558134142,-9999,29970.60881929167,-0.88623046875,0.431060791015625,-0.202239990234375,29970.59874229167,-0.4067714402565475,-1.300484779146762,-0.4831154860395567,-0.6814245581626892,0.3346575796604156,-0.1500200778245926,-0.02645671367645264,-0.04086488485336304,0.03474926948547363,XArbitraryZVertical,-0.3052042045440758,-0.5372291710692669,-0.01426962511224845,0.7861498316463962,-0.8533955216407776,0.4645403623580933,-0.2364704161882401,0,0,0,-1,-1,29970.16168229167,unknown,2,2025-04-22T12:20:47.902+03:00,2025-04-21T17:08:51.449+03:00,7264,0.976367,0,0,6055.744,5,20,2025-04-22T12:20:40.163+03:00,767006447.992437,0,-20.97,100.456,1,0.85,2025-04-22T12:20:02.679+03:00,82,1.366666666666667,2025-04-22T09:54:17.825+03:00,0.02225348692287972,0
2025-04-22T12:20:48.363+03:00,1745313647.224662,40.95219657099274,29.14025835744745,76.12379,-1,-1,-1,-1,30,22.47268558134142,-9999,29970.61889529167,-0.8878173828125,0.4361724853515625,-0.2043304443359375,29970.60881929167,-0.4148200897909278,-1.30075256152793,-0.4834656004808202,-0.701465368270874,0.3537133038043976,-0.1616242825984955,-0.0308380126953125,-0.03630742430686951,0.03443154692649841,XArbitraryZVertical,-0.3074932252213288,-0.5360491533866532,-0.01728446519885125,0.7860027027813014,-0.8533018827438354,0.4648503661155701,-0.2361984401941299,0,0,0,-1,-1,29970.16168229167,unknown,2,2025-04-22T12:20:47.902+03:00,2025-04-21T17:08:51.449+03:00,7264,0.976367,0,0,6055.744,5,20,2025-04-22T12:20:40.163+03:00,767006447.992437,0,-20.97,100.456,1,0.85,2025-04-22T12:20:02.679+03:00,82,1.366666666666667,2025-04-22T09:54:17.825+03:00,0.02225348692287972,0
2025-04-22T12:20:48.374+03:00,1745313647.224662,40.95219657099274,29.14025835744745,76.12379,-1,-1,-1,-1,30,22.47268558134142,-9999,29970.62897229167,-0.883758544921875,0.433135986328125,-0.201507568359375,29970.61889529167,-0.4231727228020846,-1.301011627880327,-0.4837923062950581,-0.7287581562995911,0.3653878569602966,-0.1691325008869171,-0.03453958034515381,-0.0298217236995697,0.03255255520343781,XArbitraryZVertical,-0.3098503207452288,-0.5348124249082207,-0.02042634882607076,0.7858441657854842,-0.8532166481018066,0.4651395976543427,-0.2359368950128555,0,0,0,-1,-1,29970.16168229167,unknown,2,2025-04-22T12:20:47.902+03:00,2025-04-21T17:08:51.449+03:00,7264,0.976367,0,0,6055.744,5,20,2025-04-22T12:20:40.163+03:00,767006447.992437,0,-20.97,100.456,1,0.85,2025-04-22T12:20:02.679+03:00,82,1.366666666666667,2025-04-22T09:54:17.825+03:00,0.02225348692287972,0
2025-04-22T12:20:48.384+03:00,1745313647.224662,40.95219657099274,29.14025835744745,76.12379,-1,-1,-1,-1,30,22.47268558134142,-9999,29970.63904829167,-0.8824310302734375,0.4276580810546875,-0.2014923095703125,29970.62897229167,-0.4318820552392781,-1.301295894709875,-0.4840825634375413,-0.7632109522819519,0.381279468536377,-0.1785283982753754,-0.03188669681549072,-0.03033807873725891,0.0323655754327774,XArbitraryZVertical,-0.3122846947518823,-0.5335251430016902,-0.0237145667749716,0.7856631684535047,-0.8531535267829895,0.465396523475647,-0.2356583774089813,0,0,0,-1,-1,29970.16168229167,unknown,2,2025-04-22T12:20:47.902+03:00,2025-04-21T17:08:51.449+03:00,7264,0.976367,0,0,6055.744,5,20,2025-04-22T12:20:40.163+03:00,767006447.992437,0,-20.97,100.456,1,0.85,2025-04-22T12:20:02.679+03:00,82,1.366666666666667,2025-04-22T09:54:17.825+03:00,0.02225348692287972,0
2025-04-22T12:20:48.394+03:00,1745313647.224662,40.95219657099274,29.14025835744745,76.12379,-1,-1,-1,-1,30,22.47268558134142,-9999,29970.64912529167,-0.883148193359375,0.4280853271484375,-0.204833984375,29970.63904829167,-0.4409663802746478,-1.30160923746049,-0.4843860561031756,-0.7940719127655029,0.3954408466815948,-0.1865323930978775,-0.02995014190673828,-0.03591674566268921,0.0353718101978302,XArbitraryZVertical,-0.3148186464745698,-0.5321771211261105,-0.02714019179414181,0.7854552369175114,-0.8530910611152649,0.4656651318073273,-0.2353534698486328,0,0,0,-1,-1,29970.16168229167,unknown,2,2025-04-22T12:20:47.902+03:00,2025-04-21T17:08:51.449+03:00,7264,0.976367,0,0,6055.744,5,20,2025-04-22T12:20:40.163+03:00,767006447.992437,0,-20.97,100.456,1,0.85,2025-04-22T12:20:02.679+03:00,82,1.366666666666667,2025-04-22T09:54:17.825+03:00,0.02225348692287972,0
2025-04-22T12:20:48.404+03:00,1745313647.224662,40.95219657099274,29.14025835744745,76.12379,-1,-1,-1,-1,30,22.47268558134142,-9999,29970.65920129167,-0.8828582763671875,0.4321441650390625,-0.20477294921875,29970.64912529167,-0.4504264868213323,-1.301956943148799,-0.4847147021299338,-0.8265007138252258,0.409591019153595,-0.1927034705877304,-0.02931398153305054,-0.03845053911209106,0.03118932247161865,XArbitraryZVertical,-0.3174560314467632,-0.5307669613196684,-0.0306987494574969,0.7852169421063174,-0.8530254364013672,0.4659559428691864,-0.2350161969661713,0,0,0,-1,-1,29970.16168229167,unknown,2,2025-04-22T12:20:47.902+03:00,2025-04-21T17:08:51.449+03:00,7264,0.976367,0,0,6055.744,5,20,2025-04-22T12:20:40.163+03:00,767006447.992437,0,-20.97,100.456,1,0.85,2025-04-22T12:20:02.679+03:00,82,1.366666666666667,2025-04-22T09:54:17.825+03:00,0.02225348692287972,0
2025-04-22T12:20:48.414+03:00,1745313647.224662,40.95219657099274,29.14025835744745,76.12379,-1,-1,-1,-1,30,22.47268558134142,-9999,29970.66927829167,-0.879058837890625,0.429931640625,-0.2054901123046875,29970.65920129167,-0.4602846706882029,-1.302347427607219,-0.4850631973358085,-0.8617334961891174,0.4234586358070374,-0.201294019818306,-0.03111839294433594,-0.03471529483795166,0.03015702962875366,XArbitraryZVertical,-0.3202003047719204,-0.5292936384106618,-0.03439887111201134,0.78494377960029,-0.8529605269432068,0.4662642776966095,-0.2346400171518326,0,0,0,-1,-1,29970.16168229167,unknown,2,2025-04-22T12:20:47.902+03:00,2025-04-21T17:08:51.449+03:00,7264,0.976367,0,0,6055.744,5,20,2025-04-22T12:20:40.163+03:00,767006447.992437,0,-20.97,100.456,1,0.85,2025-04-22T12:20:02.679+03:00,82,1.366666666666667,2025-04-22T09:54:17.825+03:00,0.02225348692287972,0
2025-04-22T12:20:48.424+03:00,1745313647.224662,40.95219657099274,29.14025835744745,76.12379,-1,-1,-1,-1,30,22.47268558134142,-9999,29970.67935429167,-0.8792877197265625,0.4256439208984375,-0.2027740478515625,29970.66927829167,-0.4705251761120282,-1.302812651353281,-0.4854257144589387,-0.8915966153144836,0.4324848651885986,-0.2050719857215881,-0.02789181470870972,-0.03566157817840576,0.02921181917190552,XArbitraryZVertical,-0.3230450641993666,-0.5277714393614823,-0.03823057735626544,0.7846257472509898,-0.8529065251350403,0.4665849506855011,-0.2341983914375305,0,0,0,-1,-1,29970.16168229167,unknown,2,2025-04-22T12:20:47.902+03:00,2025-04-21T17:08:51.449+03:00,7264,0.976367,0,0,6055.744,5,20,2025-04-22T12:20:40.163+03:00,767006447.992437,0,-20.97,100.456,1,0.85,2025-04-22T12:20:02.679+03:00,82,1.366666666666667,2025-04-22T09:54:17.825+03:00,0.02225348692287972,0
2025-04-22T12:20:48.434+03:00,1745313647.224662,40.95219657099274,29.14025835744745,76.12379,-1,-1,-1,-1,30,22.47268558134142,-9999,29970.68943129167,-0.8812408447265625,0.428436279296875,-0.2029266357421875,29970.67935429167,-0.4811109687436235,-1.30330819416148,-0.4858175846800212,-0.9227449297904968,0.4521227478981018,-0.2120370864868164,-0.02557188272476196,-0.04023477435112,0.02909174561500549,XArbitraryZVertical,-0.3259844895116192,-0.5261847753594132,-0.04218129820264544,0.7842732254536675,-0.8528461456298828,0.4669314920902252,-0.2337273955345154,0,0,0,-1,-1,29970.16168229167,unknown,2,2025-04-22T12:20:47.902+03:00,2025-04-21T17:08:51.449+03:00,7264,0.976367,0,0,6055.744,5,20,2025-04-22T12:20:40.163+03:00,767006447.992437,0,-20.97,100.456,1,0.85,2025-04-22T12:20:02.679+03:00,82,1.366666666666667,2025-04-22T09:54:17.825+03:00,0.02225348692287972,0
2025-04-22T12:20:48.444+03:00,1745313647.224662,40.95219657099274,29.14025835744745,76.12379,-1,-1,-1,-1,30,22.47268558134142,-9999,29970.69950829167,-0.8836822509765625,0.4285125732421875,-0.204833984375,29970.68943129167,-0.4920646970582135,-1.303708870626729,-0.4862118687301057,-0.9527435898780823,0.4831698834896088,-0.2192518562078476,-0.02811259031295776,-0.03989681601524353,0.03077657520771027,XArbitraryZVertical,-0.3290112944408086,-0.5244836184339297,-0.04628831390071209,0.7839169356769806,-0.8527619242668152,0.4672801196575165,-0.2333370000123978,0,0,0,-1,-1,29970.16168229167,unknown,2,2025-04-22T12:20:47.902+03:00,2025-04-21T17:08:51.449+03:00,7264,0.976367,0,0,6055.744,5,20,2025-04-22T12:20:40.163+03:00,767006447.992437,0,-20.97,100.456,1,0.85,2025-04-22T12:20:02.679+03:00,82,1.366666666666667,2025-04-22T09:54:17.825+03:00,0.02225348692287972,0
2025-04-22T12:20:48.454+03:00,1745313647.224662,40.95219657099274,29.14025835744745,76.12379,-1,-1,-1,-1,30,22.47268558134142,-9999,29970.70958429167,-0.878448486328125,0.4278106689453125,-0.20513916015625,29970.69950829167,-0.503365023456735,-1.304034822969665,-0.4866182022350037,-0.979102611541748,0.5022393465042114,-0.2264427244663239,-0.03085958957672119,-0.03819608688354492,0.0291668176651001,XArbitraryZVertical,-0.3321220989654114,-0.5226762124203649,-0.05053715071514328,0.7835498843170217,-0.852654755115509,0.4676393270492554,-0.2330089807510376,0,0,0,-1,-1,29970.16168229167,unknown,2,2025-04-22T12:20:47.902+03:00,2025-04-21T17:08:51.449+03:00,7264,0.976367,0,0,6055.744,5,20,2025-04-22T12:20:40.163+03:00,767006447.992437,0,-20.97,100.456,1,0.85,2025-04-22T12:20:02.679+03:00,82,1.366666666666667,2025-04-22T09:54:17.825+03:00,0.02225348692287972,0
2025-04-22T12:20:48.464+03:00,1745313647.224662,40.95219657099274,29.14025835744745,76.12379,-1,-1,-1,-1,30,22.47268558134142,-9999,29970.71966129167,-0.8754119873046875,0.43316650390625,-0.2049560546875,29970.70958429167,-0.5149725796492221,-1.304323097136333,-0.4870356158742469,-1.007776021957397,0.5186548233032227,-0.2311927378177643,-0.02792912721633911,-0.04022812843322754,0.02789303660392761,XArbitraryZVertical,-0.3353058112375797,-0.5207822304961031,-0.05490646762621305,0.7831610106511966,-0.8525335788726807,0.4680082499980927,-0.2327117621898651,0,0,0,-1,-1,29970.16168229167,unknown,2,2025-04-22T12:20:47.902+03:00,2025-04-21T17:08:51.449+03:00,7264,0.976367,0,0,6055.744,5,20,2025-04-22T12:20:40.163+03:00,767006447.992437,0,-20.97,100.456,1,0.85,2025-04-22T12:20:02.679+03:00,82,1.366666666666667,2025-04-22T09:54:17.825+03:00,0.02225348692287972,0
2025-04-22T12:20:48.474+03:00,1745313647.224662,40.95219657099274,29.14025835744745,76.12379,-1,-1,-1,-1,30,22.47268558134142,-9999,29970.72973729167,-0.87420654296875,0.4346923828125,-0.205291748046875,29970.71966129167,-0.52691563404546,-1.304587093332253,-0.4874807595574756,-1.035007953643799,0.5369549989700317,-0.237189918756485,-0.02326220273971558,-0.0377223789691925,0.02804040908813477,XArbitraryZVertical,-0.3385747940923635,-0.5187978265695397,-0.05939974945615527,0.7827436057747349,-0.8523938655853271,0.4684015810489655,-0.2324318438768387,0,0,0,-1,-1,29970.16168229167,unknown,2,2025-04-22T12:20:47.902+03:00,2025-04-21T17:08:51.449+03:00,7264,0.976367,0,0,6055.744,5,20,2025-04-22T12:20:40.163+03:00,767006447.992437,0,-20.97,100.456,1,0.85,2025-04-22T12:20:02.679+03:00,82,1.366666666666667,2025-04-22T09:54:17.825+03:00,0.02225348692287972,0
2025-04-22T12:20:48.484+03:00,1745313647.224662,40.95219657099274,29.14025835744745,76.12379,-1,-1,-1,-1,30,22.47268558134142,-9999,29970.73981429167,-0.8713836669921875,0.4323577880859375,-0.2026214599609375,29970.72973729167,-0.5392074251217217,-1.304851341280394,-0.4879234345897115,-1.070806741714478,0.5527315139770508,-0.2443322539329529,-0.02300423383712769,-0.03353580832481384,0.02705873548984528,XArbitraryZVertical,-0.3419212147723384,-0.5167338283484262,-0.06402709409559493,0.7822892536098894,-0.85225510597229,0.4687926471233368,-0.232152059674263,0,0,0,-1,-1,29970.16168229167,unknown,2,2025-04-22T12:20:47.902+03:00,2025-04-21T17:08:51.449+03:00,7264,0.976367,0,0,6055.744,5,20,2025-04-22T12:20:40.163+03:00,767006447.992437,0,-20.97,100.456,1,0.85,2025-04-22T12:20:02.679+03:00,82,1.366666666666667,2025-04-22T09:54:17.825+03:00,0.02225348692287972,0
