loggingTime(txt),locationTimestamp_since1970(s),locationLatitude(WGS84),locationLongitude(WGS84),locationAltitude(m),locationSpeed(m/s),locationSpeedAccuracy(m/s),locationCourse(°),locationCourseAccuracy(°),locationVerticalAccuracy(m),locationHorizontalAccuracy(m),locationFloor(Z),accelerometerTimestamp_sinceReboot(s),accelerometerAccelerationX(G),accelerometerAccelerationY(G),accelerometerAccelerationZ(G),motionTimestamp_sinceReboot(s),motionYaw(rad),motionRoll(rad),motionPitch(rad),motionRotationRateX(rad/s),motionRotationRateY(rad/s),motionRotationRateZ(rad/s),motionUserAccelerationX(G),motionUserAccelerationY(G),motionUserAccelerationZ(G),motionAttitudeReferenceFrame(txt),motionQuaternionX(R),motionQuaternionY(R),motionQuaternionZ(R),motionQuaternionW(R),motionGravityX(G),motionGravityY(G),motionGravityZ(G),motionMagneticFieldX(µT),motionMagneticFieldY(µT),motionMagneticFieldZ(µT),motionHeading(°),motionMagneticFieldCalibrationAccuracy(Z),activityTimestamp_sinceReboot(s),activity(txt),activityActivityConfidence(Z),activityActivityStartDate(txt),pedometerStartDate(txt),pedometerNumberofSteps(N),pedometerAverageActivePace(s/m),pedometerCurrentPace(s/m),pedometerCurrentCadence(steps/s),pedometerDistance(m),pedometerFloorAscended(N),pedometerFloorDescended(N),pedometerEndDate(txt),altimeterTimestamp_sinceReboot(s),altimeterReset(bool),altimeterRelativeAltitude(m),altimeterPressure(kPa),batteryState(N),batteryLevel(R),heartRateBPMTimestamp(txt),heartRateBPM(N),heartRateBPS(R),heartRateVariabilityTimestamp(txt),heartRateVariability(ms),label
2025-04-22T10:57:49.765+03:00,1745308667.519363,40.95227670218328,29.14031054922987,76.52189,-1,-1,-1,-1,30,30.11905621221268,-9999,27184.973499375,-0.654296875,0.6608428955078125,-0.1649169921875,27184.963424375,-1.334136612243086,-1.295264616368091,-0.7683308144902806,0.04833459481596947,0.01260847132652998,0.01100755762308836,-0.0376962423324585,0.008310914039611816,-0.007907480001449585,XArbitraryZVertical,0.5808720208332172,0.2545052166333695,0.2798072923593736,-0.7207790566602157,-0.6919485330581665,0.6949359178543091,-0.1956295818090439,0,0,0,-1,-1,27179.74554866667,unknown,2,2025-04-22T10:57:44.491+03:00,2025-04-21T17:08:51.449+03:00,7097,0.9377078,0,0,5930.618,5,20,2025-04-22T10:57:29.015+03:00,767001149.8999774,0,-21.11,100.4558,1,0.95,2025-04-22T10:52:28.061+03:00,85,1.416666666666667,2025-04-22T09:54:17.825+03:00,0.02225348692287972,0
2025-04-22T10:57:49.768+03:00,1745308667.519363,40.95227670218328,29.14031054922987,76.52189,-1,-1,-1,-1,30,30.11905621221268,-9999,27184.983575375,-0.63323974609375,0.6595458984375,-0.171783447265625,27184.973499375,-1.333873744934383,-1.295438114459442,-0.7683167138144685,-0.002184505574405193,-0.06132993474602699,0.002419928554445505,-0.05933552980422974,-0.01496386528015137,0.009873703122138977,XArbitraryZVertical,0.5808597039473581,0.2546485845231222,0.2796665869752207,-0.7207929894133577,-0.691991925239563,0.6949257850646973,-0.1955122053623199,0,0,0,-1,-1,27179.74554866667,unknown,2,2025-04-22T10:57:44.491+03:00,2025-04-21T17:08:51.449+03:00,7097,0.9377078,0,0,5930.618,5,20,2025-04-22T10:57:29.015+03:00,767001149.8999774,0,-21.11,100.4558,1,0.95,2025-04-22T10:52:28.061+03:00,85,1.416666666666667,2025-04-22T09:54:17.825+03:00,0.02225348692287972,0
2025-04-22T10:57:49.769+03:00,1745308667.519363,40.95227670218328,29.14031054922987,76.52189,-1,-1,-1,-1,30,30.11905621221268,-9999,27184.993651375,-0.7227783203125,0.6904754638671875,-0.1941986083984375,27184.983575375,-1.333841581723677,-1.295706569509679,-0.7684232252837448,0.005803646054118872,0.01586365327239037,0.01910702884197235,0.05026483535766602,-0.03777599334716797,0.03220504522323608,XArbitraryZVertical,0.5809165993498658,0.2547208864959914,0.2795437990489768,-0.7207692807243635,-0.6919732689857483,0.6950023770332336,-0.1953063458204269,0,0,0,-1,-1,27179.74554866667,unknown,2,2025-04-22T10:57:44.491+03:00,2025-04-21T17:08:51.449+03:00,7097,0.9377078,0,0,5930.618,5,20,2025-04-22T10:57:29.015+03:00,767001149.8999774,0,-21.11,100.4558,1,0.95,2025-04-22T10:52:28.061+03:00,85,1.416666666666667,2025-04-22T09:54:17.825+03:00,0.02225348692287972,0
2025-04-22T10:57:49.771+03:00,1745308667.519363,40.95227670218328,29.14031054922987,76.52189,-1,-1,-1,-1,30,30.11905621221268,-9999,27185.003726375,-0.7191009521484375,0.687347412109375,-0.1988525390625,27184.993651375,-1.333601370619274,-1.295168993662774,-0.7686549622939804,0.01144668459892273,0.04286257922649384,0.03169915452599525,0.04919606447219849,-0.03167128562927246,0.0203871876001358,XArbitraryZVertical,0.5808619970000729,0.2545233066380543,0.2795409861569998,-0.7208841247149748,-0.6917130947113037,0.6951689720153809,-0.1956344544887543,0,0,0,-1,-1,27179.74554866667,unknown,2,2025-04-22T10:57:44.491+03:00,2025-04-21T17:08:51.449+03:00,7097,0.9377078,0,0,5930.618,5,20,2025-04-22T10:57:29.015+03:00,767001149.8999774,0,-21.11,100.4558,1,0.95,2025-04-22T10:52:28.061+03:00,85,1.416666666666667,2025-04-22T09:54:17.825+03:00,0.02225348692287972,0
2025-04-22T10:57:49.775+03:00,1745308667.519363,40.95227670218328,29.14031054922987,76.52189,-1,-1,-1,-1,30,30.11905621221268,-9999,27185.013802375,-0.6609344482421875,0.6837615966796875,-0.1910858154296875,27185.003726375,-1.333495071071611,-1.294936202009398,-0.7689100712732669,-0.005587026476860046,-0.01054511778056622,0.02015588246285915,-0.03884983062744141,-0.003107070922851562,-7.897615432739258e-06,XArbitraryZVertical,0.5808722201519834,0.2543892497395309,0.2794906170558537,-0.7209426975008681,-0.6914967894554138,0.6953523755073547,-0.1957471519708633,0,0,0,-1,-1,27179.74554866667,unknown,2,2025-04-22T10:57:44.491+03:00,2025-04-21T17:08:51.449+03:00,7097,0.9377078,0,0,5930.618,5,20,2025-04-22T10:57:29.015+03:00,767001469.7401165,0,-20.97,100.4566,1,0.95,2025-04-22T10:52:28.061+03:00,85,1.416666666666667,2025-04-22T09:54:17.825+03:00,0.02225348692287972,0
2025-04-22T10:57:49.778+03:00,1745308667.519363,40.95227670218328,29.14031054922987,76.52189,-1,-1,-1,-1,30,30.11905621221268,-9999,27185.023878375,-0.6695556640625,0.69427490234375,-0.1914520263671875,27185.013802375,-1.333576698358447,-1.295225579261758,-0.7690695307238091,-0.01449769735336304,-0.02626016549766064,0.01692759990692139,-0.02016210556030273,-0.008867442607879639,-0.002465993165969849,XArbitraryZVertical,0.5809581926694899,0.2544192268567871,0.2793862117098105,-0.7209033301187273,-0.6914467811584473,0.695466935634613,-0.1955168694257736,0,0,0,-1,-1,27179.74554866667,unknown,2,2025-04-22T10:57:44.491+03:00,2025-04-21T17:08:51.449+03:00,7097,0.9377078,0,0,5930.618,5,20,2025-04-22T10:57:29.015+03:00,767001469.7401165,0,-20.97,100.4566,1,0.95,2025-04-22T10:52:28.061+03:00,85,1.416666666666667,2025-04-22T09:54:17.825+03:00,0.02225348692287972,0
2025-04-22T10:57:49.788+03:00,1745308667.519363,40.95227670218328,29.14031054922987,76.52189,-1,-1,-1,-1,30,30.11905621221268,-9999,27185.033953375,-0.7001190185546875,0.70489501953125,-0.194183349609375,27185.023878375,-1.333593671168151,-1.295332787141032,-0.7692716943739619,-6.269855657592416e-05,0.006092048715800047,0.01772315055131912,0.03314453363418579,-0.01200342178344727,0.004928961396217346,XArbitraryZVertical,0.5810199096988745,0.2543887275783807,0.2792980426272875,-0.7208984830322481,-0.6913323402404785,0.6956121921539307,-0.1954044848680496,0,0,0,-1,-1,27179.74554866667,unknown,2,2025-04-22T10:57:44.491+03:00,2025-04-21T17:08:51.449+03:00,7097,0.9377078,0,0,5930.618,5,20,2025-04-22T10:57:29.015+03:00,767001469.7401165,0,-20.97,100.4566,1,0.95,2025-04-22T10:52:28.061+03:00,85,1.416666666666667,2025-04-22T09:54:17.825+03:00,0.02225348692287972,0
2025-04-22T10:57:49.794+03:00,1745308667.519363,40.95227670218328,29.14031054922987,76.52189,-1,-1,-1,-1,30,30.11905621221268,-9999,27185.044029375,-0.6904144287109375,0.707366943359375,-0.1902313232421875,27185.033953375,-1.333470547192202,-1.295154039852088,-0.7694758567035148,0.004944843240082264,0.005481918808072805,0.01510792691260576,0.01658517122268677,0.0003469586372375488,0.002953946590423584,XArbitraryZVertical,0.5810242430750762,0.2542953036071294,0.279241905654995,-0.7209498358271017,-0.6911609768867493,0.6957588791847229,-0.1954894512891769,0,0,0,-1,-1,27179.74554866667,unknown,2,2025-04-22T10:57:44.491+03:00,2025-04-21T17:08:51.449+03:00,7097,0.9377078,0,0,5930.618,5,20,2025-04-22T10:57:29.015+03:00,767001469.7401165,0,-20.97,100.4566,1,0.95,2025-04-22T10:52:28.061+03:00,85,1.416666666666667,2025-04-22T09:54:17.825+03:00,0.02225348692287972,0
2025-04-22T10:57:49.804+03:00,1745308667.519363,40.95227670218328,29.14031054922987,76.52189,-1,-1,-1,-1,30,30.11905621221268,-9999,27185.054105375,-0.6756591796875,0.7024078369140625,-0.1881561279296875,27185.044029375,-1.333376668545858,-1.295082358526506,-0.7695704589843541,0.001897920621559024,-0.008033623918890953,0.008420996367931366,-0.01057666540145874,0.0105939507484436,0.001612305641174316,XArbitraryZVertical,0.5810231777382794,0.2542666698215673,0.2791993213096607,-0.720977232690858,-0.6910834908485413,0.6958268284797668,-0.1955210566520691,0,0,0,-1,-1,27179.74554866667,unknown,2,2025-04-22T10:57:44.491+03:00,2025-04-21T17:08:51.449+03:00,7097,0.9377078,0,0,5930.618,5,20,2025-04-22T10:57:29.015+03:00,767001469.7401165,0,-20.97,100.4566,1,0.95,2025-04-22T10:52:28.061+03:00,85,1.416666666666667,2025-04-22T09:54:17.825+03:00,0.02225348692287972,0
2025-04-22T10:57:49.814+03:00,1745308667.519363,40.95227670218328,29.14031054922987,76.52189,-1,-1,-1,-1,30,30.11905621221268,-9999,27185.064180375,-0.6905670166015625,0.6978607177734375,-0.1887969970703125,27185.054105375,-1.333394585489748,-1.295197082989213,-0.7696303116881857,-0.006419131066650152,-0.007509780116379261,0.005633465480059385,0.002665519714355469,0.01073402166366577,0.00597718358039856,XArbitraryZVertical,0.5810546964444242,0.2542837762721746,0.2791537213715007,-0.720963377344803,-0.6910657286643982,0.6958698034286499,-0.1954303979873657,0,0,0,-1,-1,27184.904238375,unknown,2,2025-04-22T10:57:49.650+03:00,2025-04-21T17:08:51.449+03:00,7097,0.9377078,0,0,5930.618,5,20,2025-04-22T10:57:29.015+03:00,767001469.7401165,0,-20.97,100.4566,1,0.95,2025-04-22T10:52:28.061+03:00,85,1.416666666666667,2025-04-22T09:54:17.825+03:00,0.02225348692287972,0
2025-04-22T10:57:49.824+03:00,1745308667.519363,40.95227670218328,29.14031054922987,76.52189,-1,-1,-1,-1,30,30.11905621221268,-9999,27185.074256375,-0.7026824951171875,0.6984405517578125,-0.197479248046875,27185.064180375,-1.333455217752927,-1.29522687482962,-0.7697414685843219,-0.004579419735819101,0.009566142223775387,0.009723281487822533,0.01477348804473877,0.005389928817749023,0.007598817348480225,XArbitraryZVertical,0.5810910333535775,0.254241639703713,0.2791322478182032,-0.7209573419389713,-0.6909972429275513,0.6959496140480042,-0.1953887939453125,0,0,0,-1,-1,27184.904238375,unknown,2,2025-04-22T10:57:49.650+03:00,2025-04-21T17:08:51.449+03:00,7097,0.9377078,0,0,5930.618,5,20,2025-04-22T10:57:29.015+03:00,767001469.7401165,0,-20.97,100.4566,1,0.95,2025-04-22T10:52:28.061+03:00,85,1.416666666666667,2025-04-22T09:54:17.825+03:00,0.02225348692287972,0
2025-04-22T10:57:49.834+03:00,1745308667.519363,40.95227670218328,29.14031054922987,76.52189,-1,-1,-1,-1,30,30.11905621221268,-9999,27185.084332375,-0.6975250244140625,0.69482421875,-0.1958770751953125,27185.074256375,-1.333471983240351,-1.295135413312871,-0.7698780855223799,-0.00547397555783391,0.01039891317486763,0.01595614291727543,-0.001601696014404297,0.002102792263031006,0.006034016609191895,XArbitraryZVertical,0.5811104858616489,0.2541604436582351,0.2791222318950722,-0.7209742301364048,-0.690887987613678,0.6960477232933044,-0.1954261511564255,0,0,0,-1,-1,27184.904238375,unknown,2,2025-04-22T10:57:49.650+03:00,2025-04-21T17:08:51.449+03:00,7097,0.9377078,0,0,5930.618,5,20,2025-04-22T10:57:29.015+03:00,767001469.7401165,0,-20.97,100.4566,1,0.95,2025-04-22T10:52:28.061+03:00,85,1.416666666666667,2025-04-22T09:54:17.825+03:00,0.02225348692287972,0
2025-04-22T10:57:49.844+03:00,1745308667.519363,40.95227670218328,29.14031054922987,76.52189,-1,-1,-1,-1,30,30.11905621221268,-9999,27185.094407375,-0.6907196044921875,0.6943359375,-0.1939697265625,27185.084332375,-1.333485099695775,-1.295039681738909,-0.7700153420036027,-0.002528253011405468,0.01068280544131994,0.01529701147228479,-0.01246976852416992,0.00208050012588501,-0.002119839191436768,XArbitraryZVertical,0.5811290384661582,0.2540785383010661,0.2791119183614347,-0.7209921495444835,-0.6907773613929749,0.6961462497711182,-0.1954662799835205,0,0,0,-1,-1,27184.904238375,unknown,2,2025-04-22T10:57:49.650+03:00,2025-04-21T17:08:51.449+03:00,7097,0.9377078,0,0,5930.618,5,20,2025-04-22T10:57:29.015+03:00,767001469.7401165,0,-20.97,100.4566,1,0.95,2025-04-22T10:52:28.061+03:00,85,1.416666666666667,2025-04-22T09:54:17.825+03:00,0.02225348692287972,0
2025-04-22T10:57:49.854+03:00,1745308667.519363,40.95227670218328,29.14031054922987,76.52189,-1,-1,-1,-1,30,30.11905621221268,-9999,27185.104483375,-0.6879425048828125,0.7001190185546875,-0.1967315673828125,27185.094407375,-1.333448952362548,-1.294874273280091,-0.7701313501933362,0.002344799228012562,0.01688690483570099,0.0103033185005188,-0.005652308464050293,-0.001298666000366211,0.0005968809127807617,XArbitraryZVertical,0.5811269255404607,0.2539925757222697,0.2791107291271442,-0.7210246157095954,-0.6906673312187195,0.6962295174598694,-0.1955585330724716,0,0,0,-1,-1,27184.904238375,unknown,2,2025-04-22T10:57:49.650+03:00,2025-04-21T17:08:51.449+03:00,7097,0.9377078,0,0,5930.618,5,20,2025-04-22T10:57:29.015+03:00,767001469.7401165,0,-20.97,100.4566,1,0.95,2025-04-22T10:52:28.061+03:00,85,1.416666666666667,2025-04-22T09:54:17.825+03:00,0.02225348692287972,0
2025-04-22T10:57:49.865+03:00,1745308667.519363,40.95227670218328,29.14031054922987,76.52189,-1,-1,-1,-1,30,30.11905621221268,-9999,27185.114559375,-0.68377685546875,0.70404052734375,-0.1937713623046875,27185.104483375,-1.333353169965558,-1.294628404531497,-0.7702289724287529,0.007899153977632523,0.01641958765685558,0.007455766666680574,0.0008717775344848633,-0.001704394817352295,0.001587450504302979,XArbitraryZVertical,0.5811019654316527,0.2539007652624627,0.2791171569923456,-0.7210745888812484,-0.6905538439750671,0.6962996125221252,-0.1957098096609116,0,0,0,-1,-1,27184.904238375,unknown,2,2025-04-22T10:57:49.650+03:00,2025-04-21T17:08:51.449+03:00,7097,0.9377078,0,0,5930.618,5,20,2025-04-22T10:57:29.015+03:00,767001469.7401165,0,-20.97,100.4566,1,0.95,2025-04-22T10:52:28.061+03:00,85,1.416666666666667,2025-04-22T09:54:17.825+03:00,0.02225348692287972,0
2025-04-22T10:57:49.875+03:00,1745308667.519363,40.95227670218328,29.14031054922987,76.52189,-1,-1,-1,-1,30,30.11905621221268,-9999,27185.124634375,-0.681304931640625,0.702056884765625,-0.1906585693359375,27185.114559375,-1.333169703438297,-1.294365819281879,-0.7702501675771899,0.01593071594834328,0.01113001629710197,0.00193796306848526,0.003384768962860107,0.00488734245300293,-0.0009361356496810913,XArbitraryZVertical,0.5810467577648426,0.2538525955545908,0.2791206141282352,-0.7211345630574768,-0.6904880404472351,0.696314811706543,-0.1958870440721512,0,0,0,-1,-1,27184.904238375,unknown,2,2025-04-22T10:57:49.650+03:00,2025-04-21T17:08:51.449+03:00,7097,0.9377078,0,0,5930.618,5,20,2025-04-22T10:57:29.015+03:00,767001469.7401165,0,-20.97,100.4566,1,0.95,2025-04-22T10:52:28.061+03:00,85,1.416666666666667,2025-04-22T09:54:17.825+03:00,0.02225348692287972,0
2025-04-22T10:57:49.885+03:00,1745308667.519363,40.95227670218328,29.14031054922987,76.52189,-1,-1,-1,-1,30,30.11905621221268,-9999,27185.134710375,-0.6823883056640625,0.703033447265625,-0.193267822265625,27185.124634375,-1.332954368499471,-1.294106205305254,-0.770239473588,0.01421743724495173,0.01167776249349117,0.003650475526228547,0.007735669612884521,0.00741279125213623,0.003517627716064453,XArbitraryZVertical,0.5809808042493335,0.2538249757712603,0.2791217666019237,-0.7211970554530392,-0.6904444098472595,0.6963071227073669,-0.1960683763027191,0,0,0,-1,-1,27184.904238375,unknown,2,2025-04-22T10:57:49.650+03:00,2025-04-21T17:08:51.449+03:00,7097,0.9377078,0,0,5930.618,5,20,2025-04-22T10:57:29.015+03:00,767001469.7401165,0,-20.97,100.4566,1,0.95,2025-04-22T10:52:28.061+03:00,85,1.416666666666667,2025-04-22T09:54:17.825+03:00,0.02225348692287972,0
2025-04-22T10:57:49.895+03:00,1745308667.519363,40.95227670218328,29.14031054922987,76.52189,-1,-1,-1,-1,30,30.11905621221268,-9999,27185.144786375,-0.683074951171875,0.697113037109375,-0.1959381103515625,27185.134710375,-1.332812161749076,-1.293911922943052,-0.7702469540286041,0.007102003786712885,0.01032514311373234,0.0009614817681722343,0.009050548076629639,0.006003618240356445,0.005740761756896973,XArbitraryZVertical,0.580937309662065,0.2537938285711716,0.2791245654223933,-0.7212419297284698,-0.6904012560844421,0.6963124871253967,-0.1962010711431503,0,0,0,-1,-1,27184.904238375,unknown,2,2025-04-22T10:57:49.650+03:00,2025-04-21T17:08:51.449+03:00,7097,0.9377078,0,0,5930.618,5,20,2025-04-22T10:57:29.015+03:00,767001469.7401165,0,-20.97,100.4566,1,0.95,2025-04-22T10:52:28.061+03:00,85,1.416666666666667,2025-04-22T09:54:17.825+03:00,0.02225348692287972,0
2025-04-22T10:57:49.905+03:00,1745308667.519363,40.95227670218328,29.14031054922987,76.52189,-1,-1,-1,-1,30,30.11905621221268,-9999,27185.154862375,-0.6843719482421875,0.6904296875,-0.19500732421875,27185.144786375,-1.33282580176564,-1.293858038539951,-0.7702903412845895,-0.006426987703889608,0.003233811119571328,0.0004502214142121375,0.007881760597229004,0.006918489933013916,0.002901092171669006,XArbitraryZVertical,0.5809410955088212,0.2537566537643571,0.2791315879708973,-0.7212492370693079,-0.6903616189956665,0.6963436603546143,-0.1962300091981888,0,0,0,-1,-1,27184.904238375,unknown,2,2025-04-22T10:57:49.650+03:00,2025-04-21T17:08:51.449+03:00,7097,0.9377078,0,0,5930.618,5,20,2025-04-22T10:57:29.015+03:00,767001469.7401165,0,-20.97,100.4566,1,0.95,2025-04-22T10:52:28.061+03:00,85,1.416666666666667,2025-04-22T09:54:17.825+03:00,0.02225348692287972,0
2025-04-22T10:57:49.915+03:00,1745308667.519363,40.95227670218328,29.14031054922987,76.52189,-1,-1,-1,-1,30,30.11905621221268,-9999,27185.164937375,-0.6886749267578125,0.6924285888671875,-0.1920013427734375,27185.154862375,-1.332939559067299,-1.293937344904323,-0.7703104082474452,-0.008531417697668076,0.00119196530431509,-0.0002701636694837362,0.007258296012878418,0.0003734230995178223,0.0002637803554534912,XArbitraryZVertical,0.5809710000624276,0.2537458663714662,0.2791433390944302,-0.7212244563237489,-0.6903638243675232,0.6963580250740051,-0.1961714625358582,0,0,0,-1,-1,27184.904238375,unknown,2,2025-04-22T10:57:49.650+03:00,2025-04-21T17:08:51.449+03:00,7097,0.9377078,0,0,5930.618,5,20,2025-04-22T10:57:29.015+03:00,767001469.7401165,0,-20.97,100.4566,1,0.95,2025-04-22T10:52:28.061+03:00,85,1.416666666666667,2025-04-22T09:54:17.825+03:00,0.02225348692287972,0
2025-04-22T10:57:49.925+03:00,1745308667.519363,40.95227670218328,29.14031054922987,76.52189,-1,-1,-1,-1,30,30.11905621221268,-9999,27185.175013375,-0.6954345703125,0.7028656005859375,-0.1942901611328125,27185.164937375,-1.333036664863578,-1.293960818725755,-0.7703006492281002,-0.0004890706622973084,0.007964783348143101,-0.002022723201662302,0.005728304386138916,-0.006547152996063232,0.00192791223526001,XArbitraryZVertical,0.5809844405252044,0.2537292257951456,0.2791745875669336,-0.7212073955229015,-0.6903749704360962,0.6963510513305664,-0.1961571127176285,0,0,0,-1,-1,27184.904238375,unknown,2,2025-04-22T10:57:49.650+03:00,2025-04-21T17:08:51.449+03:00,7097,0.9377078,0,0,5930.618,5,20,2025-04-22T10:57:29.015+03:00,767001469.7401165,0,-20.97,100.4566,1,0.95,2025-04-22T10:52:28.061+03:00,85,1.416666666666667,2025-04-22T09:54:17.825+03:00,0.02225348692287972,0
2025-04-22T10:57:49.935+03:00,1745308667.519363,40.95227670218328,29.14031054922987,76.52189,-1,-1,-1,-1,30,30.11905621221268,-9999,27185.185089375,-0.6975555419921875,0.704559326171875,-0.19573974609375,27185.175013375,-1.333066087389057,-1.293855841526824,-0.7702631513974293,-0.002615604782477021,0.01692845113575459,-0.002959623467177153,0.0008193850517272949,-0.002812385559082031,0.00425054132938385,XArbitraryZVertical,0.5809653123957385,0.2536946512384423,0.2792273178821061,-0.7212143908514173,-0.69037926197052,0.6963241100311279,-0.1962366551160812,0,0,0,-1,-1,27184.904238375,unknown,2,2025-04-22T10:57:49.650+03:00,2025-04-21T17:08:51.449+03:00,7097,0.9377078,0,0,5930.618,5,20,2025-04-22T10:57:29.015+03:00,767001469.7401165,0,-20.97,100.4566,1,0.95,2025-04-22T10:52:28.061+03:00,85,1.416666666666667,2025-04-22T09:54:17.825+03:00,0.02225348692287972,0
2025-04-22T10:57:49.945+03:00,1745308667.519363,40.95227670218328,29.14031054922987,76.52189,-1,-1,-1,-1,30,30.11905621221268,-9999,27185.195164375,-0.695587158203125,0.6993408203125,-0.1933441162109375,27185.185089375,-1.333081008778689,-1.29367438286177,-0.7702259954390527,0.002468702616170049,0.02077758498489857,-0.004524596966803074,-0.005401551723480225,0.007620871067047119,0.0009038746356964111,XArbitraryZVertical,0.5809335976981334,0.2536367695602951,0.279297095050189,-0.721233454716982,-0.6903687715530396,0.6962974667549133,-0.196369081735611,0,0,0,-1,-1,27184.904238375,unknown,2,2025-04-22T10:57:49.650+03:00,2025-04-21T17:08:51.449+03:00,7097,0.9377078,0,0,5930.618,5,20,2025-04-22T10:57:29.015+03:00,767001469.7401165,0,-20.97,100.4566,1,0.95,2025-04-22T10:52:28.061+03:00,85,1.416666666666667,2025-04-22T09:54:17.825+03:00,0.02225348692287972,0
2025-04-22T10:57:49.955+03:00,1745308667.519363,40.95227670218328,29.14031054922987,76.52189,-1,-1,-1,-1,30,30.11905621221268,-9999,27185.205240375,-0.693756103515625,0.696533203125,-0.1927490234375,27185.195164375,-1.333135670840016,-1.293468853127326,-0.7701917960526267,-0.01244366727769375,0.0252546239644289,-0.007209063041955233,-0.006380319595336914,0.007645368576049805,0.0003504157066345215,XArbitraryZVertical,0.5809042853986602,0.2535576241838879,0.2793871692068022,-0.7212499830184352,-0.6903512477874756,0.6962729096412659,-0.1965174823999405,0,0,0,-1,-1,27184.904238375,unknown,2,2025-04-22T10:57:49.650+03:00,2025-04-21T17:08:51.449+03:00,7097,0.9377078,0,0,5930.618,5,20,2025-04-22T10:57:29.015+03:00,767001469.7401165,0,-20.97,100.4566,1,0.95,2025-04-22T10:52:28.061+03:00,85,1.416666666666667,2025-04-22T09:54:17.825+03:00,0.02225348692287972,0
2025-04-22T10:57:49.965+03:00,1745308667.519363,40.95227670218328,29.14031054922987,76.52189,-1,-1,-1,-1,30,30.11905621221268,-9999,27185.215316375,-0.6899566650390625,0.693328857421875,-0.1956024169921875,27185.205240375,-1.333208783576468,-1.293257936991815,-0.7701769555551004,0.000178783549927175,0.02511573955416679,-0.002927565714344382,-0.005664229393005371,0.0026664137840271,0.003123342990875244,XArbitraryZVertical,0.5808808322944802,0.253465011827418,0.2794793997381771,-0.7212656350004411,-0.6903196573257446,0.6962622404098511,-0.1966658979654312,0,0,0,-1,-1,27184.904238375,unknown,2,2025-04-22T10:57:49.650+03:00,2025-04-21T17:08:51.449+03:00,7097,0.9377078,0,0,5930.618,5,20,2025-04-22T10:57:29.015+03:00,767001469.7401165,0,-20.97,100.4566,1,0.95,2025-04-22T10:52:28.061+03:00,85,1.416666666666667,2025-04-22T09:54:17.825+03:00,0.02225348692287972,0
2025-04-22T10:57:49.975+03:00,1745308667.519363,40.95227670218328,29.14031054922987,76.52189,-1,-1,-1,-1,30,30.11905621221268,-9999,27185.225391375,-0.6822662353515625,0.6971588134765625,-0.1990966796875,27185.215316375,-1.33321523633472,-1.293013806322112,-0.7701828653131914,0.00308003113605082,0.02473091334104538,-0.001914232852868736,-0.003961563110351562,0.0004953742027282715,0.003885775804519653,XArbitraryZVertical,0.5808488759467532,0.253373167521117,0.2795507363552445,-0.7212958944677149,-0.6902675032615662,0.6962665319442749,-0.1968332380056381,0,0,0,-1,-1,27184.904238375,unknown,2,2025-04-22T10:57:49.650+03:00,2025-04-21T17:08:51.449+03:00,7097,0.9377078,0,0,5930.618,5,20,2025-04-22T10:57:29.015+03:00,767001469.7401165,0,-20.97,100.4566,1,0.95,2025-04-22T10:52:28.061+03:00,85,1.416666666666667,2025-04-22T09:54:17.825+03:00,0.02225348692287972,0
2025-04-22T10:57:49.986+03:00,1745308667.519363,40.95227670218328,29.14031054922987,76.52189,-1,-1,-1,-1,30,30.11905621221268,-9999,27185.235467375,-0.6820526123046875,0.699951171875,-0.1973724365234375,27185.225391375,-1.333175333667876,-1.292790038516222,-0.7701574756718588,0.005857375450432301,0.01758239045739174,-0.004973705392330885,0.001702964305877686,-0.004186034202575684,0.0008102655410766602,XArbitraryZVertical,0.580806894422049,0.2533121677732654,0.2796093045203181,-0.7213285255587011,-0.6902406215667725,0.6962482929229736,-0.1969925910234451,0,0,0,-1,-1,27184.904238375,unknown,2,2025-04-22T10:57:49.650+03:00,2025-04-21T17:08:51.449+03:00,7097,0.9377078,0,0,5930.618,5,20,2025-04-22T10:57:29.015+03:00,767001469.7401165,0,-20.97,100.4566,1,0.95,2025-04-22T10:52:28.061+03:00,85,1.416666666666667,2025-04-22T09:54:17.825+03:00,0.02225348692287972,0
2025-04-22T10:57:50.009+03:00,1745308667.519363,40.95227670218328,29.14031054922987,76.52189,-1,-1,-1,-1,30,30.11905621221268,-9999,27185.245543375,-0.685516357421875,0.69732666015625,-0.193389892578125,27185.235467375,-1.333103906764599,-1.292533120663844,-0.7701038536440964,0.007469386793673038,0.02547759562730789,-0.004583286121487617,0.008661568164825439,0.002123832702636719,-0.001748770475387573,XArbitraryZVertical,0.5807500703245871,0.2532572966314592,0.2796749006098008,-0.7213681528890847,-0.6902259588241577,0.6962097883224487,-0.1971801966428757,0,0,0,-1,-1,27184.904238375,unknown,2,2025-04-22T10:57:49.650+03:00,2025-04-21T17:08:51.449+03:00,7097,0.9377078,0,0,5930.618,5,20,2025-04-22T10:57:29.015+03:00,767001469.7401165,0,-20.97,100.4566,1,0.95,2025-04-22T10:52:28.061+03:00,85,1.416666666666667,2025-04-22T09:54:17.825+03:00,0.02225348692287972,0
2025-04-22T10:57:50.012+03:00,1745308667.519363,40.95227670218328,29.14031054922987,76.52189,-1,-1,-1,-1,30,30.11905621221268,-9999,27185.255618375,-0.6876678466796875,0.69964599609375,-0.194580078125,27185.245543375,-1.333031427319112,-1.292217626968044,-0.7700324578611371,0.00621510436758399,0.02997734025120735,-0.005292052868753672,0.00739586353302002,0.003639817237854004,0.001259759068489075,XArbitraryZVertical,0.5806810262180754,0.2531871885689377,0.2797626076385541,-0.7214142691656308,-0.6902113556861877,0.6961585283279419,-0.1974115818738937,0,0,0,-1,-1,27184.904238375,unknown,2,2025-04-22T10:57:49.650+03:00,2025-04-21T17:08:51.449+03:00,7097,0.9377078,0,0,5930.618,5,20,2025-04-22T10:57:29.015+03:00,767001469.7401165,0,-20.97,100.4566,1,0.95,2025-04-22T10:52:28.061+03:00,85,1.416666666666667,2025-04-22T09:54:17.825+03:00,0.02225348692287972,0
2025-04-22T10:57:50.016+03:00,1745308667.519363,40.95227670218328,29.14031054922987,76.52189,-1,-1,-1,-1,30,30.11905621221268,-9999,27185.265694375,-0.68682861328125,0.6950225830078125,-0.194915771484375,27185.255618375,-1.332953182401569,-1.291872633748329,-0.7699891620863474,0.00658927857875824,0.02995550259947777,-0.002374560106545687,0.003969192504882812,0.001626253128051758,0.004008620977401733,XArbitraryZVertical,0.5806133091517663,0.2530991885003305,0.2798480282090661,-0.7214664755470677,-0.6901721358299255,0.6961274743080139,-0.197657972574234,0,0,0,-1,-1,27184.904238375,unknown,2,2025-04-22T10:57:49.650+03:00,2025-04-21T17:08:51.449+03:00,7097,0.9377078,0,0,5930.618,5,20,2025-04-22T10:57:29.015+03:00,767001469.7401165,0,-20.97,100.4566,1,0.95,2025-04-22T10:52:28.061+03:00,85,1.416666666666667,2025-04-22T09:54:17.825+03:00,0.02225348692287972,0
2025-04-22T10:57:50.026+03:00,1745308667.519363,40.95227670218328,29.14031054922987,76.52189,-1,-1,-1,-1,30,30.11905621221268,-9999,27185.275770375,-0.683807373046875,0.69256591796875,-0.1936187744140625,27185.265694375,-1.33294074740709,-1.291582341038153,-0.769956208158153,0.0003981614718213677,0.02740572765469551,-0.004712848924100399,0.00251471996307373,0.003206312656402588,0.002979367971420288,XArbitraryZVertical,0.5805638282556572,0.2530085430173226,0.279938091126043,-0.7215031454751183,-0.6901367902755737,0.6961038112640381,-0.1978646367788315,0,0,0,-1,-1,27184.904238375,unknown,2,2025-04-22T10:57:49.650+03:00,2025-04-21T17:08:51.449+03:00,7097,0.9377078,0,0,5930.618,5,20,2025-04-22T10:57:29.015+03:00,767001469.7401165,0,-20.97,100.4566,1,0.95,2025-04-22T10:52:28.061+03:00,85,1.416666666666667,2025-04-22T09:54:17.825+03:00,0.02225348692287972,0
2025-04-22T10:57:50.036+03:00,1745308667.519363,40.95227670218328,29.14031054922987,76.52189,-1,-1,-1,-1,30,30.11905621221268,-9999,27185.285845375,-0.6844482421875,0.6906585693359375,-0.1944732666015625,27185.275770375,-1.332992827102,-1.291387710376145,-0.7699241964785029,-0.004611244425177574,0.02159444242715836,-0.002552492544054985,0.00371849536895752,-0.001561939716339111,0.003867506980895996,XArbitraryZVertical,0.5805360412628626,0.2529334423756848,0.2800234231474203,-0.7215188495214842,-0.6901198625564575,0.6960808038711548,-0.1980051547288895,0,0,0,-1,-1,27184.904238375,unknown,2,2025-04-22T10:57:49.650+03:00,2025-04-21T17:08:51.449+03:00,7097,0.9377078,0,0,5930.618,5,20,2025-04-22T10:57:29.015+03:00,767001469.7401165,0,-20.97,100.4566,1,0.95,2025-04-22T10:52:28.061+03:00,85,1.416666666666667,2025-04-22T09:54:17.825+03:00,0.02225348692287972,0
2025-04-22T10:57:50.046+03:00,1745308667.519363,40.95227670218328,29.14031054922987,76.52189,-1,-1,-1,-1,30,30.11905621221268,-9999,27185.295921375,-0.6875,0.687957763671875,-0.194183349609375,27185.285845375,-1.333071502887375,-1.291220711360994,-0.7698971812878281,-0.004981623496860266,0.02376551739871502,-0.004158212337642908,0.006465315818786621,-0.002961575984954834,0.004399895668029785,XArbitraryZVertical,0.5805166362061267,0.2528589348362761,0.2801087006514573,-0.7215274665875986,-0.6901048421859741,0.6960614323616028,-0.1981255859136581,0,0,0,-1,-1,27184.904238375,unknown,2,2025-04-22T10:57:49.650+03:00,2025-04-21T17:08:51.449+03:00,7097,0.9377078,0,0,5930.618,5,20,2025-04-22T10:57:29.015+03:00,767001469.7401165,0,-20.97,100.4566,1,0.95,2025-04-22T10:52:28.061+03:00,85,1.416666666666667,2025-04-22T09:54:17.825+03:00,0.02225348692287972,0
2025-04-22T10:57:50.056+03:00,1745308667.519363,40.95227670218328,29.14031054922987,76.52189,-1,-1,-1,-1,30,30.11905621221268,-9999,27185.305997375,-0.6864013671875,0.6945953369140625,-0.1944427490234375,27185.295921375,-1.333183220601114,-1.291080113182138,-0.7698600565514033,-0.01095962151885033,0.02073430828750134,-0.005302838981151581,0.005699336528778076,-0.005620479583740234,0.003558039665222168,XArbitraryZVertical,0.580502858848709,0.252787575101215,0.2802013885033537,-0.7215275611709034,-0.6901018023490906,0.6960347890853882,-0.1982297450304031,0,0,0,-1,-1,27184.904238375,unknown,2,2025-04-22T10:57:49.650+03:00,2025-04-21T17:08:51.449+03:00,7097,0.9377078,0,0,5930.618,5,20,2025-04-22T10:57:29.015+03:00,767001469.7401165,0,-20.97,100.4566,1,0.95,2025-04-22T10:52:28.061+03:00,85,1.416666666666667,2025-04-22T09:54:17.825+03:00,0.02225348692287972,0
2025-04-22T10:57:50.069+03:00,1745308667.519363,40.95227670218328,29.14031054922987,76.52189,-1,-1,-1,-1,30,30.11905621221268,-9999,27185.316072375,-0.6887359619140625,0.6959075927734375,-0.1955413818359375,27185.305997375,-1.333349619236382,-1.290979990153761,-0.7698159398172295,-0.0112821301445365,0.02208346500992775,-0.009468821808695793,0.002748847007751465,-0.007404625415802002,0.004505336284637451,XArbitraryZVertical,0.5805000978625859,0.2527171794679345,0.2803042446199425,-0.7215145073514959,-0.690111517906189,0.6960030794143677,-0.1983073204755783,0,0,0,-1,-1,27184.904238375,unknown,2,2025-04-22T10:57:49.650+03:00,2025-04-21T17:08:51.449+03:00,7097,0.9377078,0,0,5930.618,5,20,2025-04-22T10:57:29.015+03:00,767001469.7401165,0,-20.97,100.4566,1,0.95,2025-04-22T10:52:28.061+03:00,85,1.416666666666667,2025-04-22T09:54:17.825+03:00,0.02225348692287972,0
2025-04-22T10:57:50.077+03:00,1745308667.519363,40.95227670218328,29.14031054922987,76.52189,-1,-1,-1,-1,30,30.11905621221268,-9999,27185.326148375,-0.68902587890625,0.69781494140625,-0.198028564453125,27185.316072375,-1.333465731740923,-1.290820549518181,-0.7697503774115207,-0.003386656520888209,0.02481773309409618,-0.01026803627610207,0.004012167453765869,-0.0006436705589294434,0.00464320182800293,XArbitraryZVertical,0.5804779536599135,0.2526467485906022,0.2804128154003529,-0.7215147251395925,-0.6901236176490784,0.6959559917449951,-0.1984299272298813,0,0,0,-1,-1,27184.904238375,unknown,2,2025-04-22T10:57:49.650+03:00,2025-04-21T17:08:51.449+03:00,7097,0.9377078,0,0,5930.618,5,20,2025-04-22T10:57:29.015+03:00,767001469.7401165,0,-20.97,100.4566,1,0.95,2025-04-22T10:52:28.061+03:00,85,1.416666666666667,2025-04-22T09:54:17.825+03:00,0.02225348692287972,0
2025-04-22T10:57:50.102+03:00,1745308667.519363,40.95227670218328,29.14031054922987,76.52189,-1,-1,-1,-1,30,30.11905621221268,-9999,27185.336224375,-0.6882781982421875,0.6985321044921875,-0.197357177734375,27185.326148375,-1.333516464009147,-1.290619089085807,-0.7696729275249676,0.002861385699361563,0.02324140816926956,-0.01173730194568634,0.001628339290618896,0.0001291036605834961,0.002050578594207764,XArbitraryZVertical,0.5804389859634996,0.2525839494836129,0.2805137346280272,-0.7215288314413137,-0.6901354193687439,0.6959003806114197,-0.1985838711261749,0,0,0,-1,-1,27184.904238375,unknown,2,2025-04-22T10:57:49.650+03:00,2025-04-21T17:08:51.449+03:00,7097,0.9377078,0,0,5930.618,5,20,2025-04-22T10:57:29.015+03:00,767001469.7401165,0,-20.97,100.4566,1,0.95,2025-04-22T10:52:28.061+03:00,85,1.416666666666667,2025-04-22T09:54:17.825+03:00,0.02225348692287972,0
2025-04-22T10:57:50.103+03:00,1745308667.519363,40.95227670218328,29.14031054922987,76.52189,-1,-1,-1,-1,30,30.11905621221268,-9999,27185.346299375,-0.6874847412109375,0.6916351318359375,-0.1998748779296875,27185.336224375,-1.333563250808144,-1.290413919952501,-0.7695776173717869,-0.001459326827898622,0.02495515160262585,-0.01116445660591125,0.0007206201553344727,0.00297468900680542,0.0008372664451599121,XArbitraryZVertical,0.5803950052127759,0.2525266680397175,0.2806199050878631,-0.7215430484890701,-0.690158486366272,0.6958319544792175,-0.1987438350915909,0,0,0,-1,-1,27184.904238375,unknown,2,2025-04-22T10:57:49.650+03:00,2025-04-21T17:08:51.449+03:00,7097,0.9377078,0,0,5930.618,5,20,2025-04-22T10:57:29.015+03:00,767001469.7401165,0,-20.97,100.4566,1,0.95,2025-04-22T10:52:28.061+03:00,85,1.416666666666667,2025-04-22T09:54:17.825+03:00,0.02225348692287972,0
2025-04-22T10:57:50.107+03:00,1745308667.519363,40.95227670218328,29.14031054922987,76.52189,-1,-1,-1,-1,30,30.11905621221268,-9999,27185.356375375,-0.6873626708984375,0.6869049072265625,-0.1979217529296875,27185.346299375,-1.333678817721847,-1.290237107135774,-0.7694793287679458,-0.005989763420075178,0.02587434276938438,-0.01099794264882803,0.001941382884979248,0.002175569534301758,0.001725882291793823,XArbitraryZVertical,0.5803630282812161,0.2524605852064838,0.280743563315199,-0.7215438239632093,-0.6901891231536865,0.6957613229751587,-0.1988848149776459,0,0,0,-1,-1,27184.904238375,unknown,2,2025-04-22T10:57:49.650+03:00,2025-04-21T17:08:51.449+03:00,7097,0.9377078,0,0,5930.618,5,20,2025-04-22T10:57:29.015+03:00,767001469.7401165,0,-20.97,100.4566,1,0.95,2025-04-22T10:52:28.061+03:00,85,1.416666666666667,2025-04-22T09:54:17.825+03:00,0.02225348692287972,0
2025-04-22T10:57:50.117+03:00,1745308667.519363,40.95227670218328,29.14031054922987,76.52189,-1,-1,-1,-1,30,30.11905621221268,-9999,27185.366451375,-0.6866302490234375,0.6876373291015625,-0.1911468505859375,27185.356375375,-1.333818838873533,-1.290080349087515,-0.7694225335516023,-0.008034804835915565,0.02633586898446083,-0.00751079898327589,0.003412902355194092,-0.004894375801086426,-0.001283034682273865,XArbitraryZVertical,0.5803461869148157,0.2523813741601571,0.2808571992184011,-0.7215407147514087,-0.6901956796646118,0.6957205533981323,-0.1990038901567459,0,0,0,-1,-1,27184.904238375,unknown,2,2025-04-22T10:57:49.650+03:00,2025-04-21T17:08:51.449+03:00,7097,0.9377078,0,0,5930.618,5,20,2025-04-22T10:57:29.015+03:00,767001469.7401165,0,-20.97,100.4566,1,0.95,2025-04-22T10:52:28.061+03:00,85,1.416666666666667,2025-04-22T09:54:17.825+03:00,0.02225348692287972,0
2025-04-22T10:57:50.127+03:00,1745308667.519363,40.95227670218328,29.14031054922987,76.52189,-1,-1,-1,-1,30,30.11905621221268,-9999,27185.376527375,-0.68798828125,0.689300537109375,-0.1950531005859375,27185.366451375,-1.33402836925922,-1.289966598745211,-0.7693813042552864,-0.01385847292840481,0.02848969958722591,-0.009855112992227077,0.002868473529815674,-0.008969366550445557,0.002236634492874146,XArbitraryZVertical,0.5803475228612991,0.2522926404846549,0.2809786521286864,-0.7215233944190925,-0.6902006268501282,0.695690929889679,-0.1990903466939926,0,0,0,-1,-1,27184.904238375,unknown,2,2025-04-22T10:57:49.650+03:00,2025-04-21T17:08:51.449+03:00,7097,0.9377078,0,0,5930.618,5,20,2025-04-22T10:57:29.015+03:00,767001469.7401165,0,-20.97,100.4566,1,0.95,2025-04-22T10:52:28.061+03:00,85,1.416666666666667,2025-04-22T09:54:17.825+03:00,0.02225348692287972,0
2025-04-22T10:57:50.137+03:00,1745308667.519363,40.95227670218328,29.14031054922987,76.52189,-1,-1,-1,-1,30,30.11905621221268,-9999,27185.386602375,-0.6872406005859375,0.6966094970703125,-0.197357177734375,27185.376527375,-1.334265085267786,-1.289853178728938,-0.7693372036430587,-0.01580151543021202,0.02412664145231247,-0.008565876632928848,0.003684163093566895,-0.007518529891967773,0.007999718189239502,XArbitraryZVertical,0.5803516634182621,0.2521970748033903,0.2811107317388497,-0.7215020809350343,-0.6902076005935669,0.6956592798233032,-0.199177160859108,0,0,0,-1,-1,27184.904238375,unknown,2,2025-04-22T10:57:49.650+03:00,2025-04-21T17:08:51.449+03:00,7097,0.9377078,0,0,5930.618,5,20,2025-04-22T10:57:29.015+03:00,767001469.7401165,0,-20.97,100.4566,1,0.95,2025-04-22T10:52:28.061+03:00,85,1.416666666666667,2025-04-22T09:54:17.825+03:00,0.02225348692287972,0
2025-04-22T10:57:50.147+03:00,1745308667.519363,40.95227670218328,29.14031054922987,76.52189,-1,-1,-1,-1,30,30.11905621221268,-9999,27185.396678375,-0.686187744140625,0.699859619140625,-0.1949462890625,27185.386602375,-1.334525944477972,-1.2897891806723,-0.7692896440585751,-0.01505309902131557,0.0262958537787199,-0.01013631001114845,0.00216209888458252,-0.005500674247741699,0.003322869539260864,XArbitraryZVertical,0.5803650143063391,0.2521134322194804,0.2812382535401197,-0.7214709303829779,-0.6902267336845398,0.6956250667572021,-0.1992305368185043,0,0,0,-1,-1,27184.904238375,unknown,2,2025-04-22T10:57:49.650+03:00,2025-04-21T17:08:51.449+03:00,7097,0.9377078,0,0,5930.618,5,20,2025-04-22T10:57:29.015+03:00,767001469.7401165,0,-20.97,100.4566,1,0.95,2025-04-22T10:52:28.061+03:00,85,1.416666666666667,2025-04-22T09:54:17.825+03:00,0.02225348692287972,0
2025-04-22T10:57:50.157+03:00,1745308667.519363,40.95227670218328,29.14031054922987,76.52189,-1,-1,-1,-1,30,30.11905621221268,-9999,27185.406754375,-0.688201904296875,0.70098876953125,-0.1923980712890625,27185.396678375,-1.334704073760968,-1.289669946330709,-0.7692060639976732,-0.007056159432977438,0.02690598368644714,-0.01154245901852846,0.00346064567565918,0.001807272434234619,0.002353161573410034,XArbitraryZVertical,0.5803522119352993,0.2520452926125379,0.2813631538160537,-0.7214563361761325,-0.690258800983429,0.6955650448799133,-0.1993289589881897,0,0,0,-1,-1,27184.904238375,unknown,2,2025-04-22T10:57:49.650+03:00,2025-04-21T17:08:51.449+03:00,7097,0.9377078,0,0,5930.618,5,20,2025-04-22T10:57:29.015+03:00,767001469.7401165,0,-20.97,100.4566,1,0.95,2025-04-22T10:52:28.061+03:00,85,1.416666666666667,2025-04-22T09:54:17.825+03:00,0.02225348692287972,0
2025-04-22T10:57:50.167+03:00,1745308667.519363,40.95227670218328,29.14031054922987,76.52189,-1,-1,-1,-1,30,30.11905621221268,-9999,27185.416829375,-0.68682861328125,0.697540283203125,-0.188446044921875,27185.406754375,-1.334846589329642,-1.289493507744369,-0.7691466585447408,-0.005966793745756149,0.02920176088809967,-0.006432052701711655,0.003724634647369385,0.004215061664581299,0.004561632871627808,XArbitraryZVertical,0.5803321871388418,0.2519591931713734,0.2814842908990018,-0.7214553065592432,-0.6902633905410767,0.6955223679542542,-0.1994622349739075,0,0,0,-1,-1,27184.904238375,unknown,2,2025-04-22T10:57:49.650+03:00,2025-04-21T17:08:51.449+03:00,7097,0.9377078,0,0,5930.618,5,20,2025-04-22T10:57:29.015+03:00,767001469.7401165,0,-20.97,100.4566,1,0.95,2025-04-22T10:52:28.061+03:00,85,1.416666666666667,2025-04-22T09:54:17.825+03:00,0.02225348692287972,0
2025-04-22T10:57:50.177+03:00,1745308667.519363,40.95227670218328,29.14031054922987,76.52189,-1,-1,-1,-1,30,30.11905621221268,-9999,27185.426905375,-0.6836700439453125,0.688568115234375,-0.1936187744140625,27185.416829375,-1.334948726478818,-1.289275444606848,-0.7691226021257478,-0.00834845844656229,0.03162310644984245,-0.004778762347996235,0.00278162956237793,0.005468308925628662,0.007890641689300537,XArbitraryZVertical,0.5803090532503064,0.2518585181840128,0.2815918804556553,-0.7214670357625435,-0.6902358531951904,0.6955050826072693,-0.1996173858642578,0,0,0,-1,-1,27184.904238375,unknown,2,2025-04-22T10:57:49.650+03:00,2025-04-21T17:08:51.449+03:00,7097,0.9377078,0,0,5930.618,5,20,2025-04-22T10:57:29.015+03:00,767001469.7401165,0,-20.97,100.4566,1,0.95,2025-04-22T10:52:28.061+03:00,85,1.416666666666667,2025-04-22T09:54:17.825+03:00,0.02225348692287972,0
2025-04-22T10:57:50.187+03:00,1745308667.519363,40.95227670218328,29.14031054922987,76.52189,-1,-1,-1,-1,30,30.11905621221268,-9999,27185.436981375,-0.6826171875,0.692291259765625,-0.201171875,27185.426905375,-1.335069749602033,-1.289051326860846,-0.7690829695421769,-0.009052731096744537,0.03087329491972923,-0.008739481680095196,0.003877222537994385,0.0009648799896240234,0.01131832599639893,XArbitraryZVertical,0.5802839616469688,0.2517551542366381,0.2817129125429018,-0.7214760452648293,-0.6902176141738892,0.6954765915870667,-0.1997797340154648,0,0,0,-1,-1,27184.904238375,unknown,2,2025-04-22T10:57:49.650+03:00,2025-04-21T17:08:51.449+03:00,7097,0.9377078,0,0,5930.618,5,20,2025-04-22T10:57:29.015+03:00,767001469.7401165,0,-20.97,100.4566,1,0.95,2025-04-22T10:52:28.061+03:00,85,1.416666666666667,2025-04-22T09:54:17.825+03:00,0.02225348692287972,0
2025-04-22T10:57:50.198+03:00,1745308667.519363,40.95227670218328,29.14031054922987,76.52189,-1,-1,-1,-1,30,30.11905621221268,-9999,27185.447056375,-0.68634033203125,0.6912689208984375,-0.2027740478515625,27185.436981375,-1.335239977745646,-1.288867897009316,-0.7690520197034051,-0.01343709323555231,0.02943305857479572,-0.003160958411172032,0.00630265474319458,-0.007084786891937256,0.00585097074508667,XArbitraryZVertical,0.5802726989478131,0.2516494284268681,0.2818371772184312,-0.7214734480824434,-0.6902015805244446,0.6954543590545654,-0.1999123245477676,0,0,0,-1,-1,27184.904238375,unknown,2,2025-04-22T10:57:49.650+03:00,2025-04-21T17:08:51.449+03:00,7097,0.9377078,0,0,5930.618,5,20,2025-04-22T10:57:29.015+03:00,767001469.7401165,0,-20.97,100.4566,1,0.95,2025-04-22T10:52:28.061+03:00,85,1.416666666666667,2025-04-22T09:54:17.825+03:00,0.02225348692287972,0
2025-04-22T10:57:50.207+03:00,1745308667.519363,40.95227670218328,29.14031054922987,76.52189,-1,-1,-1,-1,30,30.11905621221268,-9999,27185.457132375,-0.685821533203125,0.6877288818359375,-0.2010955810546875,27185.447056375,-1.335490971535361,-1.288767483302556,-0.7690585939869231,-0.02342388033866882,0.02449961937963963,-0.003029098734259605,0.00743788480758667,-0.002969563007354736,-0.001771479845046997,XArbitraryZVertical,0.5802915594557247,0.2515383106163326,0.2819548228974916,-0.7214510971532642,-0.6901772022247314,0.6954590678215027,-0.1999803632497787,0,0,0,-1,-1,27184.904238375,unknown,2,2025-04-22T10:57:49.650+03:00,2025-04-21T17:08:51.449+03:00,7097,0.9377078,0,0,5930.618,5,20,2025-04-22T10:57:29.015+03:00,767001469.7401165,0,-20.97,100.4566,1,0.95,2025-04-22T10:52:28.061+03:00,85,1.416666666666667,2025-04-22T09:54:17.825+03:00,0.02225348692287972,0
2025-04-22T10:57:50.217+03:00,1745308667.519363,40.95227670218328,29.14031054922987,76.52189,-1,-1,-1,-1,30,30.11905621221268,-9999,27185.467208375,-0.685638427734375,0.686279296875,-0.2014312744140625,27185.457132375,-1.335861890306478,-1.288830858989441,-0.7691210164763763,-0.03268209472298622,0.01904386654496193,0.002523325849324465,0.003533065319061279,-0.005196511745452881,-0.002773329615592957,XArbitraryZVertical,0.5803609732495429,0.251433658020267,0.2820507461071311,-0.7213941653684071,-0.6901480555534363,0.6955039501190186,-0.1999245136976242,0,0,0,-1,-1,27184.904238375,unknown,2,2025-04-22T10:57:49.650+03:00,2025-04-21T17:08:51.449+03:00,7097,0.9377078,0,0,5930.618,5,20,2025-04-22T10:57:29.015+03:00,767001469.7401165,0,-20.97,100.4566,1,0.95,2025-04-22T10:52:28.061+03:00,85,1.416666666666667,2025-04-22T09:54:17.825+03:00,0.02225348692287972,0
2025-04-22T10:57:50.227+03:00,1745308667.519363,40.95227670218328,29.14031054922987,76.52189,-1,-1,-1,-1,30,30.11905621221268,-9999,27185.477283375,-0.6855010986328125,0.6931304931640625,-0.2021942138671875,27185.467208375,-1.336241173885929,-1.288945224701825,-0.7692302879460486,-0.02809393405914307,0.01223742589354515,0.004772399086505175,0.0040321946144104,-0.00815892219543457,-0.001210212707519531,XArbitraryZVertical,0.5804489356324428,0.2513300882923385,0.282120318074282,-0.7213322701331493,-0.6900978684425354,0.6955824494361877,-0.1998244374990463,0,0,0,-1,-1,27184.904238375,unknown,2,2025-04-22T10:57:49.650+03:00,2025-04-21T17:08:51.449+03:00,7097,0.9377078,0,0,5930.618,5,20,2025-04-22T10:57:29.015+03:00,767001469.7401165,0,-20.97,100.4566,1,0.95,2025-04-22T10:52:28.061+03:00,85,1.416666666666667,2025-04-22T09:54:17.825+03:00,0.02225348692287972,0
2025-04-22T10:57:50.238+03:00,1745308667.519363,40.95227670218328,29.14031054922987,76.52189,-1,-1,-1,-1,30,30.11905621221268,-9999,27185.487359375,-0.6846923828125,0.69744873046875,-0.19793701171875,27185.477283375,-1.336577650805692,-1.289058655447176,-0.7693655765823424,-0.02393993549048901,0.01239215582609177,0.003793420502915978,0.004773139953613281,-0.009034335613250732,-0.002459034323692322,XArbitraryZVertical,0.580537140063905,0.2512302713252432,0.2821665663913764,-0.7212778886094785,-0.690030038356781,0.6956796646118164,-0.1997199654579163,0,0,0,-1,-1,27184.904238375,unknown,2,2025-04-22T10:57:49.650+03:00,2025-04-21T17:08:51.449+03:00,7097,0.9377078,0,0,5930.618,5,20,2025-04-22T10:57:29.015+03:00,767001469.7401165,0,-20.97,100.4566,1,0.95,2025-04-22T10:52:28.061+03:00,85,1.416666666666667,2025-04-22T09:54:17.825+03:00,0.02225348692287972,0
2025-04-22T10:57:50.248+03:00,1745308667.519363,40.95227670218328,29.14031054922987,76.52189,-1,-1,-1,-1,30,30.11905621221268,-9999,27185.497435375,-0.682159423828125,0.6948089599609375,-0.192962646484375,27185.487359375,-1.336881771863488,-1.289140043510786,-0.7694657945464803,-0.01988300867378712,0.01344583556056023,0.001008087070658803,0.004569828510284424,-0.001339614391326904,-0.001451238989830017,XArbitraryZVertical,0.5806089583116335,0.2511394612175835,0.2822213944486241,-0.721230247504277,-0.6899793148040771,0.6957516074180603,-0.1996444165706635,0,0,0,-1,-1,27184.904238375,unknown,2,2025-04-22T10:57:49.650+03:00,2025-04-21T17:08:51.449+03:00,7097,0.9377078,0,0,5930.618,5,20,2025-04-22T10:57:29.015+03:00,767001469.7401165,0,-20.97,100.4566,1,0.95,2025-04-22T10:52:28.061+03:00,85,1.416666666666667,2025-04-22T09:54:17.825+03:00,0.02225348692287972,0
2025-04-22T10:57:50.258+03:00,1745308667.519363,40.95227670218328,29.14031054922987,76.52189,-1,-1,-1,-1,30,30.11905621221268,-9999,27185.507510375,-0.680389404296875,0.695831298828125,-0.1904754638671875,27185.497435375,-1.33715188431637,-1.289202511908558,-0.7695445100958704,-0.01892746612429619,0.01434545125812292,0.001294643152505159,0.005613088607788086,0.0009537339210510254,0.002732425928115845,XArbitraryZVertical,0.5806690462941895,0.2510585563907346,0.2822761692993354,-0.7211886580173402,-0.6899392604827881,0.6958081722259521,-0.1995861232280731,0,0,0,-1,-1,27184.904238375,unknown,2,2025-04-22T10:57:49.650+03:00,2025-04-21T17:08:51.449+03:00,7097,0.9377078,0,0,5930.618,5,20,2025-04-22T10:57:29.015+03:00,767001469.7401165,0,-20.97,100.4566,1,0.95,2025-04-22T10:52:28.061+03:00,85,1.416666666666667,2025-04-22T09:54:17.825+03:00,0.02225348692287972,0
2025-04-22T10:57:50.268+03:00,1745308667.519363,40.95227670218328,29.14031054922987,76.52189,-1,-1,-1,-1,30,30.11905621221268,-9999,27185.517586375,-0.6824493408203125,0.696563720703125,-0.1952056884765625,27185.507510375,-1.337393394825973,-1.289244282732807,-0.7696127451154084,-0.0156856682151556,0.0138218067586422,-0.0007479014457203448,0.007528960704803467,-0.0009110569953918457,0.007420599460601807,XArbitraryZVertical,0.5807203004990158,0.2509818098886283,0.2823298918049356,-0.7211531142999161,-0.6899020075798035,0.6958571672439575,-0.1995441317558289,0,0,0,-1,-1,27184.904238375,unknown,2,2025-04-22T10:57:49.650+03:00,2025-04-21T17:08:51.449+03:00,7097,0.9377078,0,0,5930.618,5,20,2025-04-22T10:57:29.015+03:00,767001469.7401165,0,-20.97,100.4566,1,0.95,2025-04-22T10:52:28.061+03:00,85,1.416666666666667,2025-04-22T09:54:17.825+03:00,0.02225348692287972,0
2025-04-22T10:57:50.278+03:00,1745308667.519363,40.95227670218328,29.14031054922987,76.52189,-1,-1,-1,-1,30,30.11905621221268,-9999,27185.527662375,-0.6880645751953125,0.6933746337890625,-0.1968994140625,27185.517586375,-1.337570022476294,-1.289220792495085,-0.7696302329453665,-0.01276364643126726,0.01358664967119694,-0.003066715784370899,0.009770870208740234,0.0001445412635803223,0.008776247501373291,XArbitraryZVertical,0.5807430132106782,0.2509164810191054,0.2823949434686961,-0.7211320697979654,-0.6898856163024902,0.6958697438240051,-0.1995569467544556,0,0,0,-1,-1,27184.904238375,unknown,2,2025-04-22T10:57:49.650+03:00,2025-04-21T17:08:51.449+03:00,7097,0.9377078,0,0,5930.618,5,20,2025-04-22T10:57:29.015+03:00,767001469.7401165,0,-20.97,100.4566,1,0.95,2025-04-22T10:52:28.061+03:00,85,1.416666666666667,2025-04-22T09:54:17.825+03:00,0.02225348692287972,0
2025-04-22T10:57:50.288+03:00,1745308667.519363,40.95227670218328,29.14031054922987,76.52189,-1,-1,-1,-1,30,30.11905621221268,-9999,27185.537737375,-0.6953582763671875,0.688751220703125,-0.19537353515625,27185.527662375,-1.337794948753344,-1.289194223975645,-0.7696673372524955,-0.02254716865718365,0.01989448070526123,2.208497608080506e-05,0.006948411464691162,0.0004230141639709473,0.003431513905525208,XArbitraryZVertical,0.5807756739315514,0.2508297690584693,0.2824721873271085,-0.7211056545571948,-0.6898554563522339,0.6958963871002197,-0.1995680928230286,0,0,0,-1,-1,27184.904238375,unknown,2,2025-04-22T10:57:49.650+03:00,2025-04-21T17:08:51.449+03:00,7097,0.9377078,0,0,5930.618,5,20,2025-04-22T10:57:29.015+03:00,767001469.7401165,0,-20.97,100.4566,1,0.95,2025-04-22T10:52:28.061+03:00,85,1.416666666666667,2025-04-22T09:54:17.825+03:00,0.02225348692287972,0
2025-04-22T10:57:50.298+03:00,1745308667.519363,40.95227670218328,29.14031054922987,76.52189,-1,-1,-1,-1,30,30.11905621221268,-9999,27185.547813375,-0.69439697265625,0.68402099609375,-0.19512939453125,27185.537737375,-1.338169941916662,-1.289244018778355,-0.7697392098742146,-0.03215878456830978,0.02228866145014763,0.001366448705084622,0.0005168914794921875,-0.002954959869384766,0.003581643104553223,XArbitraryZVertical,0.5808455625862582,0.2507159773429577,0.2825705646135939,-0.72105044391172,-0.6898174285888672,0.6959480047225952,-0.1995198577642441,0,0,0,-1,-1,27184.904238375,unknown,2,2025-04-22T10:57:49.650+03:00,2025-04-21T17:08:51.449+03:00,7097,0.9377078,0,0,5930.618,5,20,2025-04-22T10:57:29.015+03:00,767001469.7401165,0,-20.97,100.4566,1,0.95,2025-04-22T10:52:28.061+03:00,85,1.416666666666667,2025-04-22T09:54:17.825+03:00,0.02225348692287972,0
2025-04-22T10:57:50.308+03:00,1745308667.519363,40.95227670218328,29.14031054922987,76.52189,-1,-1,-1,-1,30,30.11905621221268,-9999,27185.557889375,-0.687896728515625,0.6902313232421875,-0.196685791015625,27185.547813375,-1.338561266239852,-1.289282825080294,-0.7698173497528685,-0.02999902702867985,0.01900571584701538,1.952174352481961e-05,-0.005814194679260254,-0.008244812488555908,0.004485815763473511,XArbitraryZVertical,0.5809173074647658,0.2505914616070098,0.2826760499162629,-0.7209946223932845,-0.6897730231285095,0.6960040926933289,-0.1994780004024506,0,0,0,-1,-1,27184.904238375,unknown,2,2025-04-22T10:57:49.650+03:00,2025-04-21T17:08:51.449+03:00,7097,0.9377078,0,0,5930.618,5,20,2025-04-22T10:57:29.015+03:00,767001469.7401165,0,-20.97,100.4566,1,0.95,2025-04-22T10:52:28.061+03:00,85,1.416666666666667,2025-04-22T09:54:17.825+03:00,0.02225348692287972,0
2025-04-22T10:57:50.319+03:00,1745308667.519363,40.95227670218328,29.14031054922987,76.52189,-1,-1,-1,-1,30,30.11905621221268,-9999,27185.567965375,-0.68865966796875,0.6952667236328125,-0.1986236572265625,27185.557889375,-1.338903707445854,-1.289369333413027,-0.7698709449392631,-0.02371023781597614,0.01084659062325954,-0.002695837523788214,-0.004245877265930176,-0.01106041669845581,0.00394284725189209,XArbitraryZVertical,0.5809842567925376,0.2505061095575275,0.2827576645566946,-0.7209383197760898,-0.6897544264793396,0.6960425972938538,-0.1994079649448395,0,0,0,-1,-1,27184.904238375,unknown,2,2025-04-22T10:57:49.650+03:00,2025-04-21T17:08:51.449+03:00,7097,0.9377078,0,0,5930.618,5,20,2025-04-22T10:57:29.015+03:00,767001469.7401165,0,-20.97,100.4566,1,0.95,2025-04-22T10:52:28.061+03:00,85,1.416666666666667,2025-04-22T09:54:17.825+03:00,0.02225348692287972,0
2025-04-22T10:57:50.328+03:00,1745308667.519363,40.95227670218328,29.14031054922987,76.52189,-1,-1,-1,-1,30,30.11905621221268,-9999,27185.578040375,-0.697235107421875,0.6966400146484375,-0.1978759765625,27185.567965375,-1.339198787473173,-1.289420559573596,-0.7699027777956498,-0.01757298223674297,0.02022171765565872,-0.001581837073899806,0.002868890762329102,-0.005193352699279785,0.00182613730430603,XArbitraryZVertical,0.5810354638313699,0.2504287262948173,0.282839238816624,-0.7208919517594751,-0.6897433400154114,0.6960654258728027,-0.1993664801120758,0,0,0,-1,-1,27184.904238375,unknown,2,2025-04-22T10:57:49.650+03:00,2025-04-21T17:08:51.449+03:00,7097,0.9377078,0,0,5930.618,5,20,2025-04-22T10:57:29.015+03:00,767001469.7401165,0,-20.97,100.4566,1,0.95,2025-04-22T10:52:28.061+03:00,85,1.416666666666667,2025-04-22T09:54:17.825+03:00,0.02225348692287972,0
2025-04-22T10:57:50.338+03:00,1745308667.519363,40.95227670218328,29.14031054922987,76.52189,-1,-1,-1,-1,30,30.11905621221268,-9999,27185.58811641667,-0.69287109375,0.7002716064453125,-0.1943511962890625,27185.578040375,-1.339355981584773,-1.289283899936737,-0.7699196991475407,-0.008880425244569778,0.02504896186292171,-0.003045776626095176,0.0001447796821594238,-0.00114673376083374,0.001001536846160889,XArbitraryZVertical,0.5810395623228829,0.250328388517237,0.2829303057131736,-0.7208877130318809,-0.6897047162055969,0.6960775852203369,-0.1994574517011642,0,0,0,-1,-1,27184.904238375,unknown,2,2025-04-22T10:57:49.650+03:00,2025-04-21T17:08:51.449+03:00,7097,0.9377078,0,0,5930.618,5,20,2025-04-22T10:57:29.015+03:00,767001469.7401165,0,-20.97,100.4566,1,0.95,2025-04-22T10:52:28.061+03:00,85,1.416666666666667,2025-04-22T09:54:17.825+03:00,0.02225348692287972,0
2025-04-22T10:57:50.349+03:00,1745308667.519363,40.95227670218328,29.14031054922987,76.52189,-1,-1,-1,-1,30,30.11905621221268,-9999,27185.59819241667,-0.680572509765625,0.6996002197265625,-0.1952972412109375,27185.58811641667,-1.339542024966695,-1.289184322888465,-0.7699278586274447,-0.0136131951585412,0.0191824845969677,-0.004850234836339951,-0.007769346237182617,0.001197218894958496,0.002091005444526672,XArbitraryZVertical,0.5810505612054448,0.2502358391702669,0.2830237412315338,-0.7208742822666437,-0.6896793842315674,0.6960834264755249,-0.1995245367288589,0,0,0,-1,-1,27184.904238375,unknown,2,2025-04-22T10:57:49.650+03:00,2025-04-21T17:08:51.449+03:00,7097,0.9377078,0,0,5930.618,5,20,2025-04-22T10:57:29.015+03:00,767001469.7401165,0,-20.97,100.4566,1,0.95,2025-04-22T10:52:28.061+03:00,85,1.416666666666667,2025-04-22T09:54:17.825+03:00,0.02225348692287972,0
2025-04-22T10:57:50.358+03:00,1745308667.519363,40.95227670218328,29.14031054922987,76.52189,-1,-1,-1,-1,30,30.11905621221268,-9999,27185.60826741667,-0.6825103759765625,0.693450927734375,-0.1937408447265625,27185.59819241667,-1.339756483393492,-1.28920069609589,-0.7699450882252902,-0.01549658365547657,0.01342446357011795,-0.001961770234629512,-0.002330183982849121,0.004450321197509766,0.005219697952270508,XArbitraryZVertical,0.5810835001828126,0.2501739517087738,0.2830909196570862,-0.7208428424592214,-0.6896711587905884,0.6960958242416382,-0.1995099186897278,0,0,0,-1,-1,27184.904238375,unknown,2,2025-04-22T10:57:49.650+03:00,2025-04-21T17:08:51.449+03:00,7097,0.9377078,0,0,5930.618,5,20,2025-04-22T10:57:29.015+03:00,767001469.7401165,0,-20.97,100.4566,1,0.95,2025-04-22T10:52:28.061+03:00,85,1.416666666666667,2025-04-22T09:54:17.825+03:00,0.02225348692287972,0
2025-04-22T10:57:50.369+03:00,1745308667.519363,40.95227670218328,29.14031054922987,76.52189,-1,-1,-1,-1,30,30.11905621221268,-9999,27185.61834341667,-0.688720703125,0.6899566650390625,-0.1963958740234375,27185.60826741667,-1.339964102130929,-1.289170732806598,-0.7700053215820304,-0.01293275691568851,0.01933295279741287,0.003563489997759461,0.0093575119972229,0.003323674201965332,0.004328429698944092,XArbitraryZVertical,0.5811184963181367,0.2500836443078153,0.2831556907862772,-0.7208205197929527,-0.6896248459815979,0.6961390376091003,-0.1995189338922501,0,0,0,-1,-1,27184.904238375,unknown,2,2025-04-22T10:57:49.650+03:00,2025-04-21T17:08:51.449+03:00,7097,0.9377078,0,0,5930.618,5,20,2025-04-22T10:57:29.015+03:00,767001469.7401165,0,-20.97,100.4566,1,0.95,2025-04-22T10:52:28.061+03:00,85,1.416666666666667,2025-04-22T09:54:17.825+03:00,0.02225348692287972,0
2025-04-22T10:57:50.379+03:00,1745308667.519363,40.95227670218328,29.14031054922987,76.52189,-1,-1,-1,-1,30,30.11905621221268,-9999,27185.62841941667,-0.686798095703125,0.6903839111328125,-0.197418212890625,27185.61834341667,-1.340069250380118,-1.289054092837161,-0.7700754650880812,-0.005692421458661556,0.01767060719430447,0.006802958901971579,0.006464540958404541,-0.002998054027557373,0.00521928071975708,XArbitraryZVertical,0.581130560185576,0.2499887366055258,0.2832056531930801,-0.7208241298237785,-0.689554750919342,0.6961894035339355,-0.199585810303688,0,0,0,-1,-1,27184.904238375,unknown,2,2025-04-22T10:57:49.650+03:00,2025-04-21T17:08:51.449+03:00,7097,0.9377078,0,0,5930.618,5,20,2025-04-22T10:57:29.015+03:00,767001469.7401165,0,-20.97,100.4566,1,0.95,2025-04-22T10:52:28.061+03:00,85,1.416666666666667,2025-04-22T09:54:17.825+03:00,0.02225348692287972,0
2025-04-22T10:57:50.389+03:00,1745308667.519363,40.95227670218328,29.14031054922987,76.52189,-1,-1,-1,-1,30,30.11905621221268,-9999,27185.63849441667,-0.6831512451171875,0.69189453125,-0.193359375,27185.62841941667,-1.340181060377245,-1.288961346511098,-0.7701399794130008,-0.01183959655463696,0.01846656017005444,0.007358594797551632,-0.0002347826957702637,-0.006721794605255127,0.003287091851234436,XArbitraryZVertical,0.5811456329721011,0.2499022452599031,0.2832527786412632,-0.7208233940892101,-0.6894930005073547,0.696235716342926,-0.1996372491121292,0,0,0,-1,-1,27184.904238375,unknown,2,2025-04-22T10:57:49.650+03:00,2025-04-21T17:08:51.449+03:00,7097,0.9377078,0,0,5930.618,5,20,2025-04-22T10:57:29.015+03:00,767001469.7401165,0,-20.97,100.4566,1,0.95,2025-04-22T10:52:28.061+03:00,85,1.416666666666667,2025-04-22T09:54:17.825+03:00,0.02225348692287972,0
