loggingTime(txt),locationTimestamp_since1970(s),locationLatitude(WGS84),locationLongitude(WGS84),locationAltitude(m),locationSpeed(m/s),locationSpeedAccuracy(m/s),locationCourse(°),locationCourseAccuracy(°),locationVerticalAccuracy(m),locationHorizontalAccuracy(m),locationFloor(Z),accelerometerTimestamp_sinceReboot(s),accelerometerAccelerationX(G),accelerometerAccelerationY(G),accelerometerAccelerationZ(G),motionTimestamp_sinceReboot(s),motionYaw(rad),motionRoll(rad),motionPitch(rad),motionRotationRateX(rad/s),motionRotationRateY(rad/s),motionRotationRateZ(rad/s),motionUserAccelerationX(G),motionUserAccelerationY(G),motionUserAccelerationZ(G),motionAttitudeReferenceFrame(txt),motionQuaternionX(R),motionQuaternionY(R),motionQuaternionZ(R),motionQuaternionW(R),motionGravityX(G),motionGravityY(G),motionGravityZ(G),motionMagneticFieldX(µT),motionMagneticFieldY(µT),motionMagneticFieldZ(µT),motionHeading(°),motionMagneticFieldCalibrationAccuracy(Z),activityTimestamp_sinceReboot(s),activity(txt),activityActivityConfidence(Z),activityActivityStartDate(txt),pedometerStartDate(txt),pedometerNumberofSteps(N),pedometerAverageActivePace(s/m),pedometerCurrentPace(s/m),pedometerCurrentCadence(steps/s),pedometerDistance(m),pedometerFloorAscended(N),pedometerFloorDescended(N),pedometerEndDate(txt),altimeterTimestamp_sinceReboot(s),altimeterReset(bool),altimeterRelativeAltitude(m),altimeterPressure(kPa),batteryState(N),batteryLevel(R),heartRateBPMTimestamp(txt),heartRateBPM(N),heartRateBPS(R),heartRateVariabilityTimestamp(txt),heartRateVariability(ms),label
2025-04-22T11:16:14.150+03:00,1745309772.960972,40.95223876090688,29.14031957624485,76.31387,-1,-1,-1,-1,30,23.46366011427169,-9999,27968.606149125,-0.674652099609375,0.751953125,-0.173858642578125,27968.601111125,-1.368987985824869,-1.306846212305359,-0.8295063369958667,-0.04919153824448586,0.009259033016860485,-0.0005718402098864317,0.003615140914916992,-0.03810489177703857,0.00948023796081543,XArbitraryZVertical,0.5996630832072894,0.2287367979561024,0.26968722519285,-0.7178805305855376,-0.6518543362617493,0.7375981211662292,-0.1761673241853714,0,0,0,-1,-1,27968.138858125,unknown,2,2025-04-22T11:16:13.654+03:00,2025-04-21T17:08:51.449+03:00,7138,0.945033,0,0,5962.584,5,20,2025-04-22T11:14:33.050+03:00,767002573.7448493,0,-20.82,100.4528,1,0.95,2025-04-22T11:15:19.561+03:00,82,1.366666666666667,2025-04-22T09:54:17.825+03:00,0.02225348692287972,0
2025-04-22T11:16:14.152+03:00,1745309772.960972,40.95223876090688,29.14031957624485,76.31387,-1,-1,-1,-1,30,23.46366011427169,-9999,27968.616225125,-0.6427459716796875,0.7405548095703125,-0.1724700927734375,27968.611187125,-1.369675250378586,-1.30737486504465,-0.8294322985896035,-0.04639442265033722,-0.01319594122469425,-0.00298173469491303,-0.02600908279418945,0.006622850894927979,0.002985239028930664,XArbitraryZVertical,0.5997979031598575,0.2287444569593823,0.2697987825598195,-0.717723479668513,-0.6520000100135803,0.7375481128692627,-0.1758368909358978,0,0,0,-1,-1,27968.138858125,unknown,2,2025-04-22T11:16:13.654+03:00,2025-04-21T17:08:51.449+03:00,7138,0.945033,0,0,5962.584,5,20,2025-04-22T11:14:33.050+03:00,767002573.7448493,0,-20.82,100.4528,1,0.95,2025-04-22T11:15:19.561+03:00,82,1.366666666666667,2025-04-22T09:54:17.825+03:00,0.02225348692287972,0
2025-04-22T11:16:14.152+03:00,1745309772.960972,40.95223876090688,29.14031957624485,76.31387,-1,-1,-1,-1,30,23.46366011427169,-9999,27968.626302125,-0.6402740478515625,0.744720458984375,-0.1732940673828125,27968.621264125,-1.37028074199833,-1.30790914967027,-0.829496873237111,-0.04080358147621155,-0.008895669132471085,-0.006564452312886715,-0.002752542495727539,0.007921993732452393,0.003112748265266418,XArbitraryZVertical,0.5999523961256489,0.2287335881998452,0.2698353379136345,-0.7175840494659478,-0.652047872543335,0.7375917434692383,-0.1754761338233948,0,0,0,-1,-1,27968.138858125,unknown,2,2025-04-22T11:16:13.654+03:00,2025-04-21T17:08:51.449+03:00,7138,0.945033,0,0,5962.584,5,20,2025-04-22T11:14:33.050+03:00,767002573.7448493,0,-20.82,100.4528,1,0.95,2025-04-22T11:15:19.561+03:00,82,1.366666666666667,2025-04-22T09:54:17.825+03:00,0.02225348692287972,0
2025-04-22T11:16:14.157+03:00,1745309772.960972,40.95223876090688,29.14031957624485,76.31387,-1,-1,-1,-1,30,23.46366011427169,-9999,27968.636378125,-0.6571502685546875,0.749359130859375,-0.174072265625,27968.631340125,-1.370711172762092,-1.308165071737438,-0.8297105494162597,-0.02733517624437809,0.007866000756621361,-0.008188181556761265,0.01548111438751221,0.003306925296783447,0.002737104892730713,XArbitraryZVertical,0.6000796486643211,0.2286268776053979,0.2698452989844645,-0.7175078968440124,-0.6519405245780945,0.7377359867095947,-0.1752683371305466,0,0,0,-1,-1,27968.138858125,unknown,2,2025-04-22T11:16:13.654+03:00,2025-04-21T17:08:51.449+03:00,7138,0.945033,0,0,5962.584,5,20,2025-04-22T11:14:33.050+03:00,767002573.7448493,0,-20.82,100.4528,1,0.95,2025-04-22T11:15:19.561+03:00,82,1.366666666666667,2025-04-22T09:54:17.825+03:00,0.02225348692287972,0
2025-04-22T11:16:14.166+03:00,1745309772.960972,40.95223876090688,29.14031957624485,76.31387,-1,-1,-1,-1,30,23.46366011427169,-9999,27968.646455125,-0.657867431640625,0.74810791015625,-0.174041748046875,27968.641417125,-1.370985559787127,-1.308207973488066,-0.8297548111211064,-0.01771483942866325,0.01329744979739189,-0.009209670126438141,-0.0001066923141479492,0.01177620887756348,0.001724183559417725,XArbitraryZVertical,0.6001257790777939,0.2285455994956168,0.2699168771356612,-0.7174683507351628,-0.6519166231155396,0.7377658486366272,-0.1752319186925888,0,0,0,-1,-1,27968.138858125,unknown,2,2025-04-22T11:16:13.654+03:00,2025-04-21T17:08:51.449+03:00,7138,0.945033,0,0,5962.584,5,20,2025-04-22T11:14:33.050+03:00,767002573.7448493,0,-20.82,100.4528,1,0.95,2025-04-22T11:15:19.561+03:00,82,1.366666666666667,2025-04-22T09:54:17.825+03:00,0.02225348692287972,0
2025-04-22T11:16:14.176+03:00,1745309772.960972,40.95223876090688,29.14031957624485,76.31387,-1,-1,-1,-1,30,23.46366011427169,-9999,27968.656532125,-0.64996337890625,0.7493133544921875,-0.1750335693359375,27968.651493125,-1.371133822586057,-1.308164472959773,-0.82970295758038,-0.00441075162962079,0.01178477518260479,-0.003733678255230188,-0.008073091506958008,0.01057523488998413,0.00173187255859375,XArbitraryZVertical,0.6001263197984578,0.2285023182018706,0.269999510977864,-0.7174505364650767,-0.6519458293914795,0.737730860710144,-0.1752701848745346,0,0,0,-1,-1,27968.138858125,unknown,2,2025-04-22T11:16:13.654+03:00,2025-04-21T17:08:51.449+03:00,7138,0.945033,0,0,5962.584,5,20,2025-04-22T11:14:33.050+03:00,767002573.7448493,0,-20.82,100.4528,1,0.95,2025-04-22T11:15:19.561+03:00,82,1.366666666666667,2025-04-22T09:54:17.825+03:00,0.02225348692287972,0
2025-04-22T11:16:14.186+03:00,1745309772.960972,40.95223876090688,29.14031957624485,76.31387,-1,-1,-1,-1,30,23.46366011427169,-9999,27968.666608125,-0.6462860107421875,0.747772216796875,-0.1723785400390625,27968.661570125,-1.371154471543859,-1.308056001179541,-0.8296854615429201,0.001694411621429026,0.01177825033664703,-0.003776355413720012,-0.001503169536590576,0.01167035102844238,0.0003411322832107544,XArbitraryZVertical,0.6001105033949827,0.2284628525062337,0.2700449673507851,-0.7174591533143141,-0.6519391536712646,0.7377190589904785,-0.1753442138433456,0,0,0,-1,-1,27968.138858125,unknown,2,2025-04-22T11:16:13.654+03:00,2025-04-21T17:08:51.449+03:00,7138,0.945033,0,0,5962.584,5,20,2025-04-22T11:14:33.050+03:00,767002573.7448493,0,-20.82,100.4528,1,0.95,2025-04-22T11:15:19.561+03:00,82,1.366666666666667,2025-04-22T09:54:17.825+03:00,0.02225348692287972,0
2025-04-22T11:16:14.202+03:00,1745309772.960972,40.95223876090688,29.14031957624485,76.31387,-1,-1,-1,-1,30,23.46366011427169,-9999,27968.676685125,-0.6503753662109375,0.74273681640625,-0.169921875,27968.671646125,-1.37115878889084,-1.307925265710519,-0.8296669933685832,0.002309069037437439,0.01581906527280807,0.0003467505448497832,0.005384206771850586,0.01151508092880249,0.001421749591827393,XArbitraryZVertical,0.6000895252794025,0.2284207395425938,0.2700916750961843,-0.7174726737926099,-0.6519296765327454,0.7377066016197205,-0.1754330545663834,0,0,0,-1,-1,27968.138858125,unknown,2,2025-04-22T11:16:13.654+03:00,2025-04-21T17:08:51.449+03:00,7138,0.945033,0,0,5962.584,5,20,2025-04-22T11:14:33.050+03:00,767002573.7448493,0,-20.82,100.4528,1,0.95,2025-04-22T11:15:19.561+03:00,82,1.366666666666667,2025-04-22T09:54:17.825+03:00,0.02225348692287972,0
2025-04-22T11:16:14.207+03:00,1745309772.960972,40.95223876090688,29.14031957624485,76.31387,-1,-1,-1,-1,30,23.46366011427169,-9999,27968.686761125,-0.650543212890625,0.7368621826171875,-0.1710968017578125,27968.681723125,-1.371148790577767,-1.307765536685191,-0.8296205551277424,0.002447420498356223,0.01537018828094006,0.002044449327513576,0.003298759460449219,0.007304489612579346,0.005578339099884033,XArbitraryZVertical,0.6000573664665798,0.228381512419767,0.2701507108636673,-0.7174898133269075,-0.6519346833229065,0.7376752495765686,-0.1755460798740387,0,0,0,-1,-1,27968.138858125,unknown,2,2025-04-22T11:16:13.654+03:00,2025-04-21T17:08:51.449+03:00,7138,0.945033,0,0,5962.584,5,20,2025-04-22T11:14:33.050+03:00,767002573.7448493,0,-20.82,100.4528,1,0.95,2025-04-22T11:15:19.561+03:00,82,1.366666666666667,2025-04-22T09:54:17.825+03:00,0.02225348692287972,0
2025-04-22T11:16:14.217+03:00,1745309772.960972,40.95223876090688,29.14031957624485,76.31387,-1,-1,-1,-1,30,23.46366011427169,-9999,27968.696838125,-0.646484375,0.7386474609375,-0.1708526611328125,27968.691799125,-1.371141258760557,-1.307661913828683,-0.829568345039466,0.004941204562783241,0.01035652123391628,0.0004556073690764606,0.001425683498382568,4.607439041137695e-05,0.005564376711845398,XArbitraryZVertical,0.6000318690057836,0.2283635736088213,0.270195649837362,-0.7174999543516456,-0.6519536972045898,0.7376399636268616,-0.1756236702203751,0,0,0,-1,-1,27968.138858125,unknown,2,2025-04-22T11:16:13.654+03:00,2025-04-21T17:08:51.449+03:00,7138,0.945033,0,0,5962.584,5,20,2025-04-22T11:14:33.050+03:00,767002573.7448493,0,-20.82,100.4528,1,0.95,2025-04-22T11:15:19.561+03:00,82,1.366666666666667,2025-04-22T09:54:17.825+03:00,0.02225348692287972,0
2025-04-22T11:16:14.227+03:00,1745309772.960972,40.95223876090688,29.14031957624485,76.31387,-1,-1,-1,-1,30,23.46366011427169,-9999,27968.706914125,-0.645294189453125,0.7364959716796875,-0.1725006103515625,27968.701876125,-1.371157200350568,-1.307592487607162,-0.8296008761472237,-0.004191706888377666,0.008825870230793953,0.002826153766363859,0.003923237323760986,0.0002223849296569824,0.005160868167877197,XArbitraryZVertical,0.6000309547891656,0.2283232848738784,0.2702118633866326,-0.7175073777240688,-0.6519182324409485,0.7376619577407837,-0.1756626665592194,0,0,0,-1,-1,27968.138858125,unknown,2,2025-04-22T11:16:13.654+03:00,2025-04-21T17:08:51.449+03:00,7138,0.945033,0,0,5962.584,5,20,2025-04-22T11:14:33.050+03:00,767002573.7448493,0,-20.82,100.4528,1,0.95,2025-04-22T11:15:19.561+03:00,82,1.366666666666667,2025-04-22T09:54:17.825+03:00,0.02225348692287972,0
2025-04-22T11:16:14.237+03:00,1745309772.960972,40.95223876090688,29.14031957624485,76.31387,-1,-1,-1,-1,30,23.46366011427169,-9999,27968.716991125,-0.6494598388671875,0.7360992431640625,-0.17218017578125,27968.711952125,-1.371207098281935,-1.307501556614581,-0.8296914440274705,-0.003341892035678029,0.0175357386469841,0.002606442663818598,0.007397949695587158,-0.0001439452171325684,0.003051236271858215,XArbitraryZVertical,0.6000428292330688,0.2282462331687493,0.2702283241738489,-0.7175156932678319,-0.6518376469612122,0.7377231121063232,-0.1757045239210129,0,0,0,-1,-1,27968.138858125,unknown,2,2025-04-22T11:16:13.654+03:00,2025-04-21T17:08:51.449+03:00,7138,0.945033,0,0,5962.584,5,20,2025-04-22T11:14:33.050+03:00,767002573.7448493,0,-20.82,100.4528,1,0.95,2025-04-22T11:15:19.561+03:00,82,1.366666666666667,2025-04-22T09:54:17.825+03:00,0.02225348692287972,0
2025-04-22T11:16:14.247+03:00,1745309772.960972,40.95223876090688,29.14031957624485,76.31387,-1,-1,-1,-1,30,23.46366011427169,-9999,27968.727067125,-0.6533966064453125,0.73724365234375,-0.171966552734375,27968.722029125,-1.37120658008861,-1.3073165538303,-0.8297623417328098,0.002054870594292879,0.0192959550768137,0.005829733330756426,0.004415810108184814,-0.002373754978179932,0.003661751747131348,XArbitraryZVertical,0.600032181934493,0.2281570168742298,0.2702612219697642,-0.7175406376160558,-0.6517547369003296,0.7377709746360779,-0.1758115142583847,0,0,0,-1,-1,27968.138858125,unknown,2,2025-04-22T11:16:13.654+03:00,2025-04-21T17:08:51.449+03:00,7138,0.945033,0,0,5962.584,5,20,2025-04-22T11:14:33.050+03:00,767002573.7448493,0,-20.82,100.4528,1,0.95,2025-04-22T11:15:19.561+03:00,82,1.366666666666667,2025-04-22T09:54:17.825+03:00,0.02225348692287972,0
2025-04-22T11:16:14.257+03:00,1745309772.960972,40.95223876090688,29.14031957624485,76.31387,-1,-1,-1,-1,30,23.46366011427169,-9999,27968.737144125,-0.6504974365234375,0.7373046875,-0.1731109619140625,27968.732106125,-1.371179248645673,-1.307110741349314,-0.829801081563097,0.002222117036581039,0.01826397888362408,0.003848607651889324,-8.827447891235352e-05,-0.0005078315734863281,0.003513753414154053,XArbitraryZVertical,0.6000091514203997,0.2280787723264577,0.2703008759285828,-0.7175698013294952,-0.6516909003257751,0.7377971410751343,-0.1759381890296936,0,0,0,-1,-1,27968.138858125,unknown,2,2025-04-22T11:16:13.654+03:00,2025-04-21T17:08:51.449+03:00,7138,0.945033,0,0,5962.584,5,20,2025-04-22T11:14:33.050+03:00,767002573.7448493,0,-20.82,100.4528,1,0.95,2025-04-22T11:15:19.561+03:00,82,1.366666666666667,2025-04-22T09:54:17.825+03:00,0.02225348692287972,0
2025-04-22T11:16:14.267+03:00,1745309772.960972,40.95223876090688,29.14031957624485,76.31387,-1,-1,-1,-1,30,23.46366011427169,-9999,27968.747220125,-0.6448211669921875,0.7303619384765625,-0.1742706298828125,27968.742182125,-1.371150782277959,-1.30693530390241,-0.829887577764623,-0.0005146138719283044,0.01307740621268749,0.006352878175675869,-0.00149303674697876,0.0001966953277587891,0.003443658351898193,XArbitraryZVertical,0.5999998026592412,0.2279962733827795,0.2703159107213431,-0.7175981826576013,-0.6515983939170837,0.7378554940223694,-0.1760358661413193,0,0,0,-1,-1,27968.138858125,unknown,2,2025-04-22T11:16:13.654+03:00,2025-04-21T17:08:51.449+03:00,7138,0.945033,0,0,5962.584,5,20,2025-04-22T11:14:33.050+03:00,767002573.7448493,0,-20.82,100.4528,1,0.95,2025-04-22T11:15:19.561+03:00,82,1.366666666666667,2025-04-22T09:54:17.825+03:00,0.02225348692287972,0
2025-04-22T11:16:14.277+03:00,1745309772.960972,40.95223876090688,29.14031957624485,76.31387,-1,-1,-1,-1,30,23.46366011427169,-9999,27968.757297125,-0.6432037353515625,0.725677490234375,-0.17620849609375,27968.752259125,-1.371155865122652,-1.306832877625441,-0.830018395722403,-0.008375465869903564,0.0103500634431839,0.008805914781987667,0.005811452865600586,-0.004591286182403564,0.002249181270599365,XArbitraryZVertical,0.6000131778904463,0.2279154968994744,0.2703070378829094,-0.7176159984926977,-0.6514871716499329,0.7379437685012817,-0.1760774254798889,0,0,0,-1,-1,27968.138858125,unknown,2,2025-04-22T11:16:13.654+03:00,2025-04-21T17:08:51.449+03:00,7138,0.945033,0,0,5962.584,5,20,2025-04-22T11:14:33.050+03:00,767002573.7448493,0,-20.82,100.4528,1,0.95,2025-04-22T11:15:19.561+03:00,82,1.366666666666667,2025-04-22T09:54:17.825+03:00,0.02225348692287972,0
2025-04-22T11:16:14.287+03:00,1745309772.960972,40.95223876090688,29.14031957624485,76.31387,-1,-1,-1,-1,30,23.46366011427169,-9999,27968.767373125,-0.6454010009765625,0.7252349853515625,-0.1717681884765625,27968.762335125,-1.371316696034513,-1.306887176288352,-0.8301612813331081,-0.0133366696536541,0.008590246550738811,0.007250895723700523,0.007870733737945557,-0.01111167669296265,-0.0002093315124511719,XArbitraryZVertical,0.6000679464398901,0.227840285732143,0.2703031896306596,-0.71759550181217,-0.6513949036598206,0.7380402088165283,-0.1760145276784897,0,0,0,-1,-1,27968.138858125,unknown,2,2025-04-22T11:16:13.654+03:00,2025-04-21T17:08:51.449+03:00,7138,0.945033,0,0,5962.584,5,20,2025-04-22T11:14:33.050+03:00,767002573.7448493,0,-20.82,100.4528,1,0.95,2025-04-22T11:15:19.561+03:00,82,1.366666666666667,2025-04-22T09:54:17.825+03:00,0.02225348692287972,0
2025-04-22T11:16:14.297+03:00,1745309772.960972,40.95223876090688,29.14031957624485,76.31387,-1,-1,-1,-1,30,23.46366011427169,-9999,27968.777450125,-0.6484527587890625,0.7285308837890625,-0.1731719970703125,27968.772412125,-1.37153893759806,-1.306983229534213,-0.8302803408196781,-0.01279977615922689,0.008075724355876446,0.007868749089539051,0.007024586200714111,-0.0140148401260376,0.001444697380065918,XArbitraryZVertical,0.6001304760447581,0.227769379817562,0.2703164037198688,-0.7175607396825603,-0.6513269543647766,0.7381205558776855,-0.1759290397167206,0,0,0,-1,-1,27968.138858125,unknown,2,2025-04-22T11:16:13.654+03:00,2025-04-21T17:08:51.449+03:00,7138,0.945033,0,0,5962.584,5,20,2025-04-22T11:14:33.050+03:00,767002573.7448493,0,-20.82,100.4528,1,0.95,2025-04-22T11:15:19.561+03:00,82,1.366666666666667,2025-04-22T09:54:17.825+03:00,0.02225348692287972,0
2025-04-22T11:16:14.307+03:00,1745309772.960972,40.95223876090688,29.14031957624485,76.31387,-1,-1,-1,-1,30,23.46366011427169,-9999,27968.787527125,-0.6524505615234375,0.731292724609375,-0.175445556640625,27968.782488125,-1.371753170193158,-1.307071759087649,-0.8303768074608622,-0.01271934807300568,0.01050665695220232,0.003015271155163646,0.004255473613739014,-0.01098239421844482,0.004084587097167969,XArbitraryZVertical,0.6001864295533251,0.2277055576245208,0.2703361981442283,-0.7175268250136658,-0.6512739062309265,0.7381856441497803,-0.1758528649806976,0,0,0,-1,-1,27968.138858125,unknown,2,2025-04-22T11:16:13.654+03:00,2025-04-21T17:08:51.449+03:00,7138,0.945033,0,0,5962.584,5,20,2025-04-22T11:14:33.050+03:00,767002573.7448493,0,-20.82,100.4528,1,0.95,2025-04-22T11:15:19.561+03:00,82,1.366666666666667,2025-04-22T09:54:17.825+03:00,0.02225348692287972,0
2025-04-22T11:16:14.317+03:00,1745309772.960972,40.95223876090688,29.14031957624485,76.31387,-1,-1,-1,-1,30,23.46366011427169,-9999,27968.797603125,-0.6502685546875,0.7355804443359375,-0.1746978759765625,27968.792565125,-1.371965764929964,-1.307116027473115,-0.8304663115716449,-0.01440219953656197,0.01484521292150021,0.001094599487259984,-0.0005002617835998535,-0.008189380168914795,0.001047849655151367,XArbitraryZVertical,0.6002348302901218,0.2276285384023568,0.2703708240967525,-0.7174977032404618,-0.6512178778648376,0.738245964050293,-0.1758067905902863,0,0,0,-1,-1,27968.138858125,unknown,2,2025-04-22T11:16:13.654+03:00,2025-04-21T17:08:51.449+03:00,7138,0.945033,0,0,5962.584,5,20,2025-04-22T11:14:33.050+03:00,767002573.7448493,0,-20.82,100.4528,1,0.95,2025-04-22T11:15:19.561+03:00,82,1.366666666666667,2025-04-22T09:54:17.825+03:00,0.02225348692287972,0
2025-04-22T11:16:14.328+03:00,1745309772.960972,40.95223876090688,29.14031957624485,76.31387,-1,-1,-1,-1,30,23.46366011427169,-9999,27968.807680125,-0.6468963623046875,0.734039306640625,-0.180938720703125,27968.802641125,-1.372188184275957,-1.307152367012379,-0.8305358869803228,-0.01621701195836067,0.01030305866152048,0.002482039853930473,-0.0003908276557922363,-0.004055380821228027,0.001315951347351074,XArbitraryZVertical,0.6002791886265777,0.2275522280051733,0.2704176937444542,-0.7174671686070433,-0.6511747241020203,0.738292932510376,-0.1757697612047195,0,0,0,-1,-1,27968.138858125,unknown,2,2025-04-22T11:16:13.654+03:00,2025-04-21T17:08:51.449+03:00,7138,0.945033,0,0,5962.584,5,20,2025-04-22T11:14:33.050+03:00,767002573.7448493,0,-20.82,100.4528,1,0.95,2025-04-22T11:15:19.561+03:00,82,1.366666666666667,2025-04-22T09:54:17.825+03:00,0.02225348692287972,0
2025-04-22T11:16:14.337+03:00,1745309772.960972,40.95223876090688,29.14031957624485,76.31387,-1,-1,-1,-1,30,23.46366011427169,-9999,27968.817756125,-0.639892578125,0.7300567626953125,-0.18157958984375,27968.812718125,-1.372552094990042,-1.307412172613562,-0.8306261322749465,-0.03169876709580421,-0.004961648490279913,0.00250867148861289,0.002642273902893066,-0.003109157085418701,-0.002654746174812317,XArbitraryZVertical,0.6003740421258944,0.2275068888881271,0.2704416981258917,-0.7173931800996032,-0.6511561274528503,0.7383537888526917,-0.1755832433700562,0,0,0,-1,-1,27968.138858125,unknown,2,2025-04-22T11:16:13.654+03:00,2025-04-21T17:08:51.449+03:00,7138,0.945033,0,0,5962.584,5,20,2025-04-22T11:14:33.050+03:00,767002573.7448493,0,-20.82,100.4528,1,0.95,2025-04-22T11:15:19.561+03:00,82,1.366666666666667,2025-04-22T09:54:17.825+03:00,0.02225348692287972,0
2025-04-22T11:16:14.348+03:00,1745309772.960972,40.95223876090688,29.14031957624485,76.31387,-1,-1,-1,-1,30,23.46366011427169,-9999,27968.827833125,-0.6347808837890625,0.7282867431640625,-0.1794586181640625,27968.822794125,-1.373032294391603,-1.307874711364214,-0.8307412459915799,-0.03437025099992752,-0.01400847267359495,0.003480958286672831,0.008805751800537109,-0.006909966468811035,-0.006899595260620117,XArbitraryZVertical,0.6005146401637054,0.2274911349344442,0.2704385397706594,-0.7172815618113707,-0.6511549949645996,0.7384313941001892,-0.1752599030733109,0,0,0,-1,-1,27968.138858125,unknown,2,2025-04-22T11:16:13.654+03:00,2025-04-21T17:08:51.449+03:00,7138,0.945033,0,0,5962.584,5,20,2025-04-22T11:14:33.050+03:00,767002573.7448493,0,-20.82,100.4528,1,0.95,2025-04-22T11:15:19.561+03:00,82,1.366666666666667,2025-04-22T09:54:17.825+03:00,0.02225348692287972,0
2025-04-22T11:16:14.358+03:00,1745309772.960972,40.95223876090688,29.14031957624485,76.31387,-1,-1,-1,-1,30,23.46366011427169,-9999,27968.837909125,-0.6446990966796875,0.7293243408203125,-0.1825103759765625,27968.832871125,-1.373515121809426,-1.308356815354534,-0.8308635623956737,-0.03841079771518707,-0.00918602105230093,0.004725986160337925,0.01565414667129517,-0.009784817695617676,-0.004703998565673828,XArbitraryZVertical,0.6006595620779535,0.2274792820887451,0.2704281822789908,-0.7171678976985848,-0.6511522531509399,0.7385138869285583,-0.1749225407838821,0,0,0,-1,-1,27968.138858125,unknown,2,2025-04-22T11:16:13.654+03:00,2025-04-21T17:08:51.449+03:00,7138,0.945033,0,0,5962.584,5,20,2025-04-22T11:14:33.050+03:00,767002573.7448493,0,-20.82,100.4528,1,0.95,2025-04-22T11:15:19.561+03:00,82,1.366666666666667,2025-04-22T09:54:17.825+03:00,0.02225348692287972,0
2025-04-22T11:16:14.368+03:00,1745309772.960972,40.95223876090688,29.14031957624485,76.31387,-1,-1,-1,-1,30,23.46366011427169,-9999,27968.847986125,-0.6501312255859375,0.7313995361328125,-0.1823883056640625,27968.842947125,-1.373990100376367,-1.308759299419086,-0.8309781109478753,-0.03379347547888756,-0.003779337275773287,0.002421519719064236,0.01101946830749512,-0.01079279184341431,-0.007490456104278564,XArbitraryZVertical,0.6007912146665649,0.2274437127660801,0.2704413353864649,-0.7170639842610596,-0.6511409282684326,0.7385911345481873,-0.1746385544538498,0,0,0,-1,-1,27968.138858125,unknown,2,2025-04-22T11:16:13.654+03:00,2025-04-21T17:08:51.449+03:00,7138,0.945033,0,0,5962.584,5,20,2025-04-22T11:14:33.050+03:00,767002573.7448493,0,-20.82,100.4528,1,0.95,2025-04-22T11:15:19.561+03:00,82,1.366666666666667,2025-04-22T09:54:17.825+03:00,0.02225348692287972,0
2025-04-22T11:16:14.378+03:00,1745309772.960972,40.95223876090688,29.14031957624485,76.31387,-1,-1,-1,-1,30,23.46366011427169,-9999,27968.858062125,-0.6460418701171875,0.7303009033203125,-0.1817474365234375,27968.853024125,-1.374504118184338,-1.309146636460888,-0.8310842906207268,-0.03816212713718414,0.002630358329042792,0.005262313410639763,0.001962840557098389,-0.007660031318664551,-0.00858694314956665,XArbitraryZVertical,0.6009235571899163,0.2273936221382255,0.2704756049242764,-0.7169560448524466,-0.6511327624320984,0.7386627197265625,-0.1743660420179367,0,0,0,-1,-1,27968.138858125,unknown,2,2025-04-22T11:16:13.654+03:00,2025-04-21T17:08:51.449+03:00,7138,0.945033,0,0,5962.584,5,20,2025-04-22T11:14:33.050+03:00,767002573.7448493,0,-20.82,100.4528,1,0.95,2025-04-22T11:15:19.561+03:00,82,1.366666666666667,2025-04-22T09:54:17.825+03:00,0.02225348692287972,0
2025-04-22T11:16:14.399+03:00,1745309772.960972,40.95223876090688,29.14031957624485,76.31387,-1,-1,-1,-1,30,23.46366011427169,-9999,27968.868139125,-0.645904541015625,0.7282867431640625,-0.18353271484375,27968.863101125,-1.374993578392129,-1.309503168237658,-0.8312198710367051,-0.03381631150841713,0.004702098201960325,0.006756779737770557,0.003438770771026611,-0.007751405239105225,-0.008127808570861816,XArbitraryZVertical,0.6010548911508358,0.2273302163379807,0.2705009255050873,-0.71685645002067,-0.6510980725288391,0.7387540936470032,-0.1741079837083817,0,0,0,-1,-1,27968.138858125,unknown,2,2025-04-22T11:16:13.654+03:00,2025-04-21T17:08:51.449+03:00,7138,0.945033,0,0,5962.584,5,20,2025-04-22T11:14:33.050+03:00,767002573.7448493,0,-20.82,100.4528,1,0.95,2025-04-22T11:15:19.561+03:00,82,1.366666666666667,2025-04-22T09:54:17.825+03:00,0.02225348692287972,0
2025-04-22T11:16:14.400+03:00,1745309772.960972,40.95223876090688,29.14031957624485,76.31387,-1,-1,-1,-1,30,23.46366011427169,-9999,27968.878215125,-0.6472930908203125,0.7308197021484375,-0.1868743896484375,27968.873177125,-1.375401474484666,-1.309707575542455,-0.831364372804859,-0.02817573584616184,0.0147845596075058,0.01265461556613445,0.004942893981933594,-0.009527266025543213,-0.00778496265411377,XArbitraryZVertical,0.6011581234120156,0.2272338902222069,0.2705399018733367,-0.7167857351392636,-0.6510305404663086,0.7388514876365662,-0.1739473342895508,0,0,0,-1,-1,27968.138858125,unknown,2,2025-04-22T11:16:13.654+03:00,2025-04-21T17:08:51.449+03:00,7138,0.945033,0,0,5962.584,5,20,2025-04-22T11:14:33.050+03:00,767002573.7448493,0,-20.82,100.4528,1,0.95,2025-04-22T11:15:19.561+03:00,82,1.366666666666667,2025-04-22T09:54:17.825+03:00,0.02225348692287972,0
2025-04-22T11:16:14.408+03:00,1745309772.960972,40.95223876090688,29.14031957624485,76.31387,-1,-1,-1,-1,30,23.46366011427169,-9999,27968.888292125,-0.647216796875,0.73297119140625,-0.1912078857421875,27968.883254125,-1.375765406020065,-1.309774185335482,-0.8315742844225018,-0.03484994918107986,0.02505577355623245,0.01716637797653675,0.003934860229492188,-0.01003485918045044,-0.01185084879398346,XArbitraryZVertical,0.6012509081454213,0.2270800878357186,0.2705837947757097,-0.7167401119286153,-0.6508923172950745,0.7389929294586182,-0.1738639622926712,0,0,0,-1,-1,27968.138858125,unknown,2,2025-04-22T11:16:13.654+03:00,2025-04-21T17:08:51.449+03:00,7138,0.945033,0,0,5962.584,5,20,2025-04-22T11:14:33.050+03:00,767002573.7448493,0,-20.82,100.4528,1,0.95,2025-04-22T11:15:19.561+03:00,82,1.366666666666667,2025-04-22T09:54:17.825+03:00,0.02225348692287972,0
2025-04-22T11:16:14.418+03:00,1745309772.960972,40.95223876090688,29.14031957624485,76.31387,-1,-1,-1,-1,30,23.46366011427169,-9999,27968.898369125,-0.6453094482421875,0.7261962890625,-0.1936492919921875,27968.893330125,-1.376325000447485,-1.309836519322843,-0.8318650940245683,-0.0600849986076355,0.04596265032887459,0.02077735774219036,0.002624154090881348,-0.005180120468139648,-0.01547171175479889,XArbitraryZVertical,0.6013816126634339,0.2268395616068063,0.2706734281947119,-0.7166727906893607,-0.6506955027580261,0.7391887903213501,-0.173767939209938,0,0,0,-1,-1,27968.138858125,unknown,2,2025-04-22T11:16:13.654+03:00,2025-04-21T17:08:51.449+03:00,7138,0.945033,0,0,5962.584,5,20,2025-04-22T11:14:33.050+03:00,767002573.7448493,0,-20.82,100.4528,1,0.95,2025-04-22T11:15:19.561+03:00,82,1.366666666666667,2025-04-22T09:54:17.825+03:00,0.02225348692287972,0
2025-04-22T11:16:14.429+03:00,1745309772.960972,40.95223876090688,29.14031957624485,76.31387,-1,-1,-1,-1,30,23.46366011427169,-9999,27968.908445125,-0.6546630859375,0.7166748046875,-0.1976165771484375,27968.903407125,-1.377294699039813,-1.309810632348074,-0.8322556483173261,-0.08677186816930771,0.1001075133681297,0.02254389971494675,0.00572812557220459,-0.009593546390533447,-0.0194966197013855,XArbitraryZVertical,0.6015668695927943,0.2264115137671616,0.2709048565241294,-0.7165651698890589,-0.6504119634628296,0.7394517660140991,-0.1737102568149567,0,0,0,-1,-1,27968.138858125,unknown,2,2025-04-22T11:16:13.654+03:00,2025-04-21T17:08:51.449+03:00,7138,0.945033,0,0,5962.584,5,20,2025-04-22T11:14:33.050+03:00,767002573.7448493,0,-20.82,100.4528,1,0.95,2025-04-22T11:15:19.561+03:00,82,1.366666666666667,2025-04-22T09:54:17.825+03:00,0.02225348692287972,0
2025-04-22T11:16:14.439+03:00,1745309772.960972,40.95223876090688,29.14031957624485,76.31387,-1,-1,-1,-1,30,23.46366011427169,-9999,27968.918522125,-0.6677703857421875,0.710540771484375,-0.2103424072265625,27968.913483125,-1.378588825049278,-1.309487323396896,-0.8327718481402423,-0.1032906547188759,0.1455583572387695,0.03014802373945713,0.0005118250846862793,-0.0198439359664917,-0.02115498483181,XArbitraryZVertical,0.6017734645870316,0.225738252983952,0.2713021270795693,-0.7164537605594691,-0.6499868631362915,0.7397992014884949,-0.1738218814134598,0,0,0,-1,-1,27968.138858125,unknown,2,2025-04-22T11:16:13.654+03:00,2025-04-21T17:08:51.449+03:00,7138,0.945033,0,0,5962.584,5,20,2025-04-22T11:14:33.050+03:00,767002573.7448493,0,-20.82,100.4528,1,0.95,2025-04-22T11:15:19.561+03:00,82,1.366666666666667,2025-04-22T09:54:17.825+03:00,0.02225348692287972,0
2025-04-22T11:16:14.449+03:00,1745309772.960972,40.95223876090688,29.14031957624485,76.31387,-1,-1,-1,-1,30,23.46366011427169,-9999,27968.928598125,-0.658294677734375,0.7196807861328125,-0.229949951171875,27968.923560125,-1.379401796876753,-1.308540963387756,-0.8332795813742621,-0.02020875737071037,0.1551748216152191,0.03969282284379005,-0.01472532749176025,-0.02834892272949219,-0.03121171891689301,XArbitraryZVertical,0.6018389486385897,0.224989178371909,0.2717172200718194,-0.7164770399033654,-0.649459183216095,0.7401407361030579,-0.1743395030498505,0,0,0,-1,-1,27968.138858125,unknown,2,2025-04-22T11:16:13.654+03:00,2025-04-21T17:08:51.449+03:00,7138,0.945033,0,0,5962.584,5,20,2025-04-22T11:14:33.050+03:00,767002573.7448493,0,-20.82,100.4528,1,0.95,2025-04-22T11:15:19.561+03:00,82,1.366666666666667,2025-04-22T09:54:17.825+03:00,0.02225348692287972,0
2025-04-22T11:16:14.459+03:00,1745309772.960972,40.95223876090688,29.14031957624485,76.31387,-1,-1,-1,-1,30,23.46366011427169,-9999,27968.938675125,-0.6462249755859375,0.7503204345703125,-0.2567901611328125,27968.933636125,-1.378650081314269,-1.306399191035829,-0.8335979366640618,0.08750412613153458,0.1606159210205078,0.05190102010965347,-0.01580071449279785,-0.02570956945419312,-0.04523299634456635,XArbitraryZVertical,0.6015275924341454,0.2243441460643748,0.2719913735093683,-0.7168366883766355,-0.6488568782806396,0.7403547763824463,-0.1756685227155685,0,0,0,-1,-1,27968.138858125,unknown,2,2025-04-22T11:16:13.654+03:00,2025-04-21T17:08:51.449+03:00,7138,0.945033,0,0,5962.584,5,20,2025-04-22T11:14:33.050+03:00,767002573.7448493,0,-20.82,100.4528,1,0.95,2025-04-22T11:15:19.561+03:00,82,1.366666666666667,2025-04-22T09:54:17.825+03:00,0.02225348692287972,0
2025-04-22T11:16:14.469+03:00,1745309772.960972,40.95223876090688,29.14031957624485,76.31387,-1,-1,-1,-1,30,23.46366011427169,-9999,27968.948751125,-0.65179443359375,0.7903594970703125,-0.271881103515625,27968.943713125,-1.376282803887375,-1.302861317351412,-0.8337412194471101,0.194644495844841,0.1913185119628906,0.06145061925053596,-0.0003085136413574219,-0.004702985286712646,-0.06980685889720917,XArbitraryZVertical,0.6008101306427879,0.2237403408607879,0.2721605360849621,-0.7175625022634383,-0.6481289863586426,0.7404510378837585,-0.1779348999261856,0,0,0,-1,-1,27968.138858125,unknown,2,2025-04-22T11:16:13.654+03:00,2025-04-21T17:08:51.449+03:00,7138,0.945033,0,0,5962.584,5,20,2025-04-22T11:14:33.050+03:00,767002573.7448493,0,-20.82,100.4528,1,0.95,2025-04-22T11:15:19.561+03:00,82,1.366666666666667,2025-04-22T09:54:17.825+03:00,0.02225348692287972,0
2025-04-22T11:16:14.481+03:00,1745309772.960972,40.95223876090688,29.14031957624485,76.31387,-1,-1,-1,-1,30,23.46366011427169,-9999,27968.958828125,-0.659698486328125,0.7745208740234375,-0.2911376953125,27968.953790125,-1.372444951353455,-1.298035571794734,-0.833688705405096,0.3101966679096222,0.1908711045980453,0.06906965374946594,-0.0009540915489196777,0.03712618350982666,-0.08537805080413818,XArbitraryZVertical,0.5997138107359238,0.2231766795258699,0.2722475765155638,-0.7186214222737098,-0.6473003625869751,0.7404157519340515,-0.1810710281133652,0,0,0,-1,-1,27968.138858125,unknown,2,2025-04-22T11:16:13.654+03:00,2025-04-21T17:08:51.449+03:00,7138,0.945033,0,0,5962.584,5,20,2025-04-22T11:14:33.050+03:00,767002573.7448493,0,-20.82,100.4528,1,0.95,2025-04-22T11:15:19.561+03:00,82,1.366666666666667,2025-04-22T09:54:17.825+03:00,0.02225348692287972,0
2025-04-22T11:16:14.489+03:00,1745309772.960972,40.95223876090688,29.14031957624485,76.31387,-1,-1,-1,-1,30,23.46366011427169,-9999,27968.968904125,-0.649383544921875,0.7462310791015625,-0.317840576171875,27968.963866125,-1.367242463105018,-1.292216128371846,-0.8335072523338508,0.3545331656932831,0.2010150253772736,0.08047034591436386,-0.01252502202987671,0.04814296960830688,-0.09778207540512085,XArbitraryZVertical,0.5983046147077419,0.2227008970341254,0.2721767348933428,-0.719969203072647,-0.6463647484779358,0.7402938008308411,-0.1848717927932739,0,0,0,-1,-1,27968.138858125,unknown,2,2025-04-22T11:16:13.654+03:00,2025-04-21T17:08:51.449+03:00,7138,0.945033,0,0,5962.584,5,20,2025-04-22T11:14:33.050+03:00,767002573.7448493,0,-20.82,100.4528,1,0.95,2025-04-22T11:15:19.561+03:00,82,1.366666666666667,2025-04-22T09:54:17.825+03:00,0.02225348692287972,0
2025-04-22T11:16:14.513+03:00,1745309772.960972,40.95223876090688,29.14031957624485,76.31387,-1,-1,-1,-1,30,23.46366011427169,-9999,27968.978981125,-0.640350341796875,0.7616119384765625,-0.3184967041015625,27968.973943125,-1.36263436982565,-1.286739103798669,-0.8333064858922319,0.2296050786972046,0.2030235826969147,0.04943253844976425,-0.01049011945724487,0.01104652881622314,-0.1202650964260101,XArbitraryZVertical,0.5970051338032156,0.222169860027321,0.2722164964693808,-0.7211959776048311,-0.6454852819442749,0.7401587963104248,-0.1884508430957794,0,0,0,-1,-1,27968.138858125,unknown,2,2025-04-22T11:16:13.654+03:00,2025-04-21T17:08:51.449+03:00,7138,0.945033,0,0,5962.584,5,20,2025-04-22T11:14:33.050+03:00,767002573.7448493,0,-20.82,100.4528,1,0.95,2025-04-22T11:15:19.561+03:00,82,1.366666666666667,2025-04-22T09:54:17.825+03:00,0.02225348692287972,0
2025-04-22T11:16:14.514+03:00,1745309772.960972,40.95223876090688,29.14031957624485,76.31387,-1,-1,-1,-1,30,23.46366011427169,-9999,27968.989057125,-0.6417083740234375,0.758575439453125,-0.3105621337890625,27968.984019125,-1.360248244636143,-1.282958417590817,-0.8331246950526228,0.08406797796487808,0.1978475898504257,0.003337547183036804,0.003554940223693848,0.01383906602859497,-0.1317344009876251,XArbitraryZVertical,0.5961877064284981,0.221576616969656,0.2725406070390924,-0.7219318582552765,-0.6448971629142761,0.7400365471839905,-0.190928041934967,0,0,0,-1,-1,27968.138858125,unknown,2,2025-04-22T11:16:13.654+03:00,2025-04-21T17:08:51.449+03:00,7138,0.945033,0,0,5962.584,5,20,2025-04-22T11:14:33.050+03:00,767002573.7448493,0,-20.82,100.4528,1,0.95,2025-04-22T11:15:19.561+03:00,82,1.366666666666667,2025-04-22T09:54:17.825+03:00,0.02225348692287972,0
2025-04-22T11:16:14.519+03:00,1745309772.960972,40.95223876090688,29.14031957624485,76.31387,-1,-1,-1,-1,30,23.46366011427169,-9999,27968.999134125,-0.638275146484375,0.7184600830078125,-0.3392486572265625,27968.994096125,-1.359419088635537,-1.280128990265675,-0.8325695940075245,0.1337385922670364,0.3103280663490295,-0.09811503440141678,0.003085076808929443,0.02619057893753052,-0.116639718413353,XArbitraryZVertical,0.5955939053755447,0.2209821122044288,0.2732587647882067,-0.7223325154748416,-0.6447476148605347,0.7396630644798279,-0.1928696185350418,0,0,0,-1,-1,27968.138858125,unknown,2,2025-04-22T11:16:13.654+03:00,2025-04-21T17:08:51.449+03:00,7138,0.945033,0,0,5962.584,5,20,2025-04-22T11:14:33.050+03:00,767002573.7448493,0,-20.82,100.4528,1,0.95,2025-04-22T11:15:19.561+03:00,82,1.366666666666667,2025-04-22T09:54:17.825+03:00,0.02225348692287972,0
2025-04-22T11:16:14.529+03:00,1745309772.960972,40.95223876090688,29.14031957624485,76.31387,-1,-1,-1,-1,30,23.46366011427169,-9999,27969.009211125,-0.6389617919921875,0.730621337890625,-0.4045257568359375,27969.004172125,-1.357270197454804,-1.272301829551879,-0.8287699083746928,0.2531510889530182,0.610329270362854,-0.4438668191432953,0.00609886646270752,-0.004038095474243164,-0.1269789040088654,XArbitraryZVertical,0.5934826039855834,0.2200244458888534,0.2760013825209238,-0.7233192268393367,-0.6458998918533325,0.7371006608009338,-0.1987352818250656,0,0,0,-1,-1,27968.138858125,unknown,2,2025-04-22T11:16:13.654+03:00,2025-04-21T17:08:51.449+03:00,7138,0.945033,0,0,5962.584,5,20,2025-04-22T11:14:33.050+03:00,767002573.7448493,0,-20.82,100.4528,1,0.95,2025-04-22T11:15:19.561+03:00,82,1.366666666666667,2025-04-22T09:54:17.825+03:00,0.02225348692287972,0
2025-04-22T11:16:14.539+03:00,1745309772.960972,40.95223876090688,29.14031957624485,76.31387,-1,-1,-1,-1,30,23.46366011427169,-9999,27969.019287125,-0.584259033203125,0.8072052001953125,-0.4012451171875,27969.014249125,-1.355577501346209,-1.267618091653885,-0.8250751020445746,0.1554471552371979,0.1535683423280716,-0.1833745092153549,0.008244156837463379,-0.01945000886917114,-0.1711788028478622,XArbitraryZVertical,0.5918633925595489,0.220028837928217,0.2779332711432292,-0.7239047230368435,-0.6475569009780884,0.7345987558364868,-0.2025700658559799,0,0,0,-1,-1,27968.138858125,unknown,2,2025-04-22T11:16:13.654+03:00,2025-04-21T17:08:51.449+03:00,7138,0.945033,0,0,5962.584,5,20,2025-04-22T11:14:33.050+03:00,767002573.7448493,0,-20.82,100.4528,1,0.95,2025-04-22T11:15:19.561+03:00,82,1.366666666666667,2025-04-22T09:54:17.825+03:00,0.02225348692287972,0
2025-04-22T11:16:14.549+03:00,1745309772.960972,40.95223876090688,29.14031957624485,76.31387,-1,-1,-1,-1,30,23.46366011427169,-9999,27969.029364125,-0.58599853515625,0.7493133544921875,-0.4269256591796875,27969.024325125,-1.354753881608342,-1.265378032140457,-0.8231927401448536,0.03932547569274902,0.1862121820449829,-0.1962067484855652,0.0334288477897644,0.04910445213317871,-0.2164172381162643,XArbitraryZVertical,0.5910592070921621,0.2200710237078085,0.2788856094624482,-0.7241825585634599,-0.6484190225601196,0.7333202362060547,-0.2044355124235153,0,0,0,-1,-1,27968.138858125,unknown,2,2025-04-22T11:16:13.654+03:00,2025-04-21T17:08:51.449+03:00,7138,0.945033,0,0,5962.584,5,20,2025-04-22T11:14:33.050+03:00,767002573.7448493,0,-20.82,100.4528,1,0.95,2025-04-22T11:15:19.561+03:00,82,1.366666666666667,2025-04-22T09:54:17.825+03:00,0.02225348692287972,0
2025-04-22T11:16:14.559+03:00,1745309772.960972,40.95223876090688,29.14031957624485,76.31387,-1,-1,-1,-1,30,23.46366011427169,-9999,27969.039440125,-0.7402801513671875,0.6433258056640625,-0.517303466796875,27969.034402125,-1.356703795696996,-1.265340821719579,-0.8214303261741708,-0.2961763441562653,0.08958069980144501,-0.157537654042244,0.09196484088897705,0.05884873867034912,-0.1866773217916489,XArbitraryZVertical,0.5908917454524348,0.2200521329028353,0.2801526596724463,-0.7238358527806237,-0.6496430635452271,0.7321208715438843,-0.2048480063676834,0,0,0,-1,-1,27968.138858125,unknown,2,2025-04-22T11:16:13.654+03:00,2025-04-21T17:08:51.449+03:00,7138,0.945033,0,0,5962.584,5,20,2025-04-22T11:14:33.050+03:00,767002573.7448493,0,-20.82,100.4528,1,0.95,2025-04-22T11:15:19.561+03:00,82,1.366666666666667,2025-04-22T09:54:17.825+03:00,0.02225348692287972,0
2025-04-22T11:16:14.569+03:00,1745309772.960972,40.95223876090688,29.14031957624485,76.31387,-1,-1,-1,-1,30,23.46366011427169,-9999,27969.049517125,-0.7270050048828125,0.6677398681640625,-0.4648895263671875,27969.044479125,-1.361818190621348,-1.268077362964926,-0.8232138486675803,-0.4086706936359406,0.1829956024885178,0.3550657331943512,-0.03691351413726807,-0.05949133634567261,-0.3001125156879425,XArbitraryZVertical,0.5922165977123863,0.218951014706938,0.2806362137109464,-0.7228991694543992,-0.6489538550376892,0.7333346009254456,-0.2026799023151398,0,0,0,-1,-1,27968.138858125,unknown,2,2025-04-22T11:16:13.654+03:00,2025-04-21T17:08:51.449+03:00,7138,0.945033,0,0,5962.584,5,20,2025-04-22T11:14:33.050+03:00,767002573.7448493,0,-20.82,100.4528,1,0.95,2025-04-22T11:15:19.561+03:00,82,1.366666666666667,2025-04-22T09:54:17.825+03:00,0.02225348692287972,0
2025-04-22T11:16:14.580+03:00,1745309772.960972,40.95223876090688,29.14031957624485,76.31387,-1,-1,-1,-1,30,23.46366011427169,-9999,27969.059593125,-0.5034027099609375,0.7662506103515625,-0.5148773193359375,27969.054555125,-1.367536646551694,-1.27264148841587,-0.8286622565601626,-0.6174411773681641,-0.3529711365699768,0.3355354368686676,-0.1174913048744202,-0.09687608480453491,-0.2838064432144165,XArbitraryZVertical,0.5946291121026678,0.2171327096818896,0.2796434287951068,-0.721851111792765,-0.6460432410240173,0.7370278835296631,-0.198539212346077,0,0,0,-1,-1,27968.138858125,unknown,2,2025-04-22T11:16:13.654+03:00,2025-04-21T17:08:51.449+03:00,7138,0.945033,0,0,5962.584,5,20,2025-04-22T11:14:33.050+03:00,767002573.7448493,0,-20.82,100.4528,1,0.95,2025-04-22T11:15:19.561+03:00,82,1.366666666666667,2025-04-22T09:54:17.825+03:00,0.02225348692287972,0
2025-04-22T11:16:14.590+03:00,1745309772.960972,40.95223876090688,29.14031957624485,76.31387,-1,-1,-1,-1,30,23.46366011427169,-9999,27969.069670125,-0.4453125,0.823699951171875,-0.437347412109375,27969.064632125,-1.374776290981143,-1.283397095274946,-0.8328545930106943,-0.5720120072364807,-0.6595506072044373,0.2225485295057297,0.05181920528411865,-0.009477853775024414,-0.3054531216621399,XArbitraryZVertical,0.5977867054853471,0.2174860312669746,0.2777312708672192,-0.719872316792955,-0.6451724767684937,0.7398548722267151,-0.1907017678022385,0,0,0,-1,-1,27968.138858125,unknown,2,2025-04-22T11:16:13.654+03:00,2025-04-21T17:08:51.449+03:00,7138,0.945033,0,0,5962.584,5,20,2025-04-22T11:14:33.050+03:00,767002573.7448493,0,-20.82,100.4528,1,0.95,2025-04-22T11:15:19.561+03:00,82,1.366666666666667,2025-04-22T09:54:17.825+03:00,0.02225348692287972,0
2025-04-22T11:16:14.600+03:00,1745309772.960972,40.95223876090688,29.14031957624485,76.31387,-1,-1,-1,-1,30,23.46366011427169,-9999,27969.079746125,-0.5722503662109375,0.8211822509765625,-0.4213104248046875,27969.074708125,-1.38152223292715,-1.295593301230137,-0.8366551246134509,-0.49248868227005,-0.7662549614906311,0.248261883854866,0.2158911824226379,0.06920844316482544,-0.2924184799194336,XArbitraryZVertical,0.6009857156752838,0.2186077104269011,0.2753034629867752,-0.7177985062575203,-0.6447394490242004,0.7424063682556152,-0.1820536702871323,0,0,0,-1,-1,27968.138858125,unknown,2,2025-04-22T11:16:13.654+03:00,2025-04-21T17:08:51.449+03:00,7138,0.945033,0,0,5962.584,5,20,2025-04-22T11:14:33.050+03:00,767002573.7448493,0,-20.82,100.4528,1,0.95,2025-04-22T11:15:19.561+03:00,82,1.366666666666667,2025-04-22T09:54:17.825+03:00,0.02225348692287972,0
2025-04-22T11:16:14.610+03:00,1745309772.960972,40.95223876090688,29.14031957624485,76.31387,-1,-1,-1,-1,30,23.46366011427169,-9999,27969.089823125,-0.6626434326171875,0.827117919921875,-0.41510009765625,27969.084785125,-1.387305163877018,-1.308022075782289,-0.8402745218837235,-0.4277351796627045,-0.8447816371917725,0.2346172034740448,0.1208853125572205,0.07873612642288208,-0.2428561449050903,XArbitraryZVertical,0.6040495758797251,0.2201372512686109,0.2724867965856962,-0.7158314055738606,-0.6443533897399902,0.7448263168334961,-0.1733274012804031,0,0,0,-1,-1,27968.138858125,unknown,2,2025-04-22T11:16:13.654+03:00,2025-04-21T17:08:51.449+03:00,7138,0.945033,0,0,5962.584,5,20,2025-04-22T11:14:33.050+03:00,767002573.7448493,0,-20.82,100.4528,1,0.95,2025-04-22T11:15:19.561+03:00,82,1.366666666666667,2025-04-22T09:54:17.825+03:00,0.02225348692287972,0
2025-04-22T11:16:14.620+03:00,1745309772.960972,40.95223876090688,29.14031957624485,76.31387,-1,-1,-1,-1,30,23.46366011427169,-9999,27969.099900125,-0.702789306640625,0.85205078125,-0.376922607421875,27969.094861125,-1.391839146979257,-1.32033267817303,-0.8433025352397224,-0.3090817630290985,-0.9307127594947815,0.1941531300544739,0.009255766868591309,0.07510167360305786,-0.2606385946273804,XArbitraryZVertical,0.6068173545054272,0.222174562369923,0.2694189028905193,-0.7140199780962655,-0.6442502737045288,0.7468433976173401,-0.1648223251104355,0,0,0,-1,-1,27968.138858125,unknown,2,2025-04-22T11:16:13.654+03:00,2025-04-21T17:08:51.449+03:00,7138,0.945033,0,0,5962.584,5,20,2025-04-22T11:14:33.050+03:00,767002573.7448493,0,-20.82,100.4528,1,0.95,2025-04-22T11:15:19.561+03:00,82,1.366666666666667,2025-04-22T09:54:17.825+03:00,0.02225348692287972,0
2025-04-22T11:16:14.630+03:00,1745309772.960972,40.95223876090688,29.14031957624485,76.31387,-1,-1,-1,-1,30,23.46366011427169,-9999,27969.109976125,-0.7042236328125,0.8668060302734375,-0.381011962890625,27969.104938125,-1.394773968138584,-1.332422884487568,-0.8456588026630298,-0.1827685683965683,-1.031621813774109,0.1679332554340363,-0.04786825180053711,0.09491431713104248,-0.2312425822019577,XArbitraryZVertical,0.6092226180060575,0.2248224060992512,0.2660383337975626,-0.7124086899804042,-0.6444839835166931,0.7484081983566284,-0.1566053777933121,0,0,0,-1,-1,27968.138858125,unknown,2,2025-04-22T11:16:13.654+03:00,2025-04-21T17:08:51.449+03:00,7138,0.945033,0,0,5962.584,5,20,2025-04-22T11:14:33.050+03:00,767002573.7448493,0,-20.82,100.4528,1,0.95,2025-04-22T11:15:19.561+03:00,82,1.366666666666667,2025-04-22T09:54:17.825+03:00,0.02225348692287972,0
2025-04-22T11:16:14.640+03:00,1745309772.960972,40.95223876090688,29.14031957624485,76.31387,-1,-1,-1,-1,30,23.46366011427169,-9999,27969.120053125,-0.6854095458984375,0.8743896484375,-0.395111083984375,27969.115014125,-1.396192399169695,-1.344364688487451,-0.8475326365200079,-0.08364731818437576,-1.126408815383911,0.1500349491834641,-0.06184673309326172,0.1127615571022034,-0.2267680615186691,XArbitraryZVertical,0.6113205578941145,0.2280256265627486,0.2622991676152936,-0.7109785156808173,-0.6449403762817383,0.749649703502655,-0.1485829800367355,0,0,0,-1,-1,27968.138858125,unknown,2,2025-04-22T11:16:13.654+03:00,2025-04-21T17:08:51.449+03:00,7138,0.945033,0,0,5962.584,5,20,2025-04-22T11:14:33.050+03:00,767002573.7448493,0,-20.82,100.4528,1,0.95,2025-04-22T11:15:19.561+03:00,82,1.366666666666667,2025-04-22T09:54:17.825+03:00,0.02225348692287972,0
2025-04-22T11:16:14.650+03:00,1745309772.960972,40.95223876090688,29.14031957624485,76.31387,-1,-1,-1,-1,30,23.46366011427169,-9999,27969.130129125,-0.6677398681640625,0.8781280517578125,-0.3917236328125,27969.125091125,-1.396246141872606,-1.356119474143847,-0.8490260210003231,0.01113811321556568,-1.191426396369934,0.1406854093074799,-0.04733848571777344,0.121219277381897,-0.2502381801605225,XArbitraryZVertical,0.6131399398376154,0.2316956008811199,0.2582399477954049,-0.7097102165246851,-0.6455479264259338,0.7506372332572937,-0.1407531201839447,0,0,0,-1,-1,27968.138858125,unknown,2,2025-04-22T11:16:13.654+03:00,2025-04-21T17:08:51.449+03:00,7138,0.945033,0,0,5962.584,5,20,2025-04-22T11:14:33.050+03:00,767002573.7448493,0,-20.82,100.4528,1,0.95,2025-04-22T11:15:19.561+03:00,82,1.366666666666667,2025-04-22T09:54:17.825+03:00,0.02225348692287972,0
2025-04-22T11:16:14.660+03:00,1745309772.960972,40.95223876090688,29.14031957624485,76.31387,-1,-1,-1,-1,30,23.46366011427169,-9999,27969.140206125,-0.6507415771484375,0.8817596435546875,-0.3728485107421875,27969.135168125,-1.395187055170836,-1.367545342639262,-0.8503163778838341,0.05891069769859314,-1.237962484359741,0.1376552730798721,-0.02851778268814087,0.1253111958503723,-0.2612519860267639,XArbitraryZVertical,0.6147216107281526,0.2356503133349811,0.2539407827884538,-0.7085903655164434,-0.6461648344993591,0.7514891624450684,-0.1331725418567657,0,0,0,-1,-1,27968.138858125,unknown,2,2025-04-22T11:16:13.654+03:00,2025-04-21T17:08:51.449+03:00,7138,0.945033,0,0,5962.584,5,20,2025-04-22T11:14:33.050+03:00,767002573.7448493,0,-20.82,100.4528,1,0.95,2025-04-22T11:15:19.561+03:00,82,1.366666666666667,2025-04-22T09:54:17.825+03:00,0.02225348692287972,0
2025-04-22T11:16:14.670+03:00,1745309772.960972,40.95223876090688,29.14031957624485,76.31387,-1,-1,-1,-1,30,23.46366011427169,-9999,27969.150282125,-0.637603759765625,0.8645477294921875,-0.3036651611328125,27969.145244125,-1.394178835215969,-1.379404112569181,-0.8514170090034043,-0.001647988799959421,-1.259720683097839,0.09821372479200363,-0.01038610935211182,0.1280034780502319,-0.2574235796928406,XArbitraryZVertical,0.6162992213617362,0.239799204262276,0.2495778580374053,-0.7073771683704499,-0.6468862295150757,0.7522148489952087,-0.1253432184457779,0,0,0,-1,-1,27968.138858125,unknown,2,2025-04-22T11:16:13.654+03:00,2025-04-21T17:08:51.449+03:00,7138,0.945033,0,0,5962.584,5,20,2025-04-22T11:14:33.050+03:00,767002573.7448493,0,-20.82,100.4528,1,0.95,2025-04-22T11:15:19.561+03:00,82,1.366666666666667,2025-04-22T09:54:17.825+03:00,0.02225348692287972,0
2025-04-22T11:16:14.680+03:00,1745309772.960972,40.95223876090688,29.14031957624485,76.31387,-1,-1,-1,-1,30,23.46366011427169,-9999,27969.160359125,-0.6296539306640625,0.820037841796875,-0.2013397216796875,27969.155321125,-1.395241780251611,-1.392968336935386,-0.8523545915564431,-0.1669895350933075,-1.279036045074463,0.05677200853824615,0.00591045618057251,0.1224423050880432,-0.2211223393678665,XArbitraryZVertical,0.6182787351588086,0.2439571185896812,0.2454620760584215,-0.705666153335389,-0.6478325128555298,0.752832293510437,-0.1164326593279839,0,0,0,-1,-1,27968.138858125,unknown,2,2025-04-22T11:16:13.654+03:00,2025-04-21T17:08:51.449+03:00,7138,0.945033,0,0,5962.584,5,20,2025-04-22T11:14:33.050+03:00,767002573.7448493,0,-20.82,100.4528,1,0.95,2025-04-22T11:15:19.561+03:00,82,1.366666666666667,2025-04-22T09:54:17.825+03:00,0.02225348692287972,0
2025-04-22T11:16:14.691+03:00,1745309772.960972,40.95223876090688,29.14031957624485,76.31387,-1,-1,-1,-1,30,23.46366011427169,-9999,27969.170436125,-0.6177978515625,0.783660888671875,-0.1140594482421875,27969.165397125,-1.398762098844326,-1.408649904098082,-0.853098352719811,-0.3054100573062897,-1.301594257354736,0.01546861231327057,0.01662510633468628,0.08461451530456543,-0.1340346336364746,XArbitraryZVertical,0.6207558911399523,0.2481481275694471,0.2416017818813814,-0.7033583800217171,-0.649025559425354,0.753321647644043,-0.1061692610383034,0,0,0,-1,-1,27968.138858125,unknown,2,2025-04-22T11:16:13.654+03:00,2025-04-21T17:08:51.449+03:00,7138,0.945033,0,0,5962.584,5,20,2025-04-22T11:14:33.050+03:00,767002573.7448493,0,-20.82,100.4528,1,0.95,2025-04-22T11:15:19.561+03:00,82,1.366666666666667,2025-04-22T09:54:17.825+03:00,0.02225348692287972,0
2025-04-22T11:16:14.701+03:00,1745309772.960972,40.95223876090688,29.14031957624485,76.31387,-1,-1,-1,-1,30,23.46366011427169,-9999,27969.180512125,-0.6107940673828125,0.79327392578125,-0.0623626708984375,27969.175474125,-1.404423773172754,-1.426086530572744,-0.8536965182743879,-0.4256267547607422,-1.303915500640869,-0.007673725020140409,0.02800250053405762,0.03899431228637695,-0.0489506721496582,XArbitraryZVertical,0.6236608211360555,0.2523117686926119,0.2379682817123454,-0.7005404804975062,-0.6503322124481201,0.753714919090271,-0.09477190673351288,0,0,0,-1,-1,27968.138858125,unknown,2,2025-04-22T11:16:13.654+03:00,2025-04-21T17:08:51.449+03:00,7138,0.945033,0,0,5962.584,5,20,2025-04-22T11:14:33.050+03:00,767002573.7448493,0,-20.82,100.4528,1,0.95,2025-04-22T11:15:19.561+03:00,82,1.366666666666667,2025-04-22T09:54:17.825+03:00,0.02225348692287972,0
2025-04-22T11:16:14.711+03:00,1745309772.960972,40.95223876090688,29.14031957624485,76.31387,-1,-1,-1,-1,30,23.46366011427169,-9999,27969.190589125,-0.624267578125,0.822052001953125,-0.049835205078125,27969.185550125,-1.411140587672344,-1.444088349450765,-0.8541692475017735,-0.4579008519649506,-1.261367559432983,-0.01495896931737661,0.03959512710571289,0.02975732088088989,0.006894052028656006,XArbitraryZVertical,0.6267233694908891,0.2563499922528942,0.2345330325453862,-0.697493204625373,-0.6515794396400452,0.7540255188941956,-0.08300499618053436,0,0,0,-1,-1,27968.138858125,unknown,2,2025-04-22T11:16:13.654+03:00,2025-04-21T17:08:51.449+03:00,7138,0.945033,0,0,5962.584,5,20,2025-04-22T11:14:33.050+03:00,767002573.7448493,0,-20.82,100.4528,1,0.95,2025-04-22T11:15:19.561+03:00,82,1.366666666666667,2025-04-22T09:54:17.825+03:00,0.02225348692287972,0
2025-04-22T11:16:14.721+03:00,1745309772.960972,40.95223876090688,29.14031957624485,76.31387,-1,-1,-1,-1,30,23.46366011427169,-9999,27969.200665125,-0.64398193359375,0.827239990234375,-0.0287017822265625,27969.195627125,-1.418550943848027,-1.462161485949797,-0.8546286024417638,-0.5040848851203918,-1.216435194015503,-0.004728968255221844,0.03602093458175659,0.05945444107055664,0.0186881422996521,XArbitraryZVertical,0.6298626639518742,0.2601611203309891,0.2312821061619738,-0.6943326060653372,-0.6526286005973816,0.754327118396759,-0.07117842882871628,0,0,0,-1,-1,27968.138858125,unknown,2,2025-04-22T11:16:13.654+03:00,2025-04-21T17:08:51.449+03:00,7138,0.945033,0,0,5962.584,5,20,2025-04-22T11:14:33.050+03:00,767002573.7448493,0,-20.82,100.4528,1,0.95,2025-04-22T11:15:19.561+03:00,82,1.366666666666667,2025-04-22T09:54:17.825+03:00,0.02225348692287972,0
2025-04-22T11:16:14.731+03:00,1745309772.960972,40.95223876090688,29.14031957624485,76.31387,-1,-1,-1,-1,30,23.46366011427169,-9999,27969.210742125,-0.6461029052734375,0.8223724365234375,0.0226593017578125,27969.205704125,-1.426245794600776,-1.480020357773909,-0.8552513819085787,-0.506177544593811,-1.173445224761963,0.02681088261306286,0.01467108726501465,0.07271772623062134,0.01831685751676559,XArbitraryZVertical,0.6330241328172354,0.2637148013810304,0.2281024669025233,-0.6911615228361341,-0.6533277630805969,0.7547358274459839,-0.05946990102529526,0,0,0,-1,-1,27968.138858125,unknown,2,2025-04-22T11:16:13.654+03:00,2025-04-21T17:08:51.449+03:00,7138,0.945033,0,0,5962.584,5,20,2025-04-22T11:14:33.050+03:00,767002573.7448493,0,-20.82,100.4528,1,0.95,2025-04-22T11:15:19.561+03:00,82,1.366666666666667,2025-04-22T09:54:17.825+03:00,0.02225348692287972,0
2025-04-22T11:16:14.741+03:00,1745309772.960972,40.95223876090688,29.14031957624485,76.31387,-1,-1,-1,-1,30,23.46366011427169,-9999,27969.220818125,-0.6444854736328125,0.804473876953125,0.068450927734375,27969.215780125,-1.434386265047146,-1.497641295783922,-0.8560313092640857,-0.5567088723182678,-1.101244568824768,0.03669280931353569,0.006592094898223877,0.07126009464263916,0.05164426937699318,XArbitraryZVertical,0.6362256025223357,0.2669531806160229,0.2250582169966539,-0.6879692432952473,-0.6536867618560791,0.7552472949028015,-0.04790596291422844,0,0,0,-1,-1,27968.138858125,unknown,2,2025-04-22T11:16:13.654+03:00,2025-04-21T17:08:51.449+03:00,7138,0.945033,0,0,5962.584,5,20,2025-04-22T11:14:33.050+03:00,767002573.7448493,0,-20.82,100.4528,1,0.95,2025-04-22T11:15:19.561+03:00,82,1.366666666666667,2025-04-22T09:54:17.825+03:00,0.02225348692287972,0
2025-04-22T11:16:14.751+03:00,1745309772.960972,40.95223876090688,29.14031957624485,76.31387,-1,-1,-1,-1,30,23.46366011427169,-9999,27969.230895125,-0.6466064453125,0.7855987548828125,0.103515625,27969.225857125,-1.443042309928793,-1.514858940257026,-0.8569444041289946,-0.5738961696624756,-1.021667242050171,0.07341696321964264,0.009637176990509033,0.05619674921035767,0.088531494140625,XArbitraryZVertical,0.6394549834552347,0.2698043143677011,0.2222330343960817,-0.6847740095190368,-0.6537259817123413,0.7558454275131226,-0.03660591319203377,0,0,0,-1,-1,27968.138858125,unknown,2,2025-04-22T11:16:13.654+03:00,2025-04-21T17:08:51.449+03:00,7138,0.945033,0,0,5962.584,5,20,2025-04-22T11:14:33.050+03:00,767002573.7448493,0,-20.82,100.4528,1,0.95,2025-04-22T11:15:19.561+03:00,82,1.366666666666667,2025-04-22T09:54:17.825+03:00,0.02225348692287972,0
2025-04-22T11:16:14.761+03:00,1745309772.960972,40.95223876090688,29.14031957624485,76.31387,-1,-1,-1,-1,30,23.46366011427169,-9999,27969.240972125,-0.6455535888671875,0.758941650390625,0.1242218017578125,27969.235933125,-1.451337536787507,-1.531086918466322,-0.8581055665823095,-0.4941276013851166,-0.9529590010643005,0.103459820151329,0.006414353847503662,0.03683644533157349,0.1196621656417847,XArbitraryZVertical,0.6425474448695739,0.2723118769152262,0.2194771682337419,-0.6817688644077379,-0.6533564925193787,0.7566052079200745,-0.02595804631710052,0,0,0,-1,-1,27968.138858125,unknown,2,2025-04-22T11:16:13.654+03:00,2025-04-21T17:08:51.449+03:00,7138,0.945033,0,0,5962.584,5,20,2025-04-22T11:14:33.050+03:00,767002573.7448493,0,-20.82,100.4528,1,0.95,2025-04-22T11:15:19.561+03:00,82,1.366666666666667,2025-04-22T09:54:17.825+03:00,0.02225348692287972,0
2025-04-22T11:16:14.771+03:00,1745309772.960972,40.95223876090688,29.14031957624485,76.31387,-1,-1,-1,-1,30,23.46366011427169,-9999,27969.251048125,-0.6547698974609375,0.7221832275390625,0.1461181640625,27969.246010125,-1.458158824279382,-1.545375331035278,-0.8593132026147907,-0.4051601588726044,-0.8514654636383057,0.1085029169917107,0.007788181304931641,0.01286917924880981,0.1327926516532898,XArbitraryZVertical,0.6452169419111154,0.2745843694397997,0.2167926482154705,-0.679190191807871,-0.6527466177940369,0.7573943138122559,-0.01659704372286797,0,0,0,-1,-1,27968.138858125,unknown,2,2025-04-22T11:16:13.654+03:00,2025-04-21T17:08:51.449+03:00,7138,0.945033,0,0,5962.584,5,20,2025-04-22T11:14:33.050+03:00,767002573.7448493,0,-20.82,100.4528,1,0.95,2025-04-22T11:15:19.561+03:00,82,1.366666666666667,2025-04-22T09:54:17.825+03:00,0.02225348692287972,0
2025-04-22T11:16:14.781+03:00,1745309772.960972,40.95223876090688,29.14031957624485,76.31387,-1,-1,-1,-1,30,23.46366011427169,-9999,27969.261125125,-0.6751708984375,0.6888580322265625,0.157989501953125,27969.256086125,-1.463431974848322,-1.557405883170092,-0.8605770882084175,-0.2842462658882141,-0.748400866985321,0.1340508908033371,0.002496778964996338,-0.02007526159286499,0.1485311985015869,XArbitraryZVertical,0.6474224167365982,0.2765484803950248,0.2142677151771276,-0.6770925365317739,-0.6519412398338318,0.7582189440727234,-0.008730304427444935,0,0,0,-1,-1,27968.138858125,unknown,2,2025-04-22T11:16:13.654+03:00,2025-04-21T17:08:51.449+03:00,7138,0.945033,0,0,5962.584,5,20,2025-04-22T11:14:33.050+03:00,767002573.7448493,0,-20.82,100.4528,1,0.95,2025-04-22T11:15:19.561+03:00,82,1.366666666666667,2025-04-22T09:54:17.825+03:00,0.02225348692287972,0
2025-04-22T11:16:14.791+03:00,1745309772.960972,40.95223876090688,29.14031957624485,76.31387,-1,-1,-1,-1,30,23.46366011427169,-9999,27969.271201125,-0.668060302734375,0.709228515625,0.170379638671875,27969.266163125,-1.467483159018639,-1.567855161588139,-0.8620473544502092,-0.2595870792865753,-0.7234313488006592,0.1495412588119507,-0.01717883348464966,-0.06088906526565552,0.1558754444122314,XArbitraryZVertical,0.6493052706359653,0.2782902943911535,0.2117545544897413,-0.6753643152807964,-0.6508813500404358,0.7591767311096191,-0.001914355088956654,0,0,0,-1,-1,27968.138858125,unknown,2,2025-04-22T11:16:13.654+03:00,2025-04-21T17:08:51.449+03:00,7138,0.945033,0,0,5962.584,5,20,2025-04-22T11:14:33.050+03:00,767002573.7448493,0,-20.82,100.4528,1,0.95,2025-04-22T11:15:19.561+03:00,82,1.366666666666667,2025-04-22T09:54:17.825+03:00,0.02225348692287972,0
