loggingTime(txt),locationTimestamp_since1970(s),locationLatitude(WGS84),locationLongitude(WGS84),locationAltitude(m),locationSpeed(m/s),locationSpeedAccuracy(m/s),locationCourse(°),locationCourseAccuracy(°),locationVerticalAccuracy(m),locationHorizontalAccuracy(m),locationFloor(Z),accelerometerTimestamp_sinceReboot(s),accelerometerAccelerationX(G),accelerometerAccelerationY(G),accelerometerAccelerationZ(G),motionTimestamp_sinceReboot(s),motionYaw(rad),motionRoll(rad),motionPitch(rad),motionRotationRateX(rad/s),motionRotationRateY(rad/s),motionRotationRateZ(rad/s),motionUserAccelerationX(G),motionUserAccelerationY(G),motionUserAccelerationZ(G),motionAttitudeReferenceFrame(txt),motionQuaternionX(R),motionQuaternionY(R),motionQuaternionZ(R),motionQuaternionW(R),motionGravityX(G),motionGravityY(G),motionGravityZ(G),motionMagneticFieldX(µT),motionMagneticFieldY(µT),motionMagneticFieldZ(µT),motionHeading(°),motionMagneticFieldCalibrationAccuracy(Z),activityTimestamp_sinceReboot(s),activity(txt),activityActivityConfidence(Z),activityActivityStartDate(txt),pedometerStartDate(txt),pedometerNumberofSteps(N),pedometerAverageActivePace(s/m),pedometerCurrentPace(s/m),pedometerCurrentCadence(steps/s),pedometerDistance(m),pedometerFloorAscended(N),pedometerFloorDescended(N),pedometerEndDate(txt),altimeterTimestamp_sinceReboot(s),altimeterReset(bool),altimeterRelativeAltitude(m),altimeterPressure(kPa),batteryState(N),batteryLevel(R),heartRateBPMTimestamp(txt),heartRateBPM(N),heartRateBPS(R),heartRateVariabilityTimestamp(txt),heartRateVariability(ms),label
2025-04-22T12:57:35.841+03:00,1745315852.947822,40.95220305975717,29.14025630257546,76.18102,-1,-1,-1,-1,30,23.91450547804756,-9999,31779.052223375,-0.769378662109375,0.6173858642578125,-0.3555755615234375,31779.042146375,-0.0293993005109579,-1.115222345466369,-0.6467947592944057,-0.016300268471241,0.05545994266867638,-0.001887059072032571,-0.0004737377166748047,-0.09172177314758301,0.01412048935890198,XArbitraryZVertical,-0.2769972577632673,-0.4977118873124816,0.1563177347652893,0.8069200309573471,-0.7166281938552856,0.602631688117981,-0.3511107861995697,0,0,0,-1,-1,31774.100769625,unknown,2,2025-04-22T12:57:30.865+03:00,2025-04-21T17:08:51.449+03:00,7384,0.9981967,0,0,6152.583,5,20,2025-04-22T12:57:30.865+03:00,767008653.5373739,0,-21.97,100.4704,1,0.75,2025-04-22T12:56:38.708+03:00,71,1.183333333333333,2025-04-22T09:54:17.825+03:00,0.02225348692287972,0
2025-04-22T12:57:35.843+03:00,1745315852.947822,40.95220305975717,29.14025630257546,76.18102,-1,-1,-1,-1,30,23.91450547804756,-9999,31779.062300375,-0.712432861328125,0.5910491943359375,-0.35394287109375,31779.052223375,-0.02957767905828942,-1.114797658018241,-0.646944277226717,-0.01986091397702694,0.02705520018935204,0.001143884612247348,-0.05000489950180054,-0.003690898418426514,1.14142894744873e-05,XArbitraryZVertical,-0.2771347578568588,-0.4975023307909119,0.1562246586155071,0.8070202246870324,-0.716398298740387,0.6027509570121765,-0.3513755202293396,0,0,0,-1,-1,31774.100769625,unknown,2,2025-04-22T12:57:30.865+03:00,2025-04-21T17:08:51.449+03:00,7384,0.9981967,0,0,6152.583,5,20,2025-04-22T12:57:30.865+03:00,767008653.5373739,0,-21.97,100.4704,1,0.75,2025-04-22T12:56:38.708+03:00,71,1.183333333333333,2025-04-22T09:54:17.825+03:00,0.02225348692287972,0
2025-04-22T12:57:35.844+03:00,1745315852.947822,40.95220305975717,29.14025630257546,76.18102,-1,-1,-1,-1,30,23.91450547804756,-9999,31779.072377375,-0.6764373779296875,0.5868377685546875,-0.353057861328125,31779.062300375,-0.02980335204687294,-1.11509667298119,-0.6470002091085516,-0.02082657627761364,-0.05292325466871262,-0.01019399147480726,-0.02220499515533447,0.002138972282409668,-0.004612237215042114,XArbitraryZVertical,-0.2771899936078148,-0.4975867020158259,0.1561892365922601,0.8069559462762003,-0.7164729237556458,0.6027956008911133,-0.3511463701725006,0,0,0,-1,-1,31774.100769625,unknown,2,2025-04-22T12:57:30.865+03:00,2025-04-21T17:08:51.449+03:00,7384,0.9981967,0,0,6152.583,5,20,2025-04-22T12:57:30.865+03:00,767008653.5373739,0,-21.97,100.4704,1,0.75,2025-04-22T12:56:38.708+03:00,71,1.183333333333333,2025-04-22T09:54:17.825+03:00,0.02225348692287972,0
2025-04-22T12:57:35.851+03:00,1745315852.947822,40.95220305975717,29.14025630257546,76.18102,-1,-1,-1,-1,30,23.91450547804756,-9999,31779.082454375,-0.7074737548828125,0.6050872802734375,-0.3618621826171875,31779.072377375,-0.0300449684237263,-1.115764353642349,-0.6469737154178546,-0.01293063536286354,-0.0368596687912941,-0.01047512143850327,0.03645437955856323,-0.02037698030471802,-0.001314729452133179,XArbitraryZVertical,-0.2771873348661687,-0.4978249376409357,0.1561775259306513,0.8068123459213004,-0.716721773147583,0.602774441242218,-0.3506750166416168,0,0,0,-1,-1,31774.100769625,unknown,2,2025-04-22T12:57:30.865+03:00,2025-04-21T17:08:51.449+03:00,7384,0.9981967,0,0,6152.583,5,20,2025-04-22T12:57:30.865+03:00,767008653.5373739,0,-21.97,100.4704,1,0.75,2025-04-22T12:56:38.708+03:00,71,1.183333333333333,2025-04-22T09:54:17.825+03:00,0.02225348692287972,0
2025-04-22T12:57:35.861+03:00,1745315852.947822,40.95220305975717,29.14025630257546,76.18102,-1,-1,-1,-1,30,23.91450547804756,-9999,31779.092531375,-0.732666015625,0.61767578125,-0.365264892578125,31779.082454375,-0.0301633385433324,-1.115960749199228,-0.6469551532539471,-0.004128888715058565,0.006276086438447237,-0.008007169701159,0.02476871013641357,-0.005042433738708496,-0.007416784763336182,XArbitraryZVertical,-0.2771940367492095,-0.4978894501982998,0.1561523352191013,0.8067750221779623,-0.7168005704879761,0.6027596592903137,-0.3505391180515289,0,0,0,-1,-1,31774.100769625,unknown,2,2025-04-22T12:57:30.865+03:00,2025-04-21T17:08:51.449+03:00,7384,0.9981967,0,0,6152.583,5,20,2025-04-22T12:57:30.865+03:00,767008653.5373739,0,-21.97,100.4704,1,0.75,2025-04-22T12:56:38.708+03:00,71,1.183333333333333,2025-04-22T09:54:17.825+03:00,0.02225348692287972,0
2025-04-22T12:57:35.873+03:00,1745315852.947822,40.95220305975717,29.14025630257546,76.18102,-1,-1,-1,-1,30,23.91450547804756,-9999,31779.102607375,-0.7149658203125,0.6100616455078125,-0.3545684814453125,31779.092531375,-0.03015624331400757,-1.115889420840701,-0.646901864834455,0.007632363121956587,-0.0008394136093556881,-0.005435787606984377,-0.01241308450698853,0.01208996772766113,-0.01537767052650452,XArbitraryZVertical,-0.2771764707116073,-0.4978664552815735,0.1561318074720632,0.8067992745124917,-0.7168044447898865,0.6027171015739441,-0.350604385137558,0,0,0,-1,-1,31774.100769625,unknown,2,2025-04-22T12:57:30.865+03:00,2025-04-21T17:08:51.449+03:00,7384,0.9981967,0,0,6152.583,5,20,2025-04-22T12:57:30.865+03:00,767008653.5373739,0,-21.97,100.4704,1,0.75,2025-04-22T12:56:38.708+03:00,71,1.183333333333333,2025-04-22T09:54:17.825+03:00,0.02225348692287972,0
2025-04-22T12:57:35.881+03:00,1745315852.947822,40.95220305975717,29.14025630257546,76.18102,-1,-1,-1,-1,30,23.91450547804756,-9999,31779.112684375,-0.705169677734375,0.5948638916015625,-0.35089111328125,31779.102607375,-0.03012521201897364,-1.116015873862223,-0.6468077300661104,0.004169188439846039,-0.02281155809760094,-0.0110635794699192,-0.006611049175262451,0.01260757446289062,-0.008683741092681885,XArbitraryZVertical,-0.2771211461917988,-0.497930266930442,0.156138052762138,0.8067776379437673,-0.7168996930122375,0.6026419997215271,-0.3505386412143707,0,0,0,-1,-1,31774.100769625,unknown,2,2025-04-22T12:57:30.865+03:00,2025-04-21T17:08:51.449+03:00,7384,0.9981967,0,0,6152.583,5,20,2025-04-22T12:57:30.865+03:00,767008653.5373739,0,-21.97,100.4704,1,0.75,2025-04-22T12:56:38.708+03:00,71,1.183333333333333,2025-04-22T09:54:17.825+03:00,0.02225348692287972,0
2025-04-22T12:57:35.891+03:00,1745315852.947822,40.95220305975717,29.14025630257546,76.18102,-1,-1,-1,-1,30,23.91450547804756,-9999,31779.122761375,-0.7149810791015625,0.592926025390625,-0.3546295166015625,31779.112684375,-0.03013804178395002,-1.116250862447573,-0.6466712268799993,0.002707845531404018,-0.01885976083576679,-0.008344125933945179,0.0115201473236084,-0.002328693866729736,-0.000301659107208252,XArbitraryZVertical,-0.2770512720632479,-0.4980355782003008,0.1561308696146277,0.8067380744250138,-0.7170560359954834,0.6025331020355225,-0.3504063189029694,0,0,0,-1,-1,31774.100769625,unknown,2,2025-04-22T12:57:30.865+03:00,2025-04-21T17:08:51.449+03:00,7384,0.9981967,0,0,6152.583,5,20,2025-04-22T12:57:30.865+03:00,767008653.5373739,0,-21.97,100.4704,1,0.75,2025-04-22T12:56:38.708+03:00,71,1.183333333333333,2025-04-22T09:54:17.825+03:00,0.02225348692287972,0
2025-04-22T12:57:35.901+03:00,1745315852.947822,40.95220305975717,29.14025630257546,76.18102,-1,-1,-1,-1,30,23.91450547804756,-9999,31779.132838375,-0.71942138671875,0.5964813232421875,-0.351226806640625,31779.122761375,-0.03015562135437131,-1.116356714061033,-0.6465886478580493,0.0002537423861213028,-0.0007878150790929794,0.0005929099279455841,0.005956053733825684,-0.01015162467956543,-0.003254920244216919,XArbitraryZVertical,-0.2770143058783728,-0.4980833167641688,0.1561175972489711,0.8067237263381908,-0.7171376347541809,0.6024671792984009,-0.3503521680831909,0,0,0,-1,-1,31774.100769625,unknown,2,2025-04-22T12:57:30.865+03:00,2025-04-21T17:08:51.449+03:00,7384,0.9981967,0,0,6152.583,5,20,2025-04-22T12:57:30.865+03:00,767008653.5373739,0,-21.97,100.4704,1,0.75,2025-04-22T12:56:38.708+03:00,71,1.183333333333333,2025-04-22T09:54:17.825+03:00,0.02225348692287972,0
2025-04-22T12:57:35.912+03:00,1745315852.947822,40.95220305975717,29.14025630257546,76.18102,-1,-1,-1,-1,30,23.91450547804756,-9999,31779.142915375,-0.7135162353515625,0.593902587890625,-0.3449554443359375,31779.132838375,-0.03021247728428718,-1.116428614406368,-0.6465601065729525,-0.00882037915289402,-0.003122542053461075,-0.0001673893420957029,-0.001907289028167725,-0.00639045238494873,-0.003833025693893433,XArbitraryZVertical,-0.2770114096610017,-0.4981070114993353,0.1560973863553494,0.8067140311574407,-0.7171783447265625,0.6024444103240967,-0.3503081798553467,0,0,0,-1,-1,31774.100769625,unknown,2,2025-04-22T12:57:30.865+03:00,2025-04-21T17:08:51.449+03:00,7384,0.9981967,0,0,6152.583,5,20,2025-04-22T12:57:30.865+03:00,767008653.5373739,0,-21.97,100.4704,1,0.75,2025-04-22T12:56:38.708+03:00,71,1.183333333333333,2025-04-22T09:54:17.825+03:00,0.02225348692287972,0
2025-04-22T12:57:35.922+03:00,1745315852.947822,40.95220305975717,29.14025630257546,76.18102,-1,-1,-1,-1,30,23.91450547804756,-9999,31779.152992375,-0.7076263427734375,0.5893707275390625,-0.3524627685546875,31779.142915375,-0.03038777019373128,-1.116591233569314,-0.6466231288234179,-0.02244111709296703,-0.005219248123466969,0.001729846582747996,0.0009689927101135254,-0.006928980350494385,0.002976477146148682,XArbitraryZVertical,-0.2770676225098115,-0.4981426138701068,0.1560651193686917,0.8066790894306175,-0.717201292514801,0.6024947166442871,-0.3501749336719513,0,0,0,-1,-1,31774.100769625,unknown,2,2025-04-22T12:57:30.865+03:00,2025-04-21T17:08:51.449+03:00,7384,0.9981967,0,0,6152.583,5,20,2025-04-22T12:57:30.865+03:00,767008653.5373739,0,-21.97,100.4704,1,0.75,2025-04-22T12:56:38.708+03:00,71,1.183333333333333,2025-04-22T09:54:17.825+03:00,0.02225348692287972,0
2025-04-22T12:57:35.932+03:00,1745315852.947822,40.95220305975717,29.14025630257546,76.18102,-1,-1,-1,-1,30,23.91450547804756,-9999,31779.163068375,-0.708526611328125,0.59521484375,-0.35791015625,31779.152992375,-0.03061014628584734,-1.11675360482935,-0.6467322704037388,-0.02160774730145931,-0.005947290454059839,0.001581275602802634,0.008580863475799561,-0.01206672191619873,0.001457870006561279,XArbitraryZVertical,-0.2771540816684926,-0.4981674361836461,0.1560255559396881,0.8066417200435528,-0.7171990275382996,0.602581799030304,-0.3500296473503113,0,0,0,-1,-1,31774.100769625,unknown,2,2025-04-22T12:57:30.865+03:00,2025-04-21T17:08:51.449+03:00,7384,0.9981967,0,0,6152.583,5,20,2025-04-22T12:57:30.865+03:00,767008653.5373739,0,-21.97,100.4704,1,0.75,2025-04-22T12:56:38.708+03:00,71,1.183333333333333,2025-04-22T09:54:17.825+03:00,0.02225348692287972,0
2025-04-22T12:57:35.942+03:00,1745315852.947822,40.95220305975717,29.14025630257546,76.18102,-1,-1,-1,-1,30,23.91450547804756,-9999,31779.173145375,-0.708465576171875,0.604766845703125,-0.355255126953125,31779.163068375,-0.03078176839913825,-1.116907100920217,-0.6468335397807295,-0.01877840422093868,-0.01283102855086327,-0.001190009876154363,0.009373128414154053,-0.01086580753326416,-0.007086575031280518,XArbitraryZVertical,-0.2772254488497644,-0.4981964228545083,0.15600328653965,0.8066035271477801,-0.7171978354454041,0.6026626229286194,-0.3498927354812622,0,0,0,-1,-1,31774.100769625,unknown,2,2025-04-22T12:57:30.865+03:00,2025-04-21T17:08:51.449+03:00,7384,0.9981967,0,0,6152.583,5,20,2025-04-22T12:57:30.865+03:00,767008653.5373739,0,-21.97,100.4704,1,0.75,2025-04-22T12:56:38.708+03:00,71,1.183333333333333,2025-04-22T09:54:17.825+03:00,0.02225348692287972,0
2025-04-22T12:57:35.952+03:00,1745315852.947822,40.95220305975717,29.14025630257546,76.18102,-1,-1,-1,-1,30,23.91450547804756,-9999,31779.183222375,-0.7126007080078125,0.6024627685546875,-0.3551177978515625,31779.173145375,-0.0309626130945343,-1.117158383412329,-0.6468996135513218,-0.01411361247301102,-0.01796853169798851,-0.0001624291762709618,0.008280813694000244,-0.0003594756126403809,-0.006506055593490601,XArbitraryZVertical,-0.2772773818497442,-0.4982667276530086,0.1559819406382778,0.8065463334447953,-0.717249870300293,0.6027153134346008,-0.3496950566768646,0,0,0,-1,-1,31774.100769625,unknown,2,2025-04-22T12:57:30.865+03:00,2025-04-21T17:08:51.449+03:00,7384,0.9981967,0,0,6152.583,5,20,2025-04-22T12:57:30.865+03:00,767008653.5373739,0,-21.97,100.4704,1,0.75,2025-04-22T12:56:38.708+03:00,71,1.183333333333333,2025-04-22T09:54:17.825+03:00,0.02225348692287972,0
2025-04-22T12:57:35.962+03:00,1745315852.947822,40.95220305975717,29.14025630257546,76.18102,-1,-1,-1,-1,30,23.91450547804756,-9999,31779.193299375,-0.7151031494140625,0.6007232666015625,-0.358154296875,31779.183222375,-0.03107985505214443,-1.117434450619822,-0.6469496718201302,-0.01060596294701099,-0.0229363925755024,-0.0002377966302447021,0.006656527519226074,0.0008213520050048828,-0.006000131368637085,XArbitraryZVertical,-0.2773051008160146,-0.4983572439592264,0.155985568531883,0.8064802987801077,-0.7173194289207458,0.6027552485466003,-0.3494838774204254,0,0,0,-1,-1,31774.100769625,unknown,2,2025-04-22T12:57:30.865+03:00,2025-04-21T17:08:51.449+03:00,7384,0.9981967,0,0,6152.583,5,20,2025-04-22T12:57:30.865+03:00,767008653.5373739,0,-21.97,100.4704,1,0.75,2025-04-22T12:56:38.708+03:00,71,1.183333333333333,2025-04-22T09:54:17.825+03:00,0.02225348692287972,0
2025-04-22T12:57:35.972+03:00,1745315852.947822,40.95220305975717,29.14025630257546,76.18102,-1,-1,-1,-1,30,23.91450547804756,-9999,31779.203376375,-0.7165985107421875,0.6037139892578125,-0.3582305908203125,31779.193299375,-0.03117826755603136,-1.117715486682159,-0.6469739612022262,-0.005860475823283195,-0.02464800700545311,-0.003389248158782721,0.003369331359863281,-0.00238722562789917,-0.008084982633590698,XArbitraryZVertical,-0.2773174534917437,-0.4984547463029161,0.1559910581148993,0.8064146087940139,-0.717404305934906,0.6027746796607971,-0.3492757976055145,0,0,0,-1,-1,31774.100769625,unknown,2,2025-04-22T12:57:30.865+03:00,2025-04-21T17:08:51.449+03:00,7384,0.9981967,0,0,6152.583,5,20,2025-04-22T12:57:30.865+03:00,767008653.5373739,0,-21.97,100.4704,1,0.75,2025-04-22T12:56:38.708+03:00,71,1.183333333333333,2025-04-22T09:54:17.825+03:00,0.02225348692287972,0
2025-04-22T12:57:35.982+03:00,1745315852.947822,40.95220305975717,29.14025630257546,76.18102,-1,-1,-1,-1,30,23.91450547804756,-9999,31779.213452375,-0.71435546875,0.602203369140625,-0.3553009033203125,31779.203376375,-0.03122963863420337,-1.117984605158712,-0.6469045294860895,-0.0008398847421631217,-0.02939296141266823,-0.007380261551588774,0.001761436462402344,0.0003842711448669434,-0.009251564741134644,XArbitraryZVertical,-0.2772814556555248,-0.498562416021962,0.1559900593672537,0.8063606228466269,-0.7175359129905701,0.602719247341156,-0.3491010367870331,0,0,0,-1,-1,31774.100769625,unknown,2,2025-04-22T12:57:30.865+03:00,2025-04-21T17:08:51.449+03:00,7384,0.9981967,0,0,6152.583,5,20,2025-04-22T12:57:30.865+03:00,767008653.5373739,0,-21.97,100.4704,1,0.75,2025-04-22T12:56:38.708+03:00,71,1.183333333333333,2025-04-22T09:54:17.825+03:00,0.02225348692287972,0
2025-04-22T12:57:35.992+03:00,1745315852.947822,40.95220305975717,29.14025630257546,76.18102,-1,-1,-1,-1,30,23.91450547804756,-9999,31779.223529375,-0.7132568359375,0.600921630859375,-0.3525390625,31779.213452375,-0.03123396523148266,-1.118268782645754,-0.6468048686178738,-0.0004132463072892278,-0.02875566482543945,-0.006999828852713108,0.002814888954162598,0.0003874897956848145,-0.007170945405960083,XArbitraryZVertical,-0.277220454532658,-0.4986854158822119,0.156002452398373,0.8063031165101902,-0.7176890969276428,0.6026397347450256,-0.3489233553409576,0,0,0,-1,-1,31774.100769625,unknown,2,2025-04-22T12:57:30.865+03:00,2025-04-21T17:08:51.449+03:00,7384,0.9981967,0,0,6152.583,5,20,2025-04-22T12:57:30.865+03:00,767008653.5373739,0,-21.97,100.4704,1,0.75,2025-04-22T12:56:38.708+03:00,71,1.183333333333333,2025-04-22T09:54:17.825+03:00,0.02225348692287972,0
2025-04-22T12:57:36.002+03:00,1745315852.947822,40.95220305975717,29.14025630257546,76.18102,-1,-1,-1,-1,30,23.91450547804756,-9999,31779.233606375,-0.7150421142578125,0.5963897705078125,-0.3524322509765625,31779.223529375,-0.03130092279156516,-1.118602322452527,-0.6467304411775474,-0.003966169431805611,-0.02966566756367683,-0.006177977658808231,0.0039023756980896,-0.0008958578109741211,-0.004995077848434448,XArbitraryZVertical,-0.2771813225808089,-0.4988173300887101,0.1560027999838731,0.8062349373569015,-0.7178457975387573,0.6025803089141846,-0.3487035632133484,0,0,0,-1,-1,31774.100769625,unknown,2,2025-04-22T12:57:30.865+03:00,2025-04-21T17:08:51.449+03:00,7384,0.9981967,0,0,6152.583,5,20,2025-04-22T12:57:30.865+03:00,767008653.5373739,0,-21.97,100.4704,1,0.75,2025-04-22T12:56:38.708+03:00,71,1.183333333333333,2025-04-22T09:54:17.825+03:00,0.02225348692287972,0
2025-04-22T12:57:36.012+03:00,1745315852.947822,40.95220305975717,29.14025630257546,76.18102,-1,-1,-1,-1,30,23.91450547804756,-9999,31779.243683375,-0.7157745361328125,0.5920562744140625,-0.3462677001953125,31779.233606375,-0.0313781106236771,-1.11890873419704,-0.6466942894655771,-0.009073979221284389,-0.02430832199752331,-0.003374933730810881,0.003418445587158203,-0.002926886081695557,-0.00447314977645874,XArbitraryZVertical,-0.2771621920916686,-0.4989334137323237,0.156004961716064,0.8061693077428216,-0.7179722785949707,0.6025514602661133,-0.3484931290149689,0,0,0,-1,-1,31774.100769625,unknown,2,2025-04-22T12:57:30.865+03:00,2025-04-21T17:08:51.449+03:00,7384,0.9981967,0,0,6152.583,5,20,2025-04-22T12:57:30.865+03:00,767008653.5373739,0,-21.97,100.4704,1,0.75,2025-04-22T12:56:38.708+03:00,71,1.183333333333333,2025-04-22T09:54:17.825+03:00,0.02225348692287972,0
2025-04-22T12:57:36.022+03:00,1745315852.947822,40.95220305975717,29.14025630257546,76.18102,-1,-1,-1,-1,30,23.91450547804756,-9999,31779.253760375,-0.714752197265625,0.59466552734375,-0.344024658203125,31779.243683375,-0.03148755279075623,-1.119176819271726,-0.6466929016205417,-0.01209400407969952,-0.02335331216454506,-0.004172550514340401,0.00137639045715332,-0.0104789137840271,-0.0003470182418823242,XArbitraryZVertical,-0.2771680301812094,-0.4990264296637536,0.1559976483299328,0.8061111420574454,-0.718066394329071,0.6025503873825073,-0.3483010232448578,0,0,0,-1,-1,31774.100769625,unknown,2,2025-04-22T12:57:30.865+03:00,2025-04-21T17:08:51.449+03:00,7384,0.9981967,0,0,6152.583,5,20,2025-04-22T12:57:30.865+03:00,767008653.5373739,0,-21.97,100.4704,1,0.75,2025-04-22T12:56:38.708+03:00,71,1.183333333333333,2025-04-22T09:54:17.825+03:00,0.02225348692287972,0
2025-04-22T12:57:36.033+03:00,1745315852.947822,40.95220305975717,29.14025630257546,76.18102,-1,-1,-1,-1,30,23.91450547804756,-9999,31779.263837375,-0.7161712646484375,0.5958099365234375,-0.3448028564453125,31779.253760375,-0.03161613425219161,-1.119427628586142,-0.6467513904390944,-0.015074348077178,-0.02081052586436272,-0.001028422615490854,0.003262996673583984,-0.00909125804901123,0.003470540046691895,XArbitraryZVertical,-0.2772039742217602,-0.4991043977853947,0.155995439608649,0.8060509103634795,-0.7181220054626465,0.6025970578193665,-0.3481055200099945,0,0,0,-1,-1,31774.100769625,unknown,2,2025-04-22T12:57:30.865+03:00,2025-04-21T17:08:51.449+03:00,7384,0.9981967,0,0,6152.583,5,20,2025-04-22T12:57:30.865+03:00,767008653.5373739,0,-21.97,100.4704,1,0.75,2025-04-22T12:56:38.708+03:00,71,1.183333333333333,2025-04-22T09:54:17.825+03:00,0.02225348692287972,0
2025-04-22T12:57:36.042+03:00,1745315852.947822,40.95220305975717,29.14025630257546,76.18102,-1,-1,-1,-1,30,23.91450547804756,-9999,31779.273914375,-0.7152557373046875,0.594451904296875,-0.34576416015625,31779.263837375,-0.03179187816147244,-1.119693187896737,-0.6468342688628038,-0.02060546539723873,-0.01690606586635113,-0.0006326768780127168,0.002288162708282471,-0.006670296192169189,0.003425925970077515,XArbitraryZVertical,-0.2772603058066428,-0.4991795464095591,0.1559824737056069,0.8059874778859674,-0.7181694507598877,0.6026632189750671,-0.3478929996490479,0,0,0,-1,-1,31774.100769625,unknown,2,2025-04-22T12:57:30.865+03:00,2025-04-21T17:08:51.449+03:00,7384,0.9981967,0,0,6152.583,5,20,2025-04-22T12:57:30.865+03:00,767008653.5373739,0,-21.97,100.4704,1,0.75,2025-04-22T12:56:38.708+03:00,71,1.183333333333333,2025-04-22T09:54:17.825+03:00,0.02225348692287972,0
2025-04-22T12:57:36.053+03:00,1745315852.947822,40.95220305975717,29.14025630257546,76.18102,-1,-1,-1,-1,30,23.91450547804756,-9999,31779.283990375,-0.71630859375,0.5944976806640625,-0.34356689453125,31779.273914375,-0.03201397736589456,-1.119952648982137,-0.6469192172402103,-0.02403082326054573,-0.01490070484578609,7.412611739709973e-05,0.00268322229385376,-0.007516264915466309,0.002790004014968872,XArbitraryZVertical,-0.2773295163061604,-0.4992456018611073,0.1559505235556667,0.8059289115063795,-0.7182135581970215,0.6027309894561768,-0.3476843237876892,0,0,0,-1,-1,31774.100769625,unknown,2,2025-04-22T12:57:30.865+03:00,2025-04-21T17:08:51.449+03:00,7384,0.9981967,0,0,6152.583,5,20,2025-04-22T12:57:30.865+03:00,767008653.5373739,0,-21.97,100.4704,1,0.75,2025-04-22T12:56:38.708+03:00,71,1.183333333333333,2025-04-22T09:54:17.825+03:00,0.02225348692287972,0
2025-04-22T12:57:36.063+03:00,1745315852.947822,40.95220305975717,29.14025630257546,76.18102,-1,-1,-1,-1,30,23.91450547804756,-9999,31779.294067375,-0.7155609130859375,0.59625244140625,-0.3447113037109375,31779.283990375,-0.032296331578844,-1.120247424707401,-0.6470374187577322,-0.03093347139656544,-0.01700060814619064,-0.0001144257257692516,0.002431690692901611,-0.009395837783813477,0.003401726484298706,XArbitraryZVertical,-0.2774243243568054,-0.4993144722175158,0.1559076364516791,0.8058619464067105,-0.7182519435882568,0.6028252840042114,-0.3474416136741638,0,0,0,-1,-1,31774.100769625,unknown,2,2025-04-22T12:57:30.865+03:00,2025-04-21T17:08:51.449+03:00,7384,0.9981967,0,0,6152.583,5,20,2025-04-22T12:57:30.865+03:00,767008653.5373739,0,-21.97,100.4704,1,0.75,2025-04-22T12:56:38.708+03:00,71,1.183333333333333,2025-04-22T09:54:17.825+03:00,0.02225348692287972,0
2025-04-22T12:57:36.073+03:00,1745315852.947822,40.95220305975717,29.14025630257546,76.18102,-1,-1,-1,-1,30,23.91450547804756,-9999,31779.304144375,-0.7152099609375,0.597198486328125,-0.347900390625,31779.294067375,-0.03261161034798953,-1.120605883638582,-0.6471748595854039,-0.03119738958775997,-0.01962754875421524,0.0002451009931974113,0.002466320991516113,-0.006972432136535645,0.004252642393112183,XArbitraryZVertical,-0.2775300903773258,-0.4994026345797459,0.1558652187205839,0.8057791909138226,-0.7183019518852234,0.6029349565505981,-0.3471481204032898,0,0,0,-1,-1,31774.100769625,unknown,2,2025-04-22T12:57:30.865+03:00,2025-04-21T17:08:51.449+03:00,7384,0.9981967,0,0,6152.583,5,20,2025-04-22T12:57:30.865+03:00,767008653.5373739,0,-21.97,100.4704,1,0.75,2025-04-22T12:56:38.708+03:00,71,1.183333333333333,2025-04-22T09:54:17.825+03:00,0.02225348692287972,0
2025-04-22T12:57:36.083+03:00,1745315852.947822,40.95220305975717,29.14025630257546,76.18102,-1,-1,-1,-1,30,23.91450547804756,-9999,31779.314221375,-0.7167816162109375,0.6015167236328125,-0.3465118408203125,31779.304144375,-0.03294772704034584,-1.121010436737098,-0.6473202408192615,-0.03310501575469971,-0.0253088716417551,-0.00083268026355654,0.003580629825592041,-0.006798505783081055,-0.0001807510852813721,XArbitraryZVertical,-0.2776406688937708,-0.4995057202589163,0.1558228999100793,0.8056853928238552,-0.7183634042739868,0.6030509471893311,-0.3468194007873535,0,0,0,-1,-1,31774.100769625,unknown,2,2025-04-22T12:57:30.865+03:00,2025-04-21T17:08:51.449+03:00,7384,0.9981967,0,0,6152.583,5,20,2025-04-22T12:57:30.865+03:00,767008653.5373739,0,-21.97,100.4704,1,0.75,2025-04-22T12:56:38.708+03:00,71,1.183333333333333,2025-04-22T09:54:17.825+03:00,0.02225348692287972,0
2025-04-22T12:57:36.093+03:00,1745315852.947822,40.95220305975717,29.14025630257546,76.18102,-1,-1,-1,-1,30,23.91450547804756,-9999,31779.324298375,-0.7186126708984375,0.6030731201171875,-0.345855712890625,31779.314221375,-0.03327996482294358,-1.121444282015638,-0.6474361705798247,-0.03231272473931313,-0.0275184940546751,-0.0006185621023178101,0.002828836441040039,-0.003656148910522461,-0.0002939105033874512,XArbitraryZVertical,-0.2777362396608815,-0.4996237892360265,0.1557787983163019,0.8055877213736005,-0.7184507250785828,0.6031433939933777,-0.3464772999286652,0,0,0,-1,-1,31774.100769625,unknown,2,2025-04-22T12:57:30.865+03:00,2025-04-21T17:08:51.449+03:00,7384,0.9981967,0,0,6152.583,5,20,2025-04-22T12:57:30.865+03:00,767008653.5373739,0,-21.97,100.4704,1,0.75,2025-04-22T12:56:38.708+03:00,71,1.183333333333333,2025-04-22T09:54:17.825+03:00,0.02225348692287972,0
2025-04-22T12:57:36.103+03:00,1745315852.947822,40.95220305975717,29.14025630257546,76.18102,-1,-1,-1,-1,30,23.91450547804756,-9999,31779.334375375,-0.720916748046875,0.6033172607421875,-0.344940185546875,31779.324298375,-0.03360665920836192,-1.121880553401582,-0.6475337144606437,-0.03090604022145271,-0.02417995780706406,0.001090920995920897,-0.0001249313354492188,0.0002027750015258789,-0.0001141130924224854,XArbitraryZVertical,-0.2778229100539167,-0.4997452445443996,0.1557326560688325,0.8054913263921539,-0.7185487151145935,0.6032211780548096,-0.3461382389068604,0,0,0,-1,-1,31774.100769625,unknown,2,2025-04-22T12:57:30.865+03:00,2025-04-21T17:08:51.449+03:00,7384,0.9981967,0,0,6152.583,5,20,2025-04-22T12:57:30.865+03:00,767008653.5373739,0,-21.97,100.4704,1,0.75,2025-04-22T12:56:38.708+03:00,71,1.183333333333333,2025-04-22T09:54:17.825+03:00,0.02225348692287972,0
2025-04-22T12:57:36.113+03:00,1745315852.947822,40.95220305975717,29.14025630257546,76.18102,-1,-1,-1,-1,30,23.91450547804756,-9999,31779.344451375,-0.72119140625,0.6022491455078125,-0.3435821533203125,31779.334375375,-0.03391591819946219,-1.12228268786159,-0.6476448682155281,-0.02862584218382835,-0.01917747594416142,0.001496520591899753,-0.001480460166931152,0.0001904964447021484,0.0003918111324310303,XArbitraryZVertical,-0.2779133081713388,-0.4998540311120532,0.1556921937381226,0.8054006274041421,-0.7186276316642761,0.6033098697662354,-0.345820277929306,0,0,0,-1,-1,31774.100769625,unknown,2,2025-04-22T12:57:30.865+03:00,2025-04-21T17:08:51.449+03:00,7384,0.9981967,0,0,6152.583,5,20,2025-04-22T12:57:30.865+03:00,767008653.5373739,0,-21.97,100.4704,1,0.75,2025-04-22T12:56:38.708+03:00,71,1.183333333333333,2025-04-22T09:54:17.825+03:00,0.02225348692287972,0
2025-04-22T12:57:36.123+03:00,1745315852.947822,40.95220305975717,29.14025630257546,76.18102,-1,-1,-1,-1,30,23.91450547804756,-9999,31779.354528375,-0.717559814453125,0.600555419921875,-0.3466796875,31779.344451375,-0.03420621973738614,-1.122643030362068,-0.6477478293495481,-0.02544403076171875,-0.01920743472874165,-0.001678034197539091,-0.002541065216064453,-0.001814305782318115,0.002348929643630981,XArbitraryZVertical,-0.2779990076476319,-0.4999494009002317,0.1556516489227928,0.8053195268274778,-0.7186959981918335,0.6033919453620911,-0.3455342948436737,0,0,0,-1,-1,31774.100769625,unknown,2,2025-04-22T12:57:30.865+03:00,2025-04-21T17:08:51.449+03:00,7384,0.9981967,0,0,6152.583,5,20,2025-04-22T12:57:30.865+03:00,767008656.1149665,0,-22.1,100.4687,1,0.75,2025-04-22T12:56:38.708+03:00,71,1.183333333333333,2025-04-22T09:54:17.825+03:00,0.02225348692287972,0
2025-04-22T12:57:36.134+03:00,1745315852.947822,40.95220305975717,29.14025630257546,76.18102,-1,-1,-1,-1,30,23.91450547804756,-9999,31779.364605375,-0.7171630859375,0.598785400390625,-0.340484619140625,31779.354528375,-0.03453639269987178,-1.123022810035909,-0.6478471771223969,-0.03300115093588829,-0.01611244305968285,0.0001827830565162003,-0.000388801097869873,-0.001847743988037109,-0.001047521829605103,XArbitraryZVertical,-0.278091714864762,-0.5000473185344835,0.1555968139083355,0.8052372907207573,-0.7187731266021729,0.6034711599349976,-0.3452353477478027,0,0,0,-1,-1,31774.100769625,unknown,2,2025-04-22T12:57:30.865+03:00,2025-04-21T17:08:51.449+03:00,7384,0.9981967,0,0,6152.583,5,20,2025-04-22T12:57:30.865+03:00,767008656.1149665,0,-22.1,100.4687,1,0.75,2025-04-22T12:56:38.708+03:00,71,1.183333333333333,2025-04-22T09:54:17.825+03:00,0.02225348692287972,0
2025-04-22T12:57:36.143+03:00,1745315852.947822,40.95220305975717,29.14025630257546,76.18102,-1,-1,-1,-1,30,23.91450547804756,-9999,31779.374682375,-0.7191162109375,0.5959625244140625,-0.335968017578125,31779.364605375,-0.03496097071758099,-1.12345612343982,-0.6479589795360663,-0.03973967954516411,-0.01703196577727795,-0.003403795883059502,0.002324402332305908,-0.003783226013183594,0.0006106793880462646,XArbitraryZVertical,-0.2782088612621031,-0.5001524676774148,0.1555146256483534,0.8051473871472677,-0.7188618183135986,0.6035603284835815,-0.344894677400589,0,0,0,-1,-1,31774.100769625,unknown,2,2025-04-22T12:57:30.865+03:00,2025-04-21T17:08:51.449+03:00,7384,0.9981967,0,0,6152.583,5,20,2025-04-22T12:57:30.865+03:00,767008656.1149665,0,-22.1,100.4687,1,0.75,2025-04-22T12:56:38.708+03:00,71,1.183333333333333,2025-04-22T09:54:17.825+03:00,0.02225348692287972,0
2025-04-22T12:57:36.161+03:00,1745315852.947822,40.95220305975717,29.14025630257546,76.18102,-1,-1,-1,-1,30,23.91450547804756,-9999,31779.384759375,-0.718536376953125,0.5933685302734375,-0.340911865234375,31779.374682375,-0.03548975981111938,-1.123913091839258,-0.6481212231113009,-0.05180127173662186,-0.01149698533117771,0.001854149624705315,0.0003643035888671875,-0.006964266300201416,0.009090006351470947,XArbitraryZVertical,-0.2783703961388297,-0.5002479062809009,0.1554066297574431,0.8050532646072095,-0.7189311981201172,0.6036896705627441,-0.3445239067077637,0,0,0,-1,-1,31774.100769625,unknown,2,2025-04-22T12:57:30.865+03:00,2025-04-21T17:08:51.449+03:00,7384,0.9981967,0,0,6152.583,5,20,2025-04-22T12:57:30.865+03:00,767008656.1149665,0,-22.1,100.4687,1,0.75,2025-04-22T12:56:38.708+03:00,71,1.183333333333333,2025-04-22T09:54:17.825+03:00,0.02225348692287972,0
2025-04-22T12:57:36.164+03:00,1745315852.947822,40.95220305975717,29.14025630257546,76.18102,-1,-1,-1,-1,30,23.91450547804756,-9999,31779.394836375,-0.7200775146484375,0.595977783203125,-0.3434906005859375,31779.384759375,-0.03608937584514159,-1.124352819762603,-0.6483559912169694,-0.05243217572569847,-0.006610883865505457,0.0008224410703405738,-0.0002988576889038086,-0.009745478630065918,0.005508214235305786,XArbitraryZVertical,-0.2785800325051238,-0.5003198347813048,0.1552864266039953,0.8049590939684798,-0.7189546227455139,0.6038768291473389,-0.3441464602947235,0,0,0,-1,-1,31774.100769625,unknown,2,2025-04-22T12:57:30.865+03:00,2025-04-21T17:08:51.449+03:00,7384,0.9981967,0,0,6152.583,5,20,2025-04-22T12:57:30.865+03:00,767008656.1149665,0,-22.1,100.4687,1,0.75,2025-04-22T12:56:38.708+03:00,71,1.183333333333333,2025-04-22T09:54:17.825+03:00,0.02225348692287972,0
2025-04-22T12:57:36.174+03:00,1745315852.947822,40.95220305975717,29.14025630257546,76.18102,-1,-1,-1,-1,30,23.91450547804756,-9999,31779.404912375,-0.7187957763671875,0.6010589599609375,-0.344451904296875,31779.394836375,-0.03669029926172774,-1.124770067074875,-0.6485973550621233,-0.05439665168523788,-0.005591558758169413,0.002691913628950715,-0.0005003809928894043,-0.009769916534423828,0.001406967639923096,XArbitraryZVertical,-0.2787943642262847,-0.5003817492585252,0.1551642480510724,0.8048700578784914,-0.7189667224884033,0.6040691733360291,-0.3437836170196533,0,0,0,-1,-1,31774.100769625,unknown,2,2025-04-22T12:57:30.865+03:00,2025-04-21T17:08:51.449+03:00,7384,0.9981967,0,0,6152.583,5,20,2025-04-22T12:57:30.865+03:00,767008656.1149665,0,-22.1,100.4687,1,0.75,2025-04-22T12:56:38.708+03:00,71,1.183333333333333,2025-04-22T09:54:17.825+03:00,0.02225348692287972,0
2025-04-22T12:57:36.184+03:00,1745315852.947822,40.95220305975717,29.14025630257546,76.18102,-1,-1,-1,-1,30,23.91450547804756,-9999,31779.414989375,-0.716796875,0.6014404296875,-0.3465118408203125,31779.404912375,-0.03729012257310529,-1.125206972880601,-0.6488678799451471,-0.05171458050608635,-0.01090376637876034,0.004317773040384054,-0.0006961822509765625,-0.004965424537658691,-0.0007171928882598877,XArbitraryZVertical,-0.2790185856448134,-0.500448945065372,0.155052875697857,0.8047719446357603,-0.7189692854881287,0.6042847633361816,-0.3433989584445953,0,0,0,-1,-1,31774.100769625,unknown,2,2025-04-22T12:57:30.865+03:00,2025-04-21T17:08:51.449+03:00,7384,0.9981967,0,0,6152.583,5,20,2025-04-22T12:57:30.865+03:00,767008656.1149665,0,-22.1,100.4687,1,0.75,2025-04-22T12:56:38.708+03:00,71,1.183333333333333,2025-04-22T09:54:17.825+03:00,0.02225348692287972,0
2025-04-22T12:57:36.194+03:00,1745315852.947822,40.95220305975717,29.14025630257546,76.18102,-1,-1,-1,-1,30,23.91450547804756,-9999,31779.425066375,-0.7164764404296875,0.6009979248046875,-0.3477325439453125,31779.414989375,-0.03782776687887883,-1.125648710215438,-0.6490990130034172,-0.0479634553194046,-0.01366965938359499,0.003226310014724731,0.0006111264228820801,-0.002235114574432373,-0.003490597009658813,XArbitraryZVertical,-0.2792111526943623,-0.5005302568933864,0.1549572044312247,0.8046730154311471,-0.7189947962760925,0.6044688820838928,-0.3430211842060089,0,0,0,-1,-1,31774.100769625,unknown,2,2025-04-22T12:57:30.865+03:00,2025-04-21T17:08:51.449+03:00,7384,0.9981967,0,0,6152.583,5,20,2025-04-22T12:57:30.865+03:00,767008656.1149665,0,-22.1,100.4687,1,0.75,2025-04-22T12:56:38.708+03:00,71,1.183333333333333,2025-04-22T09:54:17.825+03:00,0.02225348692287972,0
2025-04-22T12:57:36.204+03:00,1745315852.947822,40.95220305975717,29.14025630257546,76.18102,-1,-1,-1,-1,30,23.91450547804756,-9999,31779.435143375,-0.7194061279296875,0.6013946533203125,-0.3472747802734375,31779.425066375,-0.03834412726369064,-1.126124761845913,-0.6493086397589976,-0.04475860670208931,-0.01719861477613449,0.002999408636242151,0.002765655517578125,-0.003775358200073242,-0.004711389541625977,XArbitraryZVertical,-0.2793871668744702,-0.5006302196459177,0.1548694689418759,0.8045666753123171,-0.7190436720848083,0.6046358942985535,-0.3426243960857391,0,0,0,-1,-1,31774.100769625,unknown,2,2025-04-22T12:57:30.865+03:00,2025-04-21T17:08:51.449+03:00,7384,0.9981967,0,0,6152.583,5,20,2025-04-22T12:57:30.865+03:00,767008656.1149665,0,-22.1,100.4687,1,0.75,2025-04-22T12:56:38.708+03:00,71,1.183333333333333,2025-04-22T09:54:17.825+03:00,0.02225348692287972,0
2025-04-22T12:57:36.214+03:00,1745315852.947822,40.95220305975717,29.14025630257546,76.18102,-1,-1,-1,-1,30,23.91450547804756,-9999,31779.445220375,-0.7222747802734375,0.5992431640625,-0.344757080078125,31779.435143375,-0.03882873105619689,-1.126550791105719,-0.6495235264599342,-0.04892145842313766,-0.01178926602005959,0.003956382162868977,0.001649856567382812,-0.003443002700805664,-0.005821257829666138,XArbitraryZVertical,-0.2795612352354293,-0.5007139211127462,0.1547889810114136,0.8044695977869358,-0.7190722823143005,0.6048070192337036,-0.3422621786594391,0,0,0,-1,-1,31774.100769625,unknown,2,2025-04-22T12:57:30.865+03:00,2025-04-21T17:08:51.449+03:00,7384,0.9981967,0,0,6152.583,5,20,2025-04-22T12:57:30.865+03:00,767008656.1149665,0,-22.1,100.4687,1,0.75,2025-04-22T12:56:38.708+03:00,71,1.183333333333333,2025-04-22T09:54:17.825+03:00,0.02225348692287972,0
2025-04-22T12:57:36.224+03:00,1745315852.947822,40.95220305975717,29.14025630257546,76.18102,-1,-1,-1,-1,30,23.91450547804756,-9999,31779.455297375,-0.721343994140625,0.5981903076171875,-0.34295654296875,31779.445220375,-0.03937125994034272,-1.126978057126291,-0.6497737109911578,-0.05501210689544678,-0.007537529803812504,0.005563067272305489,-0.0025520920753479,-0.00516808032989502,-0.00311124324798584,XArbitraryZVertical,-0.2797638034884472,-0.5007866296194849,0.1546944667208376,0.8043721138996557,-0.7190817594528198,0.605006217956543,-0.3418899178504944,0,0,0,-1,-1,31774.100769625,unknown,2,2025-04-22T12:57:30.865+03:00,2025-04-21T17:08:51.449+03:00,7384,0.9981967,0,0,6152.583,5,20,2025-04-22T12:57:30.865+03:00,767008656.1149665,0,-22.1,100.4687,1,0.75,2025-04-22T12:56:38.708+03:00,71,1.183333333333333,2025-04-22T09:54:17.825+03:00,0.02225348692287972,0
2025-04-22T12:57:36.234+03:00,1745315852.947822,40.95220305975717,29.14025630257546,76.18102,-1,-1,-1,-1,30,23.91450547804756,-9999,31779.465373375,-0.717010498046875,0.6002349853515625,-0.3381805419921875,31779.455297375,-0.03999255972980189,-1.127434591958074,-0.6500506753100291,-0.05502622202038765,-0.008128752931952477,0.007438465487211943,-0.00276106595993042,-0.007494270801544189,-0.002824783325195312,XArbitraryZVertical,-0.2799945284561904,-0.5008574637216668,0.1545793189416296,0.8042698869468846,-0.7190864086151123,0.6052267551422119,-0.3414897322654724,0,0,0,-1,-1,31774.100769625,unknown,2,2025-04-22T12:57:30.865+03:00,2025-04-21T17:08:51.449+03:00,7384,0.9981967,0,0,6152.583,5,20,2025-04-22T12:57:30.865+03:00,767008656.1149665,0,-22.1,100.4687,1,0.75,2025-04-22T12:56:38.708+03:00,71,1.183333333333333,2025-04-22T09:54:17.825+03:00,0.02225348692287972,0
2025-04-22T12:57:36.254+03:00,1745315852.947822,40.95220305975717,29.14025630257546,76.18102,-1,-1,-1,-1,30,23.91450547804756,-9999,31779.475450375,-0.7125396728515625,0.601043701171875,-0.337799072265625,31779.465373375,-0.04058965404200838,-1.127889978039728,-0.6503029419891225,-0.05625367537140846,-0.0108819268643856,0.003348116530105472,0.0007201433181762695,-0.00587928295135498,0.0009936690330505371,XArbitraryZVertical,-0.2802094572748967,-0.5009333950059093,0.1544675511105732,0.8041692096376772,-0.7191038727760315,0.6054275631904602,-0.3410967886447906,0,0,0,-1,-1,31774.100769625,unknown,2,2025-04-22T12:57:30.865+03:00,2025-04-21T17:08:51.449+03:00,7384,0.9981967,0,0,6152.583,5,20,2025-04-22T12:57:30.865+03:00,767008656.1149665,0,-22.1,100.4687,1,0.75,2025-04-22T12:56:38.708+03:00,71,1.183333333333333,2025-04-22T09:54:17.825+03:00,0.02225348692287972,0
2025-04-22T12:57:36.256+03:00,1745315852.947822,40.95220305975717,29.14025630257546,76.18102,-1,-1,-1,-1,30,23.91450547804756,-9999,31779.485527375,-0.7106170654296875,0.6011505126953125,-0.3398284912109375,31779.475450375,-0.04119629595656923,-1.128369464161779,-0.6505492444193027,-0.05695295333862305,-0.01245792023837566,0.006621707230806351,0.005662143230438232,-0.004488348960876465,0.003575682640075684,XArbitraryZVertical,-0.2804225586410767,-0.5010180965799464,0.1543538935488992,0.8040640048874188,-0.7191326022148132,0.6056235432624817,-0.3406881093978882,0,0,0,-1,-1,31774.100769625,unknown,2,2025-04-22T12:57:30.865+03:00,2025-04-21T17:08:51.449+03:00,7384,0.9981967,0,0,6152.583,5,20,2025-04-22T12:57:30.865+03:00,767008656.1149665,0,-22.1,100.4687,1,0.75,2025-04-22T12:56:38.708+03:00,71,1.183333333333333,2025-04-22T09:54:17.825+03:00,0.02225348692287972,0
2025-04-22T12:57:36.265+03:00,1745315852.947822,40.95220305975717,29.14025630257546,76.18102,-1,-1,-1,-1,30,23.91450547804756,-9999,31779.495604375,-0.711669921875,0.5999755859375,-0.3484649658203125,31779.485527375,-0.04177971166234623,-1.128862690448871,-0.650829673060164,-0.05614681541919708,-0.01707557402551174,0.01129182614386082,0.007431268692016602,-0.004391133785247803,0.0009052455425262451,XArbitraryZVertical,-0.2806424230573025,-0.5011082709705263,0.1542604140882317,0.8039489236295181,-0.7191468477249146,0.6058467030525208,-0.3402606546878815,0,0,0,-1,-1,31774.100769625,unknown,2,2025-04-22T12:57:30.865+03:00,2025-04-21T17:08:51.449+03:00,7384,0.9981967,0,0,6152.583,5,20,2025-04-22T12:57:30.865+03:00,767008656.1149665,0,-22.1,100.4687,1,0.75,2025-04-22T12:56:38.708+03:00,71,1.183333333333333,2025-04-22T09:54:17.825+03:00,0.02225348692287972,0
2025-04-22T12:57:36.274+03:00,1745315852.947822,40.95220305975717,29.14025630257546,76.18102,-1,-1,-1,-1,30,23.91450547804756,-9999,31779.505681375,-0.7115020751953125,0.596588134765625,-0.3590545654296875,31779.495604375,-0.04245730107328934,-1.129433301500539,-0.6511675314456996,-0.07667046785354614,-0.01958746835589409,0.005032332614064217,0.00824892520904541,-0.005651652812957764,-0.005101025104522705,XArbitraryZVertical,-0.2809027869199699,-0.5012107365288366,0.1541547173302496,0.8038144655771065,-0.7191559076309204,0.606115460395813,-0.3397628366947174,0,0,0,-1,-1,31774.100769625,unknown,2,2025-04-22T12:57:30.865+03:00,2025-04-21T17:08:51.449+03:00,7384,0.9981967,0,0,6152.583,5,20,2025-04-22T12:57:30.865+03:00,767008656.1149665,0,-22.1,100.4687,1,0.75,2025-04-22T12:56:38.708+03:00,71,1.183333333333333,2025-04-22T09:54:17.825+03:00,0.02225348692287972,0
2025-04-22T12:57:36.284+03:00,1745315852.947822,40.95220305975717,29.14025630257546,76.18102,-1,-1,-1,-1,30,23.91450547804756,-9999,31779.515758375,-0.710601806640625,0.5820159912109375,-0.3678131103515625,31779.505681375,-0.04364958083413473,-1.13037746729384,-0.651713606044813,-0.1554268002510071,-0.02830612286925316,0.01226175017654896,0.007171273231506348,-0.007993221282958984,-0.01660245656967163,XArbitraryZVertical,-0.2813463272448027,-0.5013710921621517,0.1539483509593368,0.8035988762383108,-0.7191768884658813,0.6065496802330017,-0.3389425575733185,0,0,0,-1,-1,31774.100769625,unknown,2,2025-04-22T12:57:30.865+03:00,2025-04-21T17:08:51.449+03:00,7384,0.9981967,0,0,6152.583,5,20,2025-04-22T12:57:30.865+03:00,767008656.1149665,0,-22.1,100.4687,1,0.75,2025-04-22T12:56:38.708+03:00,71,1.183333333333333,2025-04-22T09:54:17.825+03:00,0.02225348692287972,0
2025-04-22T12:57:36.295+03:00,1745315852.947822,40.95220305975717,29.14025630257546,76.18102,-1,-1,-1,-1,30,23.91450547804756,-9999,31779.525835375,-0.7111358642578125,0.5449676513671875,-0.369415283203125,31779.515758375,-0.04609386307576311,-1.132205165309323,-0.6527277237284427,-0.2901726961135864,-0.04728414118289948,0.005777718033641577,0.008376717567443848,-0.01769500970840454,-0.02791395783424377,XArbitraryZVertical,-0.2822222357986083,-0.5016647479117934,0.1534844239792645,0.8031971635106692,-0.7192379832267761,0.6073556542396545,-0.3373661935329437,0,0,0,-1,-1,31774.100769625,unknown,2,2025-04-22T12:57:30.865+03:00,2025-04-21T17:08:51.449+03:00,7384,0.9981967,0,0,6152.583,5,20,2025-04-22T12:57:30.865+03:00,767008656.1149665,0,-22.1,100.4687,1,0.75,2025-04-22T12:56:38.708+03:00,71,1.183333333333333,2025-04-22T09:54:17.825+03:00,0.02225348692287972,0
2025-04-22T12:57:36.305+03:00,1745315852.947822,40.95220305975717,29.14025630257546,76.18102,-1,-1,-1,-1,30,23.91450547804756,-9999,31779.535911375,-0.7121124267578125,0.52203369140625,-0.3673553466796875,31779.525835375,-0.05034107758177348,-1.135385999190698,-0.6542857812464393,-0.4515533149242401,-0.06899716705083847,-0.005230457987636328,0.007946372032165527,-0.04813748598098755,-0.03554680943489075,XArbitraryZVertical,-0.2836637069850994,-0.5021915545340965,0.1526307039860378,0.8025224342876093,-0.7194483876228333,0.608592689037323,-0.3346771001815796,0,0,0,-1,-1,31774.100769625,unknown,2,2025-04-22T12:57:30.865+03:00,2025-04-21T17:08:51.449+03:00,7384,0.9981967,0,0,6152.583,5,20,2025-04-22T12:57:30.865+03:00,767008656.1149665,0,-22.1,100.4687,1,0.75,2025-04-22T12:56:38.708+03:00,71,1.183333333333333,2025-04-22T09:54:17.825+03:00,0.02225348692287972,0
2025-04-22T12:57:36.315+03:00,1745315852.947822,40.95220305975717,29.14025630257546,76.18102,-1,-1,-1,-1,30,23.91450547804756,-9999,31779.545988375,-0.716278076171875,0.55291748046875,-0.3839263916015625,31779.535911375,-0.05598269061948786,-1.13947863212017,-0.6562742811006474,-0.513227641582489,-0.07046037167310715,-0.001606195466592908,0.008972227573394775,-0.08543485403060913,-0.03536909818649292,XArbitraryZVertical,-0.2855583889017574,-0.5028367245775075,0.151464500728122,0.8016670239625655,-0.7197113037109375,0.6101692914962769,-0.3312232792377472,0,0,0,-1,-1,31774.100769625,unknown,2,2025-04-22T12:57:30.865+03:00,2025-04-21T17:08:51.449+03:00,7384,0.9981967,0,0,6152.583,5,20,2025-04-22T12:57:30.865+03:00,767008656.1149665,0,-22.1,100.4687,1,0.75,2025-04-22T12:56:38.708+03:00,71,1.183333333333333,2025-04-22T09:54:17.825+03:00,0.02225348692287972,0
2025-04-22T12:57:36.325+03:00,1745315852.947822,40.95220305975717,29.14025630257546,76.18102,-1,-1,-1,-1,30,23.91450547804756,-9999,31779.556065375,-0.7056427001953125,0.61834716796875,-0.4066619873046875,31779.545988375,-0.06134882135957398,-1.143557947941796,-0.6582308470696032,-0.4314787685871124,-0.1019724905490875,0.01587266474962234,0.004865586757659912,-0.07531088590621948,-0.04849237203598022,XArbitraryZVertical,-0.2873743936300922,-0.503508978850143,0.1504068356312386,0.8007948896874518,-0.7199686765670776,0.6117182970046997,-0.3277893364429474,0,0,0,-1,-1,31774.100769625,unknown,2,2025-04-22T12:57:30.865+03:00,2025-04-21T17:08:51.449+03:00,7384,0.9981967,0,0,6152.583,5,20,2025-04-22T12:57:30.865+03:00,767008656.1149665,0,-22.1,100.4687,1,0.75,2025-04-22T12:56:38.708+03:00,71,1.183333333333333,2025-04-22T09:54:17.825+03:00,0.02225348692287972,0
2025-04-22T12:57:36.335+03:00,1745315852.947822,40.95220305975717,29.14025630257546,76.18102,-1,-1,-1,-1,30,23.91450547804756,-9999,31779.566142375,-0.6934356689453125,0.6674041748046875,-0.4539031982421875,31779.556065375,-0.06568938361924935,-1.147412022793291,-0.6599217865192196,-0.334849625825882,-0.1344677805900574,0.009743564762175083,0.008231163024902344,-0.02070891857147217,-0.07212656736373901,XArbitraryZVertical,-0.2888461072082243,-0.5042564863825784,0.1496656473116977,0.7999334310427182,-0.7202825546264648,0.6130550503730774,-0.3245866298675537,0,0,0,-1,-1,31774.100769625,unknown,2,2025-04-22T12:57:30.865+03:00,2025-04-21T17:08:51.449+03:00,7384,0.9981967,0,0,6152.583,5,20,2025-04-22T12:57:30.865+03:00,767008656.1149665,0,-22.1,100.4687,1,0.75,2025-04-22T12:56:38.708+03:00,71,1.183333333333333,2025-04-22T09:54:17.825+03:00,0.02225348692287972,0
2025-04-22T12:57:36.345+03:00,1745315852.947822,40.95220305975717,29.14025630257546,76.18102,-1,-1,-1,-1,30,23.91450547804756,-9999,31779.576219375,-0.69183349609375,0.674713134765625,-0.52630615234375,31779.566142375,-0.0688724796569672,-1.150884221518552,-0.6610931048377655,-0.2150824666023254,-0.171815425157547,0.001273114583455026,0.02574175596237183,0.04068303108215332,-0.1102007925510406,XArbitraryZVertical,-0.2898511791040674,-0.5050652501000216,0.1492017518831382,0.7991459462112491,-0.7207490801811218,0.6139800548553467,-0.3217907845973969,0,0,0,-1,-1,31774.100769625,unknown,2,2025-04-22T12:57:30.865+03:00,2025-04-21T17:08:51.449+03:00,7384,0.9981967,0,0,6152.583,5,20,2025-04-22T12:57:30.865+03:00,767008656.1149665,0,-22.1,100.4687,1,0.75,2025-04-22T12:56:38.708+03:00,71,1.183333333333333,2025-04-22T09:54:17.825+03:00,0.02225348692287972,0
2025-04-22T12:57:36.355+03:00,1745315852.947822,40.95220305975717,29.14025630257546,76.18102,-1,-1,-1,-1,30,23.91450547804756,-9999,31779.586296375,-0.6344451904296875,0.713653564453125,-0.64300537109375,31779.576219375,-0.06959309943969147,-1.153399540917067,-0.6614867548935702,0.107612818479538,-0.2415883094072342,0.04243243485689163,0.02664822340011597,0.06014764308929443,-0.1762912571430206,XArbitraryZVertical,-0.2900004010346319,-0.5059252826089172,0.1493818240742052,0.7985137502444544,-0.7213349938392639,0.614290714263916,-0.3198787569999695,0,0,0,-1,-1,31774.100769625,unknown,2,2025-04-22T12:57:30.865+03:00,2025-04-21T17:08:51.449+03:00,7384,0.9981967,0,0,6152.583,5,20,2025-04-22T12:57:30.865+03:00,767008656.1149665,0,-22.1,100.4687,1,0.75,2025-04-22T12:56:38.708+03:00,71,1.183333333333333,2025-04-22T09:54:17.825+03:00,0.02225348692287972,0
2025-04-22T12:57:36.365+03:00,1745315852.947822,40.95220305975717,29.14025630257546,76.18102,-1,-1,-1,-1,30,23.91450547804756,-9999,31779.596372375,-0.517242431640625,0.767120361328125,-0.7213897705078125,31779.586296375,-0.06462569617456902,-1.152347520262048,-0.6605703363516564,0.6498862504959106,-0.2350590378046036,0.09255978465080261,0.05249077081680298,0.07619094848632812,-0.2725633978843689,XArbitraryZVertical,-0.2884618683166576,-0.5063167841935399,0.1509726341695094,0.7985238377229115,-0.7215123176574707,0.6135672926902771,-0.3208661377429962,0,0,0,-1,-1,31774.100769625,unknown,2,2025-04-22T12:57:30.865+03:00,2025-04-21T17:08:51.449+03:00,7384,0.9981967,0,0,6152.583,5,20,2025-04-22T12:57:30.865+03:00,767008656.1149665,0,-22.1,100.4687,1,0.75,2025-04-22T12:56:38.708+03:00,71,1.183333333333333,2025-04-22T09:54:17.825+03:00,0.02225348692287972,0
2025-04-22T12:57:36.375+03:00,1745315852.947822,40.95220305975717,29.14025630257546,76.18102,-1,-1,-1,-1,30,23.91450547804756,-9999,31779.606449375,-0.54461669921875,0.6448211669921875,-0.5824127197265625,31779.596372375,-0.05645294793926485,-1.15222535789347,-0.6583954479410633,0.7039531469345093,-0.6442282795906067,0.06051473319530487,0.1675912141799927,0.1468184590339661,-0.3921271562576294,XArbitraryZVertical,-0.2855428583666429,-0.5076586760616841,0.1536483457169046,0.7982105570256537,-0.7226906418800354,0.6118484735488892,-0.3214958906173706,0,0,0,-1,-1,31774.100769625,unknown,2,2025-04-22T12:57:30.865+03:00,2025-04-21T17:08:51.449+03:00,7384,0.9981967,0,0,6152.583,5,20,2025-04-22T12:57:30.865+03:00,767008656.1149665,0,-22.1,100.4687,1,0.75,2025-04-22T12:56:38.708+03:00,71,1.183333333333333,2025-04-22T09:54:17.825+03:00,0.02225348692287972,0
2025-04-22T12:57:36.385+03:00,1745315852.947822,40.95220305975717,29.14025630257546,76.18102,-1,-1,-1,-1,30,23.91450547804756,-9999,31779.616526375,-0.6698455810546875,0.4873809814453125,-0.446075439453125,31779.606449375,-0.04799501170964256,-1.154028876450573,-0.6565617463530826,0.604087769985199,-0.7262133955955505,0.1261579245328903,0.2114155888557434,0.1035616397857666,-0.3325983881950378,XArbitraryZVertical,-0.2825285498053443,-0.5097595592632707,0.156798856058853,0.7973311165287618,-0.7242940068244934,0.6103970408439636,-0.3206456303596497,0,0,0,-1,-1,31774.100769625,unknown,2,2025-04-22T12:57:30.865+03:00,2025-04-21T17:08:51.449+03:00,7384,0.9981967,0,0,6152.583,5,20,2025-04-22T12:57:30.865+03:00,767008656.1149665,0,-22.1,100.4687,1,0.75,2025-04-22T12:56:38.708+03:00,71,1.183333333333333,2025-04-22T09:54:17.825+03:00,0.02225348692287972,0
2025-04-22T12:57:36.396+03:00,1745315852.947822,40.95220305975717,29.14025630257546,76.18102,-1,-1,-1,-1,30,23.91450547804756,-9999,31779.626603375,-0.7873992919921875,0.489013671875,-0.3449249267578125,31779.616526375,-0.04079978491063243,-1.156720466128785,-0.6557137596825433,0.5014053583145142,-0.6190119981765747,0.1646761894226074,0.1051599383354187,-0.08218306303024292,-0.1668146252632141,XArbitraryZVertical,-0.2801431656423622,-0.5119260196436787,0.1598222216317348,0.7961836677076012,-0.7256280779838562,0.6097251176834106,-0.3189031183719635,0,0,0,-1,-1,31774.100769625,unknown,2,2025-04-22T12:57:30.865+03:00,2025-04-21T17:08:51.449+03:00,7384,0.9981967,0,0,6152.583,5,20,2025-04-22T12:57:30.865+03:00,767008656.1149665,0,-22.1,100.4687,1,0.75,2025-04-22T12:56:38.708+03:00,71,1.183333333333333,2025-04-22T09:54:17.825+03:00,0.02225348692287972,0
2025-04-22T12:57:36.406+03:00,1745315852.947822,40.95220305975717,29.14025630257546,76.18102,-1,-1,-1,-1,30,23.91450547804756,-9999,31779.636680375,-0.819671630859375,0.58074951171875,-0.2873077392578125,31779.626603375,-0.03428679229754906,-1.158800126628128,-0.6556976866778956,0.4445916414260864,-0.6032130718231201,0.2596666216850281,-0.02269423007965088,-0.1354998350143433,-0.06364518404006958,XArbitraryZVertical,-0.2782992234536212,-0.5136641883170203,0.1626994166630024,0.7951273828720029,-0.7262986898422241,0.6097124218940735,-0.3173972964286804,0,0,0,-1,-1,31774.100769625,unknown,2,2025-04-22T12:57:30.865+03:00,2025-04-21T17:08:51.449+03:00,7384,0.9981967,0,0,6152.583,5,20,2025-04-22T12:57:30.865+03:00,767008656.1149665,0,-22.1,100.4687,1,0.75,2025-04-22T12:56:38.708+03:00,71,1.183333333333333,2025-04-22T09:54:17.825+03:00,0.02225348692287972,0
2025-04-22T12:57:36.416+03:00,1745315852.947822,40.95220305975717,29.14025630257546,76.18102,-1,-1,-1,-1,30,23.91450547804756,-9999,31779.646757375,-0.800140380859375,0.625152587890625,-0.2499542236328125,31779.636680375,-0.02801007981670788,-1.161038514235256,-0.6568444618377254,0.3678256273269653,-0.5580963492393494,0.3342996537685394,-0.09275680780410767,-0.06788116693496704,0.01089608669281006,XArbitraryZVertical,-0.2769531470221254,-0.5153163682679424,0.1658034044131274,0.7938861523297656,-0.7263655066490173,0.6106209754943848,-0.3154920041561127,0,0,0,-1,-1,31774.100769625,unknown,2,2025-04-22T12:57:30.865+03:00,2025-04-21T17:08:51.449+03:00,7384,0.9981967,0,0,6152.583,5,20,2025-04-22T12:57:30.865+03:00,767008656.1149665,0,-22.1,100.4687,1,0.75,2025-04-22T12:56:38.708+03:00,71,1.183333333333333,2025-04-22T09:54:17.825+03:00,0.02225348692287972,0
2025-04-22T12:57:36.426+03:00,1745315852.947822,40.95220305975717,29.14025630257546,76.18102,-1,-1,-1,-1,30,23.91450547804756,-9999,31779.656834375,-0.774017333984375,0.58929443359375,-0.2424468994140625,31779.646757375,-0.02332912183513473,-1.163763838509645,-0.6591852167856258,0.1322639733552933,-0.5849886536598206,0.3744651675224304,-0.08206003904342651,0.009353160858154297,0.05366721749305725,XArbitraryZVertical,-0.2764404138878127,-0.5168253286507585,0.1686489796093112,0.7924833444774713,-0.7259081602096558,0.6124729514122009,-0.3129445612430573,0,0,0,-1,-1,31774.100769625,unknown,2,2025-04-22T12:57:30.865+03:00,2025-04-21T17:08:51.449+03:00,7384,0.9981967,0,0,6152.583,5,20,2025-04-22T12:57:30.865+03:00,767008656.1149665,0,-22.1,100.4687,1,0.75,2025-04-22T12:56:38.708+03:00,71,1.183333333333333,2025-04-22T09:54:17.825+03:00,0.02225348692287972,0
2025-04-22T12:57:36.436+03:00,1745315852.947822,40.95220305975717,29.14025630257546,76.18102,-1,-1,-1,-1,30,23.91450547804756,-9999,31779.666910375,-0.747894287109375,0.5723419189453125,-0.2236785888671875,31779.656834375,-0.02117686108575695,-1.16804420803123,-0.6626074229054272,-0.09569675475358963,-0.5917819142341614,0.3659373223781586,-0.06061089038848877,-0.009232938289642334,0.06162044405937195,XArbitraryZVertical,-0.2768676490700583,-0.5184966298683404,0.1709891104012911,0.790738924882598,-0.7253082394599915,0.6151745915412903,-0.3090111017227173,0,0,0,-1,-1,31774.100769625,unknown,2,2025-04-22T12:57:30.865+03:00,2025-04-21T17:08:51.449+03:00,7384,0.9981967,0,0,6152.583,5,20,2025-04-22T12:57:30.865+03:00,767008656.1149665,0,-22.1,100.4687,1,0.75,2025-04-22T12:56:38.708+03:00,71,1.183333333333333,2025-04-22T09:54:17.825+03:00,0.02225348692287972,0
2025-04-22T12:57:36.446+03:00,1745315852.947822,40.95220305975717,29.14025630257546,76.18102,-1,-1,-1,-1,30,23.91450547804756,-9999,31779.676987375,-0.7539520263671875,0.5919647216796875,-0.19189453125,31779.666910375,-0.02092204353711838,-1.174246952843925,-0.6662385126754906,-0.1058447286486626,-0.6144776344299316,0.3137790560722351,-0.02981317043304443,-0.04640865325927734,0.07225731015205383,XArbitraryZVertical,-0.2776949902179853,-0.5206387592369575,0.1729033380362257,0.7886222695702551,-0.7251458764076233,0.6180332899093628,-0.3036415576934814,0,0,0,-1,-1,31774.100769625,unknown,2,2025-04-22T12:57:30.865+03:00,2025-04-21T17:08:51.449+03:00,7384,0.9981967,0,0,6152.583,5,20,2025-04-22T12:57:30.865+03:00,767008656.1149665,0,-22.1,100.4687,1,0.75,2025-04-22T12:56:38.708+03:00,71,1.183333333333333,2025-04-22T09:54:17.825+03:00,0.02225348692287972,0
2025-04-22T12:57:36.456+03:00,1745315852.947822,40.95220305975717,29.14025630257546,76.18102,-1,-1,-1,-1,30,23.91450547804756,-9999,31779.687064375,-0.784881591796875,0.643707275390625,-0.1601409912109375,31779.676987375,-0.02047264876418298,-1.179820970877424,-0.6690318438802343,-0.02616994269192219,-0.5672334432601929,0.2236233055591583,-0.02297127246856689,-0.03851616382598877,0.09445282816886902,XArbitraryZVertical,-0.2781884299786168,-0.5226311327651234,0.1745913964100652,0.7867563648481671,-0.7252281308174133,0.6202268600463867,-0.2989358007907867,0,0,0,-1,-1,31774.100769625,unknown,2,2025-04-22T12:57:30.865+03:00,2025-04-21T17:08:51.449+03:00,7384,0.9981967,0,0,6152.583,5,20,2025-04-22T12:57:30.865+03:00,767008656.1149665,0,-22.1,100.4687,1,0.75,2025-04-22T12:56:38.708+03:00,71,1.183333333333333,2025-04-22T09:54:17.825+03:00,0.02225348692287972,0
2025-04-22T12:57:36.466+03:00,1745315852.947822,40.95220305975717,29.14025630257546,76.18102,-1,-1,-1,-1,30,23.91450547804756,-9999,31779.697141375,-0.8061370849609375,0.666961669921875,-0.1244049072265625,31779.687064375,-0.01882523163789216,-1.18401160408395,-0.670566795197865,0.1396938562393188,-0.4626966714859009,0.158023789525032,-0.04630434513092041,0.0009757876396179199,0.1223320960998535,XArbitraryZVertical,-0.2779901811146471,-0.5243607335047403,0.1762274229120403,0.7853095213411737,-0.7255919575691223,0.6214301586151123,-0.2955345511436462,0,0,0,-1,-1,31774.100769625,unknown,2,2025-04-22T12:57:30.865+03:00,2025-04-21T17:08:51.449+03:00,7384,0.9981967,0,0,6152.583,5,20,2025-04-22T12:57:30.865+03:00,767008656.1149665,0,-22.1,100.4687,1,0.75,2025-04-22T12:56:38.708+03:00,71,1.183333333333333,2025-04-22T09:54:17.825+03:00,0.02225348692287972,0
2025-04-22T12:57:36.476+03:00,1745315852.947822,40.95220305975717,29.14025630257546,76.18102,-1,-1,-1,-1,30,23.91450547804756,-9999,31779.707218375,-0.78656005859375,0.673980712890625,-0.13507080078125,31779.697141375,-0.01562236929678717,-1.186123128056671,-0.6709136405589251,0.2856414318084717,-0.3566469848155975,0.09697011113166809,-0.07624667882919312,0.04179596900939941,0.1599946022033691,XArbitraryZVertical,-0.2770980937246879,-0.5256007739464825,0.1778691752280936,0.7844252929631013,-0.7260146737098694,0.6217018365859985,-0.2939209342002869,0,0,0,-1,-1,31774.100769625,unknown,2,2025-04-22T12:57:30.865+03:00,2025-04-21T17:08:51.449+03:00,7384,0.9981967,0,0,6152.583,5,20,2025-04-22T12:57:30.865+03:00,767008656.1149665,0,-22.1,100.4687,1,0.75,2025-04-22T12:56:38.708+03:00,71,1.183333333333333,2025-04-22T09:54:17.825+03:00,0.02225348692287972,0
2025-04-22T12:57:36.486+03:00,1745315852.947822,40.95220305975717,29.14025630257546,76.18102,-1,-1,-1,-1,30,23.91450547804756,-9999,31779.717295375,-0.7567596435546875,0.6668548583984375,-0.1746368408203125,31779.707218375,-0.01163845126679364,-1.186972223484885,-0.6703960158841757,0.3117249608039856,-0.3062221705913544,0.04312844946980476,-0.0705416202545166,0.04850345849990845,0.1684248745441437,XArbitraryZVertical,-0.2757720407280802,-0.5265333305904575,0.1794114440603627,0.7839158252746027,-0.7265623211860657,0.6212963461875916,-0.2934248745441437,0,0,0,-1,-1,31774.100769625,unknown,2,2025-04-22T12:57:30.865+03:00,2025-04-21T17:08:51.449+03:00,7384,0.9981967,0,0,6152.583,5,20,2025-04-22T12:57:30.865+03:00,767008656.1149665,0,-22.1,100.4687,1,0.75,2025-04-22T12:56:38.708+03:00,71,1.183333333333333,2025-04-22T09:54:17.825+03:00,0.02225348692287972,0
