loggingTime(txt),locationTimestamp_since1970(s),locationLatitude(WGS84),locationLongitude(WGS84),locationAltitude(m),locationSpeed(m/s),locationSpeedAccuracy(m/s),locationCourse(°),locationCourseAccuracy(°),locationVerticalAccuracy(m),locationHorizontalAccuracy(m),locationFloor(Z),accelerometerTimestamp_sinceReboot(s),accelerometerAccelerationX(G),accelerometerAccelerationY(G),accelerometerAccelerationZ(G),motionTimestamp_sinceReboot(s),motionYaw(rad),motionRoll(rad),motionPitch(rad),motionRotationRateX(rad/s),motionRotationRateY(rad/s),motionRotationRateZ(rad/s),motionUserAccelerationX(G),motionUserAccelerationY(G),motionUserAccelerationZ(G),motionAttitudeReferenceFrame(txt),motionQuaternionX(R),motionQuaternionY(R),motionQuaternionZ(R),motionQuaternionW(R),motionGravityX(G),motionGravityY(G),motionGravityZ(G),motionMagneticFieldX(µT),motionMagneticFieldY(µT),motionMagneticFieldZ(µT),motionHeading(°),motionMagneticFieldCalibrationAccuracy(Z),activityTimestamp_sinceReboot(s),activity(txt),activityActivityConfidence(Z),activityActivityStartDate(txt),pedometerStartDate(txt),pedometerNumberofSteps(N),pedometerAverageActivePace(s/m),pedometerCurrentPace(s/m),pedometerCurrentCadence(steps/s),pedometerDistance(m),pedometerFloorAscended(N),pedometerFloorDescended(N),pedometerEndDate(txt),altimeterTimestamp_sinceReboot(s),altimeterReset(bool),altimeterRelativeAltitude(m),altimeterPressure(kPa),batteryState(N),batteryLevel(R),heartRateBPMTimestamp(txt),heartRateBPM(N),heartRateBPS(R),heartRateVariabilityTimestamp(txt),heartRateVariability(ms),label
2025-04-21T16:27:04.217+03:00,1745242023.231771,40.95225055938123,29.1403145136162,75.80261,-1,-1,-1,-1,30,32.72624310773018,-9999,20008.70292441667,-0.8348388671875,0.5579833984375,-0.032958984375,20008.69788541667,1.510985494851228,-1.525646949540668,-0.5904239679701128,0.002711951266974211,-0.01080801896750927,-0.01740716956555843,-0.006323456764221191,-0.003673851490020752,0.002565562725067139,XArbitraryZVertical,0.3001657380996465,-0.6254230576167179,0.6205423193166738,0.3656141532211361,-0.829858124256134,0.5567132830619812,-0.03749305754899979,0,0,0,-1,-1,19981.40744716667,unknown,2,2025-04-21T16:26:36.905+03:00,2025-04-20T21:57:49.637+03:00,6771,0.9848602,0,0,5553.922,5,6,2025-04-21T16:23:41.500+03:00,766934822.7975621,0,-38.88,100.199,1,0.35,2025-04-21T16:27:02.480+03:00,97,1.616666666666667,2025-04-21T12:30:07.995+03:00,0.02023345852159405,0
2025-04-21T16:27:04.219+03:00,1745242023.231771,40.95225055938123,29.1403145136162,75.80261,-1,-1,-1,-1,30,32.72624310773018,-9999,20008.71300041667,-0.82073974609375,0.56280517578125,-0.0345458984375,20008.70796241667,1.51100392034695,-1.52583170317838,-0.5901889182141776,0.009009861387312412,-0.01347058173269033,-0.02269324474036694,-0.002279579639434814,0.002899587154388428,0.003730297088623047,XArbitraryZVertical,0.3003041774128533,-0.6254155350411343,0.6204783406206351,0.3656219434582452,-0.8299957513809204,0.556518018245697,-0.03734561800956726,0,0,0,-1,-1,19981.40744716667,unknown,2,2025-04-21T16:26:36.905+03:00,2025-04-20T21:57:49.637+03:00,6771,0.9848602,0,0,5553.922,5,6,2025-04-21T16:23:41.500+03:00,766934822.7975621,0,-38.88,100.199,1,0.35,2025-04-21T16:27:02.480+03:00,97,1.616666666666667,2025-04-21T12:30:07.995+03:00,0.02023345852159405,0
2025-04-21T16:27:04.225+03:00,1745242023.231771,40.95225055938123,29.1403145136162,75.80261,-1,-1,-1,-1,30,32.72624310773018,-9999,20008.72307641667,-0.82568359375,0.559173583984375,-0.039215087890625,20008.71803841667,1.511092229902854,-1.525867521580874,-0.5899366475814394,0.002686451654881239,-0.01186895649880171,-0.02211853489279747,0.009565353393554688,0.006923913955688477,0.001952171325683594,XArbitraryZVertical,0.3004238102115194,-0.6253674432929164,0.6204465643796944,0.3656597382921916,-0.8301372528076172,0.556308388710022,-0.03732218965888023,0,0,0,-1,-1,19981.40744716667,unknown,2,2025-04-21T16:26:36.905+03:00,2025-04-20T21:57:49.637+03:00,6771,0.9848602,0,0,5553.922,5,6,2025-04-21T16:23:41.500+03:00,766934822.7975621,0,-38.88,100.199,1,0.35,2025-04-21T16:27:02.480+03:00,97,1.616666666666667,2025-04-21T12:30:07.995+03:00,0.02023345852159405,0
2025-04-21T16:27:04.235+03:00,1745242023.231771,40.95225055938123,29.1403145136162,75.80261,-1,-1,-1,-1,30,32.72624310773018,-9999,20008.73315341667,-0.827789306640625,0.552215576171875,-0.041351318359375,20008.72811541667,1.511091871018519,-1.525934035583602,-0.5897382598655334,-0.004124316852539778,-0.01149398274719715,-0.02163024432957172,0.003635644912719727,0.001381993293762207,-0.001867055892944336,XArbitraryZVertical,0.3005079086455172,-0.6253471306998791,0.6204030617523625,0.3656992535513668,-0.8302500247955322,0.5561435222625732,-0.03727192431688309,0,0,0,-1,-1,19981.40744716667,unknown,2,2025-04-21T16:26:36.905+03:00,2025-04-20T21:57:49.637+03:00,6771,0.9848602,0,0,5553.922,5,6,2025-04-21T16:23:41.500+03:00,766934822.7975621,0,-38.88,100.199,1,0.35,2025-04-21T16:27:02.480+03:00,97,1.616666666666667,2025-04-21T12:30:07.995+03:00,0.02023345852159405,0
2025-04-21T16:27:04.245+03:00,1745242023.231771,40.95225055938123,29.1403145136162,75.80261,-1,-1,-1,-1,30,32.72624310773018,-9999,20008.74322941667,-0.8280487060546875,0.5522003173828125,-0.0417327880859375,20008.73819141667,1.511028535471625,-1.526044581671167,-0.5895860577810266,-0.007358992006629705,-0.01170703582465649,-0.01831034757196903,0.002854585647583008,-0.004396677017211914,-0.004167616367340088,XArbitraryZVertical,0.300571173334846,-0.6253519036937882,0.6203492012880963,0.365730505179868,-0.830338716506958,0.5560170412063599,-0.03718393296003342,0,0,0,-1,-1,19981.40744716667,unknown,2,2025-04-21T16:26:36.905+03:00,2025-04-20T21:57:49.637+03:00,6771,0.9848602,0,0,5553.922,5,6,2025-04-21T16:23:41.500+03:00,766934822.7975621,0,-38.88,100.199,1,0.35,2025-04-21T16:27:02.480+03:00,97,1.616666666666667,2025-04-21T12:30:07.995+03:00,0.02023345852159405,0
2025-04-21T16:27:04.255+03:00,1745242023.231771,40.95225055938123,29.1403145136162,75.80261,-1,-1,-1,-1,30,32.72624310773018,-9999,20008.75330541667,-0.8301239013671875,0.554595947265625,-0.040863037109375,20008.74826741667,1.510958350676999,-1.526148142631166,-0.5893948205162743,-0.001957036089152098,-0.01203593611717224,-0.01640738546848297,0.002506852149963379,-0.003734171390533447,-0.00467604398727417,XArbitraryZVertical,0.3006426740078231,-0.6253500147132234,0.6202885233123843,0.3657777830021398,-0.8304486870765686,0.5558580756187439,-0.03710268437862396,0,0,0,-1,-1,19981.40744716667,unknown,2,2025-04-21T16:26:36.905+03:00,2025-04-20T21:57:49.637+03:00,6771,0.9848602,0,0,5553.922,5,6,2025-04-21T16:23:41.500+03:00,766934822.7975621,0,-38.88,100.199,1,0.35,2025-04-21T16:27:02.480+03:00,97,1.616666666666667,2025-04-21T12:30:07.995+03:00,0.02023345852159405,0
2025-04-21T16:27:04.265+03:00,1745242023.231771,40.95225055938123,29.1403145136162,75.80261,-1,-1,-1,-1,30,32.72624310773018,-9999,20008.76338241667,-0.8291473388671875,0.5573883056640625,-0.0371551513671875,20008.75834441667,1.510959662699753,-1.52621335437949,-0.5892501220109321,0.002130383625626564,-0.008835615590214729,-0.01551868952810764,0.0006364583969116211,-0.0006537437438964844,-0.003307577222585678,XArbitraryZVertical,0.3007097036061847,-0.6253380037896136,0.6202545323215796,0.365800799090458,-0.8305314183235168,0.5557377338409424,-0.03705210983753204,0,0,0,-1,-1,19981.40744716667,unknown,2,2025-04-21T16:26:36.905+03:00,2025-04-20T21:57:49.637+03:00,6771,0.9848602,0,0,5553.922,5,6,2025-04-21T16:23:41.500+03:00,766934822.7975621,0,-38.88,100.199,1,0.35,2025-04-21T16:27:02.480+03:00,97,1.616666666666667,2025-04-21T12:30:07.995+03:00,0.02023345852159405,0
2025-04-21T16:27:04.275+03:00,1745242023.231771,40.95225055938123,29.1403145136162,75.80261,-1,-1,-1,-1,30,32.72624310773018,-9999,20008.77345841667,-0.8305511474609375,0.55401611328125,-0.03741455078125,20008.76842041667,1.510992448553244,-1.526257712330038,-0.5891444140288227,0.001811403315514326,-0.003446643706411123,-0.01031310763210058,0.001169919967651367,0.0009448528289794922,0.0001066923141479492,XArbitraryZVertical,0.3007675420851439,-0.6253238679625821,0.6202360361825641,0.3658089478165122,-0.8305918574333191,0.5556498765945435,-0.03701789304614067,0,0,0,-1,-1,19981.40744716667,unknown,2,2025-04-21T16:26:36.905+03:00,2025-04-20T21:57:49.637+03:00,6771,0.9848602,0,0,5553.922,5,6,2025-04-21T16:23:41.500+03:00,766934822.7975621,0,-38.88,100.199,1,0.35,2025-04-21T16:27:02.480+03:00,97,1.616666666666667,2025-04-21T12:30:07.995+03:00,0.02023345852159405,0
2025-04-21T16:27:04.285+03:00,1745242023.231771,40.95225055938123,29.1403145136162,75.80261,-1,-1,-1,-1,30,32.72624310773018,-9999,20008.78353441667,-0.831298828125,0.5513458251953125,-0.036651611328125,20008.77849641667,1.511045807615949,-1.526257379117395,-0.5890201363296829,0.007755578961223364,-0.0001480523496866226,-0.009441455826163292,-0.0001649856567382812,-0.002552926540374756,-0.0008207559585571289,XArbitraryZVertical,0.3008239603994448,-0.6252953894999452,0.620224863397104,0.3658301476541401,-0.8306608200073242,0.5555465221405029,-0.03702124208211899,0,0,0,-1,-1,19981.40744716667,unknown,2,2025-04-21T16:26:36.905+03:00,2025-04-20T21:57:49.637+03:00,6771,0.9848602,0,0,5553.922,5,6,2025-04-21T16:23:41.500+03:00,766934822.7975621,0,-38.88,100.199,1,0.35,2025-04-21T16:27:02.480+03:00,97,1.616666666666667,2025-04-21T12:30:07.995+03:00,0.02023345852159405,0
2025-04-21T16:27:04.296+03:00,1745242023.231771,40.95225055938123,29.1403145136162,75.80261,-1,-1,-1,-1,30,32.72624310773018,-9999,20008.79361141667,-0.8295135498046875,0.55596923828125,-0.0369415283203125,20008.78857341667,1.511116757348345,-1.526222116779596,-0.5889360906256567,0.004638814833015203,-0.0004698284901678562,-0.008994076400995255,-0.0002417564392089844,-0.003627479076385498,0.001072172075510025,XArbitraryZVertical,0.3008621926151048,-0.6252644544988964,0.6202289366329966,0.3658444933125476,-0.830706000328064,0.5554766654968262,-0.03705260530114174,0,0,0,-1,-1,19981.40744716667,unknown,2,2025-04-21T16:26:36.905+03:00,2025-04-20T21:57:49.637+03:00,6771,0.9848602,0,0,5553.922,5,6,2025-04-21T16:23:41.500+03:00,766934822.7975621,0,-38.88,100.199,1,0.35,2025-04-21T16:27:02.480+03:00,97,1.616666666666667,2025-04-21T12:30:07.995+03:00,0.02023345852159405,0
2025-04-21T16:27:04.306+03:00,1745242023.231771,40.95225055938123,29.1403145136162,75.80261,-1,-1,-1,-1,30,32.72624310773018,-9999,20008.80368741667,-0.828948974609375,0.5534515380859375,-0.0401153564453125,20008.79864941667,1.511169524016001,-1.5262013719997,-0.588907066674214,0.002775401109829545,-0.0004898020997643471,-0.006272060330957174,0.001421570777893066,0.0004402995109558105,-0.0007866621017456055,XArbitraryZVertical,0.300881511406809,-0.6252479782230452,0.6202368289849022,0.3658435468651266,-0.8307214379310608,0.5554525256156921,-0.03707056492567062,0,0,0,-1,-1,19981.40744716667,unknown,2,2025-04-21T16:26:36.905+03:00,2025-04-20T21:57:49.637+03:00,6771,0.9848602,0,0,5553.922,5,6,2025-04-21T16:23:41.500+03:00,766934822.7975621,0,-38.88,100.199,1,0.35,2025-04-21T16:27:02.480+03:00,97,1.616666666666667,2025-04-21T12:30:07.995+03:00,0.02023345852159405,0
2025-04-21T16:27:04.316+03:00,1745242023.231771,40.95225055938123,29.1403145136162,75.80261,-1,-1,-1,-1,30,32.72624310773018,-9999,20008.81376341667,-0.8278350830078125,0.5489044189453125,-0.040313720703125,20008.80872541667,1.511194367004682,-1.526186808137125,-0.5888679257290425,0.0004754285619128495,-0.001311453990638256,-0.005286457948386669,0.001885294914245605,-0.002182126045227051,-0.002665642648935318,XArbitraryZVertical,0.3008972556561973,-0.6252351736829524,0.6202369775708139,0.3658524041299795,-0.8307427763938904,0.5554199814796448,-0.03708363696932793,0,0,0,-1,-1,19981.40744716667,unknown,2,2025-04-21T16:26:36.905+03:00,2025-04-20T21:57:49.637+03:00,6771,0.9848602,0,0,5553.922,5,6,2025-04-21T16:23:41.500+03:00,766934822.7975621,0,-38.88,100.199,1,0.35,2025-04-21T16:27:02.480+03:00,97,1.616666666666667,2025-04-21T12:30:07.995+03:00,0.02023345852159405,0
2025-04-21T16:27:04.326+03:00,1745242023.231771,40.95225055938123,29.1403145136162,75.80261,-1,-1,-1,-1,30,32.72624310773018,-9999,20008.82384041667,-0.8290252685546875,0.5507354736328125,-0.0401611328125,20008.81880241667,1.511145949069719,-1.526217988845958,-0.5888132350999169,-0.00776332663372159,-0.004827359225600958,-0.00703828502446413,0.003198444843292236,-0.006378650665283203,-0.002736032009124756,XArbitraryZVertical,0.300909383966306,-0.6252391565777845,0.6202141682383379,0.3658740446570565,-0.8307740688323975,0.5553745031356812,-0.03705907985568047,0,0,0,-1,-1,19981.40744716667,unknown,2,2025-04-21T16:26:36.905+03:00,2025-04-20T21:57:49.637+03:00,6771,0.9848602,0,0,5553.922,5,6,2025-04-21T16:23:41.500+03:00,766934822.7975621,0,-38.88,100.199,1,0.35,2025-04-21T16:27:02.480+03:00,97,1.616666666666667,2025-04-21T12:30:07.995+03:00,0.02023345852159405,0
2025-04-21T16:27:04.336+03:00,1745242023.231771,40.95225055938123,29.1403145136162,75.80261,-1,-1,-1,-1,30,32.72624310773018,-9999,20008.83391641667,-0.8301544189453125,0.553863525390625,-0.0384521484375,20008.82887841667,1.51103828695747,-1.52631364734197,-0.5887466043967359,-0.007701341528445482,-0.003393047023564577,-0.005470116157084703,0.001819908618927002,-0.004965245723724365,-0.002600252628326416,XArbitraryZVertical,0.3009267327441362,-0.6252619241935616,0.620168833013005,0.3658977468219234,-0.8308145999908447,0.55531907081604,-0.0369812548160553,0,0,0,-1,-1,19981.40744716667,unknown,2,2025-04-21T16:26:36.905+03:00,2025-04-20T21:57:49.637+03:00,6771,0.9848602,0,0,5553.922,5,6,2025-04-21T16:23:41.500+03:00,766934822.7975621,0,-38.88,100.199,1,0.35,2025-04-21T16:27:02.480+03:00,97,1.616666666666667,2025-04-21T12:30:07.995+03:00,0.02023345852159405,0
2025-04-21T16:27:04.346+03:00,1745242023.231771,40.95225055938123,29.1403145136162,75.80261,-1,-1,-1,-1,30,32.72624310773018,-9999,20008.84399341667,-0.8332977294921875,0.555419921875,-0.040985107421875,20008.83895441667,1.510993416921707,-1.526349215107057,-0.5887051235182701,-0.002451185835525393,0.001426741946488619,-0.00293132453225553,0.0005319714546203613,-0.0008872151374816895,-0.001575883477926254,XArbitraryZVertical,0.3009370441132065,-0.6252683682792151,0.6201482598119389,0.3659130606749067,-0.8308389186859131,0.5552846193313599,-0.03695272654294968,0,0,0,-1,-1,19981.40744716667,unknown,2,2025-04-21T16:26:36.905+03:00,2025-04-20T21:57:49.637+03:00,6771,0.9848602,0,0,5553.922,5,6,2025-04-21T16:23:41.500+03:00,766934822.7975621,0,-38.88,100.199,1,0.35,2025-04-21T16:27:02.480+03:00,97,1.616666666666667,2025-04-21T12:30:07.995+03:00,0.02023345852159405,0
2025-04-21T16:27:04.356+03:00,1745242023.231771,40.95225055938123,29.1403145136162,75.80261,-1,-1,-1,-1,30,32.72624310773018,-9999,20008.85406941667,-0.8353118896484375,0.5568695068359375,-0.04132080078125,20008.84903141667,1.510999716756666,-1.526295186261488,-0.588683853009803,0.003859707154333591,0.005801516585052013,-0.001748881069943309,-0.002998232841491699,-0.0003354549407958984,-0.004841621965169907,XArbitraryZVertical,0.3009290650435183,-0.6252540496362295,0.6201539546646266,0.3659344799306142,-0.830848753452301,0.5552669167518616,-0.03699814155697823,0,0,0,-1,-1,19981.40744716667,unknown,2,2025-04-21T16:26:36.905+03:00,2025-04-20T21:57:49.637+03:00,6771,0.9848602,0,0,5553.922,5,6,2025-04-21T16:23:41.500+03:00,766934822.7975621,0,-38.88,100.199,1,0.35,2025-04-21T16:27:02.480+03:00,97,1.616666666666667,2025-04-21T12:30:07.995+03:00,0.02023345852159405,0
2025-04-21T16:27:04.366+03:00,1745242023.231771,40.95225055938123,29.1403145136162,75.80261,-1,-1,-1,-1,30,32.72624310773018,-9999,20008.86414541667,-0.8316650390625,0.5554962158203125,-0.0375518798828125,20008.85910741667,1.511058120512266,-1.526197902963311,-0.5886708347695905,0.003459966508671641,0.004185243975371122,-0.0009376821690239012,-0.004367947578430176,0.001140236854553223,-0.0041654072701931,XArbitraryZVertical,0.3009213668833295,-0.6252253092819284,0.6201770644157243,0.3659506165613819,-0.830852210521698,0.5552560687065125,-0.03707928583025932,0,0,0,-1,-1,19981.40744716667,unknown,2,2025-04-21T16:26:36.905+03:00,2025-04-20T21:57:49.637+03:00,6771,0.9848602,0,0,5553.922,5,6,2025-04-21T16:23:41.500+03:00,766934822.7975621,0,-38.88,100.199,1,0.35,2025-04-21T16:27:02.480+03:00,97,1.616666666666667,2025-04-21T12:30:07.995+03:00,0.02023345852159405,0
2025-04-21T16:27:04.376+03:00,1745242023.231771,40.95225055938123,29.1403145136162,75.80261,-1,-1,-1,-1,30,32.72624310773018,-9999,20008.87422241667,-0.829833984375,0.55072021484375,-0.0391693115234375,20008.86918341667,1.511090304845445,-1.526146383188163,-0.5886482667108465,0.00385910808108747,0.003723917528986931,-0.002489805687218904,-0.0008172988891601562,-0.0001685023307800293,-0.0003378354012966156,XArbitraryZVertical,0.300922685620886,-0.6252073348001514,0.6201868939839044,0.3659635777972117,-0.830862820148468,0.5552372932434082,-0.03712265193462372,0,0,0,-1,-1,19981.40744716667,unknown,2,2025-04-21T16:26:36.905+03:00,2025-04-20T21:57:49.637+03:00,6771,0.9848602,0,0,5553.922,5,6,2025-04-21T16:23:41.500+03:00,766934822.7975621,0,-38.88,100.199,1,0.35,2025-04-21T16:27:02.480+03:00,97,1.616666666666667,2025-04-21T12:30:07.995+03:00,0.02023345852159405,0
2025-04-21T16:27:04.386+03:00,1745242023.231771,40.95225055938123,29.1403145136162,75.80261,-1,-1,-1,-1,30,32.72624310773018,-9999,20008.88429841667,-0.8313751220703125,0.552215576171875,-0.040863037109375,20008.87926041667,1.51112758427134,-1.526071879412304,-0.5886442847742331,0.001265188911929727,0.002871173433959484,-0.0001265165628865361,0.001196324825286865,-0.003827214241027832,-0.002320531755685806,XArbitraryZVertical,0.3009124226817073,-0.6251874770742311,0.6202042898257613,0.3659767773108245,-0.8308625221252441,0.5552340149879456,-0.03718466311693192,0,0,0,-1,-1,19981.40744716667,unknown,2,2025-04-21T16:26:36.905+03:00,2025-04-20T21:57:49.637+03:00,6771,0.9848602,0,0,5553.922,5,6,2025-04-21T16:23:41.500+03:00,766934822.7975621,0,-38.88,100.199,1,0.35,2025-04-21T16:27:02.480+03:00,97,1.616666666666667,2025-04-21T12:30:07.995+03:00,0.02023345852159405,0
2025-04-21T16:27:04.396+03:00,1745242023.231771,40.95225055938123,29.1403145136162,75.80261,-1,-1,-1,-1,30,32.72624310773018,-9999,20008.89437441667,-0.8285675048828125,0.551910400390625,-0.04193115234375,20008.88933641667,1.511117225665668,-1.526034492955697,-0.5886393916952114,-0.004868736490607262,0.004122992511838675,-0.002501323819160461,-0.0004044771194458008,-0.003045022487640381,-0.003967761993408203,XArbitraryZVertical,0.3008991816478703,-0.6251813811603432,0.6202071837577728,0.3659930924344976,-0.8308637738227844,0.5552299022674561,-0.03721584752202034,0,0,0,-1,-1,19981.40744716667,unknown,2,2025-04-21T16:26:36.905+03:00,2025-04-20T21:57:49.637+03:00,6771,0.9848602,0,0,5553.922,5,6,2025-04-21T16:23:41.500+03:00,766934822.7975621,0,-38.88,100.199,1,0.35,2025-04-21T16:27:02.480+03:00,97,1.616666666666667,2025-04-21T12:30:07.995+03:00,0.02023345852159405,0
2025-04-21T16:27:04.406+03:00,1745242023.231771,40.95225055938123,29.1403145136162,75.80261,-1,-1,-1,-1,30,32.72624310773018,-9999,20008.90445141667,-0.8272705078125,0.550537109375,-0.0387115478515625,20008.89941241667,1.511019035276204,-1.526050945174964,-0.5886257745011817,-0.01325769443064928,0.001936004729941487,0.0007309547509066761,0.003158926963806152,-0.003766119480133057,-0.004881381988525391,XArbitraryZVertical,0.300877977142443,-0.6251969185904708,0.620184430571772,0.3660224552392091,-0.8308718800544739,0.5552185773849487,-0.03720251098275185,0,0,0,-1,-1,19981.40744716667,unknown,2,2025-04-21T16:26:36.905+03:00,2025-04-20T21:57:49.637+03:00,6771,0.9848602,0,0,5553.922,5,6,2025-04-21T16:23:41.500+03:00,766934822.7975621,0,-38.88,100.199,1,0.35,2025-04-21T16:27:02.480+03:00,97,1.616666666666667,2025-04-21T12:30:07.995+03:00,0.02023345852159405,0
2025-04-21T16:27:04.417+03:00,1745242023.231771,40.95225055938123,29.1403145136162,75.80261,-1,-1,-1,-1,30,32.72624310773018,-9999,20008.91452741667,-0.827484130859375,0.5500946044921875,-0.0387115478515625,20008.90948941667,1.510887113375358,-1.526096030750488,-0.588636862182208,-0.01045478414744139,0.0003782552666962147,0.0009230684372596443,0.003963172435760498,-0.004797637462615967,-0.001333355903625488,XArbitraryZVertical,0.3008471619803491,-0.6252268362990974,0.6201553776557368,0.3660459158420537,-0.8308674097061157,0.5552278161048889,-0.03716477751731873,0,0,0,-1,-1,19981.40744716667,unknown,2,2025-04-21T16:26:36.905+03:00,2025-04-20T21:57:49.637+03:00,6771,0.9848602,0,0,5553.922,5,6,2025-04-21T16:23:41.500+03:00,766934822.7975621,0,-38.88,100.199,1,0.35,2025-04-21T16:27:02.480+03:00,97,1.616666666666667,2025-04-21T12:30:07.995+03:00,0.02023345852159405,0
2025-04-21T16:27:04.427+03:00,1745242023.231771,40.95225055938123,29.1403145136162,75.80261,-1,-1,-1,-1,30,32.72624310773018,-9999,20008.92460341667,-0.8271331787109375,0.556488037109375,-0.039276123046875,20008.91956541667,1.510763722309192,-1.526173707586642,-0.588632514756296,-0.01038394402712584,-0.0004300139844417572,-0.001329433172941208,0.003571748733520508,-0.004229485988616943,-0.00126039981842041,XArbitraryZVertical,0.3008340632487235,-0.6252589013503183,0.6201203764143495,0.3660612169332261,-0.8308727145195007,0.5552241802215576,-0.03710034489631653,0,0,0,-1,-1,19981.40744716667,unknown,2,2025-04-21T16:26:36.905+03:00,2025-04-20T21:57:49.637+03:00,6771,0.9848602,0,0,5553.922,5,6,2025-04-21T16:23:41.500+03:00,766934822.7975621,0,-38.88,100.199,1,0.35,2025-04-21T16:27:02.480+03:00,97,1.616666666666667,2025-04-21T12:30:07.995+03:00,0.02023345852159405,0
2025-04-21T16:27:04.437+03:00,1745242023.231771,40.95225055938123,29.1403145136162,75.80261,-1,-1,-1,-1,30,32.72624310773018,-9999,20008.93468041667,-0.828033447265625,0.5577239990234375,-0.04071044921875,20008.92964241667,1.510703093241545,-1.526167923024235,-0.5886157110490804,-0.004339366685599089,0.005106165073812008,0.001269146334379911,0.004420101642608643,0.001964271068572998,-0.002323325723409653,XArbitraryZVertical,0.3008187048387647,-0.6252642027215207,0.6201073090600997,0.3660869032501043,-0.8308818340301514,0.5552102327346802,-0.03710556775331497,0,0,0,-1,-1,19981.40744716667,unknown,2,2025-04-21T16:26:36.905+03:00,2025-04-20T21:57:49.637+03:00,6771,0.9848602,0,0,5553.922,5,6,2025-04-21T16:23:41.500+03:00,766934822.7975621,0,-38.88,100.199,1,0.35,2025-04-21T16:27:02.480+03:00,97,1.616666666666667,2025-04-21T12:30:07.995+03:00,0.02023345852159405,0
2025-04-21T16:27:04.447+03:00,1745242023.231771,40.95225055938123,29.1403145136162,75.80261,-1,-1,-1,-1,30,32.72624310773018,-9999,20008.94475641667,-0.8317413330078125,0.555572509765625,-0.0407562255859375,20008.93971841667,1.510688306448368,-1.526090575406454,-0.5886094226890374,-0.0002125324972439557,0.01188630610704422,-0.001401471672579646,0.001689374446868896,0.002671420574188232,-0.004440899938344955,XArbitraryZVertical,0.3007921218863366,-0.6252512334353235,0.6201151707555554,0.3661175553426353,-0.8308824300765991,0.5552049875259399,-0.03716998919844627,0,0,0,-1,-1,19981.40744716667,unknown,2,2025-04-21T16:26:36.905+03:00,2025-04-20T21:57:49.637+03:00,6771,0.9848602,0,0,5553.922,5,6,2025-04-21T16:23:41.500+03:00,766934822.7975621,0,-38.88,100.199,1,0.35,2025-04-21T16:27:02.480+03:00,97,1.616666666666667,2025-04-21T12:30:07.995+03:00,0.02023345852159405,0
2025-04-21T16:27:04.457+03:00,1745242023.231771,40.95225055938123,29.1403145136162,75.80261,-1,-1,-1,-1,30,32.72624310773018,-9999,20008.95483241667,-0.828643798828125,0.5572052001953125,-0.040313720703125,20008.94979441667,1.510680997572649,-1.526004366502529,-0.5885815795846758,0.0003641750081442297,0.006165703292936087,-0.002658816520124674,-0.0009534955024719238,0.0003752708435058594,-0.003865063190460205,XArbitraryZVertical,0.3007720370161765,-0.6252319784878363,0.6201220924823324,0.3661551907378032,-0.8308946490287781,0.5551818609237671,-0.03724230825901031,0,0,0,-1,-1,19981.40744716667,unknown,2,2025-04-21T16:26:36.905+03:00,2025-04-20T21:57:49.637+03:00,6771,0.9848602,0,0,5553.922,5,6,2025-04-21T16:23:41.500+03:00,766934822.7975621,0,-38.88,100.199,1,0.35,2025-04-21T16:27:02.480+03:00,97,1.616666666666667,2025-04-21T12:30:07.995+03:00,0.02023345852159405,0
2025-04-21T16:27:04.467+03:00,1745242023.231771,40.95225055938123,29.1403145136162,75.80261,-1,-1,-1,-1,30,32.72624310773018,-9999,20008.96490941667,-0.8261566162109375,0.55865478515625,-0.0416107177734375,20008.95987141667,1.510703609925778,-1.525921239060029,-0.588536791252919,0.00194529362488538,0.009128203615546227,-0.002217797096818686,0.003356039524078369,0.002197742462158203,-0.003565963357686996,XArbitraryZVertical,0.3007677018510843,-0.6252060004977693,0.6201311626110372,0.3661876898127047,-0.8309163451194763,0.5551446080207825,-0.03731249272823334,0,0,0,-1,-1,19981.40744716667,unknown,2,2025-04-21T16:26:36.905+03:00,2025-04-20T21:57:49.637+03:00,6771,0.9848602,0,0,5553.922,5,6,2025-04-21T16:23:41.500+03:00,766934822.7975621,0,-38.88,100.199,1,0.35,2025-04-21T16:27:02.480+03:00,97,1.616666666666667,2025-04-21T12:30:07.995+03:00,0.02023345852159405,0
2025-04-21T16:27:04.477+03:00,1745242023.231771,40.95225055938123,29.1403145136162,75.80261,-1,-1,-1,-1,30,32.72624310773018,-9999,20008.97498541667,-0.82720947265625,0.556396484375,-0.041412353515625,20008.96994741667,1.510752325659399,-1.525799508459597,-0.5884925046217663,0.006007746327668428,0.007306402083486319,-0.003355199936777353,0.005222320556640625,0.004096269607543945,-0.004623416811227798,XArbitraryZVertical,0.3007593310168582,-0.6251691357684419,0.6201509295318387,0.3662241976017818,-0.8309364914894104,0.5551077723503113,-0.03741475194692612,0,0,0,-1,-1,19981.40744716667,unknown,2,2025-04-21T16:26:36.905+03:00,2025-04-20T21:57:49.637+03:00,6771,0.9848602,0,0,5553.922,5,6,2025-04-21T16:23:41.500+03:00,766934822.7975621,0,-38.88,100.199,1,0.35,2025-04-21T16:27:02.480+03:00,97,1.616666666666667,2025-04-21T12:30:07.995+03:00,0.02023345852159405,0
2025-04-21T16:27:04.487+03:00,1745242023.231771,40.95225055938123,29.1403145136162,75.80261,-1,-1,-1,-1,30,32.72624310773018,-9999,20008.98506141667,-0.82611083984375,0.55224609375,-0.040802001953125,20008.98002341667,1.510785295036934,-1.525715225038063,-0.588462634064321,0.000229751953156665,0.0044443029910326,-0.0005682018818333745,0.003465712070465088,0.001008272171020508,-0.003347158432006836,XArbitraryZVertical,0.3007531019451257,-0.6251438285141612,0.6201645864583597,0.3662492927032648,-0.8309498429298401,0.5550829172134399,-0.03748553246259689,0,0,0,-1,-1,19981.40744716667,unknown,2,2025-04-21T16:26:36.905+03:00,2025-04-20T21:57:49.637+03:00,6771,0.9848602,0,0,5553.922,5,6,2025-04-21T16:23:41.500+03:00,766934822.7975621,0,-38.88,100.199,1,0.35,2025-04-21T16:27:02.480+03:00,97,1.616666666666667,2025-04-21T12:30:07.995+03:00,0.02023345852159405,0
2025-04-21T16:27:04.497+03:00,1745242023.231771,40.95225055938123,29.1403145136162,75.80261,-1,-1,-1,-1,30,32.72624310773018,-9999,20008.99513841667,-0.8269195556640625,0.5494537353515625,-0.0410919189453125,20008.99010041667,1.510767996280889,-1.525683775469164,-0.5884459224090262,-0.005282259080559015,0.002348594833165407,-0.001029760926030576,0.004786133766174316,-0.003967463970184326,-0.003168046474456787,XArbitraryZVertical,0.3007432844087897,-0.6251379326793673,0.6201633320237846,0.366269593930635,-0.8309579491615295,0.5550690293312073,-0.03751208260655403,0,0,0,-1,-1,19981.40744716667,unknown,2,2025-04-21T16:26:36.905+03:00,2025-04-20T21:57:49.637+03:00,6771,0.9848602,0,0,5553.922,5,6,2025-04-21T16:23:41.500+03:00,766934822.7975621,0,-38.88,100.199,1,0.35,2025-04-21T16:27:02.480+03:00,97,1.616666666666667,2025-04-21T12:30:07.995+03:00,0.02023345852159405,0
2025-04-21T16:27:04.509+03:00,1745242023.231771,40.95225055938123,29.1403145136162,75.80261,-1,-1,-1,-1,30,32.72624310773018,-9999,20009.00521441667,-0.8271636962890625,0.5509490966796875,-0.0401458740234375,20009.00017641667,1.510693962415772,-1.525717170646909,-0.5884457536215162,-0.007584827952086926,-0.002565470524132252,0.0005494935903698206,0.00382620096206665,-0.005096495151519775,-0.003027975559234619,XArbitraryZVertical,0.3007305360236175,-0.6251551603099574,0.6201447303638208,0.366282211758129,-0.8309593200683594,0.5550688505172729,-0.03748434036970139,0,0,0,-1,-1,19981.40744716667,unknown,2,2025-04-21T16:26:36.905+03:00,2025-04-20T21:57:49.637+03:00,6771,0.9848602,0,0,5553.922,5,6,2025-04-21T16:23:41.500+03:00,766934822.7975621,0,-38.88,100.199,1,0.35,2025-04-21T16:27:02.480+03:00,97,1.616666666666667,2025-04-21T12:30:07.995+03:00,0.02023345852159405,0
2025-04-21T16:27:04.517+03:00,1745242023.231771,40.95225055938123,29.1403145136162,75.80261,-1,-1,-1,-1,30,32.72624310773018,-9999,20009.01529141667,-0.8262939453125,0.5516357421875,-0.040985107421875,20009.01025241667,1.510571956416967,-1.525808114510054,-0.58847321583334,-0.01408627070486546,-0.003364818170666695,0.0008028267184272408,0.004088997840881348,-0.00440216064453125,-0.003043174743652344,XArbitraryZVertical,0.3007118062974331,-0.6251946643005167,0.6201133448507256,0.3662832593131498,-0.8309474587440491,0.5550916790962219,-0.03740808367729187,0,0,0,-1,-1,19981.40744716667,unknown,2,2025-04-21T16:26:36.905+03:00,2025-04-20T21:57:49.637+03:00,6771,0.9848602,0,0,5553.922,5,6,2025-04-21T16:23:41.500+03:00,766934822.7975621,0,-38.88,100.199,1,0.35,2025-04-21T16:27:02.480+03:00,97,1.616666666666667,2025-04-21T12:30:07.995+03:00,0.02023345852159405,0
2025-04-21T16:27:04.528+03:00,1745242023.231771,40.95225055938123,29.1403145136162,75.80261,-1,-1,-1,-1,30,32.72624310773018,-9999,20009.02536741667,-0.8275146484375,0.5521697998046875,-0.039886474609375,20009.02032941667,1.510411148648221,-1.525909676012399,-0.588498225510932,-0.01392115466296673,-0.0004601082764565945,0.0002001534448936582,0.004689276218414307,-0.004056751728057861,-0.003143429756164551,XArbitraryZVertical,0.3006850024658048,-0.6252415495422519,0.6200728513787986,0.3662938100730888,-0.8309374451637268,0.5551124811172485,-0.03732306882739067,0,0,0,-1,-1,19981.40744716667,unknown,2,2025-04-21T16:26:36.905+03:00,2025-04-20T21:57:49.637+03:00,6771,0.9848602,0,0,5553.922,5,6,2025-04-21T16:23:41.500+03:00,766934822.7975621,0,-38.88,100.199,1,0.35,2025-04-21T16:27:02.480+03:00,97,1.616666666666667,2025-04-21T12:30:07.995+03:00,0.02023345852159405,0
2025-04-21T16:27:04.545+03:00,1745242023.231771,40.95225055938123,29.1403145136162,75.80261,-1,-1,-1,-1,30,32.72624310773018,-9999,20009.03544341667,-0.827117919921875,0.5567169189453125,-0.039215087890625,20009.03040541667,1.510307588729749,-1.525986682968039,-0.5885031258814072,-0.008859682828187943,-0.0039077028632164,0.0001320430892519653,0.003132998943328857,-0.003175795078277588,-0.002749800682067871,XArbitraryZVertical,0.3006749523267164,-0.6252720171828218,0.6200431261714903,0.3663002925552348,-0.8309375047683716,0.555116593837738,-0.03725895658135414,0,0,0,-1,-1,19981.40744716667,unknown,2,2025-04-21T16:26:36.905+03:00,2025-04-20T21:57:49.637+03:00,6771,0.9848602,0,0,5553.922,5,6,2025-04-21T16:23:41.500+03:00,766934822.7975621,0,-38.88,100.199,1,0.35,2025-04-21T16:27:02.480+03:00,97,1.616666666666667,2025-04-21T12:30:07.995+03:00,0.02023345852159405,0
2025-04-21T16:27:04.548+03:00,1745242023.231771,40.95225055938123,29.1403145136162,75.80261,-1,-1,-1,-1,30,32.72624310773018,-9999,20009.04552041667,-0.8295135498046875,0.5587310791015625,-0.0408782958984375,20009.04048141667,1.510227861600695,-1.526052313372608,-0.5885142806231421,-0.005746980663388968,-0.0005707624368369579,0.0005493604694493115,0.003892242908477783,0.002369165420532227,-0.001980606466531754,XArbitraryZVertical,0.3006667399879381,-0.6252978777601442,0.620020566017738,0.3663012802012885,-0.8309339284896851,0.555125892162323,-0.03720415011048317,0,0,0,-1,-1,19981.40744716667,unknown,2,2025-04-21T16:26:36.905+03:00,2025-04-20T21:57:49.637+03:00,6771,0.9848602,0,0,5553.922,5,6,2025-04-21T16:23:41.500+03:00,766934822.7975621,0,-38.88,100.199,1,0.35,2025-04-21T16:27:02.480+03:00,97,1.616666666666667,2025-04-21T12:30:07.995+03:00,0.02023345852159405,0
2025-04-21T16:27:04.558+03:00,1745242023.231771,40.95225055938123,29.1403145136162,75.80261,-1,-1,-1,-1,30,32.72624310773018,-9999,20009.05559641667,-0.830657958984375,0.5596466064453125,-0.039642333984375,20009.05055841667,1.510224823963939,-1.526034747247431,-0.5885341088567161,0.001861271099187434,0.0003249919973313808,0.001655704108998179,0.0005846023559570312,0.003313958644866943,-0.003568653017282486,XArbitraryZVertical,0.300654029446097,-0.6252983527112066,0.6200259843083615,0.3663015870028538,-0.8309221863746643,0.555142343044281,-0.03721825033426285,0,0,0,-1,-1,19981.40744716667,unknown,2,2025-04-21T16:26:36.905+03:00,2025-04-20T21:57:49.637+03:00,6771,0.9848602,0,0,5553.922,5,6,2025-04-21T16:23:41.500+03:00,766934822.7975621,0,-38.88,100.199,1,0.35,2025-04-21T16:27:02.480+03:00,97,1.616666666666667,2025-04-21T12:30:07.995+03:00,0.02023345852159405,0
2025-04-21T16:27:04.568+03:00,1745242023.231771,40.95225055938123,29.1403145136162,75.80261,-1,-1,-1,-1,30,32.72624310773018,-9999,20009.06567241667,-0.8287811279296875,0.558868408203125,-0.03948974609375,20009.06063441667,1.51028524859461,-1.52594963378595,-0.5885108768149325,0.007772956509143114,0.004284313414245844,-0.004042129032313824,0.0008690357208251953,0.004080891609191895,-0.002917524427175522,XArbitraryZVertical,0.3006540167350094,-0.6252698534494251,0.6200459058525147,0.3663163963066887,-0.8309317827224731,0.5551230311393738,-0.03728954493999481,0,0,0,-1,-1,19981.40744716667,unknown,2,2025-04-21T16:26:36.905+03:00,2025-04-20T21:57:49.637+03:00,6771,0.9848602,0,0,5553.922,5,6,2025-04-21T16:23:41.500+03:00,766934822.7975621,0,-38.88,100.199,1,0.35,2025-04-21T16:27:02.480+03:00,97,1.616666666666667,2025-04-21T12:30:07.995+03:00,0.02023345852159405,0
2025-04-21T16:27:04.578+03:00,1745242023.231771,40.95225055938123,29.1403145136162,75.80261,-1,-1,-1,-1,30,32.72624310773018,-9999,20009.07574941667,-0.82733154296875,0.556793212890625,-0.0388336181640625,20009.07071041667,1.510369373720597,-1.525871282100863,-0.5884443790926728,0.002678728196769953,0.003068979829549789,-0.006253684870898724,0.002138912677764893,0.003480136394500732,-0.001797914505004883,XArbitraryZVertical,0.3006773293569532,-0.6252319482025293,0.620061862717331,0.3663349873773837,-0.8309657573699951,0.5550677180290222,-0.03735630959272385,0,0,0,-1,-1,19981.40744716667,unknown,2,2025-04-21T16:26:36.905+03:00,2025-04-20T21:57:49.637+03:00,6771,0.9848602,0,0,5553.922,5,6,2025-04-21T16:23:41.500+03:00,766934822.7975621,0,-38.88,100.199,1,0.35,2025-04-21T16:27:02.480+03:00,97,1.616666666666667,2025-04-21T12:30:07.995+03:00,0.02023345852159405,0
2025-04-21T16:27:04.588+03:00,1745242023.231771,40.95225055938123,29.1403145136162,75.80261,-1,-1,-1,-1,30,32.72624310773018,-9999,20009.08582541667,-0.824859619140625,0.5560760498046875,-0.040557861328125,20009.08078741667,1.510421686028014,-1.525798991468293,-0.5883791999132092,0.00335996481589973,0.0009134169667959213,-0.005963932722806931,0.004079699516296387,0.002084791660308838,-0.001736227422952652,XArbitraryZVertical,0.3006921207166059,-0.6252001616020386,0.6200713189330223,0.3663612353372999,-0.8309993147850037,0.5550134778022766,-0.03741801157593727,0,0,0,-1,-1,19981.40744716667,unknown,2,2025-04-21T16:26:36.905+03:00,2025-04-20T21:57:49.637+03:00,6771,0.9848602,0,0,5553.922,5,6,2025-04-21T16:23:41.500+03:00,766934822.7975621,0,-38.88,100.199,1,0.35,2025-04-21T16:27:02.480+03:00,97,1.616666666666667,2025-04-21T12:30:07.995+03:00,0.02023345852159405,0
2025-04-21T16:27:04.598+03:00,1745242023.231771,40.95225055938123,29.1403145136162,75.80261,-1,-1,-1,-1,30,32.72624310773018,-9999,20009.09590141667,-0.8280792236328125,0.553466796875,-0.0408477783203125,20009.09086341667,1.510435357235855,-1.52577589074974,-0.5883237163056162,-0.003216444980353117,-0.0003020493313670158,-0.003395713400095701,0.005971193313598633,0.0003762245178222656,-0.003790799528360367,XArbitraryZVertical,0.3007070018523278,-0.6251847729674473,0.6200679291767116,0.3663810687965104,-0.8310292959213257,0.5549673438072205,-0.03743859753012657,0,0,0,-1,-1,19981.40744716667,unknown,2,2025-04-21T16:26:36.905+03:00,2025-04-20T21:57:49.637+03:00,6771,0.9848602,0,0,5553.922,5,6,2025-04-21T16:23:41.500+03:00,766934822.7975621,0,-38.88,100.199,1,0.35,2025-04-21T16:27:02.480+03:00,97,1.616666666666667,2025-04-21T12:30:07.995+03:00,0.02023345852159405,0
2025-04-21T16:27:04.608+03:00,1745242023.231771,40.95225055938123,29.1403145136162,75.80261,-1,-1,-1,-1,30,32.72624310773018,-9999,20009.10597841667,-0.8288726806640625,0.553070068359375,-0.039764404296875,20009.10094041667,1.510377500972953,-1.525799968936516,-0.5882907921264812,-0.007231693249195814,0.0002074134536087513,-0.002801295835524797,0.002572417259216309,-0.002526164054870605,-0.00382530689239502,XArbitraryZVertical,0.3007069693163336,-0.6251924633408921,0.6200481330148804,0.3664013495610421,-0.831048309803009,0.5549399852752686,-0.0374194048345089,0,0,0,-1,-1,19981.40744716667,unknown,2,2025-04-21T16:26:36.905+03:00,2025-04-20T21:57:49.637+03:00,6771,0.9848602,0,0,5553.922,5,6,2025-04-21T16:23:41.500+03:00,766934822.7975621,0,-38.88,100.199,1,0.35,2025-04-21T16:27:02.480+03:00,97,1.616666666666667,2025-04-21T12:30:07.995+03:00,0.02023345852159405,0
2025-04-21T16:27:04.618+03:00,1745242023.231771,40.95225055938123,29.1403145136162,75.80261,-1,-1,-1,-1,30,32.72624310773018,-9999,20009.11605441667,-0.8291473388671875,0.5541839599609375,-0.0396575927734375,20009.11101641667,1.510302568610671,-1.525841629061534,-0.5882762208294072,-0.003766987007111311,-0.002127979416400194,-0.003373642219230533,0.002200543880462646,-0.002041041851043701,-0.002471026033163071,XArbitraryZVertical,0.3007011542478414,-0.6252089603642036,0.6200256698820928,0.3664159033332262,-0.8310579061508179,0.5549278259277344,-0.03738514333963394,0,0,0,-1,-1,19981.40744716667,unknown,2,2025-04-21T16:26:36.905+03:00,2025-04-20T21:57:49.637+03:00,6771,0.9848602,0,0,5553.922,5,6,2025-04-21T16:23:41.500+03:00,766934822.7975621,0,-38.88,100.199,1,0.35,2025-04-21T16:27:02.480+03:00,97,1.616666666666667,2025-04-21T12:30:07.995+03:00,0.02023345852159405,0
2025-04-21T16:27:04.628+03:00,1745242023.231771,40.95225055938123,29.1403145136162,75.80261,-1,-1,-1,-1,30,32.72624310773018,-9999,20009.12613041667,-0.8286285400390625,0.554595947265625,-0.0358123779296875,20009.12109241667,1.510266260106077,-1.525869788521942,-0.5882718895673099,-0.002357109449803829,0.0007993672043085098,-0.001369080971926451,0.001715779304504395,-0.001030325889587402,-0.001746594905853271,XArbitraryZVertical,0.3006998764858427,-0.62521888694323,0.6200140709015012,0.3664198029430391,-0.8310614824295044,0.5549242496490479,-0.03736185654997826,0,0,0,-1,-1,19981.40744716667,unknown,2,2025-04-21T16:26:36.905+03:00,2025-04-20T21:57:49.637+03:00,6771,0.9848602,0,0,5553.922,5,6,2025-04-21T16:23:41.500+03:00,766934822.7975621,0,-38.88,100.199,1,0.35,2025-04-21T16:27:02.480+03:00,97,1.616666666666667,2025-04-21T12:30:07.995+03:00,0.02023345852159405,0
2025-04-21T16:27:04.638+03:00,1745242023.231771,40.95225055938123,29.1403145136162,75.80261,-1,-1,-1,-1,30,32.72624310773018,-9999,20009.13620741667,-0.8289031982421875,0.5558013916015625,-0.0362548828125,20009.13116941667,1.510249799169892,-1.525855926164932,-0.5882564449708517,6.377045065164566e-05,0.0009347223676741123,-0.002944174222648144,0.002212047576904297,0.0002337098121643066,0.001683235168457031,XArbitraryZVertical,0.300695406889069,-0.6252162773124973,0.6200105196864776,0.366433849327958,-0.8310694694519043,0.5549113750457764,-0.03737375885248184,0,0,0,-1,-1,19981.40744716667,unknown,2,2025-04-21T16:26:36.905+03:00,2025-04-20T21:57:49.637+03:00,6771,0.9848602,0,0,5553.922,5,6,2025-04-21T16:23:41.500+03:00,766934822.7975621,0,-38.88,100.199,1,0.35,2025-04-21T16:27:02.480+03:00,97,1.616666666666667,2025-04-21T12:30:07.995+03:00,0.02023345852159405,0
2025-04-21T16:27:04.669+03:00,1745242023.231771,40.95225055938123,29.1403145136162,75.80261,-1,-1,-1,-1,30,32.72624310773018,-9999,20009.14628341667,-0.82830810546875,0.5561981201171875,-0.0370635986328125,20009.14124541667,1.510276467046081,-1.525815739729689,-0.588245003857729,0.001915466273203492,0.002312109572812915,-0.001279165968298912,0.002735733985900879,0.0009604096412658691,0.001778006553649902,XArbitraryZVertical,0.3006949446010527,-0.6252030304773568,0.620019517552773,0.3664416336869701,-0.8310742974281311,0.5549018979072571,-0.03740744292736053,0,0,0,-1,-1,19981.40744716667,unknown,2,2025-04-21T16:26:36.905+03:00,2025-04-20T21:57:49.637+03:00,6771,0.9848602,0,0,5553.922,5,6,2025-04-21T16:23:41.500+03:00,766934822.7975621,0,-38.88,100.199,1,0.35,2025-04-21T16:27:02.480+03:00,97,1.616666666666667,2025-04-21T12:30:07.995+03:00,0.02023345852159405,0
2025-04-21T16:27:04.671+03:00,1745242023.231771,40.95225055938123,29.1403145136162,75.80261,-1,-1,-1,-1,30,32.72624310773018,-9999,20009.15636041667,-0.831451416015625,0.5568389892578125,-0.03924560546875,20009.15132141667,1.510314807610613,-1.525768163367692,-0.5882376360720062,0.002768144011497498,0.001991132041439414,-0.001254964503459632,0.003012716770172119,0.001088619232177734,-0.0002117156982421875,XArbitraryZVertical,0.3006945400007477,-0.6251873405328582,0.6200324512530518,0.3664468578340553,-0.8310766220092773,0.5548957586288452,-0.03744716569781303,0,0,0,-1,-1,19981.40744716667,unknown,2,2025-04-21T16:26:36.905+03:00,2025-04-20T21:57:49.637+03:00,6771,0.9848602,0,0,5553.922,5,6,2025-04-21T16:23:41.500+03:00,766934822.7975621,0,-38.88,100.199,1,0.35,2025-04-21T16:27:02.480+03:00,97,1.616666666666667,2025-04-21T12:30:07.995+03:00,0.02023345852159405,0
2025-04-21T16:27:04.672+03:00,1745242023.231771,40.95225055938123,29.1403145136162,75.80261,-1,-1,-1,-1,30,32.72624310773018,-9999,20009.16643641667,-0.83154296875,0.55731201171875,-0.0405120849609375,20009.16139841667,1.510344673579339,-1.525697736334503,-0.5882389666229862,0.0002272219571750611,0.004713415168225765,0.0004646385787054896,-0.0005917549133300781,0.002415001392364502,-0.002777695655822754,XArbitraryZVertical,0.3006816202596553,-0.6251701626515924,0.6200487346206642,0.366459196382057,-0.8310732245445251,0.5548968315124512,-0.03750566020607948,0,0,0,-1,-1,19981.40744716667,unknown,2,2025-04-21T16:26:36.905+03:00,2025-04-20T21:57:49.637+03:00,6771,0.9848602,0,0,5553.922,5,6,2025-04-21T16:23:41.500+03:00,766934822.7975621,0,-38.88,100.199,1,0.35,2025-04-21T16:27:02.480+03:00,97,1.616666666666667,2025-04-21T12:30:07.995+03:00,0.02023345852159405,0
2025-04-21T16:27:04.679+03:00,1745242023.231771,40.95225055938123,29.1403145136162,75.80261,-1,-1,-1,-1,30,32.72624310773018,-9999,20009.17651241667,-0.8302459716796875,0.5551605224609375,-0.043487548828125,20009.17147441667,1.510339068617003,-1.525640996471483,-0.5882398446068891,-0.003651672042906284,0.003708072006702423,-0.001310091931372881,-0.0004112720489501953,0.002902567386627197,-0.003371477127075195,XArbitraryZVertical,0.3006619884959343,-0.6251607559110475,0.6200563890540617,0.3664784261106768,-0.8310706615447998,0.5548976063728333,-0.03755279630422592,0,0,0,-1,-1,19981.40744716667,unknown,2,2025-04-21T16:26:36.905+03:00,2025-04-20T21:57:49.637+03:00,6771,0.9848602,0,0,5553.922,5,6,2025-04-21T16:23:41.500+03:00,766934822.7975621,0,-38.88,100.199,1,0.35,2025-04-21T16:27:02.480+03:00,97,1.616666666666667,2025-04-21T12:30:07.995+03:00,0.02023345852159405,0
2025-04-21T16:27:04.689+03:00,1745242023.231771,40.95225055938123,29.1403145136162,75.80261,-1,-1,-1,-1,30,32.72624310773018,-9999,20009.18658941667,-0.8272857666015625,0.5522308349609375,-0.042938232421875,20009.18155041667,1.510312267604847,-1.525609700506568,-0.5882227089917241,-0.003307058941572905,0.004150955937802792,-0.0001454916200600564,0.0008176565170288086,-0.0008521080017089844,-0.006122112274169922,XArbitraryZVertical,0.3006494259356618,-0.6251562261700011,0.6200532773316977,0.3665016347353344,-0.8310788869857788,0.5548833012580872,-0.03757923096418381,0,0,0,-1,-1,19981.40744716667,unknown,2,2025-04-21T16:26:36.905+03:00,2025-04-20T21:57:49.637+03:00,6771,0.9848602,0,0,5553.922,5,6,2025-04-21T16:23:41.500+03:00,766934822.7975621,0,-38.88,100.199,1,0.35,2025-04-21T16:27:02.480+03:00,97,1.616666666666667,2025-04-21T12:30:07.995+03:00,0.02023345852159405,0
2025-04-21T16:27:04.699+03:00,1745242023.231771,40.95225055938123,29.1403145136162,75.80261,-1,-1,-1,-1,30,32.72624310773018,-9999,20009.19666541667,-0.8271636962890625,0.554229736328125,-0.04547119140625,20009.19162741667,1.510244441336896,-1.525622881307928,-0.5882147214058004,-0.007472043391317129,-0.0005024522542953491,-0.0002030491596087813,0.004271090030670166,-0.002935945987701416,-0.005080040544271469,XArbitraryZVertical,0.3006349100273381,-0.6251675095605803,0.620037501005638,0.366520847802547,-0.8310837149620056,0.5548766851425171,-0.03756847232580185,0,0,0,-1,-1,19981.40744716667,unknown,2,2025-04-21T16:26:36.905+03:00,2025-04-20T21:57:49.637+03:00,6771,0.9848602,0,0,5553.922,5,6,2025-04-21T16:23:41.500+03:00,766934822.7975621,0,-38.88,100.199,1,0.35,2025-04-21T16:27:02.480+03:00,97,1.616666666666667,2025-04-21T12:30:07.995+03:00,0.02023345852159405,0
2025-04-21T16:27:04.709+03:00,1745242023.231771,40.95225055938123,29.1403145136162,75.80261,-1,-1,-1,-1,30,32.72624310773018,-9999,20009.20674141667,-0.82696533203125,0.554412841796875,-0.0456695556640625,20009.20170341667,1.510124057957348,-1.525714654392444,-0.5882075355136266,-0.01224522665143013,-0.005292946472764015,0.0005000254022888839,0.003195226192474365,-0.0001986026763916016,-0.008329927921295166,XArbitraryZVertical,0.3006279718689131,-0.6252012702299991,0.6200004551960374,0.3665318376973317,-0.8310912847518921,0.5548707246780396,-0.03749238699674606,0,0,0,-1,-1,19981.40744716667,unknown,2,2025-04-21T16:26:36.905+03:00,2025-04-20T21:57:49.637+03:00,6771,0.9848602,0,0,5553.922,5,6,2025-04-21T16:23:41.500+03:00,766934822.7975621,0,-38.88,100.199,1,0.35,2025-04-21T16:27:02.480+03:00,97,1.616666666666667,2025-04-21T12:30:07.995+03:00,0.02023345852159405,0
2025-04-21T16:27:04.719+03:00,1745242023.231771,40.95225055938123,29.1403145136162,75.80261,-1,-1,-1,-1,30,32.72624310773018,-9999,20009.21681841667,-0.8262481689453125,0.5534820556640625,-0.0390777587890625,20009.21177941667,1.509967939524877,-1.52585582529615,-0.5882097688331952,-0.01209808792918921,-0.004640871658921242,-0.001268380205146968,0.004007995128631592,-0.0009023547172546387,-0.007104575634002686,XArbitraryZVertical,0.3006222073272866,-0.6252509774872702,0.6199510037462577,0.3665354397379578,-0.8310953378677368,0.5548725724220276,-0.03737500682473183,0,0,0,-1,-1,19981.40744716667,unknown,2,2025-04-21T16:26:36.905+03:00,2025-04-20T21:57:49.637+03:00,6771,0.9848602,0,0,5553.922,5,6,2025-04-21T16:23:41.500+03:00,766934822.7975621,0,-38.88,100.199,1,0.35,2025-04-21T16:27:02.480+03:00,97,1.616666666666667,2025-04-21T12:30:07.995+03:00,0.02023345852159405,0
2025-04-21T16:27:04.729+03:00,1745242023.231771,40.95225055938123,29.1403145136162,75.80261,-1,-1,-1,-1,30,32.72624310773018,-9999,20009.22689441667,-0.829345703125,0.5523529052734375,-0.03521728515625,20009.22185641667,1.509771913149657,-1.52600960920794,-0.5882311526235178,-0.01960820145905018,-0.002269593067467213,0.002292532473802567,0.004215419292449951,-0.00159144401550293,-0.0004732646048069,XArbitraryZVertical,0.3006017140993146,-0.6253121419751703,0.6198955869529476,0.3665417031221672,-0.8310893177986145,0.5548903346061707,-0.03724667057394981,0,0,0,-1,-1,19981.40744716667,unknown,2,2025-04-21T16:26:36.905+03:00,2025-04-20T21:57:49.637+03:00,6771,0.9848602,0,0,5553.922,5,6,2025-04-21T16:23:41.500+03:00,766934822.7975621,0,-38.88,100.199,1,0.35,2025-04-21T16:27:02.480+03:00,97,1.616666666666667,2025-04-21T12:30:07.995+03:00,0.02023345852159405,0
2025-04-21T16:27:04.739+03:00,1745242023.231771,40.95225055938123,29.1403145136162,75.80261,-1,-1,-1,-1,30,32.72624310773018,-9999,20009.23697041667,-0.8331298828125,0.5501708984375,-0.03729248046875,20009.23193241667,1.509557169583079,-1.526116515456189,-0.5882750041353897,-0.01628504134714603,0.003606472397223115,0.0009932095417752862,0.000914454460144043,-0.002528369426727295,0.002610627561807632,XArbitraryZVertical,0.3005537263753413,-0.6253711667226344,0.6198475460679741,0.3665613169647801,-0.831068754196167,0.5549268126487732,-0.03715672343969345,0,0,0,-1,-1,19981.40744716667,unknown,2,2025-04-21T16:26:36.905+03:00,2025-04-20T21:57:49.637+03:00,6771,0.9848602,0,0,5553.922,5,6,2025-04-21T16:23:41.500+03:00,766934822.7975621,0,-38.88,100.199,1,0.35,2025-04-21T16:27:02.480+03:00,97,1.616666666666667,2025-04-21T12:30:07.995+03:00,0.02023345852159405,0
2025-04-21T16:27:04.749+03:00,1745242023.231771,40.95225055938123,29.1403145136162,75.80261,-1,-1,-1,-1,30,32.72624310773018,-9999,20009.24704741667,-0.832366943359375,0.5543975830078125,-0.0365447998046875,20009.24200941667,1.509408326280655,-1.526148319707192,-0.5883074308649668,-0.008749095723032951,0.007888302206993103,0.001649945043027401,-0.002566099166870117,-0.004660964012145996,0.0001725554466247559,XArbitraryZVertical,0.3005066089986778,-0.6254046941224678,0.6198209857913236,0.3665877876762573,-0.8310520648956299,0.5549538135528564,-0.03712949156761169,0,0,0,-1,-1,19981.40744716667,unknown,2,2025-04-21T16:26:36.905+03:00,2025-04-20T21:57:49.637+03:00,6771,0.9848602,0,0,5553.922,5,6,2025-04-21T16:23:41.500+03:00,766934822.7975621,0,-38.88,100.199,1,0.35,2025-04-21T16:27:02.480+03:00,97,1.616666666666667,2025-04-21T12:30:07.995+03:00,0.02023345852159405,0
2025-04-21T16:27:04.759+03:00,1745242023.231771,40.95225055938123,29.1403145136162,75.80261,-1,-1,-1,-1,30,32.72624310773018,-9999,20009.25712341667,-0.83056640625,0.55804443359375,-0.038116455078125,20009.25208541667,1.509362741136822,-1.526092139217489,-0.5883280464096254,-0.001245372928678989,0.008550098165869713,0.000463107309769839,-0.001221597194671631,0.0004488229751586914,0.0007832646369934082,XArbitraryZVertical,0.3004683337827393,-0.6254046250530144,0.6198245582728001,0.3666132408734704,-0.8310385346412659,0.5549709796905518,-0.03717567026615143,0,0,0,-1,-1,19981.40744716667,unknown,2,2025-04-21T16:26:36.905+03:00,2025-04-20T21:57:49.637+03:00,6771,0.9848602,0,0,5553.922,5,6,2025-04-21T16:23:41.500+03:00,766934822.7975621,0,-38.88,100.199,1,0.35,2025-04-21T16:27:02.480+03:00,97,1.616666666666667,2025-04-21T12:30:07.995+03:00,0.02023345852159405,0
2025-04-21T16:27:04.770+03:00,1745242023.231771,40.95225055938123,29.1403145136162,75.80261,-1,-1,-1,-1,30,32.72624310773018,-9999,20009.26719941667,-0.826263427734375,0.5529632568359375,-0.0418548583984375,20009.26216141667,1.509354811620504,-1.526022958096869,-0.5883263756413963,-0.004127978347241879,0.003765729488804936,0.001161920605227351,0.001294493675231934,0.002067625522613525,-0.00135648250579834,XArbitraryZVertical,0.3004449418511551,-0.6253928639182648,0.6198332182480194,0.3666378602579683,-0.8310369253158569,0.5549695491790771,-0.03723320364952087,0,0,0,-1,-1,19981.40744716667,unknown,2,2025-04-21T16:26:36.905+03:00,2025-04-20T21:57:49.637+03:00,6771,0.9848602,0,0,5553.922,5,6,2025-04-21T16:23:41.500+03:00,766934822.7975621,0,-38.88,100.199,1,0.35,2025-04-21T16:27:02.480+03:00,97,1.616666666666667,2025-04-21T12:30:07.995+03:00,0.02023345852159405,0
2025-04-21T16:27:04.780+03:00,1745242023.231771,40.95225055938123,29.1403145136162,75.80261,-1,-1,-1,-1,30,32.72624310773018,-9999,20009.27727641667,-0.8233795166015625,0.550994873046875,-0.0409088134765625,20009.27223841667,1.509230547196147,-1.526056608362584,-0.5883351488970656,-0.02028963714838028,-0.001507862005382776,0.001518784323707223,0.00451052188873291,-0.002608835697174072,-0.004695773124694824,XArbitraryZVertical,0.3004137060184672,-0.6254191347971112,0.6198068641710746,0.3666631732240555,-0.8310332894325256,0.5549768805503845,-0.03720502182841301,0,0,0,-1,-1,19981.40744716667,unknown,2,2025-04-21T16:26:36.905+03:00,2025-04-20T21:57:49.637+03:00,6771,0.9848602,0,0,5553.922,5,6,2025-04-21T16:23:41.500+03:00,766934822.7975621,0,-38.88,100.199,1,0.35,2025-04-21T16:27:02.480+03:00,97,1.616666666666667,2025-04-21T12:30:07.995+03:00,0.02023345852159405,0
2025-04-21T16:27:04.790+03:00,1745242023.231771,40.95225055938123,29.1403145136162,75.80261,-1,-1,-1,-1,30,32.72624310773018,-9999,20009.28735241667,-0.8232574462890625,0.5489501953125,-0.038421630859375,20009.28231441667,1.508987748967245,-1.526224854550389,-0.5883544962089021,-0.02406094036996365,-0.00688558304682374,-0.003285558195784688,0.00806128978729248,-0.004425466060638428,-0.003386497497558594,XArbitraryZVertical,0.3003837217288267,-0.6254896145800611,0.6197403490948254,0.3666799063784543,-0.8310287594795227,0.5549929738044739,-0.03706472367048264,0,0,0,-1,-1,19981.40744716667,unknown,2,2025-04-21T16:26:36.905+03:00,2025-04-20T21:57:49.637+03:00,6771,0.9848602,0,0,5553.922,5,6,2025-04-21T16:23:41.500+03:00,766934822.7975621,0,-38.88,100.199,1,0.35,2025-04-21T16:27:02.480+03:00,97,1.616666666666667,2025-04-21T12:30:07.995+03:00,0.02023345852159405,0
2025-04-21T16:27:04.800+03:00,1745242023.231771,40.95225055938123,29.1403145136162,75.80261,-1,-1,-1,-1,30,32.72624310773018,-9999,20009.29742941667,-0.8272705078125,0.552734375,-0.0390167236328125,20009.29239041667,1.508695629003238,-1.526436286501798,-0.5883380430053332,-0.02694880403578281,-0.005879640579223633,-0.002775662811473012,0.007238984107971191,-0.006456434726715088,-0.001929104328155518,XArbitraryZVertical,0.3003631428183321,-0.6255695577403698,0.6196522508450282,0.3667092763923189,-0.8310456871986389,0.5549792647361755,-0.03688942268490791,0,0,0,-1,-1,19981.40744716667,unknown,2,2025-04-21T16:26:36.905+03:00,2025-04-20T21:57:49.637+03:00,6771,0.9848602,0,0,5553.922,5,6,2025-04-21T16:23:41.500+03:00,766934822.7975621,0,-38.88,100.199,1,0.35,2025-04-21T16:27:02.480+03:00,97,1.616666666666667,2025-04-21T12:30:07.995+03:00,0.02023345852159405,0
2025-04-21T16:27:04.810+03:00,1745242023.231771,40.95225055938123,29.1403145136162,75.80261,-1,-1,-1,-1,30,32.72624310773018,-9999,20009.30750541667,-0.8302459716796875,0.555389404296875,-0.0405731201171875,20009.30246741667,1.508349773408793,-1.526686236754993,-0.5883195699480767,-0.02744601666927338,-0.005458595231175423,-0.003268347587436438,0.003275871276855469,-0.001924514770507812,-0.002349972724914551,XArbitraryZVertical,0.3003383091381559,-0.6256643057500372,0.6195481706238464,0.3667438436231711,-0.8310651779174805,0.5549638867378235,-0.03668215498328209,0,0,0,-1,-1,19981.40744716667,unknown,2,2025-04-21T16:26:36.905+03:00,2025-04-20T21:57:49.637+03:00,6771,0.9848602,0,0,5553.922,5,6,2025-04-21T16:23:41.500+03:00,766934822.7975621,0,-38.88,100.199,1,0.35,2025-04-21T16:27:02.480+03:00,97,1.616666666666667,2025-04-21T12:30:07.995+03:00,0.02023345852159405,0
2025-04-21T16:27:04.820+03:00,1745242023.231771,40.95225055938123,29.1403145136162,75.80261,-1,-1,-1,-1,30,32.72624310773018,-9999,20009.31758141667,-0.831390380859375,0.5537567138671875,-0.0411529541015625,20009.31254341667,1.508046715386313,-1.526904879851192,-0.588284328577356,-0.02146189473569393,-0.004985084757208824,-0.003390186931937933,0.001136660575866699,0.0003783106803894043,-0.004804428666830063,XArbitraryZVertical,0.3003225624857826,-0.6257441245259231,0.6194537744072728,0.3667798617509066,-0.8310925960540771,0.554934561252594,-0.03650129958987236,0,0,0,-1,-1,19981.40744716667,unknown,2,2025-04-21T16:26:36.905+03:00,2025-04-20T21:57:49.637+03:00,6771,0.9848602,0,0,5553.922,5,6,2025-04-21T16:23:41.500+03:00,766934822.7975621,0,-38.88,100.199,1,0.35,2025-04-21T16:27:02.480+03:00,97,1.616666666666667,2025-04-21T12:30:07.995+03:00,0.02023345852159405,0
2025-04-21T16:27:04.830+03:00,1745242023.231771,40.95225055938123,29.1403145136162,75.80261,-1,-1,-1,-1,30,32.72624310773018,-9999,20009.32765841667,-0.82958984375,0.55792236328125,-0.0394134521484375,20009.32261941667,1.507836682682737,-1.527109096055735,-0.5881953028573628,-0.01235414948314428,-0.008978761732578278,-0.01171522866934538,0.0001864433288574219,-0.00166851282119751,-0.004224300384521484,XArbitraryZVertical,0.3003485832692943,-0.625798576931806,0.6193695179284214,0.3668081300531858,-0.8311495184898376,0.554860532283783,-0.03633373975753784,0,0,0,-1,-1,19981.40744716667,unknown,2,2025-04-21T16:26:36.905+03:00,2025-04-20T21:57:49.637+03:00,6771,0.9848602,0,0,5553.922,5,6,2025-04-21T16:23:41.500+03:00,766934822.7975621,0,-38.88,100.199,1,0.35,2025-04-21T16:27:02.480+03:00,97,1.616666666666667,2025-04-21T12:30:07.995+03:00,0.02023345852159405,0
2025-04-21T16:27:04.840+03:00,1745242023.231771,40.95225055938123,29.1403145136162,75.80261,-1,-1,-1,-1,30,32.72624310773018,-9999,20009.33773441667,-0.8280487060546875,0.5608673095703125,-0.039337158203125,20009.33269641667,1.5077304521936,-1.527264793938911,-0.5880654160134605,-0.004631515592336655,-0.01028264500200748,-0.01675619184970856,0.001698434352874756,0.003368139266967773,-0.003221392631530762,XArbitraryZVertical,0.300405180614765,-0.6258218539482235,0.6193046300877845,0.3668316984544193,-0.8312272429466248,0.5547524690628052,-0.03620746731758118,0,0,0,-1,-1,19981.40744716667,unknown,2,2025-04-21T16:26:36.905+03:00,2025-04-20T21:57:49.637+03:00,6771,0.9848602,0,0,5553.922,5,6,2025-04-21T16:23:41.500+03:00,766934822.7975621,0,-38.88,100.199,1,0.35,2025-04-21T16:27:02.480+03:00,97,1.616666666666667,2025-04-21T12:30:07.995+03:00,0.02023345852159405,0
2025-04-21T16:27:04.850+03:00,1745242023.231771,40.95225055938123,29.1403145136162,75.80261,-1,-1,-1,-1,30,32.72624310773018,-9999,20009.34781041667,-0.8315887451171875,0.55859375,-0.0404052734375,20009.34277241667,1.507664201287666,-1.527384654061235,-0.5879009111642304,-0.005425137467682362,-0.005920919589698315,-0.01611250638961792,0.003563940525054932,0.00609898567199707,-0.003545939922332764,XArbitraryZVertical,0.3004743119110261,-0.6258268847087681,0.6192465597681555,0.3668644902633485,-0.8313226699829102,0.5546155571937561,-0.03611179813742638,0,0,0,-1,-1,19981.40744716667,unknown,2,2025-04-21T16:26:36.905+03:00,2025-04-20T21:57:49.637+03:00,6771,0.9848602,0,0,5553.922,5,6,2025-04-21T16:23:41.500+03:00,766934822.7975621,0,-38.88,100.199,1,0.35,2025-04-21T16:27:02.480+03:00,97,1.616666666666667,2025-04-21T12:30:07.995+03:00,0.02023345852159405,0
2025-04-21T16:27:04.860+03:00,1745242023.231771,40.95225055938123,29.1403145136162,75.80261,-1,-1,-1,-1,30,32.72624310773018,-9999,20009.35788741667,-0.8346099853515625,0.553070068359375,-0.0410614013671875,20009.35284941667,1.507573908429723,-1.52745598213142,-0.5877556740123414,-0.00867732334882021,0.001055297441780567,-0.01450552232563496,-7.62939453125e-05,0.003457903861999512,-0.004135839641094208,XArbitraryZVertical,0.3005147867444616,-0.6258297482920616,0.6191945969142177,0.3669138519382203,-0.8314054608345032,0.5544947385787964,-0.03605597838759422,0,0,0,-1,-1,19981.40744716667,unknown,2,2025-04-21T16:26:36.905+03:00,2025-04-20T21:57:49.637+03:00,6771,0.9848602,0,0,5553.922,5,6,2025-04-21T16:23:41.500+03:00,766934822.7975621,0,-38.88,100.199,1,0.35,2025-04-21T16:27:02.480+03:00,97,1.616666666666667,2025-04-21T12:30:07.995+03:00,0.02023345852159405,0
