loggingTime(txt),locationTimestamp_since1970(s),locationLatitude(WGS84),locationLongitude(WGS84),locationAltitude(m),locationSpeed(m/s),locationSpeedAccuracy(m/s),locationCourse(°),locationCourseAccuracy(°),locationVerticalAccuracy(m),locationHorizontalAccuracy(m),locationFloor(Z),accelerometerTimestamp_sinceReboot(s),accelerometerAccelerationX(G),accelerometerAccelerationY(G),accelerometerAccelerationZ(G),motionTimestamp_sinceReboot(s),motionYaw(rad),motionRoll(rad),motionPitch(rad),motionRotationRateX(rad/s),motionRotationRateY(rad/s),motionRotationRateZ(rad/s),motionUserAccelerationX(G),motionUserAccelerationY(G),motionUserAccelerationZ(G),motionAttitudeReferenceFrame(txt),motionQuaternionX(R),motionQuaternionY(R),motionQuaternionZ(R),motionQuaternionW(R),motionGravityX(G),motionGravityY(G),motionGravityZ(G),motionMagneticFieldX(µT),motionMagneticFieldY(µT),motionMagneticFieldZ(µT),motionHeading(°),motionMagneticFieldCalibrationAccuracy(Z),activityTimestamp_sinceReboot(s),activity(txt),activityActivityConfidence(Z),activityActivityStartDate(txt),pedometerStartDate(txt),pedometerNumberofSteps(N),pedometerAverageActivePace(s/m),pedometerCurrentPace(s/m),pedometerCurrentCadence(steps/s),pedometerDistance(m),pedometerFloorAscended(N),pedometerFloorDescended(N),pedometerEndDate(txt),altimeterTimestamp_sinceReboot(s),altimeterReset(bool),altimeterRelativeAltitude(m),altimeterPressure(kPa),batteryState(N),batteryLevel(R),heartRateBPMTimestamp(txt),heartRateBPM(N),heartRateBPS(R),heartRateVariabilityTimestamp(txt),heartRateVariability(ms),label
2025-04-22T12:34:53.777+03:00,1745314493.241297,40.95228637145338,29.14029869593124,76.51794,-1,-1,-1,-1,30,26.39571644227393,-9999,30683.971963,-0.776519775390625,0.5735626220703125,-0.240875244140625,30683.961887,-0.7349528016845137,-1.256044027848025,-0.6283640613328667,-0.01712603494524956,0.00513825286179781,0.01608294807374477,0.02599143981933594,-0.01586174964904785,0.01421135663986206,XArbitraryZVertical,-0.4341256517408977,-0.4316375111895887,-0.1070289923222342,0.7834339433052112,-0.7692469954490662,0.5878220796585083,-0.2504479587078094,0,0,0,-1,-1,30655.205061625,unknown,2,2025-04-22T12:34:04.997+03:00,2025-04-21T17:08:51.449+03:00,7321,0.979675,0,0,6105.011,5,20,2025-04-22T12:34:07.576+03:00,767007252.8263695,0,-21.7,100.4629,1,0.8,2025-04-22T12:34:13.658+03:00,85,1.416666666666667,2025-04-22T09:54:17.825+03:00,0.02225348692287972,0
2025-04-22T12:34:53.779+03:00,1745314493.241297,40.95228637145338,29.14029869593124,76.51794,-1,-1,-1,-1,30,26.39571644227393,-9999,30683.982039,-0.755126953125,0.5894317626953125,-0.2340545654296875,30683.971963,-0.7350888406926867,-1.256212812525995,-0.6285232802628503,-0.01144870743155479,-0.01247269846498966,0.01115103997290134,-0.02460771799087524,0.001816451549530029,0.01093977689743042,XArbitraryZVertical,-0.4342160243700207,-0.4316385878295814,-0.1069969663388516,0.783387630297828,-0.7692002654075623,0.5879508852958679,-0.2502891421318054,0,0,0,-1,-1,30655.205061625,unknown,2,2025-04-22T12:34:04.997+03:00,2025-04-21T17:08:51.449+03:00,7321,0.979675,0,0,6105.011,5,20,2025-04-22T12:34:07.576+03:00,767007252.8263695,0,-21.7,100.4629,1,0.8,2025-04-22T12:34:13.658+03:00,85,1.416666666666667,2025-04-22T09:54:17.825+03:00,0.02225348692287972,0
2025-04-22T12:34:53.782+03:00,1745314493.241297,40.95228637145338,29.14029869593124,76.51794,-1,-1,-1,-1,30,26.39571644227393,-9999,30683.992116,-0.7792205810546875,0.5924835205078125,-0.2361602783203125,30683.982039,-0.7352635700095353,-1.25638483997986,-0.6286519896626297,-0.01383656356483698,0.01374099589884281,0.01609649695456028,-0.001428008079528809,-0.01514863967895508,0.008663058280944824,XArbitraryZVertical,-0.4343049411154754,-0.4316393252593682,-0.1069887096148534,0.7833390758469706,-0.7691713571548462,0.5880550146102905,-0.2501334249973297,0,0,0,-1,-1,30655.205061625,unknown,2,2025-04-22T12:34:04.997+03:00,2025-04-21T17:08:51.449+03:00,7321,0.979675,0,0,6105.011,5,20,2025-04-22T12:34:07.576+03:00,767007252.8263695,0,-21.7,100.4629,1,0.8,2025-04-22T12:34:13.658+03:00,85,1.416666666666667,2025-04-22T09:54:17.825+03:00,0.02225348692287972,0
2025-04-22T12:34:53.792+03:00,1745314493.241297,40.95228637145338,29.14029869593124,76.51794,-1,-1,-1,-1,30,26.39571644227393,-9999,30684.002192,-0.77099609375,0.5754852294921875,-0.2501220703125,30683.992116,-0.7354440646010473,-1.256313061642427,-0.6287625486834888,-0.02835026010870934,0.01797968335449696,0.01401230692863464,0.01144689321517944,0.004842519760131836,0.01774662733078003,XArbitraryZVertical,-0.4343761292426057,-0.4315473522830339,-0.1070411941144056,0.7833431148901508,-0.7690915465354919,0.5881444215774536,-0.2501685321331024,0,0,0,-1,-1,30655.205061625,unknown,2,2025-04-22T12:34:04.997+03:00,2025-04-21T17:08:51.449+03:00,7321,0.979675,0,0,6105.011,5,20,2025-04-22T12:34:07.576+03:00,767007252.8263695,0,-21.7,100.4629,1,0.8,2025-04-22T12:34:13.658+03:00,85,1.416666666666667,2025-04-22T09:54:17.825+03:00,0.02225348692287972,0
2025-04-22T12:34:53.804+03:00,1745314493.241297,40.95228637145338,29.14029869593124,76.51794,-1,-1,-1,-1,30,26.39571644227393,-9999,30684.012268,-0.7562408447265625,0.58843994140625,-0.25140380859375,30684.002192,-0.735751789525416,-1.256328821298639,-0.6291273484948502,-0.03667217120528221,0.006431883666664362,0.01001846324652433,-0.01116847991943359,0.001663684844970703,0.01246485114097595,XArbitraryZVertical,-0.4345623964555772,-0.431405276515368,-0.1070467677932352,0.7833173023714747,-0.768891453742981,0.588439404964447,-0.2500900328159332,0,0,0,-1,-1,30655.205061625,unknown,2,2025-04-22T12:34:04.997+03:00,2025-04-21T17:08:51.449+03:00,7321,0.979675,0,0,6105.011,5,20,2025-04-22T12:34:07.576+03:00,767007252.8263695,0,-21.7,100.4629,1,0.8,2025-04-22T12:34:13.658+03:00,85,1.416666666666667,2025-04-22T09:54:17.825+03:00,0.02225348692287972,0
2025-04-22T12:34:53.812+03:00,1745314493.241297,40.95228637145338,29.14029869593124,76.51794,-1,-1,-1,-1,30,26.39571644227393,-9999,30684.022344,-0.76171875,0.5996551513671875,-0.2553558349609375,30684.012268,-0.7360809007371281,-1.256440769416222,-0.6293997377377035,-0.03244653344154358,0.001851512817665935,0.01185737550258636,0.001158237457275391,-0.01303720474243164,-0.0007323026657104492,XArbitraryZVertical,-0.434728258072369,-0.4313167841705698,-0.1070680319810942,0.7832710310980351,-0.7687668800354004,0.5886596441268921,-0.2499543428421021,0,0,0,-1,-1,30655.205061625,unknown,2,2025-04-22T12:34:04.997+03:00,2025-04-21T17:08:51.449+03:00,7321,0.979675,0,0,6105.011,5,20,2025-04-22T12:34:07.576+03:00,767007252.8263695,0,-21.7,100.4629,1,0.8,2025-04-22T12:34:13.658+03:00,85,1.416666666666667,2025-04-22T09:54:17.825+03:00,0.02225348692287972,0
2025-04-22T12:34:53.822+03:00,1745314493.241297,40.95228637145338,29.14029869593124,76.51794,-1,-1,-1,-1,30,26.39571644227393,-9999,30684.03242,-0.768096923828125,0.58941650390625,-0.2501983642578125,30684.022344,-0.7363193618627923,-1.25661263955534,-0.6294996653575129,-0.01904564164578915,-0.009433232247829437,0.006559350062161684,0.01324552297592163,0.002445995807647705,-0.001843929290771484,XArbitraryZVertical,-0.434821468325285,-0.4313099444864039,-0.1070935079831584,0.7832195965995231,-0.7687538862228394,0.5887404084205627,-0.2498040497303009,0,0,0,-1,-1,30655.205061625,unknown,2,2025-04-22T12:34:04.997+03:00,2025-04-21T17:08:51.449+03:00,7321,0.979675,0,0,6105.011,5,20,2025-04-22T12:34:07.576+03:00,767007252.8263695,0,-21.7,100.4629,1,0.8,2025-04-22T12:34:13.658+03:00,85,1.416666666666667,2025-04-22T09:54:17.825+03:00,0.02225348692287972,0
2025-04-22T12:34:53.832+03:00,1745314493.241297,40.95228637145338,29.14029869593124,76.51794,-1,-1,-1,-1,30,26.39571644227393,-9999,30684.042496,-0.767852783203125,0.5915374755859375,-0.25103759765625,30684.03242,-0.7365032052120883,-1.256823342700869,-0.6295870402769331,-0.01398004125803709,-0.009667592123150826,0.0009573907591402531,0.00613856315612793,0.009730100631713867,-0.00504302978515625,XArbitraryZVertical,-0.4349009011612321,-0.4313329637789023,-0.1070929582723913,0.7831628645338155,-0.7687575817108154,0.5888110399246216,-0.2496261596679688,0,0,0,-1,-1,30655.205061625,unknown,2,2025-04-22T12:34:04.997+03:00,2025-04-21T17:08:51.449+03:00,7321,0.979675,0,0,6105.011,5,20,2025-04-22T12:34:07.576+03:00,767007252.8263695,0,-21.7,100.4629,1,0.8,2025-04-22T12:34:13.658+03:00,85,1.416666666666667,2025-04-22T09:54:17.825+03:00,0.02225348692287972,0
2025-04-22T12:34:53.842+03:00,1745314493.241297,40.95228637145338,29.14029869593124,76.51794,-1,-1,-1,-1,30,26.39571644227393,-9999,30684.052572,-0.7664337158203125,0.5955047607421875,-0.2512054443359375,30684.042496,-0.7366322942752346,-1.257005063518949,-0.6296260739027973,-0.007468746043741703,-0.009576910175383091,-0.001287054852582514,0.000379025936126709,0.0002076029777526855,-0.0008562803268432617,XArbitraryZVertical,-0.4349511884182134,-0.4313673331633586,-0.1070920583076592,0.7831161559267333,-0.7687810659408569,0.5888425707817078,-0.2494793683290482,0,0,0,-1,-1,30655.205061625,unknown,2,2025-04-22T12:34:04.997+03:00,2025-04-21T17:08:51.449+03:00,7321,0.979675,0,0,6105.011,5,20,2025-04-22T12:34:07.576+03:00,767007252.8263695,0,-21.7,100.4629,1,0.8,2025-04-22T12:34:13.658+03:00,85,1.416666666666667,2025-04-22T09:54:17.825+03:00,0.02225348692287972,0
2025-04-22T12:34:53.852+03:00,1745314493.241297,40.95228637145338,29.14029869593124,76.51794,-1,-1,-1,-1,30,26.39571644227393,-9999,30684.062649,-0.7687530517578125,0.5921630859375,-0.2457733154296875,30684.052572,-0.7367409581326277,-1.257158330207386,-0.6296225648160571,-0.006723592989146709,-0.0008635800331830978,-2.072169445455074e-05,0.001746714115142822,0.004192948341369629,-0.001873791217803955,XArbitraryZVertical,-0.4349816909898409,-0.4314044953506917,-0.1071023448796439,0.7830773319578146,-0.7688212990760803,0.5888397097587585,-0.2493621855974197,0,0,0,-1,-1,30655.205061625,unknown,2,2025-04-22T12:34:04.997+03:00,2025-04-21T17:08:51.449+03:00,7321,0.979675,0,0,6105.011,5,20,2025-04-22T12:34:07.576+03:00,767007252.8263695,0,-21.7,100.4629,1,0.8,2025-04-22T12:34:13.658+03:00,85,1.416666666666667,2025-04-22T09:54:17.825+03:00,0.02225348692287972,0
2025-04-22T12:34:53.862+03:00,1745314493.241297,40.95228637145338,29.14029869593124,76.51794,-1,-1,-1,-1,30,26.39571644227393,-9999,30684.072725,-0.7682647705078125,0.5867767333984375,-0.2457427978515625,30684.062649,-0.7368066319695247,-1.257223149898568,-0.6296082494105455,-0.003202694933861494,-0.001070840284228325,0.0007936396868899465,0.002549111843109131,0.00605088472366333,-0.00120389461517334,XArbitraryZVertical,-0.4349946480884928,-0.4314187943052307,-0.1071183507322343,0.7830601019179,-0.7688454985618591,0.5888281464576721,-0.2493149638175964,0,0,0,-1,-1,30655.205061625,unknown,2,2025-04-22T12:34:04.997+03:00,2025-04-21T17:08:51.449+03:00,7321,0.979675,0,0,6105.011,5,20,2025-04-22T12:34:07.576+03:00,767007252.8263695,0,-21.7,100.4629,1,0.8,2025-04-22T12:34:13.658+03:00,85,1.416666666666667,2025-04-22T09:54:17.825+03:00,0.02225348692287972,0
2025-04-22T12:34:53.873+03:00,1745314493.241297,40.95228637145338,29.14029869593124,76.51794,-1,-1,-1,-1,30,26.39571644227393,-9999,30684.082801,-0.76483154296875,0.5813751220703125,-0.247283935546875,30684.072725,-0.7369046986592239,-1.257335404815699,-0.6296824332180667,-0.009700008668005466,-0.001231695059686899,0.002193397143855691,0.0002009272575378418,0.002542376518249512,0.00357915461063385,XArbitraryZVertical,-0.4350460275122481,-0.4314248269958298,-0.1071096093290386,0.7830293483985278,-0.7688318490982056,0.5888881087303162,-0.2492151409387589,0,0,0,-1,-1,30655.205061625,unknown,2,2025-04-22T12:34:04.997+03:00,2025-04-21T17:08:51.449+03:00,7321,0.979675,0,0,6105.011,5,20,2025-04-22T12:34:07.576+03:00,767007252.8263695,0,-21.7,100.4629,1,0.8,2025-04-22T12:34:13.658+03:00,85,1.416666666666667,2025-04-22T09:54:17.825+03:00,0.02225348692287972,0
2025-04-22T12:34:53.883+03:00,1745314493.241297,40.95228637145338,29.14029869593124,76.51794,-1,-1,-1,-1,30,26.39571644227393,-9999,30684.092877,-0.7657928466796875,0.5819854736328125,-0.24676513671875,30684.082801,-0.7370611170255532,-1.257485007167817,-0.6297043679489959,-0.009068773128092289,-0.001881173811852932,0.0005286884261295199,0.0004395246505737305,-0.002556562423706055,0.002544611692428589,XArbitraryZVertical,-0.4350949449236328,-0.4314444638939982,-0.1071315824876333,0.7829883082595291,-0.7688567638397217,0.5889058709144592,-0.2490961253643036,0,0,0,-1,-1,30655.205061625,unknown,2,2025-04-22T12:34:04.997+03:00,2025-04-21T17:08:51.449+03:00,7321,0.979675,0,0,6105.011,5,20,2025-04-22T12:34:07.576+03:00,767007252.8263695,0,-21.7,100.4629,1,0.8,2025-04-22T12:34:13.658+03:00,85,1.416666666666667,2025-04-22T09:54:17.825+03:00,0.02225348692287972,0
2025-04-22T12:34:53.893+03:00,1745314493.241297,40.95228637145338,29.14029869593124,76.51794,-1,-1,-1,-1,30,26.39571644227393,-9999,30684.102953,-0.765380859375,0.5843353271484375,-0.246429443359375,30684.092877,-0.7371720162530582,-1.257589888402933,-0.6297040007699967,-0.01048717275261879,-0.00448787584900856,-0.003385359421372414,0.003899037837982178,-0.007515370845794678,0.001701131463050842,XArbitraryZVertical,-0.4351243653591209,-0.4314614798331374,-0.1071522949222512,0.7829597539583302,-0.7688831090927124,0.5889055728912354,-0.2490155547857285,0,0,0,-1,-1,30655.205061625,unknown,2,2025-04-22T12:34:04.997+03:00,2025-04-21T17:08:51.449+03:00,7321,0.979675,0,0,6105.011,5,20,2025-04-22T12:34:07.576+03:00,767007252.8263695,0,-21.7,100.4629,1,0.8,2025-04-22T12:34:13.658+03:00,85,1.416666666666667,2025-04-22T09:54:17.825+03:00,0.02225348692287972,0
2025-04-22T12:34:53.903+03:00,1745314493.241297,40.95228637145338,29.14029869593124,76.51794,-1,-1,-1,-1,30,26.39571644227393,-9999,30684.113029,-0.7657623291015625,0.586883544921875,-0.244873046875,30684.102953,-0.7372997003875065,-1.257679645239723,-0.6297501333941025,-0.01290092803537846,-0.003537792712450027,-0.0008410419104620814,0.003178417682647705,-0.006652295589447021,0.002157807350158691,XArbitraryZVertical,-0.4351717259705366,-0.4314585355539818,-0.1071686559340035,0.7829328774010791,-0.7688797116279602,0.58894282579422,-0.2489382028579712,0,0,0,-1,-1,30655.205061625,unknown,2,2025-04-22T12:34:04.997+03:00,2025-04-21T17:08:51.449+03:00,7321,0.979675,0,0,6105.011,5,20,2025-04-22T12:34:07.576+03:00,767007252.8263695,0,-21.7,100.4629,1,0.8,2025-04-22T12:34:13.658+03:00,85,1.416666666666667,2025-04-22T09:54:17.825+03:00,0.02225348692287972,0
2025-04-22T12:34:53.913+03:00,1745314493.241297,40.95228637145338,29.14029869593124,76.51794,-1,-1,-1,-1,30,26.39571644227393,-9999,30684.123105,-0.768798828125,0.58685302734375,-0.24365234375,30684.113029,-0.7374433792941786,-1.257767912146287,-0.6298086793222621,-0.01158000063151121,-0.002080777660012245,-0.002871435834094882,0.003549039363861084,-0.003922522068023682,0.001819908618927002,XArbitraryZVertical,-0.4352265280569804,-0.4314487366332031,-0.107187777407098,0.7829051920643586,-0.7688688635826111,0.5889901518821716,-0.2488597184419632,0,0,0,-1,-1,30655.205061625,unknown,2,2025-04-22T12:34:04.997+03:00,2025-04-21T17:08:51.449+03:00,7321,0.979675,0,0,6105.011,5,20,2025-04-22T12:34:07.576+03:00,767007252.8263695,0,-21.7,100.4629,1,0.8,2025-04-22T12:34:13.658+03:00,85,1.416666666666667,2025-04-22T09:54:17.825+03:00,0.02225348692287972,0
2025-04-22T12:34:53.923+03:00,1745314493.241297,40.95228637145338,29.14029869593124,76.51794,-1,-1,-1,-1,30,26.39571644227393,-9999,30684.133182,-0.768524169921875,0.5890045166015625,-0.2462310791015625,30684.123105,-0.7375691213154025,-1.257851037311903,-0.6297961346662447,-0.00746368570253253,-0.002186371944844723,-0.003949816338717937,0.002295017242431641,-0.001928746700286865,0.004504859447479248,XArbitraryZVertical,-0.4352540119116073,-0.431456720232517,-0.1072227564308959,0.7828807499760982,-0.7688965797424316,0.5889800190925598,-0.2487980872392654,0,0,0,-1,-1,30655.205061625,unknown,2,2025-04-22T12:34:04.997+03:00,2025-04-21T17:08:51.449+03:00,7321,0.979675,0,0,6105.011,5,20,2025-04-22T12:34:07.576+03:00,767007252.8263695,0,-21.7,100.4629,1,0.8,2025-04-22T12:34:13.658+03:00,85,1.416666666666667,2025-04-22T09:54:17.825+03:00,0.02225348692287972,0
2025-04-22T12:34:53.933+03:00,1745314493.241297,40.95228637145338,29.14029869593124,76.51794,-1,-1,-1,-1,30,26.39571644227393,-9999,30684.143258,-0.7668609619140625,0.58819580078125,-0.2442169189453125,30684.133182,-0.7376731613512808,-1.257927452064704,-0.6297898827767332,-0.00871084351092577,-0.003173072822391987,-0.00324887246824801,-0.0003680586814880371,-0.002625584602355957,0.004248857498168945,XArbitraryZVertical,-0.4352785262716223,-0.4314653833802078,-0.1072487569762974,0.7828587621485079,-0.768919050693512,0.5889749526977539,-0.2487404495477676,0,0,0,-1,-1,30655.205061625,unknown,2,2025-04-22T12:34:04.997+03:00,2025-04-21T17:08:51.449+03:00,7321,0.979675,0,0,6105.011,5,20,2025-04-22T12:34:07.576+03:00,767007252.8263695,0,-21.7,100.4629,1,0.8,2025-04-22T12:34:13.658+03:00,85,1.416666666666667,2025-04-22T09:54:17.825+03:00,0.02225348692287972,0
2025-04-22T12:34:53.945+03:00,1745314493.241297,40.95228637145338,29.14029869593124,76.51794,-1,-1,-1,-1,30,26.39571644227393,-9999,30684.153334,-0.77056884765625,0.58636474609375,-0.245513916015625,30684.143258,-0.7377674256670756,-1.257992248506821,-0.6298167983600595,-0.0108186025172472,0.001571747474372387,-0.001011217827908695,0.0009147524833679199,0.00064849853515625,0.002958193421363831,XArbitraryZVertical,-0.435311121852567,-0.431464205224219,-0.1072633005346253,0.7828392514083318,-0.7689200639724731,0.5889967083930969,-0.2486857324838638,0,0,0,-1,-1,30655.205061625,unknown,2,2025-04-22T12:34:04.997+03:00,2025-04-21T17:08:51.449+03:00,7321,0.979675,0,0,6105.011,5,20,2025-04-22T12:34:07.576+03:00,767007252.8263695,0,-21.7,100.4629,1,0.8,2025-04-22T12:34:13.658+03:00,85,1.416666666666667,2025-04-22T09:54:17.825+03:00,0.02225348692287972,0
2025-04-22T12:34:53.953+03:00,1745314493.241297,40.95228637145338,29.14029869593124,76.51794,-1,-1,-1,-1,30,26.39571644227393,-9999,30684.16341,-0.770660400390625,0.586029052734375,-0.2445220947265625,30684.153334,-0.7379073571577845,-1.258068997046632,-0.6298566532735109,-0.01142393983900547,0.001539256889373064,0.001706271548755467,0.0009572505950927734,-0.001687765121459961,0.004097402095794678,XArbitraryZVertical,-0.435358390024643,-0.4314548813423534,-0.1072891815675503,0.7828145978282272,-0.7689168453216553,0.5890288949012756,-0.2486195117235184,0,0,0,-1,-1,30655.205061625,unknown,2,2025-04-22T12:34:04.997+03:00,2025-04-21T17:08:51.449+03:00,7321,0.979675,0,0,6105.011,5,20,2025-04-22T12:34:07.576+03:00,767007252.8263695,0,-21.7,100.4629,1,0.8,2025-04-22T12:34:13.658+03:00,85,1.416666666666667,2025-04-22T09:54:17.825+03:00,0.02225348692287972,0
2025-04-22T12:34:53.963+03:00,1745314493.241297,40.95228637145338,29.14029869593124,76.51794,-1,-1,-1,-1,30,26.39571644227393,-9999,30684.173486,-0.77044677734375,0.5872802734375,-0.245819091796875,30684.16341,-0.7380348014683347,-1.258122892474818,-0.6299105958624928,-0.008225683122873306,0.004027781076729298,0.003232962219044566,-0.001867175102233887,-0.002799451351165771,0.002703428268432617,XArbitraryZVertical,-0.4354063371873398,-0.4314361706319529,-0.107310824841317,0.7827952868837635,-0.7689000368118286,0.5890725255012512,-0.2485683113336563,0,0,0,-1,-1,30655.205061625,unknown,2,2025-04-22T12:34:04.997+03:00,2025-04-21T17:08:51.449+03:00,7321,0.979675,0,0,6105.011,5,20,2025-04-22T12:34:07.576+03:00,767007252.8263695,0,-21.7,100.4629,1,0.8,2025-04-22T12:34:13.658+03:00,85,1.416666666666667,2025-04-22T09:54:17.825+03:00,0.02225348692287972,0
2025-04-22T12:34:53.973+03:00,1745314493.241297,40.95228637145338,29.14029869593124,76.51794,-1,-1,-1,-1,30,26.39571644227393,-9999,30684.183562,-0.769317626953125,0.5897064208984375,-0.2461090087890625,30684.173486,-0.7380968532232401,-1.258114515329769,-0.6299584308314569,-0.002840771107003093,0.003634965047240257,0.005635665729641914,-0.001514613628387451,-0.002777099609375,0.004089727997779846,XArbitraryZVertical,-0.435434876803141,-0.4314086737711675,-0.1073222740010956,0.7827929324269719,-0.7688710689544678,0.5891111493110657,-0.2485660463571548,0,0,0,-1,-1,30655.205061625,unknown,2,2025-04-22T12:34:04.997+03:00,2025-04-21T17:08:51.449+03:00,7321,0.979675,0,0,6105.011,5,20,2025-04-22T12:34:07.576+03:00,767007252.8263695,0,-21.7,100.4629,1,0.8,2025-04-22T12:34:13.658+03:00,85,1.416666666666667,2025-04-22T09:54:17.825+03:00,0.02225348692287972,0
2025-04-22T12:34:53.983+03:00,1745314493.241297,40.95228637145338,29.14029869593124,76.51794,-1,-1,-1,-1,30,26.39571644227393,-9999,30684.193638,-0.768524169921875,0.5905303955078125,-0.2432098388671875,30684.183562,-0.7381388861094861,-1.25810575526864,-0.6300304799172584,-0.006645096931606531,0.004864546470344067,0.008309080265462399,-0.0009773373603820801,-0.002026617527008057,0.00264914333820343,XArbitraryZVertical,-0.4354669258577327,-0.4313799813798407,-0.1073185882648722,0.7827914440943676,-0.7688285112380981,0.5891693830490112,-0.2485597431659698,0,0,0,-1,-1,30655.205061625,unknown,2,2025-04-22T12:34:04.997+03:00,2025-04-21T17:08:51.449+03:00,7321,0.979675,0,0,6105.011,5,20,2025-04-22T12:34:07.576+03:00,767007252.8263695,0,-21.7,100.4629,1,0.8,2025-04-22T12:34:13.658+03:00,85,1.416666666666667,2025-04-22T09:54:17.825+03:00,0.02225348692287972,0
2025-04-22T12:34:53.993+03:00,1745314493.241297,40.95228637145338,29.14029869593124,76.51794,-1,-1,-1,-1,30,26.39571644227393,-9999,30684.203715,-0.7683258056640625,0.586883544921875,-0.248199462890625,30684.193638,-0.738181430925835,-1.258045030718545,-0.6301055943963639,-0.005044803488999605,0.01112617086619139,0.005674947518855333,0.0005371570587158203,0.0007356405258178711,0.003002583980560303,XArbitraryZVertical,-0.435497267371807,-0.4313301612408446,-0.107325500730748,0.7828011562737965,-0.7687714099884033,0.5892300605773926,-0.2485928386449814,0,0,0,-1,-1,30655.205061625,unknown,2,2025-04-22T12:34:04.997+03:00,2025-04-21T17:08:51.449+03:00,7321,0.979675,0,0,6105.011,5,20,2025-04-22T12:34:07.576+03:00,767007252.8263695,0,-21.7,100.4629,1,0.8,2025-04-22T12:34:13.658+03:00,85,1.416666666666667,2025-04-22T09:54:17.825+03:00,0.02225348692287972,0
2025-04-22T12:34:54.004+03:00,1745314493.241297,40.95228637145338,29.14029869593124,76.51794,-1,-1,-1,-1,30,26.39571644227393,-9999,30684.213791,-0.764129638671875,0.589324951171875,-0.2449493408203125,30684.203715,-0.7382211427219679,-1.257977366834523,-0.6301808495025681,0.0003101478505413979,0.008732122369110584,0.007188488729298115,5.090236663818359e-05,0.0009341835975646973,0.004963591694831848,XArbitraryZVertical,-0.4355267325656254,-0.4312781847275142,-0.107332724577495,0.7828123441452637,-0.7687123417854309,0.5892908573150635,-0.2486311793327332,0,0,0,-1,-1,30655.205061625,unknown,2,2025-04-22T12:34:04.997+03:00,2025-04-21T17:08:51.449+03:00,7321,0.979675,0,0,6105.011,5,20,2025-04-22T12:34:07.576+03:00,767007252.8263695,0,-21.7,100.4629,1,0.8,2025-04-22T12:34:13.658+03:00,85,1.416666666666667,2025-04-22T09:54:17.825+03:00,0.02225348692287972,0
2025-04-22T12:34:54.014+03:00,1745314493.241297,40.95228637145338,29.14029869593124,76.51794,-1,-1,-1,-1,30,26.39571644227393,-9999,30684.223867,-0.7643890380859375,0.5930633544921875,-0.2414093017578125,30684.213791,-0.7382086630435966,-1.257913220393922,-0.6302573196531988,0.001135195139795542,0.009012020193040371,0.009372279979288578,0.0009990930557250977,-0.002682805061340332,0.000329822301864624,XArbitraryZVertical,-0.4355454555016854,-0.431238704327659,-0.1073184408098031,0.7828257440301527,-0.7686536312103271,0.5893526673316956,-0.2486666738986969,0,0,0,-1,-1,30655.205061625,unknown,2,2025-04-22T12:34:04.997+03:00,2025-04-21T17:08:51.449+03:00,7321,0.979675,0,0,6105.011,5,20,2025-04-22T12:34:07.576+03:00,767007252.8263695,0,-21.7,100.4629,1,0.8,2025-04-22T12:34:13.658+03:00,85,1.416666666666667,2025-04-22T09:54:17.825+03:00,0.02225348692287972,0
2025-04-22T12:34:54.024+03:00,1745314493.241297,40.95228637145338,29.14029869593124,76.51794,-1,-1,-1,-1,30,26.39571644227393,-9999,30684.233943,-0.767120361328125,0.5856781005859375,-0.24322509765625,30684.223867,-0.7381950793328994,-1.257812556177773,-0.6303564981832831,-0.005166509654372931,0.01249769888818264,0.01075253076851368,0.004916250705718994,0.0004565715789794922,0.004020825028419495,XArbitraryZVertical,-0.4355694803378172,-0.4311800502214419,-0.1073046477400242,0.7828464325732797,-0.7685728073120117,0.5894327759742737,-0.2487259805202484,0,0,0,-1,-1,30655.205061625,unknown,2,2025-04-22T12:34:04.997+03:00,2025-04-21T17:08:51.449+03:00,7321,0.979675,0,0,6105.011,5,20,2025-04-22T12:34:07.576+03:00,767007252.8263695,0,-21.7,100.4629,1,0.8,2025-04-22T12:34:13.658+03:00,85,1.416666666666667,2025-04-22T09:54:17.825+03:00,0.02225348692287972,0
2025-04-22T12:34:54.034+03:00,1745314493.241297,40.95228637145338,29.14029869593124,76.51794,-1,-1,-1,-1,30,26.39571644227393,-9999,30684.244019,-0.7628326416015625,0.583984375,-0.2474517822265625,30684.233943,-0.7382406603231342,-1.257738691055818,-0.6304618853742996,-0.006091691553592682,0.009143980219960213,0.007637164555490017,0.003541767597198486,0.002660274505615234,0.006270959973335266,XArbitraryZVertical,-0.4356096579814858,-0.4311176326586791,-0.1073063281214787,0.7828582298107046,-0.7684953212738037,0.5895178914070129,-0.2487636208534241,0,0,0,-1,-1,30655.205061625,unknown,2,2025-04-22T12:34:04.997+03:00,2025-04-21T17:08:51.449+03:00,7321,0.979675,0,0,6105.011,5,20,2025-04-22T12:34:07.576+03:00,767007252.8263695,0,-21.7,100.4629,1,0.8,2025-04-22T12:34:13.658+03:00,85,1.416666666666667,2025-04-22T09:54:17.825+03:00,0.02225348692287972,0
2025-04-22T12:34:54.044+03:00,1745314493.241297,40.95228637145338,29.14029869593124,76.51794,-1,-1,-1,-1,30,26.39571644227393,-9999,30684.254095,-0.7609100341796875,0.5909576416015625,-0.249053955078125,30684.244019,-0.7382698712948254,-1.257706724320513,-0.630556110981366,-0.005535889882594347,0.004997438285499811,0.009445717558264732,0.001314222812652588,-0.005380928516387939,0.00557650625705719,XArbitraryZVertical,-0.4356449251912988,-0.4310776730749439,-0.1072958874418505,0.7828620320422782,-0.7684345245361328,0.5895940065383911,-0.248771071434021,0,0,0,-1,-1,30655.205061625,unknown,2,2025-04-22T12:34:04.997+03:00,2025-04-21T17:08:51.449+03:00,7321,0.979675,0,0,6105.011,5,20,2025-04-22T12:34:07.576+03:00,767007252.8263695,0,-21.7,100.4629,1,0.8,2025-04-22T12:34:13.658+03:00,85,1.416666666666667,2025-04-22T09:54:17.825+03:00,0.02225348692287972,0
2025-04-22T12:34:54.054+03:00,1745314493.241297,40.95228637145338,29.14029869593124,76.51794,-1,-1,-1,-1,30,26.39571644227393,-9999,30684.264171,-0.76171875,0.5906524658203125,-0.2447052001953125,30684.254095,-0.7382797150350234,-1.257704312071193,-0.6306299279167149,-0.003636523615568876,0.001913497690111399,0.005664028692990541,0.005956649780273438,-0.004753947257995605,0.0005601197481155396,XArbitraryZVertical,-0.435670947336233,-0.4310580695218781,-0.107277681649534,0.7828608551758217,-0.7683925032615662,0.5896536111831665,-0.248759537935257,0,0,0,-1,-1,30655.205061625,unknown,2,2025-04-22T12:34:04.997+03:00,2025-04-21T17:08:51.449+03:00,7321,0.979675,0,0,6105.011,5,20,2025-04-22T12:34:07.576+03:00,767007252.8263695,0,-21.7,100.4629,1,0.8,2025-04-22T12:34:13.658+03:00,85,1.416666666666667,2025-04-22T09:54:17.825+03:00,0.02225348692287972,0
2025-04-22T12:34:54.065+03:00,1745314493.241297,40.95228637145338,29.14029869593124,76.51794,-1,-1,-1,-1,30,26.39571644227393,-9999,30684.274248,-0.7605743408203125,0.5880889892578125,-0.2462921142578125,30684.264171,-0.7382715534965461,-1.2577099795482,-0.6306860744654795,-0.00105432269629091,-0.002243430353701115,0.005939665716141462,0.008200168609619141,0.002280890941619873,2.6702880859375e-05,XArbitraryZVertical,-0.4356877540416333,-0.431049509596497,-0.1072560863127368,0.782859222883352,-0.7683625221252441,0.5896989703178406,-0.248745009303093,0,0,0,-1,-1,30655.205061625,unknown,2,2025-04-22T12:34:04.997+03:00,2025-04-21T17:08:51.449+03:00,7321,0.979675,0,0,6105.011,5,20,2025-04-22T12:34:07.576+03:00,767007252.8263695,0,-21.7,100.4629,1,0.8,2025-04-22T12:34:13.658+03:00,85,1.416666666666667,2025-04-22T09:54:17.825+03:00,0.02225348692287972,0
2025-04-22T12:34:54.074+03:00,1745314493.241297,40.95228637145338,29.14029869593124,76.51794,-1,-1,-1,-1,30,26.39571644227393,-9999,30684.284324,-0.7609710693359375,0.5926666259765625,-0.2471923828125,30684.274248,-0.7382426509447372,-1.257733473469539,-0.6307304436280322,0.004010210745036602,-0.006164669059216976,0.00410767737776041,0.00616687536239624,0.0002613663673400879,0.004501938819885254,XArbitraryZVertical,-0.4356972420846572,-0.4310550694813492,-0.1072260684790803,0.782854966902012,-0.7683433890342712,0.5897347927093506,-0.2487188875675201,0,0,0,-1,-1,30655.205061625,unknown,2,2025-04-22T12:34:04.997+03:00,2025-04-21T17:08:51.449+03:00,7321,0.979675,0,0,6105.011,5,20,2025-04-22T12:34:07.576+03:00,767007252.8263695,0,-21.7,100.4629,1,0.8,2025-04-22T12:34:13.658+03:00,85,1.416666666666667,2025-04-22T09:54:17.825+03:00,0.02225348692287972,0
2025-04-22T12:34:54.084+03:00,1745314493.241297,40.95228637145338,29.14029869593124,76.51794,-1,-1,-1,-1,30,26.39571644227393,-9999,30684.2944,-0.76544189453125,0.591888427734375,-0.246490478515625,30684.284324,-0.7381943511738611,-1.257786481606612,-0.6307643669517438,0.00271804491057992,-0.008160707540810108,0.004682387690991163,0.007275044918060303,-0.001032471656799316,0.001220166683197021,XArbitraryZVertical,-0.43570069830673,-0.431078756957345,-0.1071852494416206,0.7828456393778049,-0.768337607383728,0.5897622108459473,-0.2486720085144043,0,0,0,-1,-1,30655.205061625,unknown,2,2025-04-22T12:34:04.997+03:00,2025-04-21T17:08:51.449+03:00,7321,0.979675,0,0,6105.011,5,20,2025-04-22T12:34:07.576+03:00,767007252.8263695,0,-21.7,100.4629,1,0.8,2025-04-22T12:34:13.658+03:00,85,1.416666666666667,2025-04-22T09:54:17.825+03:00,0.02225348692287972,0
2025-04-22T12:34:54.094+03:00,1745314493.241297,40.95228637145338,29.14029869593124,76.51794,-1,-1,-1,-1,30,26.39571644227393,-9999,30684.304476,-0.766082763671875,0.5893402099609375,-0.2473602294921875,30684.2944,-0.7381420836693841,-1.257831310110852,-0.6307852725666026,0.00741373049095273,-0.004454386420547962,0.003692490281537175,0.006343603134155273,0.002460122108459473,0.001426100730895996,XArbitraryZVertical,-0.4356986575671457,-0.4311030060680774,-0.1071486140129848,0.7828383969170072,-0.7683370113372803,0.5897790789604187,-0.2486337572336197,0,0,0,-1,-1,30655.205061625,unknown,2,2025-04-22T12:34:04.997+03:00,2025-04-21T17:08:51.449+03:00,7321,0.979675,0,0,6105.011,5,20,2025-04-22T12:34:07.576+03:00,767007252.8263695,0,-21.7,100.4629,1,0.8,2025-04-22T12:34:13.658+03:00,85,1.416666666666667,2025-04-22T09:54:17.825+03:00,0.02225348692287972,0
2025-04-22T12:34:54.104+03:00,1745314493.241297,40.95228637145338,29.14029869593124,76.51794,-1,-1,-1,-1,30,26.39571644227393,-9999,30684.314552,-0.764373779296875,0.5910797119140625,-0.2501983642578125,30684.304476,-0.7380608558976914,-1.257841800829913,-0.6308135156814413,0.004764684475958347,-0.00549648143351078,0.003819789504632354,0.002683520317077637,0.001933813095092773,0.002206385135650635,XArbitraryZVertical,-0.4356909042352493,-0.4311184887518288,-0.1071058924346738,0.7828400367131773,-0.7683237791061401,0.5898019075393677,-0.2486205697059631,0,0,0,-1,-1,30655.205061625,unknown,2,2025-04-22T12:34:04.997+03:00,2025-04-21T17:08:51.449+03:00,7321,0.979675,0,0,6105.011,5,20,2025-04-22T12:34:07.576+03:00,767007252.8263695,0,-21.7,100.4629,1,0.8,2025-04-22T12:34:13.658+03:00,85,1.416666666666667,2025-04-22T09:54:17.825+03:00,0.02225348692287972,0
2025-04-22T12:34:54.115+03:00,1745314493.241297,40.95228637145338,29.14029869593124,76.51794,-1,-1,-1,-1,30,26.39571644227393,-9999,30684.324628,-0.7659912109375,0.5881195068359375,-0.2486572265625,30684.314552,-0.7380144961013181,-1.257884180604527,-0.6308596123566764,0.002928301459178329,-0.004889946430921555,0.00676944013684988,0.002576589584350586,-0.0001328587532043457,0.0008989572525024414,XArbitraryZVertical,-0.4356981955249439,-0.4311348595577848,-0.1070644008263859,0.7828326218152077,-0.7683084011077881,0.5898391008377075,-0.2485796362161636,0,0,0,-1,-1,30655.205061625,unknown,2,2025-04-22T12:34:04.997+03:00,2025-04-21T17:08:51.449+03:00,7321,0.979675,0,0,6105.011,5,20,2025-04-22T12:34:07.576+03:00,767007294.1014569,0,-21.43999,100.4609,1,0.8,2025-04-22T12:34:13.658+03:00,85,1.416666666666667,2025-04-22T09:54:17.825+03:00,0.02225348692287972,0
2025-04-22T12:34:54.124+03:00,1745314493.241297,40.95228637145338,29.14029869593124,76.51794,-1,-1,-1,-1,30,26.39571644227393,-9999,30684.334705,-0.7677154541015625,0.5881195068359375,-0.249603271484375,30684.324628,-0.7379602814104687,-1.257887767511691,-0.6309000725936393,0.00382978143170476,-0.002549028024077415,0.006741609890013933,0.003775537014007568,0.001421332359313965,-0.002178177237510681,XArbitraryZVertical,-0.4356998708172887,-0.4311390225113196,-0.107030018453879,0.7828341059737407,-0.7682865858078003,0.5898718237876892,-0.2485695332288742,0,0,0,-1,-1,30655.205061625,unknown,2,2025-04-22T12:34:04.997+03:00,2025-04-21T17:08:51.449+03:00,7321,0.979675,0,0,6105.011,5,20,2025-04-22T12:34:07.576+03:00,767007294.1014569,0,-21.43999,100.4609,1,0.8,2025-04-22T12:34:13.658+03:00,85,1.416666666666667,2025-04-22T09:54:17.825+03:00,0.02225348692287972,0
2025-04-22T12:34:54.135+03:00,1745314493.241297,40.95228637145338,29.14029869593124,76.51794,-1,-1,-1,-1,30,26.39571644227393,-9999,30684.344781,-0.7668914794921875,0.5911407470703125,-0.252044677734375,30684.334705,-0.73783942124609,-1.257858577434906,-0.6309593406103242,0.00928899459540844,-0.005065182223916054,0.01083355769515038,0.001446127891540527,-0.002624213695526123,-0.0003507435321807861,XArbitraryZVertical,-0.4356915228418596,-0.4311406768584428,-0.1069709550263855,0.7828459867434847,-0.7682461738586426,0.5899196863174438,-0.2485812306404114,0,0,0,-1,-1,30655.205061625,unknown,2,2025-04-22T12:34:04.997+03:00,2025-04-21T17:08:51.449+03:00,7321,0.979675,0,0,6105.011,5,20,2025-04-22T12:34:07.576+03:00,767007294.1014569,0,-21.43999,100.4609,1,0.8,2025-04-22T12:34:13.658+03:00,85,1.416666666666667,2025-04-22T09:54:17.825+03:00,0.02225348692287972,0
2025-04-22T12:34:54.145+03:00,1745314493.241297,40.95228637145338,29.14029869593124,76.51794,-1,-1,-1,-1,30,26.39571644227393,-9999,30684.354857,-0.7681121826171875,0.5925445556640625,-0.2512359619140625,30684.344781,-0.7376823395765651,-1.257802855648337,-0.6310370115451983,0.009538399986922741,-0.00335982721298933,0.010135343298316,0.0007784366607666016,-0.002107143402099609,-0.00119173526763916,XArbitraryZVertical,-0.4356799689870239,-0.4311357093627889,-0.1068978392243638,0.7828651474828541,-0.7681887149810791,0.5899823904037476,-0.2486099302768707,0,0,0,-1,-1,30655.205061625,unknown,2,2025-04-22T12:34:04.997+03:00,2025-04-21T17:08:51.449+03:00,7321,0.979675,0,0,6105.011,5,20,2025-04-22T12:34:07.576+03:00,767007294.1014569,0,-21.43999,100.4609,1,0.8,2025-04-22T12:34:13.658+03:00,85,1.416666666666667,2025-04-22T09:54:17.825+03:00,0.02225348692287972,0
2025-04-22T12:34:54.155+03:00,1745314493.241297,40.95228637145338,29.14029869593124,76.51794,-1,-1,-1,-1,30,26.39571644227393,-9999,30684.364933,-0.7694854736328125,0.58978271484375,-0.2477874755859375,30684.354857,-0.7375440548712769,-1.257766357520832,-0.6311042513338712,0.007574851624667645,-0.001618119888007641,0.01004825718700886,0.0005484819412231445,0.001439571380615234,-0.003113791346549988,XArbitraryZVertical,-0.4356701487167801,-0.431136487481748,-0.1068310470911519,0.7828791929224174,-0.7681417465209961,0.5900366902351379,-0.2486256957054138,0,0,0,-1,-1,30655.205061625,unknown,2,2025-04-22T12:34:04.997+03:00,2025-04-21T17:08:51.449+03:00,7321,0.979675,0,0,6105.011,5,20,2025-04-22T12:34:07.576+03:00,767007294.1014569,0,-21.43999,100.4609,1,0.8,2025-04-22T12:34:13.658+03:00,85,1.416666666666667,2025-04-22T09:54:17.825+03:00,0.02225348692287972,0
2025-04-22T12:34:54.165+03:00,1745314493.241297,40.95228637145338,29.14029869593124,76.51794,-1,-1,-1,-1,30,26.39571644227393,-9999,30684.375009,-0.768463134765625,0.5917510986328125,-0.245269775390625,30684.364933,-0.7374025769332989,-1.257681959550657,-0.6311743832506604,0.01064154878258705,1.126853749155998e-05,0.008993945084512234,-0.0009920001029968262,0.002084910869598389,-0.00144428014755249,XArbitraryZVertical,-0.4356579647480904,-0.4311185874970335,-0.1067726022683221,0.782903846105408,-0.7680814862251282,0.5900933146476746,-0.2486778050661087,0,0,0,-1,-1,30655.205061625,unknown,2,2025-04-22T12:34:04.997+03:00,2025-04-21T17:08:51.449+03:00,7321,0.979675,0,0,6105.011,5,20,2025-04-22T12:34:07.576+03:00,767007294.1014569,0,-21.43999,100.4609,1,0.8,2025-04-22T12:34:13.658+03:00,85,1.416666666666667,2025-04-22T09:54:17.825+03:00,0.02225348692287972,0
2025-04-22T12:34:54.175+03:00,1745314493.241297,40.95228637145338,29.14029869593124,76.51794,-1,-1,-1,-1,30,26.39571644227393,-9999,30684.385085,-0.765380859375,0.59326171875,-0.2449493408203125,30684.375009,-0.7372555935091415,-1.257592168237994,-0.6312272636937781,0.009103839285671711,0.0006855810061097145,0.005998421926051378,-0.001318693161010742,-2.443790435791016e-06,0.001025974750518799,XArbitraryZVertical,-0.4356387124742905,-0.4311036258737069,-0.1067184394402276,0.7829301777913097,-0.7680294513702393,0.5901359915733337,-0.2487371563911438,0,0,0,-1,-1,30655.205061625,unknown,2,2025-04-22T12:34:04.997+03:00,2025-04-21T17:08:51.449+03:00,7321,0.979675,0,0,6105.011,5,20,2025-04-22T12:34:07.576+03:00,767007294.1014569,0,-21.43999,100.4609,1,0.8,2025-04-22T12:34:13.658+03:00,85,1.416666666666667,2025-04-22T09:54:17.825+03:00,0.02225348692287972,0
2025-04-22T12:34:54.185+03:00,1745314493.241297,40.95228637145338,29.14029869593124,76.51794,-1,-1,-1,-1,30,26.39571644227393,-9999,30684.395161,-0.764739990234375,0.5901336669921875,-0.246124267578125,30684.385085,-0.7370797220593681,-1.257466658600612,-0.6312538999921228,0.01735837385058403,0.004079579841345549,0.007639095652848482,5.424022674560547e-05,0.002112269401550293,0.003055393695831299,XArbitraryZVertical,-0.4356027729241381,-0.4310868455659791,-0.1066687854636383,0.782966205804874,-0.7679833173751831,0.5901575088500977,-0.2488287091255188,0,0,0,-1,-1,30655.205061625,unknown,2,2025-04-22T12:34:04.997+03:00,2025-04-21T17:08:51.449+03:00,7321,0.979675,0,0,6105.011,5,20,2025-04-22T12:34:07.576+03:00,767007294.1014569,0,-21.43999,100.4609,1,0.8,2025-04-22T12:34:13.658+03:00,85,1.416666666666667,2025-04-22T09:54:17.825+03:00,0.02225348692287972,0
2025-04-22T12:34:54.195+03:00,1745314493.241297,40.95228637145338,29.14029869593124,76.51794,-1,-1,-1,-1,30,26.39571644227393,-9999,30684.405238,-0.764801025390625,0.585906982421875,-0.245208740234375,30684.395161,-0.7368866972317186,-1.257294555216788,-0.6312787189267343,0.01465712860226631,0.006539541762322187,0.007584234233945608,0.002759218215942383,0.002092301845550537,0.003717094659805298,XArbitraryZVertical,-0.4355600710851984,-0.4310559590227127,-0.1066231102061467,0.7830132000110713,-0.7679265737533569,0.5901775360107422,-0.2489563673734665,0,0,0,-1,-1,30655.205061625,unknown,2,2025-04-22T12:34:04.997+03:00,2025-04-21T17:08:51.449+03:00,7321,0.979675,0,0,6105.011,5,20,2025-04-22T12:34:07.576+03:00,767007294.1014569,0,-21.43999,100.4609,1,0.8,2025-04-22T12:34:13.658+03:00,85,1.416666666666667,2025-04-22T09:54:17.825+03:00,0.02225348692287972,0
2025-04-22T12:34:54.206+03:00,1745314493.241297,40.95228637145338,29.14029869593124,76.51794,-1,-1,-1,-1,30,26.39571644227393,-9999,30684.415314,-0.7640228271484375,0.584930419921875,-0.245208740234375,30684.405238,-0.736715507461706,-1.257132214030688,-0.6313093406562134,0.0127374567091465,0.003754341509193182,0.006125587970018387,0.003174662590026855,-0.001014828681945801,0.002356067299842834,XArbitraryZVertical,-0.4355245313139841,-0.4310228209315725,-0.1065820457804693,0.7830567223264799,-0.7678688168525696,0.5902022123336792,-0.2490754276514053,0,0,0,-1,-1,30655.205061625,unknown,2,2025-04-22T12:34:04.997+03:00,2025-04-21T17:08:51.449+03:00,7321,0.979675,0,0,6105.011,5,20,2025-04-22T12:34:07.576+03:00,767007294.1014569,0,-21.43999,100.4609,1,0.8,2025-04-22T12:34:13.658+03:00,85,1.416666666666667,2025-04-22T09:54:17.825+03:00,0.02225348692287972,0
2025-04-22T12:34:54.215+03:00,1745314493.241297,40.95228637145338,29.14029869593124,76.51794,-1,-1,-1,-1,30,26.39571644227393,-9999,30684.42539,-0.76580810546875,0.5843658447265625,-0.24676513671875,30684.415314,-0.7365797607993299,-1.257019334514128,-0.6313281571640961,0.006880632601678371,0.002921304665505886,0.006130115129053593,0.003975272178649902,-0.00493621826171875,0.004453495144844055,XArbitraryZVertical,-0.4354953793424305,-0.4310039824512559,-0.1065477307378799,0.7830880078370588,-0.7678301930427551,0.5902174115180969,-0.2491586804389954,0,0,0,-1,-1,30655.205061625,unknown,2,2025-04-22T12:34:04.997+03:00,2025-04-21T17:08:51.449+03:00,7321,0.979675,0,0,6105.011,5,20,2025-04-22T12:34:07.576+03:00,767007294.1014569,0,-21.43999,100.4609,1,0.8,2025-04-22T12:34:13.658+03:00,85,1.416666666666667,2025-04-22T09:54:17.825+03:00,0.02225348692287972,0
2025-04-22T12:34:54.225+03:00,1745314493.241297,40.95228637145338,29.14029869593124,76.51794,-1,-1,-1,-1,30,26.39571644227393,-9999,30684.435466,-0.7663726806640625,0.58258056640625,-0.24700927734375,30684.42539,-0.7364529907084473,-1.25692071267273,-0.6313464532851979,0.007418524473905563,0.002234941348433495,0.003497280646115541,0.003574192523956299,-0.005088329315185547,0.003732413053512573,XArbitraryZVertical,-0.4354687923779156,-0.4309888712164939,-0.1065139526217177,0.7831156482647403,-0.7677952647209167,0.5902321934700012,-0.2492310404777527,0,0,0,-1,-1,30655.205061625,unknown,2,2025-04-22T12:34:04.997+03:00,2025-04-21T17:08:51.449+03:00,7321,0.979675,0,0,6105.011,5,20,2025-04-22T12:34:07.576+03:00,767007294.1014569,0,-21.43999,100.4609,1,0.8,2025-04-22T12:34:13.658+03:00,85,1.416666666666667,2025-04-22T09:54:17.825+03:00,0.02225348692287972,0
2025-04-22T12:34:54.235+03:00,1745314493.241297,40.95228637145338,29.14029869593124,76.51794,-1,-1,-1,-1,30,26.39571644227393,-9999,30684.445542,-0.766571044921875,0.5837554931640625,-0.249603271484375,30684.435466,-0.7363854401160256,-1.256852990830932,-0.6313660172746857,0.003663200885057449,0.001664492301642895,0.004085839260369539,0.001486361026763916,-0.005287230014801025,0.002544894814491272,XArbitraryZVertical,-0.4354569983641287,-0.4309726909539229,-0.1064962681741652,0.7831335316302264,-0.7677674293518066,0.5902479887008667,-0.2492794841527939,0,0,0,-1,-1,30655.205061625,unknown,2,2025-04-22T12:34:04.997+03:00,2025-04-21T17:08:51.449+03:00,7321,0.979675,0,0,6105.011,5,20,2025-04-22T12:34:07.576+03:00,767007294.1014569,0,-21.43999,100.4609,1,0.8,2025-04-22T12:34:13.658+03:00,85,1.416666666666667,2025-04-22T09:54:17.825+03:00,0.02225348692287972,0
2025-04-22T12:34:54.246+03:00,1745314493.241297,40.95228637145338,29.14029869593124,76.51794,-1,-1,-1,-1,30,26.39571644227393,-9999,30684.455618,-0.7657318115234375,0.5860443115234375,-0.2502899169921875,30684.445542,-0.7363804152065671,-1.256831017621476,-0.631403820841151,-0.001136680948548019,-8.820043876767159e-05,0.001386958640068769,0.001551270484924316,-0.00746917724609375,0.001852929592132568,XArbitraryZVertical,-0.4354670265511201,-0.4309567451138714,-0.1064875516483989,0.7831380088838852,-0.7677408456802368,0.5902785062789917,-0.2492895126342773,0,0,0,-1,-1,30655.205061625,unknown,2,2025-04-22T12:34:04.997+03:00,2025-04-21T17:08:51.449+03:00,7321,0.979675,0,0,6105.011,5,20,2025-04-22T12:34:07.576+03:00,767007294.1014569,0,-21.43999,100.4609,1,0.8,2025-04-22T12:34:13.658+03:00,85,1.416666666666667,2025-04-22T09:54:17.825+03:00,0.02225348692287972,0
2025-04-22T12:34:54.256+03:00,1745314493.241297,40.95228637145338,29.14029869593124,76.51794,-1,-1,-1,-1,30,26.39571644227393,-9999,30684.465695,-0.7667694091796875,0.582855224609375,-0.2493133544921875,30684.455618,-0.7364133508270398,-1.256859582324722,-0.6314359523427804,-0.0103349732235074,0.0004982277750968933,0.002433847403153777,0.00160139799118042,-0.006137073040008545,-0.001043498516082764,XArbitraryZVertical,-0.4354861182912706,-0.4309535748979171,-0.106484397368762,0.7831295578963162,-0.7677299380302429,0.590304434299469,-0.2492617070674896,0,0,0,-1,-1,30655.205061625,unknown,2,2025-04-22T12:34:04.997+03:00,2025-04-21T17:08:51.449+03:00,7321,0.979675,0,0,6105.011,5,20,2025-04-22T12:34:07.576+03:00,767007294.1014569,0,-21.43999,100.4609,1,0.8,2025-04-22T12:34:13.658+03:00,85,1.416666666666667,2025-04-22T09:54:17.825+03:00,0.02225348692287972,0
2025-04-22T12:34:54.266+03:00,1745314493.241297,40.95228637145338,29.14029869593124,76.51794,-1,-1,-1,-1,30,26.39571644227393,-9999,30684.475771,-0.7688446044921875,0.5802459716796875,-0.2528076171875,30684.465695,-0.7365783977882499,-1.256927907642315,-0.631516629920324,-0.0195457823574543,0.006637879181653261,0.004895274061709642,0.003098905086517334,-0.004538953304290771,-0.0008817613124847412,XArbitraryZVertical,-0.4355516079284747,-0.4309263512385089,-0.1065094652820348,0.7831047075452577,-0.7677016258239746,0.5903695821762085,-0.249194547533989,0,0,0,-1,-1,30655.205061625,unknown,2,2025-04-22T12:34:04.997+03:00,2025-04-21T17:08:51.449+03:00,7321,0.979675,0,0,6105.011,5,20,2025-04-22T12:34:07.576+03:00,767007294.1014569,0,-21.43999,100.4609,1,0.8,2025-04-22T12:34:13.658+03:00,85,1.416666666666667,2025-04-22T09:54:17.825+03:00,0.02225348692287972,0
2025-04-22T12:34:54.276+03:00,1745314493.241297,40.95228637145338,29.14029869593124,76.51794,-1,-1,-1,-1,30,26.39571644227393,-9999,30684.485847,-0.7627105712890625,0.5815582275390625,-0.2563629150390625,30684.475771,-0.736848148396511,-1.257038659396271,-0.6316519272787684,-0.02641007862985134,0.004187238402664661,0.006827397271990776,0.0003954768180847168,-0.008386552333831787,-0.00079306960105896,XArbitraryZVertical,-0.4356596951103041,-0.4308807126829183,-0.1065495800942029,0.7830642607549746,-0.7676532864570618,0.590478777885437,-0.2490848898887634,0,0,0,-1,-1,30655.205061625,unknown,2,2025-04-22T12:34:04.997+03:00,2025-04-21T17:08:51.449+03:00,7321,0.979675,0,0,6105.011,5,20,2025-04-22T12:34:07.576+03:00,767007294.1014569,0,-21.43999,100.4609,1,0.8,2025-04-22T12:34:13.658+03:00,85,1.416666666666667,2025-04-22T09:54:17.825+03:00,0.02225348692287972,0
2025-04-22T12:34:54.286+03:00,1745314493.241297,40.95228637145338,29.14029869593124,76.51794,-1,-1,-1,-1,30,26.39571644227393,-9999,30684.495923,-0.760772705078125,0.5903472900390625,-0.248870849609375,30684.485847,-0.7371137076208527,-1.257165430144112,-0.6318058140131277,-0.02417794987559319,0.00212235632352531,0.01037878915667534,-0.0006206035614013672,-0.01087582111358643,-0.003756552934646606,XArbitraryZVertical,-0.4357737686336181,-0.4308380782446981,-0.1065788668183216,0.7830202979172137,-0.7675984501838684,0.5906029343605042,-0.2489595413208008,0,0,0,-1,-1,30655.205061625,unknown,2,2025-04-22T12:34:04.997+03:00,2025-04-21T17:08:51.449+03:00,7321,0.979675,0,0,6105.011,5,20,2025-04-22T12:34:07.576+03:00,767007294.1014569,0,-21.43999,100.4609,1,0.8,2025-04-22T12:34:13.658+03:00,85,1.416666666666667,2025-04-22T09:54:17.825+03:00,0.02225348692287972,0
2025-04-22T12:34:54.296+03:00,1745314493.241297,40.95228637145338,29.14029869593124,76.51794,-1,-1,-1,-1,30,26.39571644227393,-9999,30684.505999,-0.767974853515625,0.5906829833984375,-0.2453765869140625,30684.495923,-0.7373282251889022,-1.257245478716574,-0.6319776210588905,-0.01587953977286816,0.006244397256523371,0.01167707983404398,0.005421578884124756,-0.00796276330947876,-0.007419884204864502,XArbitraryZVertical,-0.4358802220343201,-0.4307842233948287,-0.1065928196971696,0.782988711863535,-0.7675217986106873,0.5907415747642517,-0.2488667666912079,0,0,0,-1,-1,30655.205061625,unknown,2,2025-04-22T12:34:04.997+03:00,2025-04-21T17:08:51.449+03:00,7321,0.979675,0,0,6105.011,5,20,2025-04-22T12:34:07.576+03:00,767007294.1014569,0,-21.43999,100.4609,1,0.8,2025-04-22T12:34:13.658+03:00,85,1.416666666666667,2025-04-22T09:54:17.825+03:00,0.02225348692287972,0
2025-04-22T12:34:54.306+03:00,1745314493.241297,40.95228637145338,29.14029869593124,76.51794,-1,-1,-1,-1,30,26.39571644227393,-9999,30684.516075,-0.7679290771484375,0.598663330078125,-0.2420806884765625,30684.505999,-0.7373682990977342,-1.257185135598301,-0.6321045866004881,0.004152756184339523,0.008342701941728592,0.008797803893685341,0.005152046680450439,-8.642673492431641e-06,0.0007820278406143188,XArbitraryZVertical,-0.4359270091615251,-0.4307234446237531,-0.1065827913295288,0.7829974003680433,-0.7674353122711182,0.5908440351486206,-0.2488899081945419,0,0,0,-1,-1,30655.205061625,unknown,2,2025-04-22T12:34:04.997+03:00,2025-04-21T17:08:51.449+03:00,7321,0.979675,0,0,6105.011,5,20,2025-04-22T12:34:07.576+03:00,767007294.1014569,0,-21.43999,100.4609,1,0.8,2025-04-22T12:34:13.658+03:00,85,1.416666666666667,2025-04-22T09:54:17.825+03:00,0.02225348692287972,0
2025-04-22T12:34:54.316+03:00,1745314493.241297,40.95228637145338,29.14029869593124,76.51794,-1,-1,-1,-1,30,26.39571644227393,-9999,30684.526152,-0.7686004638671875,0.6009674072265625,-0.2341766357421875,30684.516075,-0.7372700256023417,-1.257043095915365,-0.6321864148727319,0.004127189982682467,0.00887240469455719,0.01285912375897169,-0.001231193542480469,-0.0008070468902587891,0.004507675766944885,XArbitraryZVertical,-0.4359249216846592,-0.4306709455996036,-0.1065502426075185,0.7830318768622682,-0.7673539519309998,0.590910017490387,-0.2489839941263199,0,0,0,-1,-1,30655.205061625,unknown,2,2025-04-22T12:34:04.997+03:00,2025-04-21T17:08:51.449+03:00,7321,0.979675,0,0,6105.011,5,20,2025-04-22T12:34:07.576+03:00,767007294.1014569,0,-21.43999,100.4609,1,0.8,2025-04-22T12:34:13.658+03:00,85,1.416666666666667,2025-04-22T09:54:17.825+03:00,0.02225348692287972,0
2025-04-22T12:34:54.326+03:00,1745314493.241297,40.95228637145338,29.14029869593124,76.51794,-1,-1,-1,-1,30,26.39571644227393,-9999,30684.536228,-0.7677001953125,0.577972412109375,-0.2451629638671875,30684.526152,-0.7372341262064704,-1.256883806859881,-0.6322910457596689,-0.005562654696404934,0.01868115924298763,0.01227965392172337,-0.0007040500640869141,0.009194672107696533,0.008623838424682617,XArbitraryZVertical,-0.43594277643651,-0.4305929937364901,-0.1065389004933856,0.7830663601636505,-0.7672554850578308,0.5909944176673889,-0.2490871399641037,0,0,0,-1,-1,30655.205061625,unknown,2,2025-04-22T12:34:04.997+03:00,2025-04-21T17:08:51.449+03:00,7321,0.979675,0,0,6105.011,5,20,2025-04-22T12:34:07.576+03:00,767007294.1014569,0,-21.43999,100.4609,1,0.8,2025-04-22T12:34:13.658+03:00,85,1.416666666666667,2025-04-22T09:54:17.825+03:00,0.02225348692287972,0
2025-04-22T12:34:54.337+03:00,1745314493.241297,40.95228637145338,29.14029869593124,76.51794,-1,-1,-1,-1,30,26.39571644227393,-9999,30684.546304,-0.761566162109375,0.579071044921875,-0.2507781982421875,30684.536228,-0.7373509495265677,-1.256730443854575,-0.6324348154936974,-0.02033547684550285,0.01935946568846703,0.01039120648056269,-0.001738607883453369,0.008468270301818848,0.01492561399936676,XArbitraryZVertical,-0.4360065893302189,-0.4304753013290893,-0.1065740809751757,0.7830907187284596,-0.7671364545822144,0.5911104083061218,-0.2491785436868668,0,0,0,-1,-1,30655.205061625,unknown,2,2025-04-22T12:34:04.997+03:00,2025-04-21T17:08:51.449+03:00,7321,0.979675,0,0,6105.011,5,20,2025-04-22T12:34:07.576+03:00,767007294.1014569,0,-21.43999,100.4609,1,0.8,2025-04-22T12:34:13.658+03:00,85,1.416666666666667,2025-04-22T09:54:17.825+03:00,0.02225348692287972,0
2025-04-22T12:34:54.346+03:00,1745314493.241297,40.95228637145338,29.14029869593124,76.51794,-1,-1,-1,-1,30,26.39571644227393,-9999,30684.55638,-0.754119873046875,0.5941009521484375,-0.254150390625,30684.546304,-0.7375946843010467,-1.256737687264718,-0.6326066031500991,-0.02709577605128288,0.005021140445023775,0.008058476261794567,-0.0003990530967712402,-0.01530611515045166,0.0018271803855896,XArbitraryZVertical,-0.4361153502420498,-0.430386552938025,-0.1066154011153767,0.7830733666487755,-0.7670417428016663,0.5912489891052246,-0.2491416335105896,0,0,0,-1,-1,30655.205061625,unknown,2,2025-04-22T12:34:04.997+03:00,2025-04-21T17:08:51.449+03:00,7321,0.979675,0,0,6105.011,5,20,2025-04-22T12:34:07.576+03:00,767007294.1014569,0,-21.43999,100.4609,1,0.8,2025-04-22T12:34:13.658+03:00,85,1.416666666666667,2025-04-22T09:54:17.825+03:00,0.02225348692287972,0
2025-04-22T12:34:54.357+03:00,1745314493.241297,40.95228637145338,29.14029869593124,76.51794,-1,-1,-1,-1,30,26.39571644227393,-9999,30684.56645679167,-0.7574920654296875,0.5899505615234375,-0.25469970703125,30684.55638,-0.7378598742417459,-1.256906753076545,-0.632723603697344,-0.0247695054858923,-0.004999801516532898,0.006108243949711323,0.00607752799987793,-0.009693682193756104,-0.00154346227645874,XArbitraryZVertical,-0.4362195108436805,-0.4303687224517849,-0.106646575756388,0.7830209343365203,-0.7670180797576904,0.5913433432579041,-0.2489905953407288,0,0,0,-1,-1,30655.205061625,unknown,2,2025-04-22T12:34:04.997+03:00,2025-04-21T17:08:51.449+03:00,7321,0.979675,0,0,6105.011,5,20,2025-04-22T12:34:07.576+03:00,767007294.1014569,0,-21.43999,100.4609,1,0.8,2025-04-22T12:34:13.658+03:00,85,1.416666666666667,2025-04-22T09:54:17.825+03:00,0.02225348692287972,0
2025-04-22T12:34:54.367+03:00,1745314493.241297,40.95228637145338,29.14029869593124,76.51794,-1,-1,-1,-1,30,26.39571644227393,-9999,30684.57653279167,-0.7640533447265625,0.588043212890625,-0.251678466796875,30684.56645679167,-0.7381231287238272,-1.257162196216195,-0.6327984272172947,-0.02305576205253601,-0.01198181137442589,-0.000449790240963921,0.01360630989074707,0.003521203994750977,-0.005888193845748901,XArbitraryZVertical,-0.4363141263970462,-0.4303945507935671,-0.1066710345208562,0.7829507193851077,-0.7670395970344543,0.5914036631584167,-0.2487810254096985,0,0,0,-1,-1,30655.205061625,unknown,2,2025-04-22T12:34:04.997+03:00,2025-04-21T17:08:51.449+03:00,7321,0.979675,0,0,6105.011,5,20,2025-04-22T12:34:07.576+03:00,767007294.1014569,0,-21.43999,100.4609,1,0.8,2025-04-22T12:34:13.658+03:00,85,1.416666666666667,2025-04-22T09:54:17.825+03:00,0.02225348692287972,0
2025-04-22T12:34:54.377+03:00,1745314493.241297,40.95228637145338,29.14029869593124,76.51794,-1,-1,-1,-1,30,26.39571644227393,-9999,30684.58660979167,-0.76177978515625,0.5970306396484375,-0.2553558349609375,30684.57653279167,-0.7383840422554111,-1.257429671984052,-0.6328284281934604,-0.0220181941986084,-0.01661464758217335,-0.005337489768862724,0.008635759353637695,-0.002347111701965332,-0.005732625722885132,XArbitraryZVertical,-0.4363943123463265,-0.4304356093885906,-0.1067056305066263,0.7828787325529215,-0.7670892477035522,0.5914278626441956,-0.2485703825950623,0,0,0,-1,-1,30655.205061625,unknown,2,2025-04-22T12:34:04.997+03:00,2025-04-21T17:08:51.449+03:00,7321,0.979675,0,0,6105.011,5,20,2025-04-22T12:34:07.576+03:00,767007294.1014569,0,-21.43999,100.4609,1,0.8,2025-04-22T12:34:13.658+03:00,85,1.416666666666667,2025-04-22T09:54:17.825+03:00,0.02225348692287972,0
2025-04-22T12:34:54.386+03:00,1745314493.241297,40.95228637145338,29.14029869593124,76.51794,-1,-1,-1,-1,30,26.39571644227393,-9999,30684.59668579167,-0.7600250244140625,0.594024658203125,-0.2503509521484375,30684.58660979167,-0.7386351819923674,-1.2577511806426,-0.6328312953696503,-0.01728282682597637,-0.01829802989959717,-0.00853261724114418,0.003403961658477783,-0.002410471439361572,-0.003614693880081177,XArbitraryZVertical,-0.4364664540401558,-0.4305060093774077,-0.1067328964314634,0.7827960870393852,-0.7671675086021423,0.5914301872253418,-0.2483232170343399,0,0,0,-1,-1,30655.205061625,unknown,2,2025-04-22T12:34:04.997+03:00,2025-04-21T17:08:51.449+03:00,7321,0.979675,0,0,6105.011,5,20,2025-04-22T12:34:07.576+03:00,767007294.1014569,0,-21.43999,100.4609,1,0.8,2025-04-22T12:34:13.658+03:00,85,1.416666666666667,2025-04-22T09:54:17.825+03:00,0.02225348692287972,0
2025-04-22T12:34:54.397+03:00,1745314493.241297,40.95228637145338,29.14029869593124,76.51794,-1,-1,-1,-1,30,26.39571644227393,-9999,30684.60676179167,-0.76031494140625,0.5924072265625,-0.248779296875,30684.59668579167,-0.738871403901725,-1.258091276089476,-0.6327948856736165,-0.01227075792849064,-0.01987994834780693,-0.009261258877813816,0.006072342395782471,0.005629777908325195,-0.006981760263442993,XArbitraryZVertical,-0.4365236159976699,-0.4305957184294284,-0.1067622682646502,0.7827108599145769,-0.767272412776947,0.5914008021354675,-0.2480689138174057,0,0,0,-1,-1,30655.205061625,unknown,2,2025-04-22T12:34:04.997+03:00,2025-04-21T17:08:51.449+03:00,7321,0.979675,0,0,6105.011,5,20,2025-04-22T12:34:07.576+03:00,767007294.1014569,0,-21.43999,100.4609,1,0.8,2025-04-22T12:34:13.658+03:00,85,1.416666666666667,2025-04-22T09:54:17.825+03:00,0.02225348692287972,0
2025-04-22T12:34:54.407+03:00,1745314493.241297,40.95228637145338,29.14029869593124,76.51794,-1,-1,-1,-1,30,26.39571644227393,-9999,30684.61683779167,-0.7589263916015625,0.5903472900390625,-0.2492828369140625,30684.60676179167,-0.739046225777867,-1.258426471518752,-0.6327488483325304,-0.007729070261120796,-0.02310403808951378,-0.01122883427888155,0.007646262645721436,0.001882731914520264,-0.002286761999130249,XArbitraryZVertical,-0.4365641691523178,-0.4306990555459776,-0.1067716231716581,0.782630134559952,-0.7673814296722412,0.5913636684417725,-0.2478200942277908,0,0,0,-1,-1,30655.205061625,unknown,2,2025-04-22T12:34:04.997+03:00,2025-04-21T17:08:51.449+03:00,7321,0.979675,0,0,6105.011,5,20,2025-04-22T12:34:07.576+03:00,767007294.1014569,0,-21.43999,100.4609,1,0.8,2025-04-22T12:34:13.658+03:00,85,1.416666666666667,2025-04-22T09:54:17.825+03:00,0.02225348692287972,0
2025-04-22T12:34:54.417+03:00,1745314493.241297,40.95228637145338,29.14029869593124,76.51794,-1,-1,-1,-1,30,26.39571644227393,-9999,30684.62691379167,-0.7600250244140625,0.5891265869140625,-0.250701904296875,30684.61683779167,-0.7392255743458748,-1.258836209972985,-0.6326787296322609,-0.007675007916986942,-0.02814806625247002,-0.01064453739672899,0.007710874080657959,0.000764310359954834,-0.0009710192680358887,XArbitraryZVertical,-0.436601907113825,-0.4308359355925737,-0.1067738040426835,0.7825333573253124,-0.7675222754478455,0.5913071036338806,-0.2475183457136154,0,0,0,-1,-1,30655.205061625,unknown,2,2025-04-22T12:34:04.997+03:00,2025-04-21T17:08:51.449+03:00,7321,0.979675,0,0,6105.011,5,20,2025-04-22T12:34:07.576+03:00,767007294.1014569,0,-21.43999,100.4609,1,0.8,2025-04-22T12:34:13.658+03:00,85,1.416666666666667,2025-04-22T09:54:17.825+03:00,0.02225348692287972,0
2025-04-22T12:34:54.427+03:00,1745314493.241297,40.95228637145338,29.14029869593124,76.51794,-1,-1,-1,-1,30,26.39571644227393,-9999,30684.63698979167,-0.7628326416015625,0.588836669921875,-0.25250244140625,30684.62691379167,-0.7393680904984776,-1.259191065747179,-0.6325574112615401,-0.007953042164444923,-0.02661115676164627,-0.01189808640629053,0.008843481540679932,-0.00087738037109375,-0.001572370529174805,XArbitraryZVertical,-0.4366121170676858,-0.4309708552649302,-0.1067892580154724,0.7824512613642669,-0.7676783204078674,0.5912092924118042,-0.2472679615020752,0,0,0,-1,-1,30655.205061625,unknown,2,2025-04-22T12:34:04.997+03:00,2025-04-21T17:08:51.449+03:00,7321,0.979675,0,0,6105.011,5,20,2025-04-22T12:34:07.576+03:00,767007294.1014569,0,-21.43999,100.4609,1,0.8,2025-04-22T12:34:13.658+03:00,85,1.416666666666667,2025-04-22T09:54:17.825+03:00,0.02225348692287972,0
