loggingTime(txt),locationTimestamp_since1970(s),locationLatitude(WGS84),locationLongitude(WGS84),locationAltitude(m),locationSpeed(m/s),locationSpeedAccuracy(m/s),locationCourse(°),locationCourseAccuracy(°),locationVerticalAccuracy(m),locationHorizontalAccuracy(m),locationFloor(Z),accelerometerTimestamp_sinceReboot(s),accelerometerAccelerationX(G),accelerometerAccelerationY(G),accelerometerAccelerationZ(G),motionTimestamp_sinceReboot(s),motionYaw(rad),motionRoll(rad),motionPitch(rad),motionRotationRateX(rad/s),motionRotationRateY(rad/s),motionRotationRateZ(rad/s),motionUserAccelerationX(G),motionUserAccelerationY(G),motionUserAccelerationZ(G),motionAttitudeReferenceFrame(txt),motionQuaternionX(R),motionQuaternionY(R),motionQuaternionZ(R),motionQuaternionW(R),motionGravityX(G),motionGravityY(G),motionGravityZ(G),motionMagneticFieldX(µT),motionMagneticFieldY(µT),motionMagneticFieldZ(µT),motionHeading(°),motionMagneticFieldCalibrationAccuracy(Z),activityTimestamp_sinceReboot(s),activity(txt),activityActivityConfidence(Z),activityActivityStartDate(txt),pedometerStartDate(txt),pedometerNumberofSteps(N),pedometerAverageActivePace(s/m),pedometerCurrentPace(s/m),pedometerCurrentCadence(steps/s),pedometerDistance(m),pedometerFloorAscended(N),pedometerFloorDescended(N),pedometerEndDate(txt),altimeterTimestamp_sinceReboot(s),altimeterReset(bool),altimeterRelativeAltitude(m),altimeterPressure(kPa),batteryState(N),batteryLevel(R),heartRateBPMTimestamp(txt),heartRateBPM(N),heartRateBPS(R),heartRateVariabilityTimestamp(txt),heartRateVariability(ms),label
2025-04-21T15:17:45.053+03:00,1745237858.398729,40.95225582986527,29.1403179372126,76.30476,-1,-1,-1,-1,30,26.56900642780171,-9999,18147.95668266667,-0.7845001220703125,0.46722412109375,-0.3719635009765625,18147.94660666667,2.548296411186683,-1.132569430967225,-0.4951473810721307,-0.01301659736782312,0.005014078691601753,-0.005511377938091755,-0.008026003837585449,-0.002001702785491943,0.001194238662719727,XArbitraryZVertical,-0.4369725733986188,0.3498131803679881,-0.8208641261077551,-0.1134360030804455,-0.7967530488967896,0.4751613438129425,-0.373371422290802,0,0,0,-1,-1,18145.10641779167,unknown,2,2025-04-21T15:17:42.177+03:00,2025-04-20T21:57:49.637+03:00,6664,0.9638649,0,0,5475.677,5,6,2025-04-21T15:17:44.757+03:00,766930664.8577851,0,-44.09,100.2613,1,0.45,2025-04-21T15:14:45.481+03:00,86,1.433333333333333,2025-04-21T12:30:07.995+03:00,0.02023345852159405,0
2025-04-21T15:17:45.055+03:00,1745237858.398729,40.95225582986527,29.1403179372126,76.30476,-1,-1,-1,-1,30,26.56900642780171,-9999,18147.96675866667,-0.7946014404296875,0.468902587890625,-0.373443603515625,18147.95668266667,2.548130809754834,-1.132595586427132,-0.4951345543911509,-0.01414364762604237,0.003914725966751575,-0.00506183598190546,-0.01527392864227295,-0.01142033934593201,-0.001707911491394043,XArbitraryZVertical,-0.4369566827174311,0.3498460738103167,-0.8208493088762789,-0.1135029730628015,-0.7967683076858521,0.4751500487327576,-0.3733531534671783,0,0,0,-1,-1,18145.10641779167,unknown,2,2025-04-21T15:17:42.177+03:00,2025-04-20T21:57:49.637+03:00,6664,0.9638649,0,0,5475.677,5,6,2025-04-21T15:17:44.757+03:00,766930664.8577851,0,-44.09,100.2613,1,0.45,2025-04-21T15:14:45.481+03:00,86,1.433333333333333,2025-04-21T12:30:07.995+03:00,0.02023345852159405,0
2025-04-21T15:17:45.055+03:00,1745237858.398729,40.95225582986527,29.1403179372126,76.30476,-1,-1,-1,-1,30,26.56900642780171,-9999,18147.97683566667,-0.8008880615234375,0.4731903076171875,-0.3747711181640625,18147.96675866667,2.548004834635788,-1.132558025705826,-0.4951473819835123,-0.0115313520655036,0.007243677042424679,-0.002018109429627657,0.01298105716705322,-0.006930321455001831,0.001233845949172974,XArbitraryZVertical,-0.4369169187982176,0.3498762273749639,-0.8208499869909354,-0.1135575797867001,-0.7967486977577209,0.4751613438129425,-0.3733804523944855,0,0,0,-1,-1,18145.10641779167,unknown,2,2025-04-21T15:17:42.177+03:00,2025-04-20T21:57:49.637+03:00,6664,0.9638649,0,0,5475.677,5,6,2025-04-21T15:17:44.757+03:00,766930664.8577851,0,-44.09,100.2613,1,0.45,2025-04-21T15:14:45.481+03:00,86,1.433333333333333,2025-04-21T12:30:07.995+03:00,0.02023345852159405,0
2025-04-21T15:17:45.063+03:00,1745237858.398729,40.95225582986527,29.1403179372126,76.30476,-1,-1,-1,-1,30,26.56900642780171,-9999,18147.98691166667,-0.796173095703125,0.472259521484375,-0.3748779296875,18147.97683566667,2.54790064844499,-1.132491595362646,-0.4951131263224159,-0.01057927217334509,0.007525173481553793,-0.002652474446222186,0.0002909302711486816,-0.00584721565246582,-0.0009798705577850342,XArbitraryZVertical,-0.4368776297080962,0.349882484027141,-0.8208595036955888,-0.1136216663140105,-0.7967387437820435,0.4751311838626862,-0.3734403550624847,0,0,0,-1,-1,18145.10641779167,unknown,2,2025-04-21T15:17:42.177+03:00,2025-04-20T21:57:49.637+03:00,6664,0.9638649,0,0,5475.677,5,6,2025-04-21T15:17:44.757+03:00,766930664.8577851,0,-44.09,100.2613,1,0.45,2025-04-21T15:14:45.481+03:00,86,1.433333333333333,2025-04-21T12:30:07.995+03:00,0.02023345852159405,0
2025-04-21T15:17:45.073+03:00,1745237858.398729,40.95225582986527,29.1403179372126,76.30476,-1,-1,-1,-1,30,26.56900642780171,-9999,18147.99698766667,-0.7972564697265625,0.46954345703125,-0.374969482421875,18147.98691166667,2.547829766624787,-1.13241479166771,-0.495076933594307,-0.009475525468587875,0.009575674310326576,-0.001212303526699543,-0.003582656383514404,-0.001832842826843262,-0.00170484185218811,XArbitraryZVertical,-0.436840302482039,0.3498801419218017,-0.8208731061144899,-0.1136743200537608,-0.7967256903648376,0.4750993549823761,-0.3735088706016541,0,0,0,-1,-1,18145.10641779167,unknown,2,2025-04-21T15:17:42.177+03:00,2025-04-20T21:57:49.637+03:00,6664,0.9638649,0,0,5475.677,5,6,2025-04-21T15:17:44.757+03:00,766930664.8577851,0,-44.09,100.2613,1,0.45,2025-04-21T15:14:45.481+03:00,86,1.433333333333333,2025-04-21T12:30:07.995+03:00,0.02023345852159405,0
2025-04-21T15:17:45.083+03:00,1745237858.398729,40.95225582986527,29.1403179372126,76.30476,-1,-1,-1,-1,30,26.56900642780171,-9999,18148.00706366667,-0.797088623046875,0.4697113037109375,-0.3725738525390625,18147.99698766667,2.547752802171182,-1.132338046817043,-0.49509106264371,-0.008075501769781113,0.009691255167126656,0.003295895643532276,0.001234889030456543,-0.002943992614746094,-0.001249819993972778,XArbitraryZVertical,-0.4367928138175841,0.349897831109132,-0.8208850182553079,-0.1137152332114024,-0.7966907620429993,0.4751117825508118,-0.3735671043395996,0,0,0,-1,-1,18145.10641779167,unknown,2,2025-04-21T15:17:42.177+03:00,2025-04-20T21:57:49.637+03:00,6664,0.9638649,0,0,5475.677,5,6,2025-04-21T15:17:44.757+03:00,766930664.8577851,0,-44.09,100.2613,1,0.45,2025-04-21T15:14:45.481+03:00,86,1.433333333333333,2025-04-21T12:30:07.995+03:00,0.02023345852159405,0
2025-04-21T15:17:45.093+03:00,1745237858.398729,40.95225582986527,29.1403179372126,76.30476,-1,-1,-1,-1,30,26.56900642780171,-9999,18148.01713966667,-0.7938232421875,0.47161865234375,-0.374603271484375,18148.00706366667,2.547677362176064,-1.132289062436375,-0.4951589033220769,-0.01106802839785814,0.004614804405719042,0.001321328105404973,-0.001177668571472168,-0.005979150533676147,-0.001178711652755737,XArbitraryZVertical,-0.4367471191007036,0.3499367580133037,-0.8208898969947215,-0.1137358655743837,-0.7966433167457581,0.4751714766025543,-0.3735924363136292,0,0,0,-1,-1,18145.10641779167,unknown,2,2025-04-21T15:17:42.177+03:00,2025-04-20T21:57:49.637+03:00,6664,0.9638649,0,0,5475.677,5,6,2025-04-21T15:17:44.757+03:00,766930664.8577851,0,-44.09,100.2613,1,0.45,2025-04-21T15:14:45.481+03:00,86,1.433333333333333,2025-04-21T12:30:07.995+03:00,0.02023345852159405,0
2025-04-21T15:17:45.103+03:00,1745237858.398729,40.95225582986527,29.1403179372126,76.30476,-1,-1,-1,-1,30,26.56900642780171,-9999,18148.02721566667,-0.793792724609375,0.4709625244140625,-0.37939453125,18148.01713966667,2.547578620598427,-1.132266052596139,-0.4952711742905669,-0.01019158214330673,0.006055840756744146,0.002290985081344843,1.668930053710938e-05,-0.00546756386756897,0.0006937980651855469,XArbitraryZVertical,-0.4366998654672206,0.3499987811556867,-0.8208868393726967,-0.1137492081607243,-0.7965865135192871,0.4752702713012695,-0.3735881745815277,0,0,0,-1,-1,18145.10641779167,unknown,2,2025-04-21T15:17:42.177+03:00,2025-04-20T21:57:49.637+03:00,6664,0.9638649,0,0,5475.677,5,6,2025-04-21T15:17:44.757+03:00,766930664.8577851,0,-44.09,100.2613,1,0.45,2025-04-21T15:14:45.481+03:00,86,1.433333333333333,2025-04-21T12:30:07.995+03:00,0.02023345852159405,0
2025-04-21T15:17:45.113+03:00,1745237858.398729,40.95225582986527,29.1403179372126,76.30476,-1,-1,-1,-1,30,26.56900642780171,-9999,18148.03729166667,-0.791534423828125,0.464752197265625,-0.3767852783203125,18148.02721566667,2.547468361371179,-1.132294829333938,-0.4953543201267274,-0.01461555901914835,0.001502967439591885,0.005452057346701622,0.00257033109664917,-0.002900868654251099,-0.001573652029037476,XArbitraryZVertical,-0.4366771836274524,0.3500554223691555,-0.8208724253413384,-0.1137662772209953,-0.7965615391731262,0.4753434062004089,-0.3735484778881073,0,0,0,-1,-1,18145.10641779167,unknown,2,2025-04-21T15:17:42.177+03:00,2025-04-20T21:57:49.637+03:00,6664,0.9638649,0,0,5475.677,5,6,2025-04-21T15:17:44.757+03:00,766930664.8577851,0,-44.09,100.2613,1,0.45,2025-04-21T15:14:45.481+03:00,86,1.433333333333333,2025-04-21T12:30:07.995+03:00,0.02023345852159405,0
2025-04-21T15:17:45.123+03:00,1745237858.398729,40.95225582986527,29.1403179372126,76.30476,-1,-1,-1,-1,30,26.56900642780171,-9999,18148.04736766667,-0.7887420654296875,0.4664459228515625,-0.373291015625,18148.03729166667,2.547347799357556,-1.132395495066727,-0.4954340292122509,-0.01200379710644484,-0.007540328893810511,0.009603659622371197,0.002146422863006592,-0.004573225975036621,-0.005896627902984619,XArbitraryZVertical,-0.4366828516575271,0.350117115151335,-0.8208417324458648,-0.1137758669719055,-0.7965647578239441,0.4754135310649872,-0.3734521865844727,0,0,0,-1,-1,18145.10641779167,unknown,2,2025-04-21T15:17:42.177+03:00,2025-04-20T21:57:49.637+03:00,6664,0.9638649,0,0,5475.677,5,6,2025-04-21T15:17:44.757+03:00,766930664.8577851,0,-44.09,100.2613,1,0.45,2025-04-21T15:14:45.481+03:00,86,1.433333333333333,2025-04-21T12:30:07.995+03:00,0.02023345852159405,0
2025-04-21T15:17:45.133+03:00,1745237858.398729,40.95225582986527,29.1403179372126,76.30476,-1,-1,-1,-1,30,26.56900642780171,-9999,18148.05744366667,-0.79095458984375,0.4738311767578125,-0.371063232421875,18148.04736766667,2.547235740476746,-1.132498688565043,-0.4955683674508274,-0.01605925895273685,-0.004400727804750204,0.008522015996277332,0.006262302398681641,-0.01146632432937622,-0.003320395946502686,XArbitraryZVertical,-0.436681045092211,0.3501974121376791,-0.8208097624452489,-0.1137663179557037,-0.7965454459190369,0.4755317270755768,-0.3733428716659546,0,0,0,-1,-1,18145.10641779167,unknown,2,2025-04-21T15:17:42.177+03:00,2025-04-20T21:57:49.637+03:00,6664,0.9638649,0,0,5475.677,5,6,2025-04-21T15:17:44.757+03:00,766930664.8577851,0,-44.09,100.2613,1,0.45,2025-04-21T15:14:45.481+03:00,86,1.433333333333333,2025-04-21T12:30:07.995+03:00,0.02023345852159405,0
2025-04-21T15:17:45.143+03:00,1745237858.398729,40.95225582986527,29.1403179372126,76.30476,-1,-1,-1,-1,30,26.56900642780171,-9999,18148.06751966667,-0.791961669921875,0.47137451171875,-0.369476318359375,18148.05744366667,2.547127962021728,-1.132613798081189,-0.4956761921216645,-0.01334869395941496,-0.008504925295710564,0.007358214817941189,0.006823360919952393,-0.008341610431671143,0.0004723966121673584,XArbitraryZVertical,-0.4366897324880593,0.3502675828119438,-0.8207759812012939,-0.1137602512785164,-0.7965419292449951,0.4756265580654144,-0.3732293844223022,0,0,0,-1,-1,18145.10641779167,unknown,2,2025-04-21T15:17:42.177+03:00,2025-04-20T21:57:49.637+03:00,6664,0.9638649,0,0,5475.677,5,6,2025-04-21T15:17:44.757+03:00,766930664.8577851,0,-44.09,100.2613,1,0.45,2025-04-21T15:14:45.481+03:00,86,1.433333333333333,2025-04-21T12:30:07.995+03:00,0.02023345852159405,0
2025-04-21T15:17:45.153+03:00,1745237858.398729,40.95225582986527,29.1403179372126,76.30476,-1,-1,-1,-1,30,26.56900642780171,-9999,18148.07759666667,-0.7904205322265625,0.4657440185546875,-0.3722991943359375,18148.06751966667,2.547008576754319,-1.13277437968862,-0.4958121682498227,-0.016779575496912,-0.0128527358174324,0.01278364006429911,0.005314111709594727,-0.0007860064506530762,0.002651631832122803,XArbitraryZVertical,-0.4367098567126405,0.3503533461996021,-0.8207310710255061,-0.1137432272602589,-0.7965433597564697,0.4757461845874786,-0.3730740547180176,0,0,0,-1,-1,18145.10641779167,unknown,2,2025-04-21T15:17:42.177+03:00,2025-04-20T21:57:49.637+03:00,6664,0.9638649,0,0,5475.677,5,6,2025-04-21T15:17:44.757+03:00,766930664.8577851,0,-44.09,100.2613,1,0.45,2025-04-21T15:14:45.481+03:00,86,1.433333333333333,2025-04-21T12:30:07.995+03:00,0.02023345852159405,0
2025-04-21T15:17:45.163+03:00,1745237858.398729,40.95225582986527,29.1403179372126,76.30476,-1,-1,-1,-1,30,26.56900642780171,-9999,18148.08767266667,-0.79119873046875,0.471343994140625,-0.375732421875,18148.07759666667,2.546874082114022,-1.13300880398181,-0.4959793449950325,-0.01819078624248505,-0.01902088336646557,0.01169786881655455,0.005054771900177002,-0.005831062793731689,0.002644807100296021,XArbitraryZVertical,-0.4367519179595502,0.350458199593205,-0.8206684607695411,-0.1137107383899833,-0.7965587973594666,0.4758932292461395,-0.3728536367416382,0,0,0,-1,-1,18145.10641779167,unknown,2,2025-04-21T15:17:42.177+03:00,2025-04-20T21:57:49.637+03:00,6664,0.9638649,0,0,5475.677,5,6,2025-04-21T15:17:44.757+03:00,766930664.8577851,0,-44.09,100.2613,1,0.45,2025-04-21T15:14:45.481+03:00,86,1.433333333333333,2025-04-21T12:30:07.995+03:00,0.02023345852159405,0
2025-04-21T15:17:45.174+03:00,1745237858.398729,40.95225582986527,29.1403179372126,76.30476,-1,-1,-1,-1,30,26.56900642780171,-9999,18148.09774866667,-0.7935333251953125,0.4749603271484375,-0.3754119873046875,18148.08767266667,2.546785575856851,-1.13326575654689,-0.4961354349741234,-0.01239834446460009,-0.02620309591293335,0.01169870141893625,0.006685435771942139,-0.009844064712524414,-0.0002005994319915771,XArbitraryZVertical,-0.4368133029597971,0.3505501541047811,-0.8206037541229011,-0.1136584579309831,-0.7965872287750244,0.4760304987430573,-0.3726174533367157,0,0,0,-1,-1,18145.10641779167,unknown,2,2025-04-21T15:17:42.177+03:00,2025-04-20T21:57:49.637+03:00,6664,0.9638649,0,0,5475.677,5,6,2025-04-21T15:17:44.757+03:00,766930664.8577851,0,-44.09,100.2613,1,0.45,2025-04-21T15:14:45.481+03:00,86,1.433333333333333,2025-04-21T12:30:07.995+03:00,0.02023345852159405,0
2025-04-21T15:17:45.183+03:00,1745237858.398729,40.95225582986527,29.1403179372126,76.30476,-1,-1,-1,-1,30,26.56900642780171,-9999,18148.10782466667,-0.7911376953125,0.4667816162109375,-0.3727569580078125,18148.09774866667,2.546667802804514,-1.133599937053211,-0.4962986485620283,-0.02126613818109035,-0.03013365343213081,0.01234078966081142,0.004801750183105469,-0.00397568941116333,-0.003627777099609375,XArbitraryZVertical,-0.4368999189240847,0.3506555229480972,-0.820520350409666,-0.1136026356877387,-0.7966413497924805,0.4761740267276764,-0.3723183274269104,0,0,0,-1,-1,18145.10641779167,unknown,2,2025-04-21T15:17:42.177+03:00,2025-04-20T21:57:49.637+03:00,6664,0.9638649,0,0,5475.677,5,6,2025-04-21T15:17:44.757+03:00,766930664.8577851,0,-44.09,100.2613,1,0.45,2025-04-21T15:14:45.481+03:00,86,1.433333333333333,2025-04-21T12:30:07.995+03:00,0.02023345852159405,0
2025-04-21T15:17:45.194+03:00,1745237858.398729,40.95225582986527,29.1403179372126,76.30476,-1,-1,-1,-1,30,26.56900642780171,-9999,18148.11790066667,-0.791534423828125,0.468017578125,-0.3727874755859375,18148.10782466667,2.546505042044992,-1.13397964438693,-0.4965216493762424,-0.02562466822564602,-0.03061781637370586,0.01809308305382729,0.002527415752410889,-0.002249181270599365,-0.002693474292755127,XArbitraryZVertical,-0.4369863735869031,0.3507954981223859,-0.8204230251506349,-0.1135405002431059,-0.7966863512992859,0.476370096206665,-0.3719708621501923,0,0,0,-1,-1,18145.10641779167,unknown,2,2025-04-21T15:17:42.177+03:00,2025-04-20T21:57:49.637+03:00,6664,0.9638649,0,0,5475.677,5,6,2025-04-21T15:17:44.757+03:00,766930664.8577851,0,-44.09,100.2613,1,0.45,2025-04-21T15:14:45.481+03:00,86,1.433333333333333,2025-04-21T12:30:07.995+03:00,0.02023345852159405,0
2025-04-21T15:17:45.204+03:00,1745237858.398729,40.95225582986527,29.1403179372126,76.30476,-1,-1,-1,-1,30,26.56900642780171,-9999,18148.12797666667,-0.7913665771484375,0.4754180908203125,-0.3708648681640625,18148.11790066667,2.546323522694562,-1.134391087243045,-0.49677878989375,-0.02842897549271584,-0.03481602668762207,0.01853330433368683,0.006292521953582764,-0.01045557856559753,-0.0009521245956420898,XArbitraryZVertical,-0.4370762355045384,0.3509540363396854,-0.8203169906440771,-0.1134709822456121,-0.7967283129692078,0.4765961766242981,-0.3715912699699402,0,0,0,-1,-1,18145.10641779167,unknown,2,2025-04-21T15:17:42.177+03:00,2025-04-20T21:57:49.637+03:00,6664,0.9638649,0,0,5475.677,5,6,2025-04-21T15:17:44.757+03:00,766930664.8577851,0,-44.09,100.2613,1,0.45,2025-04-21T15:14:45.481+03:00,86,1.433333333333333,2025-04-21T12:30:07.995+03:00,0.02023345852159405,0
2025-04-21T15:17:45.214+03:00,1745237858.398729,40.95225582986527,29.1403179372126,76.30476,-1,-1,-1,-1,30,26.56900642780171,-9999,18148.13805266667,-0.78997802734375,0.4749908447265625,-0.3682403564453125,18148.12797666667,2.546157453903731,-1.134828371235785,-0.4970378967529853,-0.02421891689300537,-0.03853339701890945,0.01945269480347633,0.00506126880645752,-0.008470833301544189,-0.0008491873741149902,XArbitraryZVertical,-0.4371790043161863,0.3511113589771,-0.8202061006566681,-0.1133899470344056,-0.7967787981033325,0.4768239557743073,-0.3711906671524048,0,0,0,-1,-1,18145.10641779167,unknown,2,2025-04-21T15:17:42.177+03:00,2025-04-20T21:57:49.637+03:00,6664,0.9638649,0,0,5475.677,5,6,2025-04-21T15:17:44.757+03:00,766930664.8577851,0,-44.09,100.2613,1,0.45,2025-04-21T15:14:45.481+03:00,86,1.433333333333333,2025-04-21T12:30:07.995+03:00,0.02023345852159405,0
2025-04-21T15:17:45.224+03:00,1745237858.398729,40.95225582986527,29.1403179372126,76.30476,-1,-1,-1,-1,30,26.56900642780171,-9999,18148.14812866667,-0.79364013671875,0.47576904296875,-0.36651611328125,18148.13805266667,2.546000592127966,-1.135281237534266,-0.4972962577727792,-0.02551614306867123,-0.03805989027023315,0.01726783625781536,0.005270063877105713,-0.001434743404388428,0.0001569986343383789,XArbitraryZVertical,-0.4372898859991386,0.3512672335939205,-0.8200922624652852,-0.113302470187902,-0.7968350052833557,0.4770510196685791,-0.3707777857780457,0,0,0,-1,-1,18145.10641779167,unknown,2,2025-04-21T15:17:42.177+03:00,2025-04-20T21:57:49.637+03:00,6664,0.9638649,0,0,5475.677,5,6,2025-04-21T15:17:44.757+03:00,766930664.8577851,0,-44.09,100.2613,1,0.45,2025-04-21T15:14:45.481+03:00,86,1.433333333333333,2025-04-21T12:30:07.995+03:00,0.02023345852159405,0
2025-04-21T15:17:45.234+03:00,1745237858.398729,40.95225582986527,29.1403179372126,76.30476,-1,-1,-1,-1,30,26.56900642780171,-9999,18148.15820466667,-0.795135498046875,0.478271484375,-0.363616943359375,18148.14812866667,2.545849783643571,-1.135720991977946,-0.4975644660830891,-0.02253846451640129,-0.03562203049659729,0.01810393668711185,0.007041275501251221,-0.002586007118225098,0.002056688070297241,XArbitraryZVertical,-0.4373945900151948,0.351424661547679,-0.8199814160212738,-0.1132120158465668,-0.7968818545341492,0.4772867262363434,-0.3703733682632446,0,0,0,-1,-1,18145.10641779167,unknown,2,2025-04-21T15:17:42.177+03:00,2025-04-20T21:57:49.637+03:00,6664,0.9638649,0,0,5475.677,5,6,2025-04-21T15:17:44.757+03:00,766930664.8577851,0,-44.09,100.2613,1,0.45,2025-04-21T15:14:45.481+03:00,86,1.433333333333333,2025-04-21T12:30:07.995+03:00,0.02023345852159405,0
2025-04-21T15:17:45.244+03:00,1745237858.398729,40.95225582986527,29.1403179372126,76.30476,-1,-1,-1,-1,30,26.56900642780171,-9999,18148.16828066667,-0.7959747314453125,0.4783172607421875,-0.3666839599609375,18148.15820466667,2.545727745746437,-1.136098723216994,-0.4977982664261819,-0.01799217984080315,-0.0285263042896986,0.01709752716124058,0.003341436386108398,-0.0009603798389434814,0.003860145807266235,XArbitraryZVertical,-0.4374851608939541,0.3515594872456769,-0.8198865807165241,-0.113130279086362,-0.7969204783439636,0.4774921834468842,-0.3700253367424011,0,0,0,-1,-1,18145.10641779167,unknown,2,2025-04-21T15:17:42.177+03:00,2025-04-20T21:57:49.637+03:00,6664,0.9638649,0,0,5475.677,5,6,2025-04-21T15:17:44.757+03:00,766930664.8577851,0,-44.09,100.2613,1,0.45,2025-04-21T15:14:45.481+03:00,86,1.433333333333333,2025-04-21T12:30:07.995+03:00,0.02023345852159405,0
2025-04-21T15:17:45.254+03:00,1745237858.398729,40.95225582986527,29.1403179372126,76.30476,-1,-1,-1,-1,30,26.56900642780171,-9999,18148.17835766667,-0.793182373046875,0.47943115234375,-0.369110107421875,18148.16828066667,2.545622678923511,-1.136421486164529,-0.4980075387649839,-0.01673290506005287,-0.03076802007853985,0.01585709303617477,0.001020312309265137,0.001007258892059326,0.006551593542098999,XArbitraryZVertical,-0.4375606366116887,0.3516783655529971,-0.8198052926885923,-0.1130580811436648,-0.7969492077827454,0.4776760339736938,-0.3697260320186615,0,0,0,-1,-1,18145.10641779167,unknown,2,2025-04-21T15:17:42.177+03:00,2025-04-20T21:57:49.637+03:00,6664,0.9638649,0,0,5475.677,5,6,2025-04-21T15:17:44.757+03:00,766930664.8577851,0,-44.09,100.2613,1,0.45,2025-04-21T15:14:45.481+03:00,86,1.433333333333333,2025-04-21T12:30:07.995+03:00,0.02023345852159405,0
2025-04-21T15:17:45.264+03:00,1745237858.398729,40.95225582986527,29.1403179372126,76.30476,-1,-1,-1,-1,30,26.56900642780171,-9999,18148.18843366667,-0.7962646484375,0.4770050048828125,-0.36944580078125,18148.17835766667,2.545553249554832,-1.136741001888067,-0.4982189078472693,-0.01715794578194618,-0.02888596244156361,0.01826512441039085,0.00153505802154541,0.0005927085876464844,0.002546548843383789,XArbitraryZVertical,-0.4376406353187382,0.3517900172446786,-0.8197266759490472,-0.1129712272785692,-0.7969757318496704,0.4778617322444916,-0.3694289028644562,0,0,0,-1,-1,18145.10641779167,unknown,2,2025-04-21T15:17:42.177+03:00,2025-04-20T21:57:49.637+03:00,6664,0.9638649,0,0,5475.677,5,6,2025-04-21T15:17:44.757+03:00,766930664.8577851,0,-44.09,100.2613,1,0.45,2025-04-21T15:14:45.481+03:00,86,1.433333333333333,2025-04-21T12:30:07.995+03:00,0.02023345852159405,0
2025-04-21T15:17:45.275+03:00,1745237858.398729,40.95225582986527,29.1403179372126,76.30476,-1,-1,-1,-1,30,26.56900642780171,-9999,18148.19850966667,-0.7953033447265625,0.4746856689453125,-0.3718109130859375,18148.18843366667,2.545470624974888,-1.137071221995915,-0.4984562669200002,-0.02068809792399406,-0.03023525699973106,0.01973126083612442,0.003644585609436035,0.000704646110534668,0.000389397144317627,XArbitraryZVertical,-0.4377178799671704,0.3519147802045124,-0.819644450052088,-0.1128806736549359,-0.7969948053359985,0.4780702292919159,-0.3691180944442749,0,0,0,-1,-1,18145.10641779167,unknown,2,2025-04-21T15:17:42.177+03:00,2025-04-20T21:57:49.637+03:00,6664,0.9638649,0,0,5475.677,5,6,2025-04-21T15:17:44.757+03:00,766930664.8577851,0,-44.09,100.2613,1,0.45,2025-04-21T15:14:45.481+03:00,86,1.433333333333333,2025-04-21T12:30:07.995+03:00,0.02023345852159405,0
2025-04-21T15:17:45.284+03:00,1745237858.398729,40.95225582986527,29.1403179372126,76.30476,-1,-1,-1,-1,30,26.56900642780171,-9999,18148.20858566667,-0.7925872802734375,0.4744415283203125,-0.3737945556640625,18148.19850966667,2.545361203393856,-1.137440908631576,-0.4987035644831364,-0.02183032780885696,-0.03630539774894714,0.02274036779999733,0.0003625154495239258,-0.001816630363464355,-0.0007178783416748047,XArbitraryZVertical,-0.437804774469531,0.3520512779221834,-0.8195517055312055,-0.112791190783719,-0.7970238924026489,0.478287398815155,-0.3687737584114075,0,0,0,-1,-1,18145.10641779167,unknown,2,2025-04-21T15:17:42.177+03:00,2025-04-20T21:57:49.637+03:00,6664,0.9638649,0,0,5475.677,5,6,2025-04-21T15:17:44.757+03:00,766930664.8577851,0,-44.09,100.2613,1,0.45,2025-04-21T15:14:45.481+03:00,86,1.433333333333333,2025-04-21T12:30:07.995+03:00,0.02023345852159405,0
2025-04-21T15:17:45.295+03:00,1745237858.398729,40.95225582986527,29.1403179372126,76.30476,-1,-1,-1,-1,30,26.56900642780171,-9999,18148.21866166667,-0.7971038818359375,0.478607177734375,-0.3709869384765625,18148.20858566667,2.545278670633461,-1.13781695525882,-0.4989708306275897,-0.01808918640017509,-0.03066888451576233,0.02206921763718128,0.002521276473999023,-0.004538476467132568,-0.003863632678985596,XArbitraryZVertical,-0.4378952921297553,0.3521896200188649,-0.8194586641875564,-0.1126839784858736,-0.797046422958374,0.4785220921039581,-0.3684203624725342,0,0,0,-1,-1,18145.10641779167,unknown,2,2025-04-21T15:17:42.177+03:00,2025-04-20T21:57:49.637+03:00,6664,0.9638649,0,0,5475.677,5,6,2025-04-21T15:17:44.757+03:00,766930664.8577851,0,-44.09,100.2613,1,0.45,2025-04-21T15:14:45.481+03:00,86,1.433333333333333,2025-04-21T12:30:07.995+03:00,0.02023345852159405,0
2025-04-21T15:17:45.305+03:00,1745237858.398729,40.95225582986527,29.1403179372126,76.30476,-1,-1,-1,-1,30,26.56900642780171,-9999,18148.22873766667,-0.8029632568359375,0.4806671142578125,-0.371612548828125,18148.21866166667,2.54521763521593,-1.138101056660553,-0.4992260026389932,-0.009571332484483719,-0.02254704013466835,0.01880657859146595,0.003842592239379883,-0.004152178764343262,-0.004980504512786865,XArbitraryZVertical,-0.4379541034283911,0.3523135601867691,-0.8193872499990466,-0.1125875168034267,-0.7970402240753174,0.4787461459636688,-0.3681427240371704,0,0,0,-1,-1,18145.10641779167,unknown,2,2025-04-21T15:17:42.177+03:00,2025-04-20T21:57:49.637+03:00,6664,0.9638649,0,0,5475.677,5,6,2025-04-21T15:17:44.757+03:00,766930664.8577851,0,-44.09,100.2613,1,0.45,2025-04-21T15:14:45.481+03:00,86,1.433333333333333,2025-04-21T12:30:07.995+03:00,0.02023345852159405,0
2025-04-21T15:17:45.315+03:00,1745237858.398729,40.95225582986527,29.1403179372126,76.30476,-1,-1,-1,-1,30,26.56900642780171,-9999,18148.23881366667,-0.8014373779296875,0.47802734375,-0.372772216796875,18148.22873766667,2.545200011513844,-1.13831440601425,-0.499453161836881,-0.01167289912700653,-0.01918540149927139,0.01749320700764656,-0.00106048583984375,-0.0003843307495117188,-0.003532946109771729,XArbitraryZVertical,-0.437996725556158,0.3524135975051049,-0.8193343210814589,-0.1124934665528622,-0.7970199584960938,0.4789455831050873,-0.3679270446300507,0,0,0,-1,-1,18145.10641779167,unknown,2,2025-04-21T15:17:42.177+03:00,2025-04-20T21:57:49.637+03:00,6664,0.9638649,0,0,5475.677,5,6,2025-04-21T15:17:44.757+03:00,766930664.8577851,0,-44.09,100.2613,1,0.45,2025-04-21T15:14:45.481+03:00,86,1.433333333333333,2025-04-21T12:30:07.995+03:00,0.02023345852159405,0
2025-04-21T15:17:45.331+03:00,1745237858.398729,40.95225582986527,29.1403179372126,76.30476,-1,-1,-1,-1,30,26.56900642780171,-9999,18148.24888966667,-0.7994232177734375,0.4773712158203125,-0.3738861083984375,18148.23881366667,2.54519179029317,-1.138481721796233,-0.4996509693250906,-0.006494915578514338,-0.01393045019358397,0.01750519126653671,-0.006471395492553711,0.001074731349945068,-0.003660261631011963,XArbitraryZVertical,-0.4380275221259199,0.3524980925524311,-0.8192926643328199,-0.1124118824622136,-0.7969954013824463,0.479119211435318,-0.3677539825439453,0,0,0,-1,-1,18145.10641779167,unknown,2,2025-04-21T15:17:42.177+03:00,2025-04-20T21:57:49.637+03:00,6664,0.9638649,0,0,5475.677,5,6,2025-04-21T15:17:44.757+03:00,766930664.8577851,0,-44.09,100.2613,1,0.45,2025-04-21T15:14:45.481+03:00,86,1.433333333333333,2025-04-21T12:30:07.995+03:00,0.02023345852159405,0
2025-04-21T15:17:45.335+03:00,1745237858.398729,40.95225582986527,29.1403179372126,76.30476,-1,-1,-1,-1,30,26.56900642780171,-9999,18148.25896566667,-0.797882080078125,0.4791259765625,-0.372772216796875,18148.24888966667,2.545200823458483,-1.13859282893565,-0.4998314537786189,-0.003587275976315141,-0.0102225299924612,0.01620104163885117,-0.004052400588989258,-0.001906543970108032,-0.005097270011901855,XArbitraryZVertical,-0.4380414931613726,0.3525692226863265,-0.819264716951057,-0.1123380225681621,-0.7969577312469482,0.4792776107788086,-0.367629200220108,0,0,0,-1,-1,18145.10641779167,unknown,2,2025-04-21T15:17:42.177+03:00,2025-04-20T21:57:49.637+03:00,6664,0.9638649,0,0,5475.677,5,6,2025-04-21T15:17:44.757+03:00,766930664.8577851,0,-44.09,100.2613,1,0.45,2025-04-21T15:14:45.481+03:00,86,1.433333333333333,2025-04-21T12:30:07.995+03:00,0.02023345852159405,0
2025-04-21T15:17:45.361+03:00,1745237858.398729,40.95225582986527,29.1403179372126,76.30476,-1,-1,-1,-1,30,26.56900642780171,-9999,18148.26904166667,-0.795257568359375,0.4779510498046875,-0.3719482421875,18148.25896566667,2.545232465727055,-1.138682152753252,-0.499985101070003,-0.004983571358025074,-0.01293868944048882,0.0134763615205884,-0.002102792263031006,-0.001278460025787354,-0.006069064140319824,XArbitraryZVertical,-0.4380554574711015,0.3526242251114406,-0.8192433982281632,-0.1122662345239599,-0.7969236969947815,0.4794124662876129,-0.3675271570682526,0,0,0,-1,-1,18145.10641779167,unknown,2,2025-04-21T15:17:42.177+03:00,2025-04-20T21:57:49.637+03:00,6664,0.9638649,0,0,5475.677,5,6,2025-04-21T15:17:44.757+03:00,766930664.8577851,0,-44.09,100.2613,1,0.45,2025-04-21T15:14:45.481+03:00,86,1.433333333333333,2025-04-21T12:30:07.995+03:00,0.02023345852159405,0
2025-04-21T15:17:45.363+03:00,1745237858.398729,40.95225582986527,29.1403179372126,76.30476,-1,-1,-1,-1,30,26.56900642780171,-9999,18148.27911766667,-0.7925567626953125,0.47308349609375,-0.3755340576171875,18148.26904166667,2.545239649507225,-1.1387928801535,-0.5001363270899477,-0.006195309571921825,-0.008041935041546822,0.01370179746299982,-0.0009377598762512207,-0.0001599490642547607,-0.005439996719360352,XArbitraryZVertical,-0.4380742963230783,0.3526848874123097,-0.8192161313283478,-0.112201430770169,-0.7968985438346863,0.4795451760292053,-0.3674085736274719,0,0,0,-1,-1,18145.10641779167,unknown,2,2025-04-21T15:17:42.177+03:00,2025-04-20T21:57:49.637+03:00,6664,0.9638649,0,0,5475.677,5,6,2025-04-21T15:17:44.757+03:00,766930664.8577851,0,-44.09,100.2613,1,0.45,2025-04-21T15:14:45.481+03:00,86,1.433333333333333,2025-04-21T12:30:07.995+03:00,0.02023345852159405,0
2025-04-21T15:17:45.365+03:00,1745237858.398729,40.95225582986527,29.1403179372126,76.30476,-1,-1,-1,-1,30,26.56900642780171,-9999,18148.28919466667,-0.793853759765625,0.474090576171875,-0.3787994384765625,18148.27911766667,2.545217793957026,-1.138866722808502,-0.5003067434792641,-0.01461143139749765,-0.00666454853489995,0.01779614202678204,0.002021193504333496,-0.001469135284423828,-0.004586994647979736,XArbitraryZVertical,-0.438069375384452,0.352756942750883,-0.8191948768474785,-0.1121496471742227,-0.7968515157699585,0.4796946942806244,-0.3673155307769775,0,0,0,-1,-1,18145.10641779167,unknown,2,2025-04-21T15:17:42.177+03:00,2025-04-20T21:57:49.637+03:00,6664,0.9638649,0,0,5475.677,5,6,2025-04-21T15:17:44.757+03:00,766930664.8577851,0,-44.09,100.2613,1,0.45,2025-04-21T15:14:45.481+03:00,86,1.433333333333333,2025-04-21T12:30:07.995+03:00,0.02023345852159405,0
2025-04-21T15:17:45.375+03:00,1745237858.398729,40.95225582986527,29.1403179372126,76.30476,-1,-1,-1,-1,30,26.56900642780171,-9999,18148.29927066667,-0.79669189453125,0.482269287109375,-0.3638916015625,18148.28919466667,2.545116208270273,-1.138984213206757,-0.5005377885637279,-0.02186408266425133,-0.007953319698572159,0.01822114735841751,0.003931999206542969,-0.007302433252334595,-0.01006761193275452,XArbitraryZVertical,-0.4380571945031095,0.3528713366209407,-0.819157997714708,-0.1121056031370334,-0.7967938184738159,0.4798974096775055,-0.367175430059433,0,0,0,-1,-1,18145.10641779167,unknown,2,2025-04-21T15:17:42.177+03:00,2025-04-20T21:57:49.637+03:00,6664,0.9638649,0,0,5475.677,5,6,2025-04-21T15:17:44.757+03:00,766930664.8577851,0,-44.09,100.2613,1,0.45,2025-04-21T15:14:45.481+03:00,86,1.433333333333333,2025-04-21T12:30:07.995+03:00,0.02023345852159405,0
2025-04-21T15:17:45.385+03:00,1745237858.398729,40.95225582986527,29.1403179372126,76.30476,-1,-1,-1,-1,30,26.56900642780171,-9999,18148.30934666667,-0.8031768798828125,0.4812469482421875,-0.3605499267578125,18148.29927066667,2.545015900722261,-1.139048800950465,-0.5007134364608448,-0.01608395949006081,-0.001108994707465172,0.009127252735197544,0.002627909183502197,-0.005350798368453979,-0.01088681817054749,XArbitraryZVertical,-0.4380336801709607,0.3529619721058318,-0.8191341936985522,-0.1120860442507882,-0.7967409491539001,0.4800515174865723,-0.3670886754989624,0,0,0,-1,-1,18145.10641779167,unknown,2,2025-04-21T15:17:42.177+03:00,2025-04-20T21:57:49.637+03:00,6664,0.9638649,0,0,5475.677,5,6,2025-04-21T15:17:44.757+03:00,766930664.8577851,0,-44.09,100.2613,1,0.45,2025-04-21T15:14:45.481+03:00,86,1.433333333333333,2025-04-21T12:30:07.995+03:00,0.02023345852159405,0
2025-04-21T15:17:45.395+03:00,1745237858.398729,40.95225582986527,29.1403179372126,76.30476,-1,-1,-1,-1,30,26.56900642780171,-9999,18148.31942266667,-0.8025970458984375,0.4753265380859375,-0.3729095458984375,18148.30934666667,2.544870374898772,-1.139072618617242,-0.5008538272651574,-0.01614095270633698,0.01080785226076841,0.009126188233494759,-0.001101911067962646,0.003177821636199951,0.005637079477310181,XArbitraryZVertical,-0.4379919309126119,0.3530471688347598,-0.8191176561328423,-0.1121021464934529,-0.7966885566711426,0.4801746606826782,-0.3670415282249451,0,0,0,-1,-1,18145.10641779167,unknown,2,2025-04-21T15:17:42.177+03:00,2025-04-20T21:57:49.637+03:00,6664,0.9638649,0,0,5475.677,5,6,2025-04-21T15:17:44.757+03:00,766930664.8577851,0,-44.09,100.2613,1,0.45,2025-04-21T15:14:45.481+03:00,86,1.433333333333333,2025-04-21T12:30:07.995+03:00,0.02023345852159405,0
2025-04-21T15:17:45.405+03:00,1745237858.398729,40.95225582986527,29.1403179372126,76.30476,-1,-1,-1,-1,30,26.56900642780171,-9999,18148.32949866667,-0.796173095703125,0.4719696044921875,-0.372222900390625,18148.31942266667,2.544743286947588,-1.138947209924109,-0.5009878241717675,-0.01447034999728203,0.02010654658079147,0.006338923238217831,-0.007798254489898682,2.381205558776855e-05,0.005801618099212646,XArbitraryZVertical,-0.4378935029826754,0.3531175826548465,-0.8191349161438803,-0.1121387739543731,-0.7965840697288513,0.4802922010421753,-0.3671145141124725,0,0,0,-1,-1,18145.10641779167,unknown,2,2025-04-21T15:17:42.177+03:00,2025-04-20T21:57:49.637+03:00,6664,0.9638649,0,0,5475.677,5,6,2025-04-21T15:17:44.757+03:00,766930664.8577851,0,-44.09,100.2613,1,0.45,2025-04-21T15:14:45.481+03:00,86,1.433333333333333,2025-04-21T12:30:07.995+03:00,0.02023345852159405,0
2025-04-21T15:17:45.415+03:00,1745237858.398729,40.95225582986527,29.1403179372126,76.30476,-1,-1,-1,-1,30,26.56900642780171,-9999,18148.33957466667,-0.79083251953125,0.4753875732421875,-0.3739471435546875,18148.32949866667,2.544679079081166,-1.138749264038197,-0.5010529747237198,-0.004818322136998177,0.01997411996126175,0.00806102342903614,-0.005656301975250244,-0.005740165710449219,-0.005848854780197144,XArbitraryZVertical,-0.4377891226325477,0.3531446603239116,-0.8191731324302182,-0.1121817391216148,-0.7964829206466675,0.4803493320941925,-0.3672590553760529,0,0,0,-1,-1,18145.10641779167,unknown,2,2025-04-21T15:17:42.177+03:00,2025-04-20T21:57:49.637+03:00,6664,0.9638649,0,0,5475.677,5,6,2025-04-21T15:17:44.757+03:00,766930664.8577851,0,-44.09,100.2613,1,0.45,2025-04-21T15:14:45.481+03:00,86,1.433333333333333,2025-04-21T12:30:07.995+03:00,0.02023345852159405,0
2025-04-21T15:17:45.425+03:00,1745237858.398729,40.95225582986527,29.1403179372126,76.30476,-1,-1,-1,-1,30,26.56900642780171,-9999,18148.34965066667,-0.7901611328125,0.474945068359375,-0.3707122802734375,18148.33957466667,2.544628962308474,-1.138553924654943,-0.5011685226744929,-0.019107511267066,0.0217943899333477,0.01159130968153477,0.00105750560760498,-0.008008211851119995,-0.004251718521118164,XArbitraryZVertical,-0.4376790050955027,0.3531874617798627,-0.8192104564002335,-0.1122044194455867,-0.7963608503341675,0.4804506897926331,-0.3673914074897766,0,0,0,-1,-1,18145.10641779167,unknown,2,2025-04-21T15:17:42.177+03:00,2025-04-20T21:57:49.637+03:00,6664,0.9638649,0,0,5475.677,5,6,2025-04-21T15:17:44.757+03:00,766930664.8577851,0,-44.09,100.2613,1,0.45,2025-04-21T15:14:45.481+03:00,86,1.433333333333333,2025-04-21T12:30:07.995+03:00,0.02023345852159405,0
2025-04-21T15:17:45.435+03:00,1745237858.398729,40.95225582986527,29.1403179372126,76.30476,-1,-1,-1,-1,30,26.56900642780171,-9999,18148.35972666667,-0.793548583984375,0.4684600830078125,-0.3680267333984375,18148.34965066667,2.544398966140434,-1.138491697084825,-0.5013823874227504,-0.03725222870707512,0.01214036531746387,0.01243270188570023,0.005747854709625244,-0.005479723215103149,-0.006747633218765259,XArbitraryZVertical,-0.4375735702490849,0.3533134858354919,-0.8192062280375942,-0.1122496690240311,-0.7962446212768555,0.4806382358074188,-0.3673979043960571,0,0,0,-1,-1,18145.10641779167,unknown,2,2025-04-21T15:17:42.177+03:00,2025-04-20T21:57:49.637+03:00,6664,0.9638649,0,0,5475.677,5,6,2025-04-21T15:17:44.757+03:00,766930664.8577851,0,-44.09,100.2613,1,0.45,2025-04-21T15:14:45.481+03:00,86,1.433333333333333,2025-04-21T12:30:07.995+03:00,0.02023345852159405,0
2025-04-21T15:17:45.446+03:00,1745237858.398729,40.95225582986527,29.1403179372126,76.30476,-1,-1,-1,-1,30,26.56900642780171,-9999,18148.36980266667,-0.7940673828125,0.468780517578125,-0.3766021728515625,18148.35972666667,2.544015770190384,-1.138570939682441,-0.5016653756994646,-0.04628487303853035,0.007409791927784681,0.01328145060688257,0.005729734897613525,-0.007268995046615601,-0.001832336187362671,XArbitraryZVertical,-0.437486257614436,0.353506534741132,-0.8191608444753778,-0.1123132939353556,-0.7961502075195312,0.4808863699436188,-0.3672778010368347,0,0,0,-1,-1,18145.10641779167,unknown,2,2025-04-21T15:17:42.177+03:00,2025-04-20T21:57:49.637+03:00,6664,0.9638649,0,0,5475.677,5,6,2025-04-21T15:17:44.757+03:00,766930664.8577851,0,-44.09,100.2613,1,0.45,2025-04-21T15:14:45.481+03:00,86,1.433333333333333,2025-04-21T12:30:07.995+03:00,0.02023345852159405,0
2025-04-21T15:17:45.474+03:00,1745237858.398729,40.95225582986527,29.1403179372126,76.30476,-1,-1,-1,-1,30,26.56900642780171,-9999,18148.37987966667,-0.7921905517578125,0.476654052734375,-0.379791259765625,18148.36980266667,2.543642585006634,-1.138638682538996,-0.5019271675725064,-0.03525019437074661,0.01028693839907646,0.007908990606665611,0.002527475357055664,-0.01322054862976074,-0.001694858074188232,XArbitraryZVertical,-0.4373998239159846,0.3536888725741456,-0.8191190653221029,-0.1123808197148821,-0.7960607409477234,0.4811159074306488,-0.3671711385250092,0,0,0,-1,-1,18145.10641779167,unknown,2,2025-04-21T15:17:42.177+03:00,2025-04-20T21:57:49.637+03:00,6664,0.9638649,0,0,5475.677,5,6,2025-04-21T15:17:44.757+03:00,766930664.8577851,0,-44.09,100.2613,1,0.45,2025-04-21T15:14:45.481+03:00,86,1.433333333333333,2025-04-21T12:30:07.995+03:00,0.02023345852159405,0
2025-04-21T15:17:45.477+03:00,1745237858.398729,40.95225582986527,29.1403179372126,76.30476,-1,-1,-1,-1,30,26.56900642780171,-9999,18148.38995566667,-0.79327392578125,0.483154296875,-0.3750152587890625,18148.37987966667,2.543391111830663,-1.138634858778839,-0.5020874274589691,-0.01830636896193027,0.008382777683436871,0.004959804937243462,0.001509964466094971,-0.01220136880874634,-0.01051318645477295,XArbitraryZVertical,-0.4373242728128066,0.3538029625471135,-0.8191020578634286,-0.1124395475127928,-0.7959893345832825,0.4812563955783844,-0.3671419024467468,0,0,0,-1,-1,18145.10641779167,unknown,2,2025-04-21T15:17:42.177+03:00,2025-04-20T21:57:49.637+03:00,6664,0.9638649,0,0,5475.677,5,6,2025-04-21T15:17:44.757+03:00,766930664.8577851,0,-44.09,100.2613,1,0.45,2025-04-21T15:14:45.481+03:00,86,1.433333333333333,2025-04-21T12:30:07.995+03:00,0.02023345852159405,0
2025-04-21T15:17:45.479+03:00,1745237858.398729,40.95225582986527,29.1403179372126,76.30476,-1,-1,-1,-1,30,26.56900642780171,-9999,18148.40003166667,-0.79522705078125,0.478240966796875,-0.37078857421875,18148.38995566667,2.543241494287766,-1.138660765842965,-0.5021787740586033,-0.01315142028033733,0.004494429100304842,-0.0006372937350533903,0.003920972347259521,-0.003110915422439575,-0.01300886273384094,XArbitraryZVertical,-0.4372916051631296,0.3538709344956443,-0.8190858236606976,-0.1124705771372177,-0.7959588170051575,0.4813364446163177,-0.3671028316020966,0,0,0,-1,-1,18145.10641779167,unknown,2,2025-04-21T15:17:42.177+03:00,2025-04-20T21:57:49.637+03:00,6664,0.9638649,0,0,5475.677,5,6,2025-04-21T15:17:44.757+03:00,766930664.8577851,0,-44.09,100.2613,1,0.45,2025-04-21T15:14:45.481+03:00,86,1.433333333333333,2025-04-21T12:30:07.995+03:00,0.02023345852159405,0
2025-04-21T15:17:45.486+03:00,1745237858.398729,40.95225582986527,29.1403179372126,76.30476,-1,-1,-1,-1,30,26.56900642780171,-9999,18148.41010766667,-0.7921142578125,0.474639892578125,-0.37530517578125,18148.40003166667,2.543064450923873,-1.13876821704332,-0.5022020465183923,-0.01490724179893732,-0.002760820556432009,-0.002816291991621256,0.003019511699676514,0.001995652914047241,-0.007392287254333496,XArbitraryZVertical,-0.4372999437799165,0.3539243135483228,-0.8190519789479274,-0.1125176985730798,-0.7959882616996765,0.4813568592071533,-0.3670126795768738,0,0,0,-1,-1,18145.10641779167,unknown,2,2025-04-21T15:17:42.177+03:00,2025-04-20T21:57:49.637+03:00,6664,0.9638649,0,0,5475.677,5,6,2025-04-21T15:17:44.757+03:00,766930664.8577851,0,-44.09,100.2613,1,0.45,2025-04-21T15:14:45.481+03:00,86,1.433333333333333,2025-04-21T12:30:07.995+03:00,0.02023345852159405,0
2025-04-21T15:17:45.496+03:00,1745237858.398729,40.95225582986527,29.1403179372126,76.30476,-1,-1,-1,-1,30,26.56900642780171,-9999,18148.42018366667,-0.7920074462890625,0.4769744873046875,-0.3784027099609375,18148.41010766667,2.542895087702613,-1.138873562606988,-0.5021899987364346,-0.01723997108638287,-0.003590727690607309,-0.004525275900959969,0.001140773296356201,-0.003517508506774902,-0.004467755556106567,XArbitraryZVertical,-0.4373153711142678,0.3539628056144606,-0.819019582184344,-0.1125716733789582,-0.7960320711135864,0.4813462793827057,-0.3669312000274658,0,0,0,-1,-1,18145.10641779167,unknown,2,2025-04-21T15:17:42.177+03:00,2025-04-20T21:57:49.637+03:00,6664,0.9638649,0,0,5475.677,5,6,2025-04-21T15:17:44.757+03:00,766930664.8577851,0,-44.09,100.2613,1,0.45,2025-04-21T15:14:45.481+03:00,86,1.433333333333333,2025-04-21T12:30:07.995+03:00,0.02023345852159405,0
2025-04-21T15:17:45.506+03:00,1745237858.398729,40.95225582986527,29.1403179372126,76.30476,-1,-1,-1,-1,30,26.56900642780171,-9999,18148.43025966667,-0.7938385009765625,0.483642578125,-0.376129150390625,18148.42018366667,2.542723382091542,-1.138980508790385,-0.5021718556247982,-0.01034158561378717,-0.003594722133129835,-0.008674480952322483,0.004911065101623535,-0.006889015436172485,-0.008989572525024414,XArbitraryZVertical,-0.4373321189875,0.3539996594662777,-0.81898694756211,-0.1126281466611472,-0.7960792183876038,0.481330394744873,-0.3668497204780579,0,0,0,-1,-1,18145.10641779167,unknown,2,2025-04-21T15:17:42.177+03:00,2025-04-20T21:57:49.637+03:00,6664,0.9638649,0,0,5475.677,5,6,2025-04-21T15:17:44.757+03:00,766930664.8577851,0,-44.09,100.2613,1,0.45,2025-04-21T15:14:45.481+03:00,86,1.433333333333333,2025-04-21T12:30:07.995+03:00,0.02023345852159405,0
2025-04-21T15:17:45.516+03:00,1745237858.398729,40.95225582986527,29.1403179372126,76.30476,-1,-1,-1,-1,30,26.56900642780171,-9999,18148.44033566667,-0.7938079833984375,0.4863128662109375,-0.3729400634765625,18148.43025966667,2.542631886689827,-1.139022859250086,-0.5021332148791351,-0.004407796077430248,-0.002190171740949154,-0.007544634863734245,0.003371834754943848,-0.003421962261199951,-0.01241818070411682,XArbitraryZVertical,-0.4373403940570976,0.3540077546744524,-0.8189734043536275,-0.1126689357313356,-0.7961116433143616,0.4812965095043182,-0.3668237924575806,0,0,0,-1,-1,18145.10641779167,unknown,2,2025-04-21T15:17:42.177+03:00,2025-04-20T21:57:49.637+03:00,6664,0.9638649,0,0,5475.677,5,6,2025-04-21T15:17:44.757+03:00,766930664.8577851,0,-44.09,100.2613,1,0.45,2025-04-21T15:14:45.481+03:00,86,1.433333333333333,2025-04-21T12:30:07.995+03:00,0.02023345852159405,0
2025-04-21T15:17:45.526+03:00,1745237858.398729,40.95225582986527,29.1403179372126,76.30476,-1,-1,-1,-1,30,26.56900642780171,-9999,18148.45041166667,-0.7954254150390625,0.4797515869140625,-0.368438720703125,18148.44033566667,2.542603133167085,-1.139008268893589,-0.5020347053337473,0.00412657018750906,0.004829121753573418,-0.01062990631908178,0.00221937894821167,0.003134101629257202,-0.00950285792350769,XArbitraryZVertical,-0.4373475051379969,0.3539767704751117,-0.8189771840254069,-0.1127108641927997,-0.7961493134498596,0.4812101721763611,-0.3668552041053772,0,0,0,-1,-1,18145.10641779167,unknown,2,2025-04-21T15:17:42.177+03:00,2025-04-20T21:57:49.637+03:00,6664,0.9638649,0,0,5475.677,5,6,2025-04-21T15:17:44.757+03:00,766930664.8577851,0,-44.09,100.2613,1,0.45,2025-04-21T15:14:45.481+03:00,86,1.433333333333333,2025-04-21T12:30:07.995+03:00,0.02023345852159405,0
2025-04-21T15:17:45.536+03:00,1745237858.398729,40.95225582986527,29.1403179372126,76.30476,-1,-1,-1,-1,30,26.56900642780171,-9999,18148.46048766667,-0.7956085205078125,0.4766387939453125,-0.370635986328125,18148.45041166667,2.542613158546091,-1.138916119268227,-0.5019029722088318,0.007453324273228645,0.01078228652477264,-0.008673980832099915,0.001876950263977051,0.004729747772216797,-0.005344033241271973,XArbitraryZVertical,-0.4373357730231475,0.3539206581437949,-0.8190010609428184,-0.1127601609019789,-0.7961732149124146,0.4810946881771088,-0.3669551908969879,0,0,0,-1,-1,18145.10641779167,unknown,2,2025-04-21T15:17:42.177+03:00,2025-04-20T21:57:49.637+03:00,6664,0.9638649,0,0,5475.677,5,6,2025-04-21T15:17:44.757+03:00,766930664.8577851,0,-44.09,100.2613,1,0.45,2025-04-21T15:14:45.481+03:00,86,1.433333333333333,2025-04-21T12:30:07.995+03:00,0.02023345852159405,0
2025-04-21T15:17:45.546+03:00,1745237858.398729,40.95225582986527,29.1403179372126,76.30476,-1,-1,-1,-1,30,26.56900642780171,-9999,18148.47056366667,-0.792816162109375,0.476593017578125,-0.3735809326171875,18148.46048766667,2.542690480352747,-1.138731584084862,-0.5017465936096263,0.01397247612476349,0.01530380081385374,-0.009124854579567909,0.0006110668182373047,-0.002136945724487305,-0.0006948113441467285,XArbitraryZVertical,-0.4373026970894432,0.3538354832538815,-0.8190493683182103,-0.1128050113772143,-0.7961738109588623,0.4809575974941254,-0.367133617401123,0,0,0,-1,-1,18145.10641779167,unknown,2,2025-04-21T15:17:42.177+03:00,2025-04-20T21:57:49.637+03:00,6664,0.9638649,0,0,5475.677,5,6,2025-04-21T15:17:44.757+03:00,766930664.8577851,0,-44.09,100.2613,1,0.45,2025-04-21T15:14:45.481+03:00,86,1.433333333333333,2025-04-21T12:30:07.995+03:00,0.02023345852159405,0
2025-04-21T15:17:45.557+03:00,1745237858.398729,40.95225582986527,29.1403179372126,76.30476,-1,-1,-1,-1,30,26.56900642780171,-9999,18148.48063966667,-0.7906036376953125,0.47509765625,-0.3732757568359375,18148.47056366667,2.542791335154985,-1.138481941234504,-0.5016268236592965,0.004993428941816092,0.01534807682037354,-0.004706637002527714,0.0009530782699584961,-0.003878265619277954,-0.004073053598403931,XArbitraryZVertical,-0.4372404148624104,0.3537550144599145,-0.8191122465833075,-0.1128412999786367,-0.7961342930793762,0.4808525741100311,-0.3673564195632935,0,0,0,-1,-1,18145.10641779167,unknown,2,2025-04-21T15:17:42.177+03:00,2025-04-20T21:57:49.637+03:00,6664,0.9638649,0,0,5475.677,5,6,2025-04-21T15:17:44.757+03:00,766930664.8577851,0,-44.09,100.2613,1,0.45,2025-04-21T15:14:45.481+03:00,86,1.433333333333333,2025-04-21T12:30:07.995+03:00,0.02023345852159405,0
2025-04-21T15:17:45.567+03:00,1745237858.398729,40.95225582986527,29.1403179372126,76.30476,-1,-1,-1,-1,30,26.56900642780171,-9999,18148.49071666667,-0.792572021484375,0.4703826904296875,-0.37249755859375,18148.48063966667,2.542817798305334,-1.13828729133207,-0.5015932300772207,-0.001589106163010001,0.01736595295369625,-0.001781154656782746,0.003505468368530273,-0.004413366317749023,-0.005513489246368408,XArbitraryZVertical,-0.4371715561654328,0.3537258137141381,-0.8191570770975519,-0.112874322971333,-0.7960774898529053,0.4808231294155121,-0.3675181567668915,0,0,0,-1,-1,18145.10641779167,unknown,2,2025-04-21T15:17:42.177+03:00,2025-04-20T21:57:49.637+03:00,6664,0.9638649,0,0,5475.677,5,6,2025-04-21T15:17:44.757+03:00,766930664.8577851,0,-44.09,100.2613,1,0.45,2025-04-21T15:14:45.481+03:00,86,1.433333333333333,2025-04-21T12:30:07.995+03:00,0.02023345852159405,0
2025-04-21T15:17:45.577+03:00,1745237858.398729,40.95225582986527,29.1403179372126,76.30476,-1,-1,-1,-1,30,26.56900642780171,-9999,18148.50079266667,-0.79296875,0.470306396484375,-0.370361328125,18148.49071666667,2.542770316841081,-1.138114929172583,-0.5015995664871379,-0.008079695515334606,0.01798973232507706,-7.203780114650726e-05,0.005880773067474365,-0.006738245487213135,-0.005713224411010742,XArbitraryZVertical,-0.4370913842685928,0.3537288096110068,-0.8191919505799546,-0.1129225080461046,-0.7960113883018494,0.4808286726474762,-0.3676541149616241,0,0,0,-1,-1,18145.10641779167,unknown,2,2025-04-21T15:17:42.177+03:00,2025-04-20T21:57:49.637+03:00,6664,0.9638649,0,0,5475.677,5,6,2025-04-21T15:17:44.757+03:00,766930664.8577851,0,-44.09,100.2613,1,0.45,2025-04-21T15:14:45.481+03:00,86,1.433333333333333,2025-04-21T12:30:07.995+03:00,0.02023345852159405,0
2025-04-21T15:17:45.587+03:00,1745237858.398729,40.95225582986527,29.1403179372126,76.30476,-1,-1,-1,-1,30,26.56900642780171,-9999,18148.51086866667,-0.7934112548828125,0.471710205078125,-0.37078857421875,18148.50079266667,2.542688837253325,-1.137962979679849,-0.5016439814676664,-0.01178069040179253,0.01323252730071545,0.002694720402359962,0.003562450408935547,-0.01042404770851135,-0.004746794700622559,XArbitraryZVertical,-0.4370065633192826,0.3537544710529895,-0.8192195005393296,-0.1129702742589965,-0.7959360480308533,0.4808676242828369,-0.3677660822868347,0,0,0,-1,-1,18145.10641779167,unknown,2,2025-04-21T15:17:42.177+03:00,2025-04-20T21:57:49.637+03:00,6664,0.9638649,0,0,5475.677,5,6,2025-04-21T15:17:44.757+03:00,766930664.8577851,0,-44.09,100.2613,1,0.45,2025-04-21T15:14:45.481+03:00,86,1.433333333333333,2025-04-21T12:30:07.995+03:00,0.02023345852159405,0
2025-04-21T15:17:45.597+03:00,1745237858.398729,40.95225582986527,29.1403179372126,76.30476,-1,-1,-1,-1,30,26.56900642780171,-9999,18148.52094466667,-0.7956695556640625,0.4784088134765625,-0.3733978271484375,18148.51086866667,2.542621035949226,-1.137854429895317,-0.5016949279874476,-0.001716871396638453,0.009698245674371719,0.001417068648152053,0.00249326229095459,-0.0111248791217804,-0.002732783555984497,XArbitraryZVertical,-0.4369407171842882,0.3537820114450773,-0.8192382244621363,-0.1130029789244804,-0.7958739399909973,0.4809122979640961,-0.3678421974182129,0,0,0,-1,-1,18145.10641779167,unknown,2,2025-04-21T15:17:42.177+03:00,2025-04-20T21:57:49.637+03:00,6664,0.9638649,0,0,5475.677,5,6,2025-04-21T15:17:44.757+03:00,766930664.8577851,0,-44.09,100.2613,1,0.45,2025-04-21T15:14:45.481+03:00,86,1.433333333333333,2025-04-21T12:30:07.995+03:00,0.02023345852159405,0
2025-04-21T15:17:45.607+03:00,1745237858.398729,40.95225582986527,29.1403179372126,76.30476,-1,-1,-1,-1,30,26.56900642780171,-9999,18148.53102066667,-0.7932891845703125,0.487213134765625,-0.3714141845703125,18148.52094466667,2.542624103255385,-1.137729198904446,-0.5016930384911723,0.002121542813256383,0.009164015762507915,-0.006450441665947437,0.001562952995300293,-0.008590161800384521,-0.003395646810531616,XArbitraryZVertical,-0.4368902681028053,0.3537735762418959,-0.8192659164468858,-0.1130245300434108,-0.7958288192749023,0.4809106290340424,-0.3679423034191132,0,0,0,-1,-1,18145.10641779167,unknown,2,2025-04-21T15:17:42.177+03:00,2025-04-20T21:57:49.637+03:00,6664,0.9638649,0,0,5475.677,5,6,2025-04-21T15:17:44.757+03:00,766930664.8577851,0,-44.09,100.2613,1,0.45,2025-04-21T15:14:45.481+03:00,86,1.433333333333333,2025-04-21T12:30:07.995+03:00,0.02023345852159405,0
2025-04-21T15:17:45.617+03:00,1745237858.398729,40.95225582986527,29.1403179372126,76.30476,-1,-1,-1,-1,30,26.56900642780171,-9999,18148.54109666667,-0.7933197021484375,0.4808349609375,-0.3656463623046875,18148.53102066667,2.54272290559313,-1.137574795884839,-0.5015909081382739,0.01639555394649506,0.01197578199207783,-0.007930492982268333,0.0005436539649963379,-0.0005051195621490479,-0.005174785852432251,XArbitraryZVertical,-0.4368633479661017,0.353705449332151,-0.8193074680950865,-0.1130398649858649,-0.7958164215087891,0.4808210730552673,-0.3680857419967651,0,0,0,-1,-1,18145.10641779167,unknown,2,2025-04-21T15:17:42.177+03:00,2025-04-20T21:57:49.637+03:00,6664,0.9638649,0,0,5475.677,5,6,2025-04-21T15:17:44.757+03:00,766930664.8577851,0,-44.09,100.2613,1,0.45,2025-04-21T15:14:45.481+03:00,86,1.433333333333333,2025-04-21T12:30:07.995+03:00,0.02023345852159405,0
2025-04-21T15:17:45.627+03:00,1745237858.398729,40.95225582986527,29.1403179372126,76.30476,-1,-1,-1,-1,30,26.56900642780171,-9999,18148.55117266667,-0.7951507568359375,0.478546142578125,-0.3667449951171875,18148.54109666667,2.542803404460215,-1.137405429615797,-0.5014258587301377,0.01276353467255831,0.0131928464397788,-0.01512528955936432,0.002674341201782227,0.006811290979385376,-0.002488970756530762,XArbitraryZVertical,-0.4368385725663815,0.3536171912680134,-0.8193528906557059,-0.1130831642654425,-0.7958261966705322,0.4806763529777527,-0.3682538866996765,0,0,0,-1,-1,18145.10641779167,unknown,2,2025-04-21T15:17:42.177+03:00,2025-04-20T21:57:49.637+03:00,6664,0.9638649,0,0,5475.677,5,6,2025-04-21T15:17:44.757+03:00,766930664.8577851,0,-44.09,100.2613,1,0.45,2025-04-21T15:14:45.481+03:00,86,1.433333333333333,2025-04-21T12:30:07.995+03:00,0.02023345852159405,0
2025-04-21T15:17:45.637+03:00,1745237858.398729,40.95225582986527,29.1403179372126,76.30476,-1,-1,-1,-1,30,26.56900642780171,-9999,18148.56124866667,-0.79315185546875,0.4795684814453125,-0.3699188232421875,18148.55117266667,2.542883214919688,-1.137216372838346,-0.5012055908086916,0.01696373894810677,0.01509607397019863,-0.01525092404335737,0.002502381801605225,-0.0004266500473022461,0.003504246473312378,XArbitraryZVertical,-0.4368158536822098,0.3535074882991549,-0.8194035895790099,-0.1131454060897989,-0.7958524823188782,0.480483204126358,-0.3684487342834473,0,0,0,-1,-1,18145.10641779167,unknown,2,2025-04-21T15:17:42.177+03:00,2025-04-20T21:57:49.637+03:00,6664,0.9638649,0,0,5475.677,5,6,2025-04-21T15:17:44.757+03:00,766930664.8577851,0,-44.09,100.2613,1,0.45,2025-04-21T15:14:45.481+03:00,86,1.433333333333333,2025-04-21T12:30:07.995+03:00,0.02023345852159405,0
2025-04-21T15:17:45.647+03:00,1745237858.398729,40.95225582986527,29.1403179372126,76.30476,-1,-1,-1,-1,30,26.56900642780171,-9999,18148.57132466667,-0.7925262451171875,0.4779510498046875,-0.3732147216796875,18148.56124866667,2.542983916685485,-1.13696810196445,-0.5009950193288526,0.01593203097581863,0.02224506437778473,-0.01370229572057724,0.0008394718170166016,-0.001416862010955811,0.001348763704299927,XArbitraryZVertical,-0.4367706700735278,0.3533934689364045,-0.8194684319722256,-0.1132070875539909,-0.7958528399467468,0.4802985191345215,-0.3686888813972473,0,0,0,-1,-1,18145.10641779167,unknown,2,2025-04-21T15:17:42.177+03:00,2025-04-20T21:57:49.637+03:00,6664,0.9638649,0,0,5475.677,5,6,2025-04-21T15:17:44.757+03:00,766930664.8577851,0,-44.09,100.2613,1,0.45,2025-04-21T15:14:45.481+03:00,86,1.433333333333333,2025-04-21T12:30:07.995+03:00,0.02023345852159405,0
2025-04-21T15:17:45.657+03:00,1745237858.398729,40.95225582986527,29.1403179372126,76.30476,-1,-1,-1,-1,30,26.56900642780171,-9999,18148.58140166667,-0.7890625,0.4731903076171875,-0.37152099609375,18148.57132466667,2.54310133110247,-1.136675691263253,-0.5007957525567335,0.01846702769398689,0.01932830363512039,-0.01241722144186497,0.002435863018035889,-0.0007690191268920898,-0.001536846160888672,XArbitraryZVertical,-0.4367082730157433,0.3532774631611069,-0.8195435244212893,-0.1132664473307521,-0.7958318591117859,0.4801237285137177,-0.3689618408679962,0,0,0,-1,-1,18145.10641779167,unknown,2,2025-04-21T15:17:42.177+03:00,2025-04-20T21:57:49.637+03:00,6664,0.9638649,0,0,5475.677,5,6,2025-04-21T15:17:44.757+03:00,766930664.8577851,0,-44.09,100.2613,1,0.45,2025-04-21T15:14:45.481+03:00,86,1.433333333333333,2025-04-21T12:30:07.995+03:00,0.02023345852159405,0
2025-04-21T15:17:45.667+03:00,1745237858.398729,40.95225582986527,29.1403179372126,76.30476,-1,-1,-1,-1,30,26.56900642780171,-9999,18148.59147766667,-0.7876434326171875,0.4705047607421875,-0.3707122802734375,18148.58140166667,2.543237613922161,-1.136408694561129,-0.5006159245623051,0.01730029657483101,0.01739271730184555,-0.008112487383186817,0.004094123840332031,-0.002900093793869019,-0.004400849342346191,XArbitraryZVertical,-0.4366560244987793,0.3531659599369815,-0.8196136691908976,-0.1133080945590491,-0.7958115935325623,0.4799659848213196,-0.3692106306552887,0,0,0,-1,-1,18145.10641779167,unknown,2,2025-04-21T15:17:42.177+03:00,2025-04-20T21:57:49.637+03:00,6664,0.9638649,0,0,5475.677,5,6,2025-04-21T15:17:44.757+03:00,766930664.8577851,0,-44.09,100.2613,1,0.45,2025-04-21T15:14:45.481+03:00,86,1.433333333333333,2025-04-21T12:30:07.995+03:00,0.02023345852159405,0
2025-04-21T15:17:45.677+03:00,1745237858.398729,40.95225582986527,29.1403179372126,76.30476,-1,-1,-1,-1,30,26.56900642780171,-9999,18148.60155366667,-0.7866058349609375,0.4706573486328125,-0.374298095703125,18148.59147766667,2.543359921511992,-1.136187775862959,-0.5004725519131933,0.01538827922195196,0.01222152449190617,-0.006328502204269171,0.006699442863464355,-0.007000982761383057,-0.001373171806335449,XArbitraryZVertical,-0.4366134592215553,0.3530736151060569,-0.8196721283689747,-0.1133371093598801,-0.7957924604415894,0.4798401892185211,-0.3694154322147369,0,0,0,-1,-1,18145.10641779167,unknown,2,2025-04-21T15:17:42.177+03:00,2025-04-20T21:57:49.637+03:00,6664,0.9638649,0,0,5475.677,5,6,2025-04-21T15:17:44.757+03:00,766930664.8577851,0,-44.09,100.2613,1,0.45,2025-04-21T15:14:45.481+03:00,86,1.433333333333333,2025-04-21T12:30:07.995+03:00,0.02023345852159405,0
2025-04-21T15:17:45.687+03:00,1745237858.398729,40.95225582986527,29.1403179372126,76.30476,-1,-1,-1,-1,30,26.56900642780171,-9999,18148.61162966667,-0.78656005859375,0.4711761474609375,-0.3736572265625,18148.60155366667,2.543445417261032,-1.136046083429059,-0.500369212907407,0.007685085758566856,0.008038231171667576,-0.001901795854791999,0.008416235446929932,-0.009107530117034912,-0.002536565065383911,XArbitraryZVertical,-0.4365894758191799,0.3530086280339481,-0.8197103159683435,-0.1133560390295703,-0.795785129070282,0.4797495305538177,-0.3695490658283234,0,0,0,-1,-1,18145.10641779167,unknown,2,2025-04-21T15:17:42.177+03:00,2025-04-20T21:57:49.637+03:00,6664,0.9638649,0,0,5475.677,5,6,2025-04-21T15:17:44.757+03:00,766930664.8577851,0,-44.09,100.2613,1,0.45,2025-04-21T15:14:45.481+03:00,86,1.433333333333333,2025-04-21T12:30:07.995+03:00,0.02023345852159405,0
