loggingTime(txt),locationTimestamp_since1970(s),locationLatitude(WGS84),locationLongitude(WGS84),locationAltitude(m),locationSpeed(m/s),locationSpeedAccuracy(m/s),locationCourse(°),locationCourseAccuracy(°),locationVerticalAccuracy(m),locationHorizontalAccuracy(m),locationFloor(Z),accelerometerTimestamp_sinceReboot(s),accelerometerAccelerationX(G),accelerometerAccelerationY(G),accelerometerAccelerationZ(G),motionTimestamp_sinceReboot(s),motionYaw(rad),motionRoll(rad),motionPitch(rad),motionRotationRateX(rad/s),motionRotationRateY(rad/s),motionRotationRateZ(rad/s),motionUserAccelerationX(G),motionUserAccelerationY(G),motionUserAccelerationZ(G),motionAttitudeReferenceFrame(txt),motionQuaternionX(R),motionQuaternionY(R),motionQuaternionZ(R),motionQuaternionW(R),motionGravityX(G),motionGravityY(G),motionGravityZ(G),motionMagneticFieldX(µT),motionMagneticFieldY(µT),motionMagneticFieldZ(µT),motionHeading(°),motionMagneticFieldCalibrationAccuracy(Z),activityTimestamp_sinceReboot(s),activity(txt),activityActivityConfidence(Z),activityActivityStartDate(txt),pedometerStartDate(txt),pedometerNumberofSteps(N),pedometerAverageActivePace(s/m),pedometerCurrentPace(s/m),pedometerCurrentCadence(steps/s),pedometerDistance(m),pedometerFloorAscended(N),pedometerFloorDescended(N),pedometerEndDate(txt),altimeterTimestamp_sinceReboot(s),altimeterReset(bool),altimeterRelativeAltitude(m),altimeterPressure(kPa),batteryState(N),batteryLevel(R),heartRateBPMTimestamp(txt),heartRateBPM(N),heartRateBPS(R),heartRateVariabilityTimestamp(txt),heartRateVariability(ms),label
2025-04-21T16:46:41.747+03:00,1745243200.681371,40.9522196526657,29.14029648939994,76.2561,-1,-1,-1,-1,30,20.62944476133531,-9999,20443.9741745,0.932220458984375,-0.2840423583984375,-0.4144287109375,20443.9640975,-0.7572746195179199,1.053379834551303,0.333009520184143,0.06623367965221405,-0.03268077969551086,0.00386680499650538,-0.133823573589325,0.04643231630325317,-0.09166532754898071,XArbitraryZVertical,-0.3163730616010638,-0.4076479175983318,0.2377275011252406,-0.8229318405095204,0.8213540315628052,-0.3268886804580688,-0.4674625098705292,0,0,0,-1,-1,20441.144005625,unknown,2,2025-04-21T16:46:38.875+03:00,2025-04-20T21:57:49.637+03:00,6805,0.9866872,0,0,5579.851,5,6,2025-04-21T16:43:22.849+03:00,766936001.5555496,0,-38.75,100.1976,1,0.3,2025-04-21T16:46:36.105+03:00,79,1.316666666666667,2025-04-21T12:30:07.995+03:00,0.02023345852159405,0
2025-04-21T16:46:41.748+03:00,1745243200.681371,40.9522196526657,29.14029648939994,76.2561,-1,-1,-1,-1,30,20.62944476133531,-9999,20443.9842505,0.9722747802734375,-0.3866119384765625,-0.3941650390625,20443.9741745,-0.7582135366385525,1.0522025204791,0.3336264486120739,0.1037941053509712,-0.2307243496179581,-0.005780229810625315,-0.06185406446456909,0.08389577269554138,-0.06270730495452881,XArbitraryZVertical,-0.3166590527100005,-0.4068936930037225,0.2381418276435269,-0.8230752839863141,0.8206278085708618,-0.3274716734886169,-0.468329131603241,0,0,0,-1,-1,20441.144005625,unknown,2,2025-04-21T16:46:38.875+03:00,2025-04-20T21:57:49.637+03:00,6805,0.9866872,0,0,5579.851,5,6,2025-04-21T16:43:22.849+03:00,766936001.5555496,0,-38.75,100.1976,1,0.3,2025-04-21T16:46:36.105+03:00,79,1.316666666666667,2025-04-21T12:30:07.995+03:00,0.02023345852159405,0
2025-04-21T16:46:41.749+03:00,1745243200.681371,40.9522196526657,29.14029648939994,76.2561,-1,-1,-1,-1,30,20.62944476133531,-9999,20443.9943265,0.7930145263671875,-0.388641357421875,-0.470367431640625,20443.9842505,-0.7587987595977361,1.050325096869182,0.3337866141581061,0.01932269334793091,-0.1475947946310043,-0.01310602016746998,0.1363835334777832,0.03154164552688599,0.07033726572990417,XArbitraryZVertical,-0.316615188447426,-0.4059967730073822,0.2386388783421569,-0.8233910470798728,0.819701611995697,-0.3276229798793793,-0.4698428809642792,0,0,0,-1,-1,20441.144005625,unknown,2,2025-04-21T16:46:38.875+03:00,2025-04-20T21:57:49.637+03:00,6805,0.9866872,0,0,5579.851,5,6,2025-04-21T16:43:22.849+03:00,766936001.5555496,0,-38.75,100.1976,1,0.3,2025-04-21T16:46:36.105+03:00,79,1.316666666666667,2025-04-21T12:30:07.995+03:00,0.02023345852159405,0
2025-04-21T16:46:41.754+03:00,1745243200.681371,40.9522196526657,29.14029648939994,76.2561,-1,-1,-1,-1,30,20.62944476133531,-9999,20444.0044025,0.72943115234375,-0.3294219970703125,-0.485992431640625,20443.9943265,-0.7589017719809871,1.049866748007787,0.3337291174256339,-0.004769860301166773,0.04795341193675995,-0.008173312991857529,0.1339428424835205,-0.06737443804740906,0.06493920087814331,XArbitraryZVertical,-0.3165594595757221,-0.405803067766119,0.2387685809692282,-0.8234704407074842,0.819502592086792,-0.3275686800479889,-0.4702279567718506,0,0,0,-1,-1,20441.144005625,unknown,2,2025-04-21T16:46:38.875+03:00,2025-04-20T21:57:49.637+03:00,6805,0.9866872,0,0,5579.851,5,6,2025-04-21T16:43:22.849+03:00,766936001.5555496,0,-38.75,100.1976,1,0.3,2025-04-21T16:46:36.105+03:00,79,1.316666666666667,2025-04-21T12:30:07.995+03:00,0.02023345852159405,0
2025-04-21T16:46:41.764+03:00,1745243200.681371,40.9522196526657,29.14029648939994,76.2561,-1,-1,-1,-1,30,20.62944476133531,-9999,20444.0144795,0.7814178466796875,-0.305877685546875,-0.4874114990234375,20444.0044025,-0.7588512171836276,1.050756183026541,0.3336564807440114,-0.01257059164345264,0.1048121005296707,-0.001993214711546898,-0.04401648044586182,-0.05396950244903564,-0.00493091344833374,XArbitraryZVertical,-0.3166277464875635,-0.4061915274162049,0.2386255704065571,-0.8232939401698873,0.819940984249115,-0.32750004529953,-0.4695106148719788,0,0,0,-1,-1,20441.144005625,unknown,2,2025-04-21T16:46:38.875+03:00,2025-04-20T21:57:49.637+03:00,6805,0.9866872,0,0,5579.851,5,6,2025-04-21T16:43:22.849+03:00,766936001.5555496,0,-38.75,100.1976,1,0.3,2025-04-21T16:46:36.105+03:00,79,1.316666666666667,2025-04-21T12:30:07.995+03:00,0.02023345852159405,0
2025-04-21T16:46:41.774+03:00,1745243200.681371,40.9522196526657,29.14029648939994,76.2561,-1,-1,-1,-1,30,20.62944476133531,-9999,20444.0245555,0.85491943359375,-0.31732177734375,-0.467376708984375,20444.0144795,-0.7588619718922992,1.051379266664964,0.3336081631475722,0.007926694117486477,0.007362775504589081,-0.005730695091187954,-0.08893924951553345,0.003953009843826294,-0.0182972252368927,XArbitraryZVertical,-0.316685857018479,-0.4064557977938069,0.2385437336329865,-0.8231648846142765,0.8202471137046814,-0.3274543881416321,-0.4690074920654297,0,0,0,-1,-1,20441.144005625,unknown,2,2025-04-21T16:46:38.875+03:00,2025-04-20T21:57:49.637+03:00,6805,0.9866872,0,0,5579.851,5,6,2025-04-21T16:43:22.849+03:00,766936001.5555496,0,-38.75,100.1976,1,0.3,2025-04-21T16:46:36.105+03:00,79,1.316666666666667,2025-04-21T12:30:07.995+03:00,0.02023345852159405,0
2025-04-21T16:46:41.784+03:00,1745243200.681371,40.9522196526657,29.14029648939994,76.2561,-1,-1,-1,-1,30,20.62944476133531,-9999,20444.0346315,0.857696533203125,-0.3406524658203125,-0.45660400390625,20444.0245555,-0.7590167445567091,1.051050685735916,0.333604045072679,0.01593155600130558,-0.07214596122503281,-0.005386248230934143,-0.02834618091583252,0.02148145437240601,-0.01692840456962585,XArbitraryZVertical,-0.3166765295162079,-0.4062968590939231,0.2386605225067356,-0.8232131031423379,0.8200941681861877,-0.3274504840373993,-0.4692776799201965,0,0,0,-1,-1,20441.144005625,unknown,2,2025-04-21T16:46:38.875+03:00,2025-04-20T21:57:49.637+03:00,6805,0.9866872,0,0,5579.851,5,6,2025-04-21T16:43:22.849+03:00,766936001.5555496,0,-38.75,100.1976,1,0.3,2025-04-21T16:46:36.105+03:00,79,1.316666666666667,2025-04-21T12:30:07.995+03:00,0.02023345852159405,0
2025-04-21T16:46:41.794+03:00,1745243200.681371,40.9522196526657,29.14029648939994,76.2561,-1,-1,-1,-1,30,20.62944476133531,-9999,20444.0447085,0.8127593994140625,-0.3466949462890625,-0.4669647216796875,20444.0346315,-0.7591220921972404,1.050431954393856,0.3335861501274404,0.002263148780912161,-0.04563632607460022,-0.007906664162874222,0.03985607624053955,0.006175190210342407,0.004638969898223877,XArbitraryZVertical,-0.3166172314798855,-0.406029009666792,0.2388064384950251,-0.8233257999482895,0.8198087811470032,-0.3274335861206055,-0.4697879552841187,0,0,0,-1,-1,20441.144005625,unknown,2,2025-04-21T16:46:38.875+03:00,2025-04-20T21:57:49.637+03:00,6805,0.9866872,0,0,5579.851,5,6,2025-04-21T16:43:22.849+03:00,766936001.5555496,0,-38.75,100.1976,1,0.3,2025-04-21T16:46:36.105+03:00,79,1.316666666666667,2025-04-21T12:30:07.995+03:00,0.02023345852159405,0
2025-04-21T16:46:41.804+03:00,1745243200.681371,40.9522196526657,29.14029648939994,76.2561,-1,-1,-1,-1,30,20.62944476133531,-9999,20444.0547845,0.791778564453125,-0.32958984375,-0.4736785888671875,20444.0447085,-0.7591327483286868,1.050224798213789,0.3334759112139985,-0.005463147535920143,0.009240038692951202,-0.01111547369509935,0.03358972072601318,-0.01606947183609009,0.01346319913864136,XArbitraryZVertical,-0.3165526703696803,-0.4059637284852516,0.2388718618924065,-0.8233638436663452,0.819742739200592,-0.3273294270038605,-0.4699757099151611,0,0,0,-1,-1,20441.144005625,unknown,2,2025-04-21T16:46:38.875+03:00,2025-04-20T21:57:49.637+03:00,6805,0.9866872,0,0,5579.851,5,6,2025-04-21T16:43:22.849+03:00,766936001.5555496,0,-38.75,100.1976,1,0.3,2025-04-21T16:46:36.105+03:00,79,1.316666666666667,2025-04-21T12:30:07.995+03:00,0.02023345852159405,0
2025-04-21T16:46:41.814+03:00,1745243200.681371,40.9522196526657,29.14029648939994,76.2561,-1,-1,-1,-1,30,20.62944476133531,-9999,20444.0648605,0.80999755859375,-0.3111572265625,-0.46514892578125,20444.0547845,-0.7591421035173173,1.050354289958839,0.3333532059945121,-0.007294869516044855,0.01424465049058199,-0.004815233405679464,-0.01229751110076904,-0.01809278130531311,0.001505672931671143,XArbitraryZVertical,-0.3165232821791362,-0.4060396942407613,0.238886660546175,-0.8233334451184519,0.8198385238647461,-0.32721346616745,-0.4698895514011383,0,0,0,-1,-1,20441.144005625,unknown,2,2025-04-21T16:46:38.875+03:00,2025-04-20T21:57:49.637+03:00,6805,0.9866872,0,0,5579.851,5,6,2025-04-21T16:43:22.849+03:00,766936001.5555496,0,-38.75,100.1976,1,0.3,2025-04-21T16:46:36.105+03:00,79,1.316666666666667,2025-04-21T12:30:07.995+03:00,0.02023345852159405,0
2025-04-21T16:46:41.824+03:00,1745243200.681371,40.9522196526657,29.14029648939994,76.2561,-1,-1,-1,-1,30,20.62944476133531,-9999,20444.0749365,0.8284454345703125,-0.3167877197265625,-0.4582672119140625,20444.0648605,-0.7591784799241829,1.050360464681406,0.3333290008460179,0.01289528701454401,-0.02062764577567577,0.001236500451341271,-0.02756619453430176,0.0006679296493530273,-0.003500282764434814,XArbitraryZVertical,-0.3165221858844611,-0.4060412404677149,0.2389068598893885,-0.8233272445249987,0.8198482990264893,-0.3271906077861786,-0.4698884189128876,0,0,0,-1,-1,20441.144005625,unknown,2,2025-04-21T16:46:38.875+03:00,2025-04-20T21:57:49.637+03:00,6805,0.9866872,0,0,5579.851,5,6,2025-04-21T16:43:22.849+03:00,766936001.5555496,0,-38.75,100.1976,1,0.3,2025-04-21T16:46:36.105+03:00,79,1.316666666666667,2025-04-21T12:30:07.995+03:00,0.02023345852159405,0
2025-04-21T16:46:41.835+03:00,1745243200.681371,40.9522196526657,29.14029648939994,76.2561,-1,-1,-1,-1,30,20.62944476133531,-9999,20444.0850135,0.8230743408203125,-0.3338165283203125,-0.4630584716796875,20444.0749365,-0.7593409633087905,1.050120050203271,0.3333880259958169,0.01465776655822992,-0.04053717106580734,-0.006509836297482252,-0.006302952766418457,0.01677590608596802,0.006345927715301514,XArbitraryZVertical,-0.3165489272137218,-0.4059049408748461,0.2389966773802039,-0.8233580942903334,0.8197185397148132,-0.327246367931366,-0.4700759053230286,0,0,0,-1,-1,20441.144005625,unknown,2,2025-04-21T16:46:38.875+03:00,2025-04-20T21:57:49.637+03:00,6805,0.9866872,0,0,5579.851,5,6,2025-04-21T16:43:22.849+03:00,766936001.5555496,0,-38.75,100.1976,1,0.3,2025-04-21T16:46:36.105+03:00,79,1.316666666666667,2025-04-21T12:30:07.995+03:00,0.02023345852159405,0
2025-04-21T16:46:41.845+03:00,1745243200.681371,40.9522196526657,29.14029648939994,76.2561,-1,-1,-1,-1,30,20.62944476133531,-9999,20444.0950895,0.808074951171875,-0.33709716796875,-0.46990966796875,20444.0850135,-0.7594929805717856,1.049808588379446,0.3334015987641449,0.009905088692903519,-0.02659818902611732,-0.007296001072973013,0.009456992149353027,0.008732140064239502,0.0118480920791626,XArbitraryZVertical,-0.3165477127931002,-0.405749984094567,0.2391050819664359,-0.8234034701067267,0.8195682168006897,-0.3272592127323151,-0.4703289866447449,0,0,0,-1,-1,20441.144005625,unknown,2,2025-04-21T16:46:38.875+03:00,2025-04-20T21:57:49.637+03:00,6805,0.9866872,0,0,5579.851,5,6,2025-04-21T16:43:22.849+03:00,766936001.5555496,0,-38.75,100.1976,1,0.3,2025-04-21T16:46:36.105+03:00,79,1.316666666666667,2025-04-21T12:30:07.995+03:00,0.02023345852159405,0
2025-04-21T16:46:41.855+03:00,1745243200.681371,40.9522196526657,29.14029648939994,76.2561,-1,-1,-1,-1,30,20.62944476133531,-9999,20444.1051655,0.803070068359375,-0.3262786865234375,-0.473602294921875,20444.0950895,-0.7596062922967504,1.049689972629833,0.3333867087464784,0.007547392975538969,-0.002905640751123428,-0.005495704244822264,0.001299381256103516,-0.00852435827255249,0.006683468818664551,XArbitraryZVertical,-0.3165508558584372,-0.4056861449446823,0.2391743173961123,-0.8234135806901794,0.819516658782959,-0.3272451460361481,-0.4704286158084869,0,0,0,-1,-1,20441.144005625,unknown,2,2025-04-21T16:46:38.875+03:00,2025-04-20T21:57:49.637+03:00,6805,0.9866872,0,0,5579.851,5,6,2025-04-21T16:43:22.849+03:00,766936001.5555496,0,-38.75,100.1976,1,0.3,2025-04-21T16:46:36.105+03:00,79,1.316666666666667,2025-04-21T12:30:07.995+03:00,0.02023345852159405,0
2025-04-21T16:46:41.865+03:00,1745243200.681371,40.9522196526657,29.14029648939994,76.2561,-1,-1,-1,-1,30,20.62944476133531,-9999,20444.1152425,0.812042236328125,-0.320037841796875,-0.472198486328125,20444.1051655,-0.7597108057616202,1.049757122000162,0.3334283825038009,0.01537828519940376,0.007459781132638454,-9.50134708546102e-05,-0.01292628049850464,-0.009125828742980957,-0.0003974735736846924,XArbitraryZVertical,-0.3165959979771946,-0.4056890438471367,0.2391960357176365,-0.8233883846726315,0.8195363283157349,-0.3272845149040222,-0.4703667461872101,0,0,0,-1,-1,20441.144005625,unknown,2,2025-04-21T16:46:38.875+03:00,2025-04-20T21:57:49.637+03:00,6805,0.9866872,0,0,5579.851,5,6,2025-04-21T16:43:22.849+03:00,766936001.5555496,0,-38.75,100.1976,1,0.3,2025-04-21T16:46:36.105+03:00,79,1.316666666666667,2025-04-21T12:30:07.995+03:00,0.02023345852159405,0
2025-04-21T16:46:41.875+03:00,1745243200.681371,40.9522196526657,29.14029648939994,76.2561,-1,-1,-1,-1,30,20.62944476133531,-9999,20444.1253185,0.820892333984375,-0.323822021484375,-0.472015380859375,20444.1152425,-0.7598963738877715,1.04986463606568,0.3335302990781783,0.02434754557907581,0.001665275543928146,0.0008786382968537509,-0.01590812206268311,0.001544803380966187,-0.003477632999420166,XArbitraryZVertical,-0.3166853075651478,-0.4056838645449623,0.2392293094659956,-0.8233469373106006,0.8195579648017883,-0.3273808062076569,-0.4702620506286621,0,0,0,-1,-1,20441.144005625,unknown,2,2025-04-21T16:46:38.875+03:00,2025-04-20T21:57:49.637+03:00,6805,0.9866872,0,0,5579.851,5,6,2025-04-21T16:43:22.849+03:00,766936001.5555496,0,-38.75,100.1976,1,0.3,2025-04-21T16:46:36.105+03:00,79,1.316666666666667,2025-04-21T12:30:07.995+03:00,0.02023345852159405,0
2025-04-21T16:46:41.885+03:00,1745243200.681371,40.9522196526657,29.14029648939994,76.2561,-1,-1,-1,-1,30,20.62944476133531,-9999,20444.1353945,0.8199920654296875,-0.328155517578125,-0.4710540771484375,20444.1253185,-0.7601127456191301,1.049943140380373,0.3336508445606493,0.02392716519534588,-0.0004502064548432827,0.00238805147819221,-0.006725072860717773,0.00733494758605957,-0.002523988485336304,XArbitraryZVertical,-0.3167844772926158,-0.4056581811950739,0.239275077669432,-0.8233081759900318,0.8195606470108032,-0.3274947106838226,-0.4701780676841736,0,0,0,-1,-1,20441.144005625,unknown,2,2025-04-21T16:46:38.875+03:00,2025-04-20T21:57:49.637+03:00,6805,0.9866872,0,0,5579.851,5,6,2025-04-21T16:43:22.849+03:00,766936001.5555496,0,-38.75,100.1976,1,0.3,2025-04-21T16:46:36.105+03:00,79,1.316666666666667,2025-04-21T12:30:07.995+03:00,0.02023345852159405,0
2025-04-21T16:46:41.895+03:00,1745243200.681371,40.9522196526657,29.14029648939994,76.2561,-1,-1,-1,-1,30,20.62944476133531,-9999,20444.1454705,0.813720703125,-0.329681396484375,-0.468017578125,20444.1353945,-0.760308196151494,1.050033413649968,0.3337769128783341,0.02078756503760815,0.007772036828100681,0.0002122488222084939,0.001981139183044434,0.003028988838195801,-0.001138448715209961,XArbitraryZVertical,-0.3168829192273863,-0.4056395503386578,0.2393089417565401,-0.8232696361313018,0.8195672631263733,-0.3276138305664062,-0.4700835347175598,0,0,0,-1,-1,20441.144005625,unknown,2,2025-04-21T16:46:38.875+03:00,2025-04-20T21:57:49.637+03:00,6805,0.9866872,0,0,5579.851,5,6,2025-04-21T16:43:22.849+03:00,766936001.5555496,0,-38.75,100.1976,1,0.3,2025-04-21T16:46:36.105+03:00,79,1.316666666666667,2025-04-21T12:30:07.995+03:00,0.02023345852159405,0
2025-04-21T16:46:41.905+03:00,1745243200.681371,40.9522196526657,29.14029648939994,76.2561,-1,-1,-1,-1,30,20.62944476133531,-9999,20444.1555475,0.812347412109375,-0.3296051025390625,-0.4678497314453125,20444.1454705,-0.7604507058335722,1.050169585587479,0.3338891027946945,0.01161617040634155,0.01281819492578506,0.004289415199309587,-0.000400841236114502,-0.001259535551071167,-0.0008868575096130371,XArbitraryZVertical,-0.3169708309174475,-0.4056509191327684,0.2393172837885796,-0.8232277639020199,0.8195993900299072,-0.3277198374271393,-0.4699536561965942,0,0,0,-1,-1,20441.144005625,unknown,2,2025-04-21T16:46:38.875+03:00,2025-04-20T21:57:49.637+03:00,6805,0.9866872,0,0,5579.851,5,6,2025-04-21T16:43:22.849+03:00,766936001.5555496,0,-38.75,100.1976,1,0.3,2025-04-21T16:46:36.105+03:00,79,1.316666666666667,2025-04-21T12:30:07.995+03:00,0.02023345852159405,0
2025-04-21T16:46:41.915+03:00,1745243200.681371,40.9522196526657,29.14029648939994,76.2561,-1,-1,-1,-1,30,20.62944476133531,-9999,20444.1656235,0.8152313232421875,-0.3323211669921875,-0.4670562744140625,20444.1555475,-0.7605461806903796,1.050357557333629,0.3339349038552621,0.01178874261677265,0.01739536970853806,0.0008720469195395708,-0.00645756721496582,-0.001933395862579346,0.001835525035858154,XArbitraryZVertical,-0.3170301286904882,-0.4057041320440584,0.2393150524128326,-0.8231793445087902,0.8196746706962585,-0.3277631103992462,-0.4697920978069305,0,0,0,-1,-1,20441.144005625,unknown,2,2025-04-21T16:46:38.875+03:00,2025-04-20T21:57:49.637+03:00,6805,0.9866872,0,0,5579.851,5,6,2025-04-21T16:43:22.849+03:00,766936001.5555496,0,-38.75,100.1976,1,0.3,2025-04-21T16:46:36.105+03:00,79,1.316666666666667,2025-04-21T12:30:07.995+03:00,0.02023345852159405,0
2025-04-21T16:46:41.925+03:00,1745243200.681371,40.9522196526657,29.14029648939994,76.2561,-1,-1,-1,-1,30,20.62944476133531,-9999,20444.1756995,0.815826416015625,-0.33172607421875,-0.4672393798828125,20444.1656235,-0.7606525097402715,1.050574749628869,0.3339878262238184,0.01092481333762407,0.01569201052188873,0.001667666481807828,-0.007002294063568115,-0.001303553581237793,0.002518594264984131,XArbitraryZVertical,-0.3170978343874356,-0.4057662386661707,0.2393108212716444,-0.8231238774050771,0.8197616338729858,-0.3278130888938904,-0.4696054458618164,0,0,0,-1,-1,20441.144005625,unknown,2,2025-04-21T16:46:38.875+03:00,2025-04-20T21:57:49.637+03:00,6805,0.9866872,0,0,5579.851,5,6,2025-04-21T16:43:22.849+03:00,766936001.5555496,0,-38.75,100.1976,1,0.3,2025-04-21T16:46:36.105+03:00,79,1.316666666666667,2025-04-21T12:30:07.995+03:00,0.02023345852159405,0
2025-04-21T16:46:41.936+03:00,1745243200.681371,40.9522196526657,29.14029648939994,76.2561,-1,-1,-1,-1,30,20.62944476133531,-9999,20444.1857765,0.8157958984375,-0.33026123046875,-0.466827392578125,20444.1756995,-0.7607722263801984,1.050763612757898,0.3340790705145877,0.01612969674170017,0.008322512730956078,0.0005909503088332713,-0.004623591899871826,-0.00423857569694519,0.001784354448318481,XArbitraryZVertical,-0.3171794644170626,-0.405807000010552,0.2393067544172583,-0.8230734742305105,0.8198243379592896,-0.327899307012558,-0.4694357216358185,0,0,0,-1,-1,20441.144005625,unknown,2,2025-04-21T16:46:38.875+03:00,2025-04-20T21:57:49.637+03:00,6805,0.9866872,0,0,5579.851,5,6,2025-04-21T16:43:22.849+03:00,766936001.5555496,0,-38.75,100.1976,1,0.3,2025-04-21T16:46:36.105+03:00,79,1.316666666666667,2025-04-21T12:30:07.995+03:00,0.02023345852159405,0
2025-04-21T16:46:41.946+03:00,1745243200.681371,40.9522196526657,29.14029648939994,76.2561,-1,-1,-1,-1,30,20.62944476133531,-9999,20444.19585166667,0.8148040771484375,-0.332427978515625,-0.4684295654296875,20444.1857765,-0.7609021079386549,1.050883043206005,0.3341902941339794,0.01647930219769478,0.01135738380253315,-2.147688064724207e-05,-0.004175007343292236,-0.003385841846466064,0.002919524908065796,XArbitraryZVertical,-0.3172624348050878,-0.4058136263481477,0.2393127524103308,-0.8230364866711076,0.8198487162590027,-0.3280043601989746,-0.4693197011947632,0,0,0,-1,-1,20441.144005625,unknown,2,2025-04-21T16:46:38.875+03:00,2025-04-20T21:57:49.637+03:00,6805,0.9866872,0,0,5579.851,5,6,2025-04-21T16:43:22.849+03:00,766936001.5555496,0,-38.75,100.1976,1,0.3,2025-04-21T16:46:36.105+03:00,79,1.316666666666667,2025-04-21T12:30:07.995+03:00,0.02023345852159405,0
2025-04-21T16:46:41.956+03:00,1745243200.681371,40.9522196526657,29.14029648939994,76.2561,-1,-1,-1,-1,30,20.62944476133531,-9999,20444.20592766667,0.8161163330078125,-0.3347930908203125,-0.465576171875,20444.19585166667,-0.7610348584430027,1.05097871756109,0.3342488598851629,0.01296366285532713,0.006959440186619759,-0.003572269575670362,-0.003714919090270996,-0.002064019441604614,0.001992315053939819,XArbitraryZVertical,-0.3173231101222281,-0.405820391584772,0.2393371879369543,-0.8230026410337289,0.8198769688606262,-0.3280597031116486,-0.4692316949367523,0,0,0,-1,-1,20441.144005625,unknown,2,2025-04-21T16:46:38.875+03:00,2025-04-20T21:57:49.637+03:00,6805,0.9866872,0,0,5579.851,5,6,2025-04-21T16:43:22.849+03:00,766936001.5555496,0,-38.75,100.1976,1,0.3,2025-04-21T16:46:36.105+03:00,79,1.316666666666667,2025-04-21T12:30:07.995+03:00,0.02023345852159405,0
2025-04-21T16:46:41.966+03:00,1745243200.681371,40.9522196526657,29.14029648939994,76.2561,-1,-1,-1,-1,30,20.62944476133531,-9999,20444.21600366667,0.8175048828125,-0.334442138671875,-0.4633026123046875,20444.20592766667,-0.7611440415383937,1.051010725222901,0.3342660135250087,0.01025622710585594,-0.001496962271630764,-0.004046611953526735,-0.005693435668945312,-0.004718154668807983,0.001154541969299316,XArbitraryZVertical,-0.3173556046674222,-0.4058128572992274,0.2393726442859948,-0.822983559725488,0.819887101650238,-0.3280758857727051,-0.4692026972770691,0,0,0,-1,-1,20441.144005625,unknown,2,2025-04-21T16:46:38.875+03:00,2025-04-20T21:57:49.637+03:00,6805,0.9866872,0,0,5579.851,5,6,2025-04-21T16:43:22.849+03:00,766936001.5555496,0,-38.75,100.1976,1,0.3,2025-04-21T16:46:36.105+03:00,79,1.316666666666667,2025-04-21T12:30:07.995+03:00,0.02023345852159405,0
2025-04-21T16:46:41.977+03:00,1745243200.681371,40.9522196526657,29.14029648939994,76.2561,-1,-1,-1,-1,30,20.62944476133531,-9999,20444.22608066667,0.8172760009765625,-0.3306884765625,-0.4643402099609375,20444.21600366667,-0.7612507483271778,1.05101465049967,0.334278638070123,0.009918537922203541,-0.00556653831154108,-0.004609870258718729,-0.003494441509246826,-0.006674617528915405,0.004002690315246582,XArbitraryZVertical,-0.3173825205599713,-0.405795050829498,0.2394126955408208,-0.8229703320468413,0.8198853731155396,-0.3280878365039825,-0.4691974222660065,0,0,0,-1,-1,20441.144005625,unknown,2,2025-04-21T16:46:38.875+03:00,2025-04-20T21:57:49.637+03:00,6805,0.9866872,0,0,5579.851,5,6,2025-04-21T16:43:22.849+03:00,766936001.5555496,0,-38.75,100.1976,1,0.3,2025-04-21T16:46:36.105+03:00,79,1.316666666666667,2025-04-21T12:30:07.995+03:00,0.02023345852159405,0
2025-04-21T16:46:41.986+03:00,1745243200.681371,40.9522196526657,29.14029648939994,76.2561,-1,-1,-1,-1,30,20.62944476133531,-9999,20444.23615666667,0.8147125244140625,-0.329437255859375,-0.464202880859375,20444.22608066667,-0.7613364368404282,1.050957088050874,0.3342977402404586,0.01112355198711157,-0.008053731173276901,-0.001837153453379869,-0.002577006816864014,-0.006366640329360962,0.005679428577423096,XArbitraryZVertical,-0.3174002723227856,-0.4057539997826347,0.2394521954573666,-0.8229722611862751,0.8198529481887817,-0.3281058669090271,-0.4692415297031403,0,0,0,-1,-1,20441.144005625,unknown,2,2025-04-21T16:46:38.875+03:00,2025-04-20T21:57:49.637+03:00,6805,0.9866872,0,0,5579.851,5,6,2025-04-21T16:43:22.849+03:00,766936001.5555496,0,-38.75,100.1976,1,0.3,2025-04-21T16:46:36.105+03:00,79,1.316666666666667,2025-04-21T12:30:07.995+03:00,0.02023345852159405,0
2025-04-21T16:46:41.996+03:00,1745243200.681371,40.9522196526657,29.14029648939994,76.2561,-1,-1,-1,-1,30,20.62944476133531,-9999,20444.24623266667,0.8134002685546875,-0.3289794921875,-0.466888427734375,20444.23615666667,-0.7614146144207194,1.050934969342313,0.3343360582213423,0.007566900923848152,0.0005085980519652367,-0.001692810212261975,-0.002479434013366699,-0.0028667151927948,0.004897892475128174,XArbitraryZVertical,-0.3174280551669412,-0.4057249342365493,0.2394780537634186,-0.822968371445873,0.8198316693305969,-0.3281420767307281,-0.4692534208297729,0,0,0,-1,-1,20441.144005625,unknown,2,2025-04-21T16:46:38.875+03:00,2025-04-20T21:57:49.637+03:00,6805,0.9866872,0,0,5579.851,5,6,2025-04-21T16:43:22.849+03:00,766936001.5555496,0,-38.75,100.1976,1,0.3,2025-04-21T16:46:36.105+03:00,79,1.316666666666667,2025-04-21T12:30:07.995+03:00,0.02023345852159405,0
2025-04-21T16:46:42.006+03:00,1745243200.681371,40.9522196526657,29.14029648939994,76.2561,-1,-1,-1,-1,30,20.62944476133531,-9999,20444.25630866667,0.814300537109375,-0.3267669677734375,-0.4664764404296875,20444.24623266667,-0.7614909908077795,1.050991341287206,0.3343838900420247,0.01012619864195585,0.006715893745422363,-0.0002419200027361512,-0.005116760730743408,-0.000685274600982666,0.004553943872451782,XArbitraryZVertical,-0.3174685170582897,-0.4057265723617618,0.2394882669661849,-0.8229489322459461,0.8198444843292236,-0.3281872570514679,-0.4691993892192841,0,0,0,-1,-1,20441.144005625,unknown,2,2025-04-21T16:46:38.875+03:00,2025-04-20T21:57:49.637+03:00,6805,0.9866872,0,0,5579.851,5,6,2025-04-21T16:43:22.849+03:00,766936001.5555496,0,-38.75,100.1976,1,0.3,2025-04-21T16:46:36.105+03:00,79,1.316666666666667,2025-04-21T12:30:07.995+03:00,0.02023345852159405,0
2025-04-21T16:46:42.016+03:00,1745243200.681371,40.9522196526657,29.14029648939994,76.2561,-1,-1,-1,-1,30,20.62944476133531,-9999,20444.26638566667,0.8166046142578125,-0.32464599609375,-0.466949462890625,20444.25630866667,-0.7616124810458734,1.051087916234303,0.3344734569717221,0.01651166006922722,0.004140617325901985,0.001226546941325068,-0.006540358066558838,-0.0001581311225891113,0.002156108617782593,XArbitraryZVertical,-0.3175388165837205,-0.4057293542102541,0.2394999588494006,-0.822916997289677,0.8198642134666443,-0.3282718658447266,-0.4691055715084076,0,0,0,-1,-1,20441.144005625,unknown,2,2025-04-21T16:46:38.875+03:00,2025-04-20T21:57:49.637+03:00,6805,0.9866872,0,0,5579.851,5,6,2025-04-21T16:43:22.849+03:00,766936001.5555496,0,-38.75,100.1976,1,0.3,2025-04-21T16:46:36.105+03:00,79,1.316666666666667,2025-04-21T12:30:07.995+03:00,0.02023345852159405,0
2025-04-21T16:46:42.026+03:00,1745243200.681371,40.9522196526657,29.14029648939994,76.2561,-1,-1,-1,-1,30,20.62944476133531,-9999,20444.27646166667,0.8182220458984375,-0.327392578125,-0.467742919921875,20444.26638566667,-0.7617821861067932,1.051174706249067,0.3346085535305158,0.02093051001429558,0.001439772546291351,0.002562854671850801,-0.005291342735290527,0.002197235822677612,0.00291740894317627,XArbitraryZVertical,-0.3176350103543525,-0.4057114620832709,0.2395213682971591,-0.8228825076525095,0.8198664784431458,-0.3283994495868683,-0.4690124094486237,0,0,0,-1,-1,20441.144005625,unknown,2,2025-04-21T16:46:38.875+03:00,2025-04-20T21:57:49.637+03:00,6805,0.9866872,0,0,5579.851,5,6,2025-04-21T16:43:22.849+03:00,766936001.5555496,0,-38.75,100.1976,1,0.3,2025-04-21T16:46:36.105+03:00,79,1.316666666666667,2025-04-21T12:30:07.995+03:00,0.02023345852159405,0
2025-04-21T16:46:42.036+03:00,1745243200.681371,40.9522196526657,29.14029648939994,76.2561,-1,-1,-1,-1,30,20.62944476133531,-9999,20444.28653766667,0.8162384033203125,-0.3311920166015625,-0.46697998046875,20444.27646166667,-0.7619576548120064,1.051246792894507,0.334743546263052,0.02078084088861942,0.004600944463163614,0.001654450548812747,-0.002631604671478271,0.003835409879684448,0.002439528703689575,XArbitraryZVertical,-0.3177305925942346,-0.4056866087089684,0.2395474953815827,-0.8228502318504172,0.8198617696762085,-0.3285269737243652,-0.4689312875270844,0,0,0,-1,-1,20441.144005625,unknown,2,2025-04-21T16:46:38.875+03:00,2025-04-20T21:57:49.637+03:00,6805,0.9866872,0,0,5579.851,5,6,2025-04-21T16:43:22.849+03:00,766936001.5555496,0,-38.75,100.1976,1,0.3,2025-04-21T16:46:36.105+03:00,79,1.316666666666667,2025-04-21T12:30:07.995+03:00,0.02023345852159405,0
2025-04-21T16:46:42.046+03:00,1745243200.681371,40.9522196526657,29.14029648939994,76.2561,-1,-1,-1,-1,30,20.62944476133531,-9999,20444.29661466667,0.814483642578125,-0.3357391357421875,-0.466766357421875,20444.28653766667,-0.7621484055167059,1.051358867556891,0.3348701727954043,0.02119169943034649,0.005678659304976463,-0.002055099932476878,-0.001778304576873779,0.0006895661354064941,0.001197904348373413,XArbitraryZVertical,-0.3178308671209272,-0.4056774143605016,0.2395756937183992,-0.8228078311485163,0.8198782205581665,-0.3286465704441071,-0.4688187539577484,0,0,0,-1,-1,20441.144005625,unknown,2,2025-04-21T16:46:38.875+03:00,2025-04-20T21:57:49.637+03:00,6805,0.9866872,0,0,5579.851,5,6,2025-04-21T16:43:22.849+03:00,766936001.5555496,0,-38.75,100.1976,1,0.3,2025-04-21T16:46:36.105+03:00,79,1.316666666666667,2025-04-21T12:30:07.995+03:00,0.02023345852159405,0
2025-04-21T16:46:42.079+03:00,1745243200.681371,40.9522196526657,29.14029648939994,76.2561,-1,-1,-1,-1,30,20.62944476133531,-9999,20444.30669066667,0.818511962890625,-0.3349609375,-0.466796875,20444.29661466667,-0.7623424773510171,1.051497191122859,0.3349955251832616,0.02026252076029778,0.007470700424164534,-0.001055083004757762,-0.003836750984191895,-0.00235062837600708,0.001674354076385498,XArbitraryZVertical,-0.317934460175937,-0.4056787244266289,0.2396014018485075,-0.8227597059839181,0.8199073076248169,-0.328764945268631,-0.4686849117279053,0,0,0,-1,-1,20441.144005625,unknown,2,2025-04-21T16:46:38.875+03:00,2025-04-20T21:57:49.637+03:00,6805,0.9866872,0,0,5579.851,5,6,2025-04-21T16:43:22.849+03:00,766936001.5555496,0,-38.75,100.1976,1,0.3,2025-04-21T16:46:36.105+03:00,79,1.316666666666667,2025-04-21T12:30:07.995+03:00,0.02023345852159405,0
2025-04-21T16:46:42.081+03:00,1745243200.681371,40.9522196526657,29.14029648939994,76.2561,-1,-1,-1,-1,30,20.62944476133531,-9999,20444.31676666667,0.822723388671875,-0.327301025390625,-0.46533203125,20444.30669066667,-0.7625399208547665,1.05161265853089,0.3351289944998968,0.0207828376442194,-0.001463738735765219,-0.001346732373349369,-0.005332887172698975,-0.007153183221817017,0.001664698123931885,XArbitraryZVertical,-0.3180390919109033,-0.4056684732543134,0.2396300310385415,-0.8227159834411855,0.8199232816696167,-0.3288909792900085,-0.4685684442520142,0,0,0,-1,-1,20441.144005625,unknown,2,2025-04-21T16:46:38.875+03:00,2025-04-20T21:57:49.637+03:00,6805,0.9866872,0,0,5579.851,5,6,2025-04-21T16:43:22.849+03:00,766936001.5555496,0,-38.75,100.1976,1,0.3,2025-04-21T16:46:36.105+03:00,79,1.316666666666667,2025-04-21T12:30:07.995+03:00,0.02023345852159405,0
2025-04-21T16:46:42.081+03:00,1745243200.681371,40.9522196526657,29.14029648939994,76.2561,-1,-1,-1,-1,30,20.62944476133531,-9999,20444.32684366667,0.8233795166015625,-0.3242950439453125,-0.4619598388671875,20444.31676666667,-0.7628067842222462,1.051622606979777,0.3352594702818686,0.03190499916672707,-0.01415663026273251,-0.002654344541952014,-0.0006310343742370605,-0.004283368587493896,0.001696288585662842,XArbitraryZVertical,-0.3181440016982583,-0.4056043477110894,0.239704757297127,-0.8226853026812668,0.8198907375335693,-0.3290142118930817,-0.4685390293598175,0,0,0,-1,-1,20441.144005625,unknown,2,2025-04-21T16:46:38.875+03:00,2025-04-20T21:57:49.637+03:00,6805,0.9866872,0,0,5579.851,5,6,2025-04-21T16:43:22.849+03:00,766936001.5555496,0,-38.75,100.1976,1,0.3,2025-04-21T16:46:36.105+03:00,79,1.316666666666667,2025-04-21T12:30:07.995+03:00,0.02023345852159405,0
2025-04-21T16:46:42.087+03:00,1745243200.681371,40.9522196526657,29.14029648939994,76.2561,-1,-1,-1,-1,30,20.62944476133531,-9999,20444.33691966667,0.8176727294921875,-0.32244873046875,-0.465118408203125,20444.32684366667,-0.7631479254808375,1.051581942491555,0.3354129354549694,0.03722093254327774,-0.0126695204526186,-0.001850469270721078,0.003399133682250977,0.00329253077507019,0.004161238670349121,XArbitraryZVertical,-0.3182666348248627,-0.405503017363388,0.2398121862156355,-0.8226565326956329,0.8198278546333313,-0.3291591107845306,-0.4685473144054413,0,0,0,-1,-1,20441.144005625,unknown,2,2025-04-21T16:46:38.875+03:00,2025-04-20T21:57:49.637+03:00,6805,0.9866872,0,0,5579.851,5,6,2025-04-21T16:43:22.849+03:00,766936001.5555496,0,-38.75,100.1976,1,0.3,2025-04-21T16:46:36.105+03:00,79,1.316666666666667,2025-04-21T12:30:07.995+03:00,0.02023345852159405,0
2025-04-21T16:46:42.097+03:00,1745243200.681371,40.9522196526657,29.14029648939994,76.2561,-1,-1,-1,-1,30,20.62944476133531,-9999,20444.34699566667,0.8150787353515625,-0.32269287109375,-0.47760009765625,20444.33691966667,-0.7634943101646086,1.051576171563734,0.3355958491142426,0.04010273888707161,-0.01076855696737766,-0.001016633585095406,0.002553761005401611,0.005769342184066772,0.007157325744628906,XArbitraryZVertical,-0.3184056956375804,-0.4054093479899115,0.2399086580461176,-0.8226207476390436,0.8197728395462036,-0.3293318450450897,-0.4685221612453461,0,0,0,-1,-1,20441.144005625,unknown,2,2025-04-21T16:46:38.875+03:00,2025-04-20T21:57:49.637+03:00,6805,0.9866872,0,0,5579.851,5,6,2025-04-21T16:43:22.849+03:00,766936001.5555496,0,-38.75,100.1976,1,0.3,2025-04-21T16:46:36.105+03:00,79,1.316666666666667,2025-04-21T12:30:07.995+03:00,0.02023345852159405,0
2025-04-21T16:46:42.107+03:00,1745243200.681371,40.9522196526657,29.14029648939994,76.2561,-1,-1,-1,-1,30,20.62944476133531,-9999,20444.35707166667,0.8151397705078125,-0.3218994140625,-0.495697021484375,20444.34699566667,-0.7639343401129693,1.051593199322981,0.3357844553485301,0.05209468677639961,-0.01688184402883053,-0.007650568149983883,-0.003213882446289062,0.006466269493103027,0.001970350742340088,XArbitraryZVertical,-0.31856859571031,-0.4053089747254505,0.2400385496426264,-0.8225692681525398,0.8197268843650818,-0.3295099139213562,-0.4684773683547974,0,0,0,-1,-1,20441.144005625,unknown,2,2025-04-21T16:46:38.875+03:00,2025-04-20T21:57:49.637+03:00,6805,0.9866872,0,0,5579.851,5,6,2025-04-21T16:43:22.849+03:00,766936001.5555496,0,-38.75,100.1976,1,0.3,2025-04-21T16:46:36.105+03:00,79,1.316666666666667,2025-04-21T12:30:07.995+03:00,0.02023345852159405,0
2025-04-21T16:46:42.117+03:00,1745243200.681371,40.9522196526657,29.14029648939994,76.2561,-1,-1,-1,-1,30,20.62944476133531,-9999,20444.36714866667,0.81573486328125,-0.3136749267578125,-0.50872802734375,20444.35707166667,-0.7646621319509462,1.05159437162824,0.3360138289837162,0.09134701639413834,-0.03172310814261436,-0.01849336177110672,-0.004552543163299561,0.007277905941009521,-0.01134327054023743,XArbitraryZVertical,-0.3188034010433475,-0.4051480872385911,0.2402788250589167,-0.8224872795092331,0.8196617364883423,-0.3297264575958252,-0.4684388339519501,0,0,0,-1,-1,20441.144005625,unknown,2,2025-04-21T16:46:38.875+03:00,2025-04-20T21:57:49.637+03:00,6805,0.9866872,0,0,5579.851,5,6,2025-04-21T16:43:22.849+03:00,766936001.5555496,0,-38.75,100.1976,1,0.3,2025-04-21T16:46:36.105+03:00,79,1.316666666666667,2025-04-21T12:30:07.995+03:00,0.02023345852159405,0
2025-04-21T16:46:42.127+03:00,1745243200.681371,40.9522196526657,29.14029648939994,76.2561,-1,-1,-1,-1,30,20.62944476133531,-9999,20444.37722466667,0.817901611328125,-0.2946014404296875,-0.5118255615234375,20444.36714866667,-0.765917336210329,1.05161002299857,0.3364156057370367,0.159821942448616,-0.04727330431342125,-0.02980167791247368,-0.004551589488983154,0.00849643349647522,-0.02971717715263367,XArbitraryZVertical,-0.3192120885906107,-0.4048747025417992,0.24068940598856,-0.8223433177143452,0.8195539712905884,-0.3301057517528534,-0.4683602452278137,0,0,0,-1,-1,20441.144005625,unknown,2,2025-04-21T16:46:38.875+03:00,2025-04-20T21:57:49.637+03:00,6805,0.9866872,0,0,5579.851,5,6,2025-04-21T16:43:22.849+03:00,766936001.5555496,0,-38.75,100.1976,1,0.3,2025-04-21T16:46:36.105+03:00,79,1.316666666666667,2025-04-21T12:30:07.995+03:00,0.02023345852159405,0
2025-04-21T16:46:42.137+03:00,1745243200.681371,40.9522196526657,29.14029648939994,76.2561,-1,-1,-1,-1,30,20.62944476133531,-9999,20444.38730066667,0.8238525390625,-0.2807464599609375,-0.5186004638671875,20444.37722466667,-0.7680534970294941,1.051650942000183,0.337179183459993,0.2619674801826477,-0.08852620422840118,-0.03604865074157715,-0.003466665744781494,0.01918107271194458,-0.04131999611854553,XArbitraryZVertical,-0.3199390771265755,-0.4043986020229943,0.2413651648148385,-0.8220969850200056,0.8193540573120117,-0.3308264315128326,-0.4682015180587769,0,0,0,-1,-1,20441.144005625,unknown,2,2025-04-21T16:46:38.875+03:00,2025-04-20T21:57:49.637+03:00,6805,0.9866872,0,0,5579.851,5,6,2025-04-21T16:43:22.849+03:00,766936001.5555496,0,-38.75,100.1976,1,0.3,2025-04-21T16:46:36.105+03:00,79,1.316666666666667,2025-04-21T12:30:07.995+03:00,0.02023345852159405,0
2025-04-21T16:46:42.147+03:00,1745243200.681371,40.9522196526657,29.14029648939994,76.2561,-1,-1,-1,-1,30,20.62944476133531,-9999,20444.39737766667,0.832550048828125,-0.281280517578125,-0.5357666015625,20444.38730066667,-0.7713678617839893,1.05140200939812,0.3382965624428861,0.3831820785999298,-0.1550144106149673,-0.07437033951282501,-0.0007093548774719238,0.0399039089679718,-0.04378700256347656,XArbitraryZVertical,-0.3210022154485196,-0.4035427064457534,0.2424804819737346,-0.821774928481802,0.8189160823822021,-0.3318806886672974,-0.4682217240333557,0,0,0,-1,-1,20441.144005625,unknown,2,2025-04-21T16:46:38.875+03:00,2025-04-20T21:57:49.637+03:00,6805,0.9866872,0,0,5579.851,5,6,2025-04-21T16:43:22.849+03:00,766936001.5555496,0,-38.75,100.1976,1,0.3,2025-04-21T16:46:36.105+03:00,79,1.316666666666667,2025-04-21T12:30:07.995+03:00,0.02023345852159405,0
2025-04-21T16:46:42.157+03:00,1745243200.681371,40.9522196526657,29.14029648939994,76.2561,-1,-1,-1,-1,30,20.62944476133531,-9999,20444.40745366667,0.837554931640625,-0.2689056396484375,-0.5439605712890625,20444.39737766667,-0.7759975129528262,1.051277118067317,0.3398792235493738,0.5360283255577087,-0.1847661882638931,-0.0908539816737175,0.007343947887420654,0.05383235216140747,-0.05268937349319458,XArbitraryZVertical,-0.3225194169651127,-0.4024300026390893,0.2439962236617457,-0.8212777295638762,0.8184006214141846,-0.3333732187747955,-0.4680626392364502,0,0,0,-1,-1,20441.144005625,unknown,2,2025-04-21T16:46:38.875+03:00,2025-04-20T21:57:49.637+03:00,6805,0.9866872,0,0,5579.851,5,6,2025-04-21T16:43:22.849+03:00,766936001.5555496,0,-38.75,100.1976,1,0.3,2025-04-21T16:46:36.105+03:00,79,1.316666666666667,2025-04-21T12:30:07.995+03:00,0.02023345852159405,0
2025-04-21T16:46:42.167+03:00,1745243200.681371,40.9522196526657,29.14029648939994,76.2561,-1,-1,-1,-1,30,20.62944476133531,-9999,20444.41752966667,0.8413848876953125,-0.228851318359375,-0.5856475830078125,20444.40745366667,-0.7826601184892792,1.051272879649066,0.3421751474171025,0.7903247475624084,-0.3013775646686554,-0.1557300835847855,0.01518416404724121,0.05489739775657654,-0.06916517019271851,XArbitraryZVertical,-0.3247250643764323,-0.4008880167616,0.2461424647318302,-0.8205219114657702,0.817732036113739,-0.335536926984787,-0.4676848649978638,0,0,0,-1,-1,20441.144005625,unknown,2,2025-04-21T16:46:38.875+03:00,2025-04-20T21:57:49.637+03:00,6805,0.9866872,0,0,5579.851,5,6,2025-04-21T16:43:22.849+03:00,766936001.5555496,0,-38.75,100.1976,1,0.3,2025-04-21T16:46:36.105+03:00,79,1.316666666666667,2025-04-21T12:30:07.995+03:00,0.02023345852159405,0
2025-04-21T16:46:42.177+03:00,1745243200.681371,40.9522196526657,29.14029648939994,76.2561,-1,-1,-1,-1,30,20.62944476133531,-9999,20444.42760566667,0.8242034912109375,-0.19976806640625,-0.646148681640625,20444.41752966667,-0.7925082179356584,1.051439378227875,0.3450311002967543,1.074404358863831,-0.2863693237304688,-0.218095988035202,0.0218161940574646,0.07310467958450317,-0.07864418625831604,XArbitraryZVertical,-0.327791329293623,-0.3987696818379584,0.2494197056689422,-0.8193443971124081,0.8169746398925781,-0.338225930929184,-0.4670711755752563,0,0,0,-1,-1,20441.144005625,unknown,2,2025-04-21T16:46:38.875+03:00,2025-04-20T21:57:49.637+03:00,6805,0.9866872,0,0,5579.851,5,6,2025-04-21T16:43:22.849+03:00,766936001.5555496,0,-38.75,100.1976,1,0.3,2025-04-21T16:46:36.105+03:00,79,1.316666666666667,2025-04-21T12:30:07.995+03:00,0.02023345852159405,0
2025-04-21T16:46:42.188+03:00,1745243200.681371,40.9522196526657,29.14029648939994,76.2561,-1,-1,-1,-1,30,20.62944476133531,-9999,20444.43768266667,0.822418212890625,-0.215301513671875,-0.65576171875,20444.42760566667,-0.8049194813670417,1.052333070925473,0.3491406633235724,1.326884984970093,-0.3863610923290253,-0.2432135492563248,0.0245511531829834,0.1182899177074432,-0.1283002495765686,XArbitraryZVertical,-0.3319138199711272,-0.3962437875495696,0.2532964089432417,-0.8177193412339979,0.8161775469779968,-0.3420904576778412,-0.4656481444835663,0,0,0,-1,-1,20441.144005625,unknown,2,2025-04-21T16:46:38.875+03:00,2025-04-20T21:57:49.637+03:00,6805,0.9866872,0,0,5579.851,5,6,2025-04-21T16:43:22.849+03:00,766936001.5555496,0,-38.75,100.1976,1,0.3,2025-04-21T16:46:36.105+03:00,79,1.316666666666667,2025-04-21T12:30:07.995+03:00,0.02023345852159405,0
2025-04-21T16:46:42.198+03:00,1745243200.681371,40.9522196526657,29.14029648939994,76.2561,-1,-1,-1,-1,30,20.62944476133531,-9999,20444.44775866667,0.84503173828125,-0.2796630859375,-0.6358184814453125,20444.43768266667,-0.8190236564525351,1.053589516690713,0.3544780513138145,1.467090249061584,-0.3329098522663116,-0.1231920793652534,0.007895767688751221,0.1491640508174896,-0.1879290342330933,XArbitraryZVertical,-0.3368525834437531,-0.393286040075527,0.2574738367572594,-0.815820737222236,0.815163254737854,-0.3471009135246277,-0.4637128412723541,0,0,0,-1,-1,20441.144005625,unknown,2,2025-04-21T16:46:38.875+03:00,2025-04-20T21:57:49.637+03:00,6805,0.9866872,0,0,5579.851,5,6,2025-04-21T16:43:22.849+03:00,766936001.5555496,0,-38.75,100.1976,1,0.3,2025-04-21T16:46:36.105+03:00,79,1.316666666666667,2025-04-21T12:30:07.995+03:00,0.02023345852159405,0
2025-04-21T16:46:42.208+03:00,1745243200.681371,40.9522196526657,29.14029648939994,76.2561,-1,-1,-1,-1,30,20.62944476133531,-9999,20444.45783466667,0.881317138671875,-0.32958984375,-0.6311187744140625,20444.44775866667,-0.8335401815245211,1.054978222038941,0.3613390964928246,1.537443041801453,-0.3780598640441895,-0.02014072798192501,0.009053409099578857,0.1317408382892609,-0.1911320090293884,XArbitraryZVertical,-0.3424237990082721,-0.3899339591055361,0.2613851528008636,-0.8138643835354351,0.8137156963348389,-0.353527158498764,-0.4613949060440063,0,0,0,-1,-1,20441.144005625,unknown,2,2025-04-21T16:46:38.875+03:00,2025-04-20T21:57:49.637+03:00,6805,0.9866872,0,0,5579.851,5,6,2025-04-21T16:43:22.849+03:00,766936001.5555496,0,-38.75,100.1976,1,0.3,2025-04-21T16:46:36.105+03:00,79,1.316666666666667,2025-04-21T12:30:07.995+03:00,0.02023345852159405,0
2025-04-21T16:46:42.218+03:00,1745243200.681371,40.9522196526657,29.14029648939994,76.2561,-1,-1,-1,-1,30,20.62944476133531,-9999,20444.46791166667,0.9035491943359375,-0.332000732421875,-0.6284942626953125,20444.45783466667,-0.8482357616465281,1.056374697279399,0.3694730692311267,1.647414326667786,-0.4555914103984833,0.0954631045460701,0.03816193342208862,0.07273313403129578,-0.1767311096191406,XArbitraryZVertical,-0.3484612848110863,-0.3862133197672685,0.2650174027678547,-0.8118988196424525,0.8118289113044739,-0.3611240983009338,-0.4588280022144318,0,0,0,-1,-1,20441.144005625,unknown,2,2025-04-21T16:46:38.875+03:00,2025-04-20T21:57:49.637+03:00,6805,0.9866872,0,0,5579.851,5,6,2025-04-21T16:43:22.849+03:00,766936001.5555496,0,-38.75,100.1976,1,0.3,2025-04-21T16:46:36.105+03:00,79,1.316666666666667,2025-04-21T12:30:07.995+03:00,0.02023345852159405,0
2025-04-21T16:46:42.228+03:00,1745243200.681371,40.9522196526657,29.14029648939994,76.2561,-1,-1,-1,-1,30,20.62944476133531,-9999,20444.47798766667,0.9088592529296875,-0.2920379638671875,-0.638916015625,20444.46791166667,-0.8638664300431151,1.05666835735832,0.3789607525806971,1.745546936988831,-0.5818911194801331,0.1109924912452698,0.07598960399627686,0.03743579983711243,-0.17373126745224,XArbitraryZVertical,-0.3549783943120151,-0.3815079489836015,0.2688500398750741,-0.8100380484643445,0.8089438080787659,-0.3699551522731781,-0.4568840563297272,0,0,0,-1,-1,20441.144005625,unknown,2,2025-04-21T16:46:38.875+03:00,2025-04-20T21:57:49.637+03:00,6805,0.9866872,0,0,5579.851,5,6,2025-04-21T16:43:22.849+03:00,766936001.5555496,0,-38.75,100.1976,1,0.3,2025-04-21T16:46:36.105+03:00,79,1.316666666666667,2025-04-21T12:30:07.995+03:00,0.02023345852159405,0
2025-04-21T16:46:42.238+03:00,1745243200.681371,40.9522196526657,29.14029648939994,76.2561,-1,-1,-1,-1,30,20.62944476133531,-9999,20444.48806366667,0.902984619140625,-0.2604827880859375,-0.6656494140625,20444.47798766667,-0.8799407981146159,1.0573377624322,0.3893106207418052,1.848362565040588,-0.5070147514343262,0.2662108540534973,0.09982967376708984,0.05203622579574585,-0.1751099824905396,XArbitraryZVertical,-0.3618816352829157,-0.3765940276493366,0.2725504156493885,-0.8080438080086487,0.8058709502220154,-0.3795507252216339,-0.4544372260570526,0,0,0,-1,-1,20441.144005625,unknown,2,2025-04-21T16:46:38.875+03:00,2025-04-20T21:57:49.637+03:00,6805,0.9866872,0,0,5579.851,5,6,2025-04-21T16:43:22.849+03:00,766936001.5555496,0,-38.75,100.1976,1,0.3,2025-04-21T16:46:36.105+03:00,79,1.316666666666667,2025-04-21T12:30:07.995+03:00,0.02023345852159405,0
2025-04-21T16:46:42.248+03:00,1745243200.681371,40.9522196526657,29.14029648939994,76.2561,-1,-1,-1,-1,30,20.62944476133531,-9999,20444.49814066667,0.8992462158203125,-0.2560577392578125,-0.667236328125,20444.48806366667,-0.896166200121483,1.05895589391099,0.4015873577305291,1.941624999046326,-0.4088681936264038,0.3588887155056,0.1051259636878967,0.1040758490562439,-0.1910752058029175,XArbitraryZVertical,-0.3695685067323636,-0.3714982407789609,0.2756107213400075,-0.805882657421522,0.8024820685386658,-0.390879899263382,-0.4508163630962372,0,0,0,-1,-1,20441.144005625,unknown,2,2025-04-21T16:46:38.875+03:00,2025-04-20T21:57:49.637+03:00,6805,0.9866872,0,0,5579.851,5,6,2025-04-21T16:43:22.849+03:00,766936001.5555496,0,-38.75,100.1976,1,0.3,2025-04-21T16:46:36.105+03:00,79,1.316666666666667,2025-04-21T12:30:07.995+03:00,0.02023345852159405,0
2025-04-21T16:46:42.258+03:00,1745243200.681371,40.9522196526657,29.14029648939994,76.2561,-1,-1,-1,-1,30,20.62944476133531,-9999,20444.50821666667,0.880706787109375,-0.277862548828125,-0.645721435546875,20444.49814066667,-0.9132183179755672,1.061858033436042,0.4148858202362863,2.061423540115356,-0.3673034608364105,0.4422185122966766,0.1046165227890015,0.1454867422580719,-0.2230169773101807,XArbitraryZVertical,-0.3778706675829374,-0.3664112076061962,0.278458935297779,-0.8033785651826776,0.7991767525672913,-0.4030854403972626,-0.445913165807724,0,0,0,-1,-1,20441.144005625,unknown,2,2025-04-21T16:46:38.875+03:00,2025-04-20T21:57:49.637+03:00,6805,0.9866872,0,0,5579.851,5,6,2025-04-21T16:43:22.849+03:00,766936001.5555496,0,-38.75,100.1976,1,0.3,2025-04-21T16:46:36.105+03:00,79,1.316666666666667,2025-04-21T12:30:07.995+03:00,0.02023345852159405,0
2025-04-21T16:46:42.269+03:00,1745243200.681371,40.9522196526657,29.14029648939994,76.2561,-1,-1,-1,-1,30,20.62944476133531,-9999,20444.51829266667,0.8752593994140625,-0.2852325439453125,-0.6227569580078125,20444.50821666667,-0.9315196689441527,1.066060233509465,0.4293300553994843,2.212602376937866,-0.2897280156612396,0.4758548438549042,0.100986659526825,0.1578848659992218,-0.224235862493515,XArbitraryZVertical,-0.3868963863202847,-0.3612014705026098,0.281205627115512,-0.8004798522080788,0.7958638668060303,-0.4162617623806,-0.4396893680095673,0,0,0,-1,-1,20441.144005625,unknown,2,2025-04-21T16:46:38.875+03:00,2025-04-20T21:57:49.637+03:00,6805,0.9866872,0,0,5579.851,5,6,2025-04-21T16:43:22.849+03:00,766936001.5555496,0,-38.75,100.1976,1,0.3,2025-04-21T16:46:36.105+03:00,79,1.316666666666667,2025-04-21T12:30:07.995+03:00,0.02023345852159405,0
2025-04-21T16:46:42.278+03:00,1745243200.681371,40.9522196526657,29.14029648939994,76.2561,-1,-1,-1,-1,30,20.62944476133531,-9999,20444.52836866667,0.87152099609375,-0.2963409423828125,-0.5753021240234375,20444.51829266667,-0.9502321475850356,1.071006733015097,0.4447673481856473,2.186448335647583,-0.2693114280700684,0.569976806640625,0.08674931526184082,0.1507680416107178,-0.2103132605552673,XArbitraryZVertical,-0.3963435815488846,-0.3558143052692471,0.2836392311257752,-0.7974062101803672,0.7922942638397217,-0.4302478730678558,-0.4326158761978149,0,0,0,-1,-1,20441.144005625,unknown,2,2025-04-21T16:46:38.875+03:00,2025-04-20T21:57:49.637+03:00,6805,0.9866872,0,0,5579.851,5,6,2025-04-21T16:43:22.849+03:00,766936001.5555496,0,-38.75,100.1976,1,0.3,2025-04-21T16:46:36.105+03:00,79,1.316666666666667,2025-04-21T12:30:07.995+03:00,0.02023345852159405,0
2025-04-21T16:46:42.288+03:00,1745243200.681371,40.9522196526657,29.14029648939994,76.2561,-1,-1,-1,-1,30,20.62944476133531,-9999,20444.53844566667,0.855682373046875,-0.350616455078125,-0.5209503173828125,20444.52836866667,-0.9667611650295364,1.075904779511988,0.4596923039881612,1.772430181503296,-0.1873618215322495,0.6195893287658691,0.08632022142410278,0.1580890417098999,-0.1936606764793396,XArbitraryZVertical,-0.4051115709955493,-0.3508109215913154,0.2852738425193738,-0.794628911477686,0.7886644601821899,-0.443672388792038,-0.4256326258182526,0,0,0,-1,-1,20441.144005625,unknown,2,2025-04-21T16:46:38.875+03:00,2025-04-20T21:57:49.637+03:00,6805,0.9866872,0,0,5579.851,5,6,2025-04-21T16:43:22.849+03:00,766936001.5555496,0,-38.75,100.1976,1,0.3,2025-04-21T16:46:36.105+03:00,79,1.316666666666667,2025-04-21T12:30:07.995+03:00,0.02023345852159405,0
2025-04-21T16:46:42.298+03:00,1745243200.681371,40.9522196526657,29.14029648939994,76.2561,-1,-1,-1,-1,30,20.62944476133531,-9999,20444.54852166667,0.8367462158203125,-0.4600067138671875,-0.501495361328125,20444.53844566667,-0.9778946066919654,1.079863582654395,0.4720618529883073,1.119189858436584,-0.03324923291802406,0.5966925024986267,0.08514708280563354,0.1547969877719879,-0.1475716233253479,XArbitraryZVertical,-0.4118428918377884,-0.3470470399718196,0.2855803064369484,-0.7927090853569024,0.785443127155304,-0.454723596572876,-0.4198875725269318,0,0,0,-1,-1,20441.144005625,unknown,2,2025-04-21T16:46:38.875+03:00,2025-04-20T21:57:49.637+03:00,6805,0.9866872,0,0,5579.851,5,6,2025-04-21T16:43:22.849+03:00,766936001.5555496,0,-38.75,100.1976,1,0.3,2025-04-21T16:46:36.105+03:00,79,1.316666666666667,2025-04-21T12:30:07.995+03:00,0.02023345852159405,0
2025-04-21T16:46:42.308+03:00,1745243200.681371,40.9522196526657,29.14029648939994,76.2561,-1,-1,-1,-1,30,20.62944476133531,-9999,20444.55859766667,0.820709228515625,-0.554656982421875,-0.513580322265625,20444.54852166667,-0.9831947791773692,1.082485595756064,0.4807130912731696,0.5533049702644348,0.09223765134811401,0.4743136465549469,0.07035571336746216,0.1008547246456146,-0.1004987955093384,XArbitraryZVertical,-0.4160657914131592,-0.3448282093274646,0.2848165713908934,-0.7917463495145712,0.7830378413200378,-0.4624115526676178,-0.4159655272960663,0,0,0,-1,-1,20441.144005625,unknown,2,2025-04-21T16:46:38.875+03:00,2025-04-20T21:57:49.637+03:00,6805,0.9866872,0,0,5579.851,5,6,2025-04-21T16:43:22.849+03:00,766936001.5555496,0,-38.75,100.1976,1,0.3,2025-04-21T16:46:36.105+03:00,79,1.316666666666667,2025-04-21T12:30:07.995+03:00,0.02023345852159405,0
2025-04-21T16:46:42.318+03:00,1745243200.681371,40.9522196526657,29.14029648939994,76.2561,-1,-1,-1,-1,30,20.62944476133531,-9999,20444.56867466667,0.8209228515625,-0.536376953125,-0.5397186279296875,20444.55859766667,-0.9850074232812598,1.084495470575854,0.4867047683822117,0.3168221414089203,0.1281698197126389,0.4433655738830566,0.05379629135131836,-0.007061183452606201,-0.08834585547447205,XArbitraryZVertical,-0.4186851485344449,-0.3437418882956721,0.28350218861672,-0.7913094180269662,0.7814087271690369,-0.467715859413147,-0.4130885303020477,0,0,0,-1,-1,20441.144005625,unknown,2,2025-04-21T16:46:38.875+03:00,2025-04-20T21:57:49.637+03:00,6805,0.9866872,0,0,5579.851,5,6,2025-04-21T16:43:22.849+03:00,766936001.5555496,0,-38.75,100.1976,1,0.3,2025-04-21T16:46:36.105+03:00,79,1.316666666666667,2025-04-21T12:30:07.995+03:00,0.02023345852159405,0
2025-04-21T16:46:42.329+03:00,1745243200.681371,40.9522196526657,29.14029648939994,76.2561,-1,-1,-1,-1,30,20.62944476133531,-9999,20444.57875066667,0.82318115234375,-0.4360809326171875,-0.5292816162109375,20444.56867466667,-0.9852877248901657,1.085980159954917,0.492416750821738,0.2770029902458191,0.1391640156507492,0.5487695932388306,0.04048454761505127,-0.08794239163398743,-0.1067799925804138,XArbitraryZVertical,-0.4208647654660344,-0.3428334266761556,0.2817604775403402,-0.7911694741958185,0.779644787311554,-0.4727568924427032,-0.4106761813163757,0,0,0,-1,-1,20441.144005625,unknown,2,2025-04-21T16:46:38.875+03:00,2025-04-20T21:57:49.637+03:00,6805,0.9866872,0,0,5579.851,5,6,2025-04-21T16:43:22.849+03:00,766936001.5555496,0,-38.75,100.1976,1,0.3,2025-04-21T16:46:36.105+03:00,79,1.316666666666667,2025-04-21T12:30:07.995+03:00,0.02023345852159405,0
2025-04-21T16:46:42.339+03:00,1745243200.681371,40.9522196526657,29.14029648939994,76.2561,-1,-1,-1,-1,30,20.62944476133531,-9999,20444.58882666667,0.79840087890625,-0.3917083740234375,-0.5046844482421875,20444.57875066667,-0.9853478604245334,1.087592520487791,0.4994082823390582,0.3938584923744202,0.1797125041484833,0.6676328778266907,0.04417324066162109,-0.04636222124099731,-0.1326240301132202,XArbitraryZVertical,-0.4234472855269769,-0.3416957174727163,0.2795527814700725,-0.7910667667183098,0.7773599624633789,-0.4789061844348907,-0.4078728556632996,0,0,0,-1,-1,20441.144005625,unknown,2,2025-04-21T16:46:38.875+03:00,2025-04-20T21:57:49.637+03:00,6805,0.9866872,0,0,5579.851,5,6,2025-04-21T16:43:22.849+03:00,766936001.5555496,0,-38.75,100.1976,1,0.3,2025-04-21T16:46:36.105+03:00,79,1.316666666666667,2025-04-21T12:30:07.995+03:00,0.02023345852159405,0
2025-04-21T16:46:42.349+03:00,1745243200.681371,40.9522196526657,29.14029648939994,76.2561,-1,-1,-1,-1,30,20.62944476133531,-9999,20444.59890366667,0.7538604736328125,-0.4520721435546875,-0.474334716796875,20444.58882666667,-0.9863664896890225,1.090150524165109,0.5078090206438397,0.5229695439338684,0.2310214340686798,0.7173264622688293,0.04660511016845703,0.06112366914749146,-0.1229842901229858,XArbitraryZVertical,-0.4267860226030252,-0.3403665649610514,0.2771321345301258,-0.7906970953703411,0.7748059630393982,-0.4862639009952545,-0.4040085971355438,0,0,0,-1,-1,20441.144005625,unknown,2,2025-04-21T16:46:38.875+03:00,2025-04-20T21:57:49.637+03:00,6805,0.9866872,0,0,5579.851,5,6,2025-04-21T16:43:22.849+03:00,766936001.5555496,0,-38.75,100.1976,1,0.3,2025-04-21T16:46:36.105+03:00,79,1.316666666666667,2025-04-21T12:30:07.995+03:00,0.02023345852159405,0
2025-04-21T16:46:42.359+03:00,1745243200.681371,40.9522196526657,29.14029648939994,76.2561,-1,-1,-1,-1,30,20.62944476133531,-9999,20444.60897966667,0.7235870361328125,-0.551666259765625,-0.4405517578125,20444.59890366667,-0.9878008711475272,1.093394564818879,0.5165747029351188,0.4714837074279785,0.2735702097415924,0.7073260545730591,0.0210379958152771,0.09986189007759094,-0.101411759853363,XArbitraryZVertical,-0.4303952915710553,-0.3391169686059318,0.2746157909243097,-0.7901555299591567,0.7722969651222229,-0.4939046800136566,-0.399519145488739,0,0,0,-1,-1,20441.144005625,unknown,2,2025-04-21T16:46:38.875+03:00,2025-04-20T21:57:49.637+03:00,6805,0.9866872,0,0,5579.851,5,6,2025-04-21T16:43:22.849+03:00,766936001.5555496,0,-38.75,100.1976,1,0.3,2025-04-21T16:46:36.105+03:00,79,1.316666666666667,2025-04-21T12:30:07.995+03:00,0.02023345852159405,0
2025-04-21T16:46:42.369+03:00,1745243200.681371,40.9522196526657,29.14029648939994,76.2561,-1,-1,-1,-1,30,20.62944476133531,-9999,20444.61905566667,0.7154388427734375,-0.6198272705078125,-0.3951416015625,20444.60897966667,-0.9879028937679879,1.096456654528961,0.5243944081030066,0.2365450114011765,0.3260928690433502,0.6655259132385254,-0.02074390649795532,0.03642511367797852,-0.07457929849624634,XArbitraryZVertical,-0.4334230953630678,-0.3383139224997738,0.2718559693252894,-0.7897989350706228,0.7700572609901428,-0.5006888508796692,-0.3953762352466583,0,0,0,-1,-1,20441.144005625,unknown,2,2025-04-21T16:46:38.875+03:00,2025-04-20T21:57:49.637+03:00,6805,0.9866872,0,0,5579.851,5,6,2025-04-21T16:43:22.849+03:00,766936001.5555496,0,-38.75,100.1976,1,0.3,2025-04-21T16:46:36.105+03:00,79,1.316666666666667,2025-04-21T12:30:07.995+03:00,0.02023345852159405,0
2025-04-21T16:46:42.379+03:00,1745243200.681371,40.9522196526657,29.14029648939994,76.2561,-1,-1,-1,-1,30,20.62944476133531,-9999,20444.62913166667,0.7257537841796875,-0.64093017578125,-0.3675537109375,20444.61905566667,-0.9854524879885416,1.09866995882748,0.5304784367414452,-0.06470696628093719,0.3576105833053589,0.601081371307373,-0.04716449975967407,-0.05670630931854248,-0.04285672307014465,XArbitraryZVertical,-0.4353187367981085,-0.3381692965808233,0.2687378528133113,-0.7898854392220511,0.7682032585144043,-0.5059460997581482,-0.392278254032135,0,0,0,-1,-1,20441.144005625,unknown,2,2025-04-21T16:46:38.875+03:00,2025-04-20T21:57:49.637+03:00,6805,0.9866872,0,0,5579.851,5,6,2025-04-21T16:43:22.849+03:00,766936001.5555496,0,-38.75,100.1976,1,0.3,2025-04-21T16:46:36.105+03:00,79,1.316666666666667,2025-04-21T12:30:07.995+03:00,0.02023345852159405,0
2025-04-21T16:46:42.389+03:00,1745243200.681371,40.9522196526657,29.14029648939994,76.2561,-1,-1,-1,-1,30,20.62944476133531,-9999,20444.63920866667,0.7393035888671875,-0.6197509765625,-0.351409912109375,20444.62913166667,-0.9804372866562238,1.099769086372563,0.5347377289656311,-0.2958089709281921,0.3616739809513092,0.5455828905105591,-0.05044388771057129,-0.1150639653205872,0.0001017451286315918,XArbitraryZVertical,-0.4360234290031345,-0.3386111149858054,0.2653452544821565,-0.7904542020618066,0.766706645488739,-0.509615421295166,-0.3904521763324738,0,0,0,-1,-1,20441.144005625,unknown,2,2025-04-21T16:46:38.875+03:00,2025-04-20T21:57:49.637+03:00,6805,0.9866872,0,0,5579.851,5,6,2025-04-21T16:43:22.849+03:00,766936001.5555496,0,-38.75,100.1976,1,0.3,2025-04-21T16:46:36.105+03:00,79,1.316666666666667,2025-04-21T12:30:07.995+03:00,0.02023345852159405,0
