loggingTime(txt),locationTimestamp_since1970(s),locationLatitude(WGS84),locationLongitude(WGS84),locationAltitude(m),locationSpeed(m/s),locationSpeedAccuracy(m/s),locationCourse(°),locationCourseAccuracy(°),locationVerticalAccuracy(m),locationHorizontalAccuracy(m),locationFloor(Z),accelerometerTimestamp_sinceReboot(s),accelerometerAccelerationX(G),accelerometerAccelerationY(G),accelerometerAccelerationZ(G),motionTimestamp_sinceReboot(s),motionYaw(rad),motionRoll(rad),motionPitch(rad),motionRotationRateX(rad/s),motionRotationRateY(rad/s),motionRotationRateZ(rad/s),motionUserAccelerationX(G),motionUserAccelerationY(G),motionUserAccelerationZ(G),motionAttitudeReferenceFrame(txt),motionQuaternionX(R),motionQuaternionY(R),motionQuaternionZ(R),motionQuaternionW(R),motionGravityX(G),motionGravityY(G),motionGravityZ(G),motionMagneticFieldX(µT),motionMagneticFieldY(µT),motionMagneticFieldZ(µT),motionHeading(°),motionMagneticFieldCalibrationAccuracy(Z),activityTimestamp_sinceReboot(s),activity(txt),activityActivityConfidence(Z),activityActivityStartDate(txt),pedometerStartDate(txt),pedometerNumberofSteps(N),pedometerAverageActivePace(s/m),pedometerCurrentPace(s/m),pedometerCurrentCadence(steps/s),pedometerDistance(m),pedometerFloorAscended(N),pedometerFloorDescended(N),pedometerEndDate(txt),altimeterTimestamp_sinceReboot(s),altimeterReset(bool),altimeterRelativeAltitude(m),altimeterPressure(kPa),batteryState(N),batteryLevel(R),heartRateBPMTimestamp(txt),heartRateBPM(N),heartRateBPS(R),heartRateVariabilityTimestamp(txt),heartRateVariability(ms),label
2025-04-28T22:47:10.492+03:00,1745869628.543501,40.9855756091106,29.13738873439781,126.3238,-1,-1,-1,-1,30,19.49210119458397,-9999,1477.785792,-0.6527099609375,0.454498291015625,-0.5817413330078125,1477.775715,0.0435739014558038,-0.8288892999607224,-0.4891648964393955,0.1743732541799545,-0.07760690897703171,-0.0200189258903265,0.03055071830749512,0.034108966588974,-0.02650213241577148,XArbitraryZVertical,-0.2130866843715125,-0.3954332354654198,0.1168341256222182,0.8857632126015539,-0.6507288217544556,0.4698888957500458,-0.5964532494544983,0,0,0,-1,-1,1469.30867825,unknown,2,2025-04-28T22:47:01.989+03:00,2025-04-28T22:17:59.397+03:00,21,0.8668733,0,0,16.08946,0,0,2025-04-28T22:42:51.752+03:00,767562429.8278584,0,-0.9300001,100.8076,1,0.35,2025-04-28T22:45:54.443+03:00,76,1.266666666666667,2025-04-22T14:20:19.516+03:00,0.02197104130929222,0
2025-04-28T22:47:10.493+03:00,1745869628.543501,40.9855756091106,29.13738873439781,126.3238,-1,-1,-1,-1,30,19.49210119458397,-9999,1477.795869,-0.6823883056640625,0.4434967041015625,-0.570404052734375,1477.785792,0.0448466474555349,-0.828809630771623,-0.4879257027225362,0.150952085852623,-0.008963404223322868,-0.00291131273843348,0.002596259117126465,-0.009306728839874268,0.008397102355957031,XArbitraryZVertical,-0.2122881589168067,-0.3955814894523869,0.1171503943036927,0.885846868087965,-0.6511099934577942,0.4687946438789368,-0.5968980193138123,0,0,0,-1,-1,1469.30867825,unknown,2,2025-04-28T22:47:01.989+03:00,2025-04-28T22:17:59.397+03:00,21,0.8668733,0,0,16.08946,0,0,2025-04-28T22:42:51.752+03:00,767562429.8278584,0,-0.9300001,100.8076,1,0.35,2025-04-28T22:45:54.443+03:00,76,1.266666666666667,2025-04-22T14:20:19.516+03:00,0.02197104130929222,0
2025-04-28T22:47:10.494+03:00,1745869628.543501,40.9855756091106,29.13738873439781,126.3238,-1,-1,-1,-1,30,19.49210119458397,-9999,1477.805946,-0.672821044921875,0.419342041015625,-0.564788818359375,1477.795869,0.04563826097121716,-0.8287449325425968,-0.4868314119171182,0.08054044097661972,0.01291759312152863,0.01212193164974451,-0.02222633361816406,-0.01915827393531799,0.02567702531814575,XArbitraryZVertical,-0.2116482302922552,-0.3956788538666803,0.1172831565231645,0.8859390190042257,-0.6514491438865662,0.4678277671337128,-0.5972865223884583,0,0,0,-1,-1,1469.30867825,unknown,2,2025-04-28T22:47:01.989+03:00,2025-04-28T22:17:59.397+03:00,21,0.8668733,0,0,16.08946,0,0,2025-04-28T22:42:51.752+03:00,767562429.8278584,0,-0.9300001,100.8076,1,0.35,2025-04-28T22:45:54.443+03:00,76,1.266666666666667,2025-04-22T14:20:19.516+03:00,0.02197104130929222,0
2025-04-28T22:47:10.504+03:00,1745869628.543501,40.9855756091106,29.13738873439781,126.3238,-1,-1,-1,-1,30,19.49210119458397,-9999,1477.816023,-0.639251708984375,0.4301910400390625,-0.5690155029296875,1477.805946,0.04617594544633485,-0.8284583980231819,-0.4866025221842736,0.02289099246263504,-0.002450976986438036,0.01914788410067558,-0.03122973442077637,-0.04408720135688782,0.0317191481590271,XArbitraryZVertical,-0.2114567686970963,-0.3956175506979091,0.1174468994816034,0.8859904658834639,-0.6513568758964539,0.4676254689693451,-0.5975455641746521,0,0,0,-1,-1,1469.30867825,unknown,2,2025-04-28T22:47:01.989+03:00,2025-04-28T22:17:59.397+03:00,21,0.8668733,0,0,16.08946,0,0,2025-04-28T22:42:51.752+03:00,767562429.8278584,0,-0.9300001,100.8076,1,0.35,2025-04-28T22:45:54.443+03:00,76,1.266666666666667,2025-04-22T14:20:19.516+03:00,0.02197104130929222,0
2025-04-28T22:47:10.511+03:00,1745869628.543501,40.9855756091106,29.13738873439781,126.3238,-1,-1,-1,-1,30,19.49210119458397,-9999,1477.826099,-0.648193359375,0.454833984375,-0.583953857421875,1477.816023,0.04656287764856998,-0.8280349049261068,-0.487002971850912,-0.002807712415233254,0.00792043749243021,0.02685333974659443,0.00811302661895752,-0.04344931244850159,0.03157830238342285,XArbitraryZVertical,-0.2115834441079227,-0.3954555970443234,0.1176506884613418,0.8860054178130586,-0.6509657502174377,0.4679794013500214,-0.5976946353912354,0,0,0,-1,-1,1469.30867825,unknown,2,2025-04-28T22:47:01.989+03:00,2025-04-28T22:17:59.397+03:00,21,0.8668733,0,0,16.08946,0,0,2025-04-28T22:42:51.752+03:00,767562429.8278584,0,-0.9300001,100.8076,1,0.35,2025-04-28T22:45:54.443+03:00,76,1.266666666666667,2025-04-22T14:20:19.516+03:00,0.02197104130929222,0
2025-04-28T22:47:10.521+03:00,1745869628.543501,40.9855756091106,29.13738873439781,126.3238,-1,-1,-1,-1,30,19.49210119458397,-9999,1477.836176,-0.6496734619140625,0.4741058349609375,-0.5954132080078125,1477.826099,0.04679026790914265,-0.8277413340141375,-0.4872807007553219,-0.002241524402052164,0.01629581302404404,0.02880836650729179,0.006209135055541992,-0.01950955390930176,0.01727712154388428,XArbitraryZVertical,-0.2116794278267621,-0.3953390080171785,0.1177738256055551,0.8860181952761763,-0.6506944894790649,0.468224823474884,-0.5977977514266968,0,0,0,-1,-1,1469.30867825,unknown,2,2025-04-28T22:47:01.989+03:00,2025-04-28T22:17:59.397+03:00,21,0.8668733,0,0,16.08946,0,0,2025-04-28T22:42:51.752+03:00,767562429.8278584,0,-0.9300001,100.8076,1,0.35,2025-04-28T22:45:54.443+03:00,76,1.266666666666667,2025-04-22T14:20:19.516+03:00,0.02197104130929222,0
2025-04-28T22:47:10.531+03:00,1745869628.543501,40.9855756091106,29.13738873439781,126.3238,-1,-1,-1,-1,30,19.49210119458397,-9999,1477.846253,-0.63970947265625,0.4881439208984375,-0.6020965576171875,1477.836176,0.04706999478175693,-0.8274032004996256,-0.4874919429866107,0.01305960118770599,0.009599493816494942,0.02202299982309341,-0.00152742862701416,0.001254111528396606,0.00542151927947998,XArbitraryZVertical,-0.2117381260439469,-0.3952107682117156,0.1179026011026695,0.8860442875253344,-0.6504195332527161,0.4684114754199982,-0.59795081615448,0,0,0,-1,-1,1469.30867825,unknown,2,2025-04-28T22:47:01.989+03:00,2025-04-28T22:17:59.397+03:00,21,0.8668733,0,0,16.08946,0,0,2025-04-28T22:42:51.752+03:00,767562429.8278584,0,-0.9300001,100.8076,1,0.35,2025-04-28T22:45:54.443+03:00,76,1.266666666666667,2025-04-22T14:20:19.516+03:00,0.02197104130929222,0
2025-04-28T22:47:10.541+03:00,1745869628.543501,40.9855756091106,29.13738873439781,126.3238,-1,-1,-1,-1,30,19.49210119458397,-9999,1477.85633,-0.6436920166015625,0.4881134033203125,-0.6024627685546875,1477.846253,0.04750317938915179,-0.8269772588399505,-0.4876254065994193,0.03452467918395996,0.01227969862520695,0.01997316442430019,0.009371757507324219,0.01636448502540588,-0.002339482307434082,XArbitraryZVertical,-0.2117371096612348,-0.3950628621854586,0.1180751021794063,0.886087484760369,-0.6501187682151794,0.4685293734073639,-0.5981854796409607,0,0,0,-1,-1,1469.30867825,unknown,2,2025-04-28T22:47:01.989+03:00,2025-04-28T22:17:59.397+03:00,21,0.8668733,0,0,16.08946,0,0,2025-04-28T22:42:51.752+03:00,767562429.8278584,0,-0.9300001,100.8076,1,0.35,2025-04-28T22:45:54.443+03:00,76,1.266666666666667,2025-04-22T14:20:19.516+03:00,0.02197104130929222,0
2025-04-28T22:47:10.551+03:00,1745869628.543501,40.9855756091106,29.13738873439781,126.3238,-1,-1,-1,-1,30,19.49210119458397,-9999,1477.866407,-0.65081787109375,0.4794158935546875,-0.6025238037109375,1477.85633,0.04802902116514467,-0.8264998078641936,-0.4875416985626164,0.04684519395232201,0.01890451274812222,0.01594150438904762,0.008077383041381836,0.02138227224349976,-0.004413425922393799,XArbitraryZVertical,-0.2116241800129361,-0.3949101344496531,0.1182414478513687,0.8861604000262142,-0.6498619318008423,0.46845543384552,-0.5985223650932312,0,0,0,-1,-1,1469.30867825,unknown,2,2025-04-28T22:47:01.989+03:00,2025-04-28T22:17:59.397+03:00,21,0.8668733,0,0,16.08946,0,0,2025-04-28T22:42:51.752+03:00,767562429.8278584,0,-0.9300001,100.8076,1,0.35,2025-04-28T22:45:54.443+03:00,76,1.266666666666667,2025-04-22T14:20:19.516+03:00,0.02197104130929222,0
2025-04-28T22:47:10.562+03:00,1745869628.543501,40.9855756091106,29.13738873439781,126.3238,-1,-1,-1,-1,30,19.49210119458397,-9999,1477.876484,-0.653289794921875,0.4746551513671875,-0.6014251708984375,1477.866407,0.04858906990211938,-0.826050703078127,-0.4872806622056911,0.05624881386756897,0.02004194818437099,0.01425758749246597,-0.0004940032958984375,0.01335790753364563,-0.003413200378417969,XArbitraryZVertical,-0.2114239169978761,-0.3947802316243388,0.1183919919383892,0.8862458875739225,-0.6496829390525818,0.4682247936725616,-0.5988969802856445,0,0,0,-1,-1,1469.30867825,unknown,2,2025-04-28T22:47:01.989+03:00,2025-04-28T22:17:59.397+03:00,21,0.8668733,0,0,16.08946,0,0,2025-04-28T22:42:51.752+03:00,767562429.8278584,0,-0.9300001,100.8076,1,0.35,2025-04-28T22:45:54.443+03:00,76,1.266666666666667,2025-04-22T14:20:19.516+03:00,0.02197104130929222,0
2025-04-28T22:47:10.572+03:00,1745869628.543501,40.9855756091106,29.13738873439781,126.3238,-1,-1,-1,-1,30,19.49210119458397,-9999,1477.886561,-0.6536865234375,0.4676971435546875,-0.5985870361328125,1477.876484,0.04910419767162055,-0.8257113449829981,-0.4869093502644075,0.05992544442415237,0.02300804480910301,0.01362462062388659,-0.002247989177703857,0.007826656103134155,-0.003441095352172852,XArbitraryZVertical,-0.2111769237708361,-0.3946982022036671,0.1185131313446796,0.8863251166812616,-0.6496073603630066,0.4678966701030731,-0.5992352962493896,0,0,0,-1,-1,1469.30867825,unknown,2,2025-04-28T22:47:01.989+03:00,2025-04-28T22:17:59.397+03:00,21,0.8668733,0,0,16.08946,0,0,2025-04-28T22:42:51.752+03:00,767562429.8278584,0,-0.9300001,100.8076,1,0.35,2025-04-28T22:45:54.443+03:00,76,1.266666666666667,2025-04-22T14:20:19.516+03:00,0.02197104130929222,0
2025-04-28T22:47:10.582+03:00,1745869628.543501,40.9855756091106,29.13738873439781,126.3238,-1,-1,-1,-1,30,19.49210119458397,-9999,1477.896638,-0.6511993408203125,0.459442138671875,-0.595184326171875,1477.886561,0.04957960860213372,-0.8254481381830213,-0.4864488997217967,0.05224195867776871,0.02089216187596321,0.01873575896024704,-0.004963517189025879,0.00263369083404541,0.0002175569534301758,XArbitraryZVertical,-0.2108935400498003,-0.3946488944016815,0.1186076741224564,0.8864019730562566,-0.6496079564094543,0.4674896895885468,-0.59955233335495,0,0,0,-1,-1,1469.30867825,unknown,2,2025-04-28T22:47:01.989+03:00,2025-04-28T22:17:59.397+03:00,21,0.8668733,0,0,16.08946,0,0,2025-04-28T22:42:51.752+03:00,767562429.8278584,0,-0.9300001,100.8076,1,0.35,2025-04-28T22:45:54.443+03:00,76,1.266666666666667,2025-04-22T14:20:19.516+03:00,0.02197104130929222,0
2025-04-28T22:47:10.592+03:00,1745869628.543501,40.9855756091106,29.13738873439781,126.3238,-1,-1,-1,-1,30,19.49210119458397,-9999,1477.906715,-0.6470947265625,0.4543304443359375,-0.591949462890625,1477.896638,0.05000427023640088,-0.8252173334675184,-0.4860764601845412,0.0396488681435585,0.01274948101490736,0.01741080358624458,-0.003005683422088623,-0.00582614541053772,0.003750979900360107,XArbitraryZVertical,-0.2106574757658801,-0.3946052064160188,0.1187001264430877,0.8864651713859636,-0.6495974063873291,0.4671604037284851,-0.5998203158378601,0,0,0,-1,-1,1469.30867825,unknown,2,2025-04-28T22:47:01.989+03:00,2025-04-28T22:17:59.397+03:00,21,0.8668733,0,0,16.08946,0,0,2025-04-28T22:42:51.752+03:00,767562429.8278584,0,-0.9300001,100.8076,1,0.35,2025-04-28T22:45:54.443+03:00,76,1.266666666666667,2025-04-22T14:20:19.516+03:00,0.02197104130929222,0
2025-04-28T22:47:10.602+03:00,1745869628.543501,40.9855756091106,29.13738873439781,126.3238,-1,-1,-1,-1,30,19.49210119458397,-9999,1477.916791,-0.6481170654296875,0.4525299072265625,-0.5919189453125,1477.906715,0.05037088247024531,-0.8250564220552546,-0.485920919338762,0.02392796240746975,0.0084189148619771,0.02057943306863308,0.0009184479713439941,-0.01221933960914612,0.007246434688568115,XArbitraryZVertical,-0.2105253859592992,-0.3945782635221095,0.1188158637401679,0.8864929989820853,-0.6495542526245117,0.4670228660106659,-0.5999740958213806,0,0,0,-1,-1,1469.30867825,unknown,2,2025-04-28T22:47:01.989+03:00,2025-04-28T22:17:59.397+03:00,21,0.8668733,0,0,16.08946,0,0,2025-04-28T22:42:51.752+03:00,767562429.8278584,0,-0.9300001,100.8076,1,0.35,2025-04-28T22:45:54.443+03:00,76,1.266666666666667,2025-04-22T14:20:19.516+03:00,0.02197104130929222,0
2025-04-28T22:47:10.612+03:00,1745869628.543501,40.9855756091106,29.13738873439781,126.3238,-1,-1,-1,-1,30,19.49210119458397,-9999,1477.926868,-0.650177001953125,0.454620361328125,-0.596343994140625,1477.916791,0.05061426324139607,-0.8249806861270546,-0.4860019568352304,0.01408531796187162,0.005890376400202513,0.01974446512758732,0.001837074756622314,-0.01438146829605103,0.008292317390441895,XArbitraryZVertical,-0.2105179802972816,-0.3945672963699612,0.1189312873563267,0.8864842277514489,-0.6494809985160828,0.4670945405960083,-0.5999976396560669,0,0,0,-1,-1,1469.30867825,unknown,2,2025-04-28T22:47:01.989+03:00,2025-04-28T22:17:59.397+03:00,21,0.8668733,0,0,16.08946,0,0,2025-04-28T22:42:51.752+03:00,767562429.8278584,0,-0.9300001,100.8076,1,0.35,2025-04-28T22:45:54.443+03:00,76,1.266666666666667,2025-04-22T14:20:19.516+03:00,0.02197104130929222,0
2025-04-28T22:47:10.622+03:00,1745869628.543501,40.9855756091106,29.13738873439781,126.3238,-1,-1,-1,-1,30,19.49210119458397,-9999,1477.936945,-0.6475067138671875,0.4609222412109375,-0.5999298095703125,1477.926868,0.05095410823757298,-0.8246057613209318,-0.4866052089392414,0.01321206707507372,0.005507946480065584,0.01591936685144901,-0.0008990764617919922,-0.01398399472236633,0.004300773143768311,XArbitraryZVertical,-0.2107421328331676,-0.3944146336838223,0.119158059600906,0.8864683973206292,-0.6490489840507507,0.4676278531551361,-0.6000496745109558,0,0,0,-1,-1,1469.30867825,unknown,2,2025-04-28T22:47:01.989+03:00,2025-04-28T22:17:59.397+03:00,21,0.8668733,0,0,16.08946,0,0,2025-04-28T22:42:51.752+03:00,767562429.8278584,0,-0.9300001,100.8076,1,0.35,2025-04-28T22:45:54.443+03:00,76,1.266666666666667,2025-04-22T14:20:19.516+03:00,0.02197104130929222,0
2025-04-28T22:47:10.633+03:00,1745869628.543501,40.9855756091106,29.13738873439781,126.3238,-1,-1,-1,-1,30,19.49210119458397,-9999,1477.947022,-0.645843505859375,0.4716644287109375,-0.60150146484375,1477.936945,0.05132815829745603,-0.8242032074026788,-0.4872669259593774,0.02192073687911034,0.001329047605395317,0.0168647225946188,-0.0001930594444274902,-0.008923053741455078,0.0006285905838012695,XArbitraryZVertical,-0.2109873272397444,-0.3942512462430228,0.1194081592485091,0.8864490254717645,-0.6485800743103027,0.4682126641273499,-0.600100576877594,0,0,0,-1,-1,1469.30867825,unknown,2,2025-04-28T22:47:01.989+03:00,2025-04-28T22:17:59.397+03:00,21,0.8668733,0,0,16.08946,0,0,2025-04-28T22:42:51.752+03:00,767562429.8278584,0,-0.9300001,100.8076,1,0.35,2025-04-28T22:45:54.443+03:00,76,1.266666666666667,2025-04-22T14:20:19.516+03:00,0.02197104130929222,0
2025-04-28T22:47:10.642+03:00,1745869628.543501,40.9855756091106,29.13738873439781,126.3238,-1,-1,-1,-1,30,19.49210119458397,-9999,1477.957098416667,-0.64678955078125,0.4792327880859375,-0.6016845703125,1477.947022,0.05169625907342285,-0.8240017331671807,-0.4875139333479121,0.03626319020986557,0.001800959464162588,0.01531263254582882,0.002073109149932861,-3.182888031005859e-05,-0.0009825229644775391,XArbitraryZVertical,-0.2110369009267089,-0.3941916787077354,0.1195973300693331,0.8864382283775635,-0.6483742594718933,0.4684309065341949,-0.6001526713371277,0,0,0,-1,-1,1469.30867825,unknown,2,2025-04-28T22:47:01.989+03:00,2025-04-28T22:17:59.397+03:00,21,0.8668733,0,0,16.08946,0,0,2025-04-28T22:42:51.752+03:00,767562429.8278584,0,-0.9300001,100.8076,1,0.35,2025-04-28T22:45:54.443+03:00,76,1.266666666666667,2025-04-22T14:20:19.516+03:00,0.02197104130929222,0
2025-04-28T22:47:10.653+03:00,1745869628.543501,40.9855756091106,29.13738873439781,126.3238,-1,-1,-1,-1,30,19.49210119458397,-9999,1477.967175416667,-0.6482391357421875,0.4747314453125,-0.6059722900390625,1477.957098416667,0.05212676775946858,-0.823805647388533,-0.4874348518861282,0.04928484931588173,0.001113996841013432,0.008479027077555656,0.002791285514831543,0.009818941354751587,-0.001654267311096191,XArbitraryZVertical,-0.2109285314350309,-0.3941530763290056,0.1197523108031423,0.8864603140340892,-0.6482837796211243,0.4683610200881958,-0.6003050208091736,0,0,0,-1,-1,1469.30867825,unknown,2,2025-04-28T22:47:01.989+03:00,2025-04-28T22:17:59.397+03:00,21,0.8668733,0,0,16.08946,0,0,2025-04-28T22:42:51.752+03:00,767562429.8278584,0,-0.9300001,100.8076,1,0.35,2025-04-28T22:45:54.443+03:00,76,1.266666666666667,2025-04-22T14:20:19.516+03:00,0.02197104130929222,0
2025-04-28T22:47:10.663+03:00,1745869628.543501,40.9855756091106,29.13738873439781,126.3238,-1,-1,-1,-1,30,19.49210119458397,-9999,1477.977252416667,-0.646331787109375,0.4666595458984375,-0.6000823974609375,1477.967175416667,0.05252063371575253,-0.8237384084253506,-0.4871377176556053,0.04924303665757179,0.0001126485876739025,0.007892066612839699,-0.0003360509872436523,0.008570879697799683,-0.004674673080444336,XArbitraryZVertical,-0.2107224785953848,-0.3941756668884799,0.1198629448057409,0.8864843658377224,-0.6483454704284668,0.4680984914302826,-0.6004431843757629,0,0,0,-1,-1,1469.30867825,unknown,2,2025-04-28T22:47:01.989+03:00,2025-04-28T22:17:59.397+03:00,21,0.8668733,0,0,16.08946,0,0,2025-04-28T22:42:51.752+03:00,767562429.8278584,0,-0.9300001,100.8076,1,0.35,2025-04-28T22:45:54.443+03:00,76,1.266666666666667,2025-04-22T14:20:19.516+03:00,0.02197104130929222,0
2025-04-28T22:47:10.672+03:00,1745869628.543501,40.9855756091106,29.13738873439781,126.3238,-1,-1,-1,-1,30,19.49210119458397,-9999,1477.987329416667,-0.643402099609375,0.457427978515625,-0.5920257568359375,1477.977252416667,0.05284720993884721,-0.8237728899439402,-0.4867115734968099,0.03531011193990707,-0.003056846093386412,0.004695174284279346,0.001387298107147217,0.001180768013000488,-0.002684712409973145,XArbitraryZVertical,-0.2104660832671399,-0.3942409300368451,0.119929841398168,0.8865071079723298,-0.6485124230384827,0.4677218496799469,-0.6005562543869019,0,0,0,-1,-1,1469.30867825,unknown,2,2025-04-28T22:47:01.989+03:00,2025-04-28T22:17:59.397+03:00,21,0.8668733,0,0,16.08946,0,0,2025-04-28T22:42:51.752+03:00,767562429.8278584,0,-0.9300001,100.8076,1,0.35,2025-04-28T22:45:54.443+03:00,76,1.266666666666667,2025-04-22T14:20:19.516+03:00,0.02197104130929222,0
2025-04-28T22:47:10.683+03:00,1745869628.543501,40.9855756091106,29.13738873439781,126.3238,-1,-1,-1,-1,30,19.49210119458397,-9999,1477.997405416667,-0.6460418701171875,0.4505157470703125,-0.5881500244140625,1477.987329416667,0.05302526763343841,-0.8238732590665353,-0.4862852319749394,0.02219697274267673,-0.003028350416570902,0.002461581490933895,0.004981279373168945,-0.007277220487594604,0.006846129894256592,XArbitraryZVertical,-0.2102348959427446,-0.3943196810437518,0.119937767441452,0.8865258561014111,-0.6487189531326294,0.4673449993133545,-0.600626528263092,0,0,0,-1,-1,1469.30867825,unknown,2,2025-04-28T22:47:01.989+03:00,2025-04-28T22:17:59.397+03:00,21,0.8668733,0,0,16.08946,0,0,2025-04-28T22:42:51.752+03:00,767562429.8278584,0,-0.9300001,100.8076,1,0.35,2025-04-28T22:45:54.443+03:00,76,1.266666666666667,2025-04-22T14:20:19.516+03:00,0.02197104130929222,0
2025-04-28T22:47:10.693+03:00,1745869628.543501,40.9855756091106,29.13738873439781,126.3238,-1,-1,-1,-1,30,19.49210119458397,-9999,1478.007482416667,-0.649871826171875,0.45050048828125,-0.5789947509765625,1477.997405416667,0.05312435197634167,-0.8239605656522219,-0.4859274491862286,0.01239507552236319,0.002882402623072267,0.007652281783521175,0.003615260124206543,-0.01510906219482422,0.01102280616760254,XArbitraryZVertical,-0.2100506100525823,-0.3943817910439879,0.1199223976424244,0.8865440330191912,-0.6488941311836243,0.4670286476612091,-0.6006835103034973,0,0,0,-1,-1,1469.30867825,unknown,2,2025-04-28T22:47:01.989+03:00,2025-04-28T22:17:59.397+03:00,21,0.8668733,0,0,16.08946,0,0,2025-04-28T22:42:51.752+03:00,767562429.8278584,0,-0.9300001,100.8076,1,0.35,2025-04-28T22:45:54.443+03:00,76,1.266666666666667,2025-04-22T14:20:19.516+03:00,0.02197104130929222,0
2025-04-28T22:47:10.703+03:00,1745869628.543501,40.9855756091106,29.13738873439781,126.3238,-1,-1,-1,-1,30,19.49210119458397,-9999,1478.017559416667,-0.6484375,0.4585113525390625,-0.5777435302734375,1478.007482416667,0.05318793979563962,-0.8240298703527722,-0.485682241408572,-0.004181503783911467,-0.002376541029661894,0.01542338542640209,-0.0003637075424194336,-0.01747095584869385,0.01957005262374878,XArbitraryZVertical,-0.2099245987101929,-0.3944281080426627,0.1199109546460874,0.8865547751998152,-0.649019718170166,0.4668118059635162,-0.600716233253479,0,0,0,-1,-1,1469.30867825,unknown,2,2025-04-28T22:47:01.989+03:00,2025-04-28T22:17:59.397+03:00,21,0.8668733,0,0,16.08946,0,0,2025-04-28T22:42:51.752+03:00,767562429.8278584,0,-0.9300001,100.8076,1,0.35,2025-04-28T22:45:54.443+03:00,76,1.266666666666667,2025-04-22T14:20:19.516+03:00,0.02197104130929222,0
2025-04-28T22:47:10.713+03:00,1745869628.543501,40.9855756091106,29.13738873439781,126.3238,-1,-1,-1,-1,30,19.49210119458397,-9999,1478.027636416667,-0.649932861328125,0.457733154296875,-0.5893707275390625,1478.017559416667,0.05317413809118836,-0.8241070553952594,-0.4856831077741653,-0.01778066903352737,-0.01051170006394386,0.007974790409207344,9.429454803466797e-05,-0.009354054927825928,0.02455508708953857,XArbitraryZVertical,-0.2099230772492509,-0.3944608374236649,0.1199130994646389,0.8865402998414672,-0.6490657925605774,0.4668125808238983,-0.6006659269332886,0,0,0,-1,-1,1469.30867825,unknown,2,2025-04-28T22:47:01.989+03:00,2025-04-28T22:17:59.397+03:00,21,0.8668733,0,0,16.08946,0,0,2025-04-28T22:42:51.752+03:00,767562429.8278584,0,-0.9300001,100.8076,1,0.35,2025-04-28T22:45:54.443+03:00,76,1.266666666666667,2025-04-22T14:20:19.516+03:00,0.02197104130929222,0
2025-04-28T22:47:10.727+03:00,1745869628.543501,40.9855756091106,29.13738873439781,126.3238,-1,-1,-1,-1,30,19.49210119458397,-9999,1478.037713416667,-0.649444580078125,0.4635009765625,-0.603424072265625,1478.027636416667,0.05308680377950042,-0.8242161545650295,-0.4859273299374295,-0.02020787447690964,-0.01426755636930466,0.003329438855871558,-0.0004426240921020508,-0.009859919548034668,0.0144428014755249,XArbitraryZVertical,-0.2100426337793449,-0.3944911391677463,0.119932568981999,0.8864959132765509,-0.6490476727485657,0.4670285582542419,-0.6005176901817322,0,0,0,-1,-1,1469.30867825,unknown,2,2025-04-28T22:47:01.989+03:00,2025-04-28T22:17:59.397+03:00,21,0.8668733,0,0,16.08946,0,0,2025-04-28T22:42:51.752+03:00,767562429.8278584,0,-0.9300001,100.8076,1,0.35,2025-04-28T22:45:54.443+03:00,76,1.266666666666667,2025-04-22T14:20:19.516+03:00,0.02197104130929222,0
2025-04-28T22:47:10.736+03:00,1745869628.543501,40.9855756091106,29.13738873439781,126.3238,-1,-1,-1,-1,30,19.49210119458397,-9999,1478.047790416667,-0.6463470458984375,0.4676361083984375,-0.6073760986328125,1478.037713416667,0.05302432982120084,-0.8242850565707254,-0.4863548584971847,-0.0115807643160224,-0.01256200112402439,0.0006756323855370283,-0.001616001129150391,-0.00585860013961792,0.0001633167266845703,XArbitraryZVertical,-0.2102414062314784,-0.3944995429599242,0.1199939335272954,0.8864367951359193,-0.6489424109458923,0.4674065411090851,-0.6003373265266418,0,0,0,-1,-1,1469.30867825,unknown,2,2025-04-28T22:47:01.989+03:00,2025-04-28T22:17:59.397+03:00,21,0.8668733,0,0,16.08946,0,0,2025-04-28T22:42:51.752+03:00,767562429.8278584,0,-0.9300001,100.8076,1,0.35,2025-04-28T22:45:54.443+03:00,76,1.266666666666667,2025-04-22T14:20:19.516+03:00,0.02197104130929222,0
2025-04-28T22:47:10.743+03:00,1745869628.543501,40.9855756091106,29.13738873439781,126.3238,-1,-1,-1,-1,30,19.49210119458397,-9999,1478.057867416667,-0.6437225341796875,0.470458984375,-0.6027069091796875,1478.047790416667,0.05301416415370145,-0.824348020470553,-0.4865753249884744,-0.004614733625203371,-0.01423712819814682,-0.00437824847176671,0.001611590385437012,-0.000682443380355835,-0.007546365261077881,XArbitraryZVertical,-0.2103379085963416,-0.3945183448938306,0.1200382443864345,0.886399542606163,-0.64890456199646,0.4676014184951782,-0.6002264618873596,0,0,0,-1,-1,1469.30867825,unknown,2,2025-04-28T22:47:01.989+03:00,2025-04-28T22:17:59.397+03:00,21,0.8668733,0,0,16.08946,0,0,2025-04-28T22:42:51.752+03:00,767562429.8278584,0,-0.9300001,100.8076,1,0.35,2025-04-28T22:45:54.443+03:00,76,1.266666666666667,2025-04-22T14:20:19.516+03:00,0.02197104130929222,0
2025-04-28T22:47:10.753+03:00,1745869628.543501,40.9855756091106,29.13738873439781,126.3238,-1,-1,-1,-1,30,19.49210119458397,-9999,1478.067944416667,-0.6428375244140625,0.4698486328125,-0.5980987548828125,1478.057867416667,0.05305190745872523,-0.8244071040089826,-0.4865522974059178,0.006889123003929853,-0.01463254168629646,-0.003367412369698286,0.005515396595001221,0.001657247543334961,-0.003472805023193359,XArbitraryZVertical,-0.2103166507960772,-0.3945493362667149,0.1200567750008828,0.8863882926971391,-0.6489479541778564,0.4675810635089874,-0.6001954674720764,0,0,0,-1,-1,1469.30867825,unknown,2,2025-04-28T22:47:01.989+03:00,2025-04-28T22:17:59.397+03:00,21,0.8668733,0,0,16.08946,0,0,2025-04-28T22:42:51.752+03:00,767562429.8278584,0,-0.9300001,100.8076,1,0.35,2025-04-28T22:45:54.443+03:00,76,1.266666666666667,2025-04-22T14:20:19.516+03:00,0.02197104130929222,0
2025-04-28T22:47:10.763+03:00,1745869628.543501,40.9855756091106,29.13738873439781,126.3238,-1,-1,-1,-1,30,19.49210119458397,-9999,1478.078021416667,-0.6461639404296875,0.4645538330078125,-0.5996856689453125,1478.067944416667,0.05305424279180149,-0.8245714567563599,-0.4864077251483528,0.005768731236457825,-0.01282105967402458,-0.004613771568983793,0.006167173385620117,0.002532720565795898,0.001242458820343018,XArbitraryZVertical,-0.2102418956600494,-0.3946277218131962,0.1200474446063093,0.8863722807295159,-0.6490961313247681,0.467453271150589,-0.6001346111297607,0,0,0,-1,-1,1469.30867825,unknown,2,2025-04-28T22:47:01.989+03:00,2025-04-28T22:17:59.397+03:00,21,0.8668733,0,0,16.08946,0,0,2025-04-28T22:42:51.752+03:00,767562429.8278584,0,-0.9300001,100.8076,1,0.35,2025-04-28T22:45:54.443+03:00,76,1.266666666666667,2025-04-22T14:20:19.516+03:00,0.02197104130929222,0
2025-04-28T22:47:10.773+03:00,1745869628.543501,40.9855756091106,29.13738873439781,126.3238,-1,-1,-1,-1,30,19.49210119458397,-9999,1478.088097416667,-0.6475677490234375,0.4628753662109375,-0.601959228515625,1478.078021416667,0.05298791098378595,-0.8248648597193229,-0.4861054595676022,0.002931932453066111,-0.01324077323079109,-0.003582729026675224,0.004020810127258301,-0.002021849155426025,0.0009189248085021973,XArbitraryZVertical,-0.2101026498605659,-0.3947618013772742,0.1199910012681401,0.8863532168709477,-0.6493759155273438,0.4671860337257385,-0.6000400185585022,0,0,0,-1,-1,1469.30867825,unknown,2,2025-04-28T22:47:01.989+03:00,2025-04-28T22:17:59.397+03:00,21,0.8668733,0,0,16.08946,0,0,2025-04-28T22:42:51.752+03:00,767562429.8278584,0,-0.9300001,100.8076,1,0.35,2025-04-28T22:45:54.443+03:00,76,1.266666666666667,2025-04-22T14:20:19.516+03:00,0.02197104130929222,0
2025-04-28T22:47:10.790+03:00,1745869628.543501,40.9855756091106,29.13738873439781,126.3238,-1,-1,-1,-1,30,19.49210119458397,-9999,1478.098174416667,-0.6481781005859375,0.46051025390625,-0.600128173828125,1478.088097416667,0.05275719767768224,-0.8254579545887875,-0.4858423113589493,-0.005462085362523794,-0.0159276369959116,-0.00156511808745563,0.0027884840965271,-0.0044441819190979,-0.002282142639160156,XArbitraryZVertical,-0.2099953377879148,-0.3950099848206103,0.1199006071566572,0.8862803708635895,-0.6498220562934875,0.4669533669948578,-0.5997381210327148,0,0,0,-1,-1,1469.30867825,unknown,2,2025-04-28T22:47:01.989+03:00,2025-04-28T22:17:59.397+03:00,21,0.8668733,0,0,16.08946,0,0,2025-04-28T22:42:51.752+03:00,767562429.8278584,0,-0.9300001,100.8076,1,0.35,2025-04-28T22:45:54.443+03:00,76,1.266666666666667,2025-04-22T14:20:19.516+03:00,0.02197104130929222,0
2025-04-28T22:47:10.793+03:00,1745869628.543501,40.9855756091106,29.13738873439781,126.3238,-1,-1,-1,-1,30,19.49210119458397,-9999,1478.108251416667,-0.650665283203125,0.4588165283203125,-0.5975341796875,1478.098174416667,0.05246151657203723,-0.8261455869828103,-0.4858686976963726,-0.008752154186367989,-0.01517635956406593,0.001930147642269731,0.002245604991912842,-0.006039142608642578,-0.00115048885345459,XArbitraryZVertical,-0.2100242928115828,-0.3952826504199757,0.1198468346924477,0.8861592738326852,-0.6502252817153931,0.4669767022132874,-0.5992828607559204,0,0,0,-1,-1,1469.30867825,unknown,2,2025-04-28T22:47:01.989+03:00,2025-04-28T22:17:59.397+03:00,21,0.8668733,0,0,16.08946,0,0,2025-04-28T22:42:51.752+03:00,767562429.8278584,0,-0.9300001,100.8076,1,0.35,2025-04-28T22:45:54.443+03:00,76,1.266666666666667,2025-04-22T14:20:19.516+03:00,0.02197104130929222,0
2025-04-28T22:47:10.804+03:00,1745869628.543501,40.9855756091106,29.13738873439781,126.3238,-1,-1,-1,-1,30,19.49210119458397,-9999,1478.118328416667,-0.65118408203125,0.4611358642578125,-0.5971832275390625,1478.108251416667,0.05223282720191055,-0.8266209987314962,-0.4858238605997851,-0.01251253765076399,-0.01278883405029774,-0.001980704255402088,4.339218139648438e-05,-0.008364617824554443,0.001041650772094727,XArbitraryZVertical,-0.21002104704343,-0.3954709263821298,0.1197868411474351,0.8860841071583797,-0.6505255103111267,0.4669370353221893,-0.5989878177642822,0,0,0,-1,-1,1469.30867825,unknown,2,2025-04-28T22:47:01.989+03:00,2025-04-28T22:17:59.397+03:00,21,0.8668733,0,0,16.08946,0,0,2025-04-28T22:42:51.752+03:00,767562429.8278584,0,-0.9300001,100.8076,1,0.35,2025-04-28T22:45:54.443+03:00,76,1.266666666666667,2025-04-22T14:20:19.516+03:00,0.02197104130929222,0
2025-04-28T22:47:10.814+03:00,1745869628.543501,40.9855756091106,29.13738873439781,126.3238,-1,-1,-1,-1,30,19.49210119458397,-9999,1478.128405416667,-0.6505279541015625,0.46478271484375,-0.5993499755859375,1478.118328416667,0.05213499690545881,-0.8267889014799641,-0.4857709474435883,-0.01362427417188883,-0.01352080516517162,5.827838322147727e-05,0.0001316070556640625,-0.007142841815948486,0.001971423625946045,XArbitraryZVertical,-0.2100067560112657,-0.3955369671563388,0.1197509552738999,0.886062921179445,-0.6506442427635193,0.4668902456760406,-0.5988953113555908,0,0,0,-1,-1,1469.30867825,unknown,2,2025-04-28T22:47:01.989+03:00,2025-04-28T22:17:59.397+03:00,21,0.8668733,0,0,16.08946,0,0,2025-04-28T22:42:51.752+03:00,767562429.8278584,0,-0.9300001,100.8076,1,0.35,2025-04-28T22:45:54.443+03:00,76,1.266666666666667,2025-04-22T14:20:19.516+03:00,0.02197104130929222,0
2025-04-28T22:47:10.824+03:00,1745869628.543501,40.9855756091106,29.13738873439781,126.3238,-1,-1,-1,-1,30,19.49210119458397,-9999,1478.138482416667,-0.6523590087890625,0.4656524658203125,-0.6022491455078125,1478.128405416667,0.05211971258503985,-0.8266938781240685,-0.4858215981098503,-0.01420697383582592,-0.007636284921318293,-0.001961196772754192,-3.427267074584961e-05,-0.00268632173538208,0.0002624988555908203,XArbitraryZVertical,-0.2100380430220209,-0.3954914213063119,0.1197439479220424,0.8860767211825523,-0.6505699157714844,0.4669350385665894,-0.5989410877227783,0,0,0,-1,-1,1469.30867825,unknown,2,2025-04-28T22:47:01.989+03:00,2025-04-28T22:17:59.397+03:00,21,0.8668733,0,0,16.08946,0,0,2025-04-28T22:42:51.752+03:00,767562429.8278584,0,-0.9300001,100.8076,1,0.35,2025-04-28T22:45:54.443+03:00,76,1.266666666666667,2025-04-22T14:20:19.516+03:00,0.02197104130929222,0
2025-04-28T22:47:10.834+03:00,1745869628.543501,40.9855756091106,29.13738873439781,126.3238,-1,-1,-1,-1,30,19.49210119458397,-9999,1478.148559416667,-0.6531524658203125,0.4703521728515625,-0.6005859375,1478.138482416667,0.05211487927450461,-0.8265251657935475,-0.4859542119880572,-0.01027261931449175,0.001367663033306599,-0.003803005442023277,-0.001020073890686035,-0.001415044069290161,-0.002309441566467285,XArbitraryZVertical,-0.2101081866145531,-0.3954112960892546,0.1197495433989234,0.8860951022260115,-0.6504232883453369,0.4670523107051849,-0.5990089178085327,0,0,0,-1,-1,1469.30867825,unknown,2,2025-04-28T22:47:01.989+03:00,2025-04-28T22:17:59.397+03:00,21,0.8668733,0,0,16.08946,0,0,2025-04-28T22:42:51.752+03:00,767562429.8278584,0,-0.9300001,100.8076,1,0.35,2025-04-28T22:45:54.443+03:00,76,1.266666666666667,2025-04-22T14:20:19.516+03:00,0.02197104130929222,0
2025-04-28T22:47:10.844+03:00,1745869628.543501,40.9855756091106,29.13738873439781,126.3238,-1,-1,-1,-1,30,19.49210119458397,-9999,1478.158636416667,-0.65032958984375,0.4703369140625,-0.596435546875,1478.148559416667,0.05207870227341861,-0.8264154344734548,-0.486132377200564,-0.00904516875743866,-0.0003585978411138058,-0.004173185210675001,-0.003161191940307617,0.001326590776443481,-0.002630114555358887,XArbitraryZVertical,-0.2102012893769022,-0.3953523270976957,0.1197561757398595,0.8860984669756409,-0.6502963900566101,0.4672098457813263,-0.5990239381790161,0,0,0,-1,-1,1469.30867825,unknown,2,2025-04-28T22:47:01.989+03:00,2025-04-28T22:17:59.397+03:00,21,0.8668733,0,0,16.08946,0,0,2025-04-28T22:42:51.752+03:00,767562429.8278584,0,-0.9300001,100.8076,1,0.35,2025-04-28T22:45:54.443+03:00,76,1.266666666666667,2025-04-22T14:20:19.516+03:00,0.02197104130929222,0
2025-04-28T22:47:10.854+03:00,1745869628.543501,40.9855756091106,29.13738873439781,126.3238,-1,-1,-1,-1,30,19.49210119458397,-9999,1478.168712416667,-0.6512603759765625,0.463775634765625,-0.595794677734375,1478.158636416667,0.05204268352034735,-0.8263371003852428,-0.4861546737599411,-0.008258737623691559,0.002620947081595659,-0.0008966978639364243,-0.001110076904296875,0.004694312810897827,0.001869261264801025,XArbitraryZVertical,-0.210223035031692,-0.3953130188326205,0.1197362662273834,0.8861135260272945,-0.6502417922019958,0.4672295451164246,-0.5990678071975708,0,0,0,-1,-1,1469.30867825,unknown,2,2025-04-28T22:47:01.989+03:00,2025-04-28T22:17:59.397+03:00,21,0.8668733,0,0,16.08946,0,0,2025-04-28T22:42:51.752+03:00,767562429.8278584,0,-0.9300001,100.8076,1,0.35,2025-04-28T22:45:54.443+03:00,76,1.266666666666667,2025-04-22T14:20:19.516+03:00,0.02197104130929222,0
2025-04-28T22:47:10.864+03:00,1745869628.543501,40.9855756091106,29.13738873439781,126.3238,-1,-1,-1,-1,30,19.49210119458397,-9999,1478.178789416667,-0.65374755859375,0.4628753662109375,-0.5965423583984375,1478.168712416667,0.05202412188176109,-0.8261448276637622,-0.486102552892271,-0.006815037690103054,0.01412953156977892,4.739273572340608e-05,-0.001054763793945312,-0.002721160650253296,0.003902912139892578,XArbitraryZVertical,-0.2102149858056857,-0.3952277862979801,0.1196978243068475,0.8861586702044006,-0.6501445174217224,0.4671834707260132,-0.5992093086242676,0,0,0,-1,-1,1469.30867825,unknown,2,2025-04-28T22:47:01.989+03:00,2025-04-28T22:17:59.397+03:00,21,0.8668733,0,0,16.08946,0,0,2025-04-28T22:42:51.752+03:00,767562429.8278584,0,-0.9300001,100.8076,1,0.35,2025-04-28T22:45:54.443+03:00,76,1.266666666666667,2025-04-22T14:20:19.516+03:00,0.02197104130929222,0
2025-04-28T22:47:10.874+03:00,1745869628.543501,40.9855756091106,29.13738873439781,126.3238,-1,-1,-1,-1,30,19.49210119458397,-9999,1478.188866416667,-0.65008544921875,0.4613800048828125,-0.59912109375,1478.178789416667,0.05200348416085287,-0.8259657114522531,-0.4860211371797339,-0.005433522630482912,0.01287771202623844,0.002029250375926495,-0.003468751907348633,-0.004251331090927124,0.00351107120513916,XArbitraryZVertical,-0.2101935078633886,-0.3951492541336254,0.1196542455983471,0.8862046280455804,-0.6500651240348816,0.4671114981174469,-0.5993515253067017,0,0,0,-1,-1,1469.30867825,unknown,2,2025-04-28T22:47:01.989+03:00,2025-04-28T22:17:59.397+03:00,21,0.8668733,0,0,16.08946,0,0,2025-04-28T22:42:51.752+03:00,767562429.8278584,0,-0.9300001,100.8076,1,0.35,2025-04-28T22:45:54.443+03:00,76,1.266666666666667,2025-04-22T14:20:19.516+03:00,0.02197104130929222,0
2025-04-28T22:47:10.884+03:00,1745869628.543501,40.9855756091106,29.13738873439781,126.3238,-1,-1,-1,-1,30,19.49210119458397,-9999,1478.198943416667,-0.646484375,0.4614410400390625,-0.5994110107421875,1478.188866416667,0.05193200200510798,-0.825921870830207,-0.4859276983686464,-0.01367680449038744,0.007121555972844362,0.004351526964455843,-0.001113057136535645,-0.004718005657196045,0.0006394386291503906,XArbitraryZVertical,-0.2101686169234154,-0.3951257513327444,0.119600043105363,0.8862283101377508,-0.6500709056854248,0.4670288562774658,-0.5994095802307129,0,0,0,-1,-1,1469.30867825,unknown,2,2025-04-28T22:47:01.989+03:00,2025-04-28T22:17:59.397+03:00,21,0.8668733,0,0,16.08946,0,0,2025-04-28T22:42:51.752+03:00,767562429.8278584,0,-0.9300001,100.8076,1,0.35,2025-04-28T22:45:54.443+03:00,76,1.266666666666667,2025-04-22T14:20:19.516+03:00,0.02197104130929222,0
2025-04-28T22:47:10.894+03:00,1745869628.543501,40.9855756091106,29.13738873439781,126.3238,-1,-1,-1,-1,30,19.49210119458397,-9999,1478.209020416667,-0.6418914794921875,0.46173095703125,-0.599822998046875,1478.198943416667,0.05180410304785187,-0.8259920185740792,-0.4859043548671231,-0.01564128696918488,0.0003276988863945007,0.003873822279274464,0.001973450183868408,-0.00559765100479126,-9.119510650634766e-06,XArbitraryZVertical,-0.210179286652709,-0.3951442453095526,0.1195462561860792,0.8862248139720784,-0.6501209735870361,0.4670082330703735,-0.5993713736534119,0,0,0,-1,-1,1469.30867825,unknown,2,2025-04-28T22:47:01.989+03:00,2025-04-28T22:17:59.397+03:00,21,0.8668733,0,0,16.08946,0,0,2025-04-28T22:42:51.752+03:00,767562429.8278584,0,-0.9300001,100.8076,1,0.35,2025-04-28T22:45:54.443+03:00,76,1.266666666666667,2025-04-22T14:20:19.516+03:00,0.02197104130929222,0
2025-04-28T22:47:10.904+03:00,1745869628.543501,40.9855756091106,29.13738873439781,126.3238,-1,-1,-1,-1,30,19.49210119458397,-9999,1478.219097416667,-0.6436920166015625,0.4681549072265625,-0.6023406982421875,1478.209020416667,0.05168036725624284,-0.8260586813045081,-0.4859894981448774,-0.01749990694224834,0.001661143731325865,0.004980099387466908,0.007492601871490479,-0.005688220262527466,-0.0007508397102355957,XArbitraryZVertical,-0.2102376944111538,-0.3951576582847662,0.1195147809156715,0.8862091891336218,-0.6501316428184509,0.4670835137367249,-0.5993010997772217,0,0,0,-1,-1,1469.30867825,unknown,2,2025-04-28T22:47:01.989+03:00,2025-04-28T22:17:59.397+03:00,21,0.8668733,0,0,16.08946,0,0,2025-04-28T22:42:51.752+03:00,767562429.8278584,0,-0.9300001,100.8076,1,0.35,2025-04-28T22:45:54.443+03:00,76,1.266666666666667,2025-04-22T14:20:19.516+03:00,0.02197104130929222,0
2025-04-28T22:47:10.915+03:00,1745869628.543501,40.9855756091106,29.13738873439781,126.3238,-1,-1,-1,-1,30,19.49210119458397,-9999,1478.229174416667,-0.643890380859375,0.4698638916015625,-0.600982666015625,1478.219097416667,0.05157249415752273,-0.8260800461027178,-0.4860433056992055,-0.0140491146594286,0.002823480172082782,-0.0003048769431188703,0.006754517555236816,-0.001020848751068115,-0.003284156322479248,XArbitraryZVertical,-0.2102817121313925,-0.3951538142610313,0.1194795631044669,0.8862051721358407,-0.6501259803771973,0.4671310782432556,-0.5992701053619385,0,0,0,-1,-1,1469.30867825,unknown,2,2025-04-28T22:47:01.989+03:00,2025-04-28T22:17:59.397+03:00,21,0.8668733,0,0,16.08946,0,0,2025-04-28T22:42:51.752+03:00,767562429.8278584,0,-0.9300001,100.8076,1,0.35,2025-04-28T22:45:54.443+03:00,76,1.266666666666667,2025-04-22T14:20:19.516+03:00,0.02197104130929222,0
2025-04-28T22:47:10.925+03:00,1745869628.543501,40.9855756091106,29.13738873439781,126.3238,-1,-1,-1,-1,30,19.49210119458397,-9999,1478.239251416667,-0.64727783203125,0.4666595458984375,-0.5971527099609375,1478.229174416667,0.05143418530720078,-0.8261214114815469,-0.4860926921251926,-0.01270075608044863,0.007860583253204823,-0.004258606117218733,0.006441891193389893,0.004062473773956299,-0.002716362476348877,XArbitraryZVertical,-0.2103285696891947,-0.3951557702344345,0.1194320952254968,0.8861996153864183,-0.6501338481903076,0.467174768447876,-0.5992276072502136,0,0,0,-1,-1,1469.30867825,unknown,2,2025-04-28T22:47:01.989+03:00,2025-04-28T22:17:59.397+03:00,21,0.8668733,0,0,16.08946,0,0,2025-04-28T22:42:51.752+03:00,767562429.8278584,0,-0.9300001,100.8076,1,0.35,2025-04-28T22:45:54.443+03:00,76,1.266666666666667,2025-04-22T14:20:19.516+03:00,0.02197104130929222,0
2025-04-28T22:47:10.935+03:00,1745869628.543501,40.9855756091106,29.13738873439781,126.3238,-1,-1,-1,-1,30,19.49210119458397,-9999,1478.249328416667,-0.6497955322265625,0.4674224853515625,-0.5945281982421875,1478.239251416667,0.05129158181221458,-0.8261471136255374,-0.4862354314428218,-0.009448903612792492,0.01291805878281593,-0.003285686485469341,0.003951609134674072,-0.0008854866027832031,0.0009295940399169922,XArbitraryZVertical,-0.2104188056537555,-0.3951468811688728,0.1193989923267533,0.8861866661840766,-0.6501002311706543,0.4673009514808655,-0.5991657376289368,0,0,0,-1,-1,1469.30867825,unknown,2,2025-04-28T22:47:01.989+03:00,2025-04-28T22:17:59.397+03:00,21,0.8668733,0,0,16.08946,0,0,2025-04-28T22:42:51.752+03:00,767562429.8278584,0,-0.9300001,100.8076,1,0.35,2025-04-28T22:45:54.443+03:00,76,1.266666666666667,2025-04-22T14:20:19.516+03:00,0.02197104130929222,0
2025-04-28T22:47:10.945+03:00,1745869628.543501,40.9855756091106,29.13738873439781,126.3238,-1,-1,-1,-1,30,19.49210119458397,-9999,1478.259404416667,-0.648468017578125,0.4636993408203125,-0.5936279296875,1478.249328416667,0.05113066660663522,-0.8261524031887894,-0.4862470593341075,-0.01478428021073341,0.01543927378952503,-0.002513902494683862,4.446506500244141e-05,-0.0004379749298095703,0.003653824329376221,XArbitraryZVertical,-0.2104554615726981,-0.3951318612030546,0.1193304767308499,0.8861938988821279,-0.6500993967056274,0.4673112332820892,-0.5991586446762085,0,0,0,-1,-1,1469.30867825,unknown,2,2025-04-28T22:47:01.989+03:00,2025-04-28T22:17:59.397+03:00,21,0.8668733,0,0,16.08946,0,0,2025-04-28T22:42:51.752+03:00,767562429.8278584,0,-0.9300001,100.8076,1,0.35,2025-04-28T22:45:54.443+03:00,76,1.266666666666667,2025-04-22T14:20:19.516+03:00,0.02197104130929222,0
2025-04-28T22:47:10.955+03:00,1745869628.543501,40.9855756091106,29.13738873439781,126.3238,-1,-1,-1,-1,30,19.49210119458397,-9999,1478.269481416667,-0.64947509765625,0.4577178955078125,-0.5949249267578125,1478.259404416667,0.05090405199148269,-0.8262061012286609,-0.4862695462777073,-0.02164105512201786,0.01659062504768372,-0.0004448593826964498,0.000999748706817627,-0.002182126045227051,0.00475621223449707,XArbitraryZVertical,-0.2105070461927671,-0.3951309667856557,0.1192400245299015,0.8861942477325836,-0.6501238346099854,0.4673311114311218,-0.5991166234016418,0,0,0,-1,-1,1469.30867825,unknown,2,2025-04-28T22:47:01.989+03:00,2025-04-28T22:17:59.397+03:00,21,0.8668733,0,0,16.08946,0,0,2025-04-28T22:42:51.752+03:00,767562429.8278584,0,-0.9300001,100.8076,1,0.35,2025-04-28T22:45:54.443+03:00,76,1.266666666666667,2025-04-22T14:20:19.516+03:00,0.02197104130929222,0
2025-04-28T22:47:10.965+03:00,1745869628.543501,40.9855756091106,29.13738873439781,126.3238,-1,-1,-1,-1,30,19.49210119458397,-9999,1478.279558416667,-0.648284912109375,0.458404541015625,-0.59765625,1478.269481416667,0.05067013933079496,-0.8261848457439319,-0.4863275292484088,-0.03047609142959118,0.0155290886759758,-0.0004746867634821683,0.001211285591125488,-0.007894396781921387,0.004751682281494141,XArbitraryZVertical,-0.2105803629629319,-0.3950947875037484,0.1191452806224952,0.8862056657512613,-0.6500911712646484,0.4673823714256287,-0.5991120338439941,0,0,0,-1,-1,1469.30867825,unknown,2,2025-04-28T22:47:01.989+03:00,2025-04-28T22:17:59.397+03:00,21,0.8668733,0,0,16.08946,0,0,2025-04-28T22:42:51.752+03:00,767562429.8278584,0,-0.9300001,100.8076,1,0.35,2025-04-28T22:45:54.443+03:00,76,1.266666666666667,2025-04-22T14:20:19.516+03:00,0.02197104130929222,0
2025-04-28T22:47:10.975+03:00,1745869628.543501,40.9855756091106,29.13738873439781,126.3238,-1,-1,-1,-1,30,19.49210119458397,-9999,1478.289635416667,-0.6434478759765625,0.4631195068359375,-0.6021270751953125,1478.279558416667,0.05041759216838102,-0.8261451386810805,-0.4864115307791163,-0.03150653466582298,0.01039418205618858,-0.002933216979727149,0.0003345608711242676,-0.01034906506538391,0.002340018749237061,XArbitraryZVertical,-0.2106700560098661,-0.3950475149345568,0.1190453518434013,0.8862187317096718,-0.6500384211540222,0.4674566388130188,-0.5991111993789673,0,0,0,-1,-1,1469.30867825,unknown,2,2025-04-28T22:47:01.989+03:00,2025-04-28T22:17:59.397+03:00,21,0.8668733,0,0,16.08946,0,0,2025-04-28T22:42:51.752+03:00,767562429.8278584,0,-0.9300001,100.8076,1,0.35,2025-04-28T22:45:54.443+03:00,76,1.266666666666667,2025-04-22T14:20:19.516+03:00,0.02197104130929222,0
2025-04-28T22:47:10.985+03:00,1745869628.543501,40.9855756091106,29.13738873439781,126.3238,-1,-1,-1,-1,30,19.49210119458397,-9999,1478.299712416667,-0.646636962890625,0.4631195068359375,-0.6012725830078125,1478.289635416667,0.05022518998198205,-0.8260096515337672,-0.4865099902321324,-0.02838957123458385,0.01089458912611008,-0.003660792717710137,0.006170511245727539,-0.004546225070953369,-0.001570463180541992,XArbitraryZVertical,-0.210759987872874,-0.3949635544380217,0.1189647239789235,0.8862455850333396,-0.6499233841896057,0.4675436913967133,-0.599168062210083,0,0,0,-1,-1,1469.30867825,unknown,2,2025-04-28T22:47:01.989+03:00,2025-04-28T22:17:59.397+03:00,21,0.8668733,0,0,16.08946,0,0,2025-04-28T22:42:51.752+03:00,767562429.8278584,0,-0.9300001,100.8076,1,0.35,2025-04-28T22:45:54.443+03:00,76,1.266666666666667,2025-04-22T14:20:19.516+03:00,0.02197104130929222,0
2025-04-28T22:47:10.995+03:00,1745869628.543501,40.9855756091106,29.13738873439781,126.3238,-1,-1,-1,-1,30,19.49210119458397,-9999,1478.309789416667,-0.6468353271484375,0.4648590087890625,-0.6019744873046875,1478.299712416667,0.05007233308514544,-0.8258127712458424,-0.4866695319978565,-0.02523192763328552,0.01209427695721388,-0.00429039727896452,0.003800392150878906,-0.004656702280044556,-0.002225518226623535,XArbitraryZVertical,-0.2108729587953991,-0.3948542578390046,0.1189068465849964,0.8862752127456629,-0.6497505903244019,0.4676847159862518,-0.5992454290390015,0,0,0,-1,-1,1469.30867825,unknown,2,2025-04-28T22:47:01.989+03:00,2025-04-28T22:17:59.397+03:00,21,0.8668733,0,0,16.08946,0,0,2025-04-28T22:42:51.752+03:00,767562429.8278584,0,-0.9300001,100.8076,1,0.35,2025-04-28T22:45:54.443+03:00,76,1.266666666666667,2025-04-22T14:20:19.516+03:00,0.02197104130929222,0
2025-04-28T22:47:11.005+03:00,1745869628.543501,40.9855756091106,29.13738873439781,126.3238,-1,-1,-1,-1,30,19.49210119458397,-9999,1478.319866416667,-0.6458282470703125,0.4638824462890625,-0.599853515625,1478.309789416667,0.0498823487172184,-0.8256449070859169,-0.4869233951405079,-0.02746472135186195,0.01479472219944,-0.005216378718614578,0.0022391676902771,-0.003553569316864014,-0.002837836742401123,XArbitraryZVertical,-0.2110335463306282,-0.3947503712342688,0.1188536543947781,0.8862904349932053,-0.6495627164840698,0.4679090678691864,-0.5992739796638489,0,0,0,-1,-1,1469.30867825,unknown,2,2025-04-28T22:47:01.989+03:00,2025-04-28T22:17:59.397+03:00,21,0.8668733,0,0,16.08946,0,0,2025-04-28T22:42:51.752+03:00,767562429.8278584,0,-0.9300001,100.8076,1,0.35,2025-04-28T22:45:54.443+03:00,76,1.266666666666667,2025-04-22T14:20:19.516+03:00,0.02197104130929222,0
2025-04-28T22:47:11.015+03:00,1745869628.543501,40.9855756091106,29.13738873439781,126.3238,-1,-1,-1,-1,30,19.49210119458397,-9999,1478.329943416667,-0.649658203125,0.4633331298828125,-0.6017303466796875,1478.319866416667,0.04963480531167064,-0.8255653949598613,-0.4870783438033985,-0.02900556102395058,0.01883320510387421,-0.006279611960053444,0.003450512886047363,-0.003949910402297974,-0.001080572605133057,XArbitraryZVertical,-0.2111561652585672,-0.3946832359877163,0.1187652986862433,0.8863029517795974,-0.6494618058204651,0.4680460095405579,-0.5992764234542847,0,0,0,-1,-1,1469.30867825,unknown,2,2025-04-28T22:47:01.989+03:00,2025-04-28T22:17:59.397+03:00,21,0.8668733,0,0,16.08946,0,0,2025-04-28T22:42:51.752+03:00,767562429.8278584,0,-0.9300001,100.8076,1,0.35,2025-04-28T22:45:54.443+03:00,76,1.266666666666667,2025-04-22T14:20:19.516+03:00,0.02197104130929222,0
2025-04-28T22:47:11.025+03:00,1745869628.543501,40.9855756091106,29.13738873439781,126.3238,-1,-1,-1,-1,30,19.49210119458397,-9999,1478.340020416667,-0.650909423828125,0.4659576416015625,-0.603240966796875,1478.329943416667,0.04931013700106526,-0.8255928109513798,-0.4872348978339803,-0.02889903448522091,0.0200236402451992,-0.006221022456884384,0.000590205192565918,-0.005507320165634155,-0.001712679862976074,XArbitraryZVertical,-0.2112883603945585,-0.3946552523249627,0.1186543607647395,0.8862987472568078,-0.6494243144989014,0.4681843519210815,-0.5992088913917542,0,0,0,-1,-1,1469.30867825,unknown,2,2025-04-28T22:47:01.989+03:00,2025-04-28T22:17:59.397+03:00,21,0.8668733,0,0,16.08946,0,0,2025-04-28T22:42:51.752+03:00,767562429.8278584,0,-0.9300001,100.8076,1,0.35,2025-04-28T22:45:54.443+03:00,76,1.266666666666667,2025-04-22T14:20:19.516+03:00,0.02197104130929222,0
2025-04-28T22:47:11.036+03:00,1745869628.543501,40.9855756091106,29.13738873439781,126.3238,-1,-1,-1,-1,30,19.49210119458397,-9999,1478.350096416667,-0.64825439453125,0.4652557373046875,-0.6031494140625,1478.340020416667,0.0489865770694302,-0.8256145877283794,-0.4873327728839414,-0.0281624048948288,0.01981005445122719,-0.009599375538527966,-0.002146482467651367,-0.002938747406005859,-0.00461125373840332,XArbitraryZVertical,-0.2113945070668832,-0.3946270165504097,0.118532028446949,0.8863024836657125,-0.6494037508964539,0.4682708382606506,-0.5991637706756592,0,0,0,-1,-1,1469.30867825,unknown,2,2025-04-28T22:47:01.989+03:00,2025-04-28T22:17:59.397+03:00,21,0.8668733,0,0,16.08946,0,0,2025-04-28T22:42:51.752+03:00,767562429.8278584,0,-0.9300001,100.8076,1,0.35,2025-04-28T22:45:54.443+03:00,76,1.266666666666667,2025-04-22T14:20:19.516+03:00,0.02197104130929222,0
2025-04-28T22:47:11.046+03:00,1745869628.543501,40.9855756091106,29.13738873439781,126.3238,-1,-1,-1,-1,30,19.49210119458397,-9999,1478.360173416667,-0.645233154296875,0.4688873291015625,-0.6021728515625,1478.350096416667,0.04866400336555632,-0.8256557706710579,-0.4872864385698038,-0.02232608757913113,0.01498413924127817,-0.01221779547631741,0.001098573207855225,-0.003233492374420166,-0.004165530204772949,XArbitraryZVertical,-0.2114350708017363,-0.3946129046371818,0.118384536450466,0.8863188140523217,-0.6494444012641907,0.4682298898696899,-0.5991517305374146,0,0,0,-1,-1,1469.30867825,unknown,2,2025-04-28T22:47:01.989+03:00,2025-04-28T22:17:59.397+03:00,21,0.8668733,0,0,16.08946,0,0,2025-04-28T22:42:51.752+03:00,767562429.8278584,0,-0.9300001,100.8076,1,0.35,2025-04-28T22:45:54.443+03:00,76,1.266666666666667,2025-04-22T14:20:19.516+03:00,0.02197104130929222,0
2025-04-28T22:47:11.056+03:00,1745869628.543501,40.9855756091106,29.13738873439781,126.3238,-1,-1,-1,-1,30,19.49210119458397,-9999,1478.370250416667,-0.6447296142578125,0.46673583984375,-0.6019134521484375,1478.360173416667,0.04838750075823948,-0.8257078105038034,-0.4871044916433473,-0.01596266217529774,0.007252783048897982,-0.014003811404109,0.004167795181274414,2.47955322265625e-05,-0.003317594528198242,XArbitraryZVertical,-0.2114054945369014,-0.3946135907009448,0.1182325905270808,0.8863457957183931,-0.6495381593704224,0.4680691063404083,-0.5991756916046143,0,0,0,-1,-1,1469.30867825,unknown,2,2025-04-28T22:47:01.989+03:00,2025-04-28T22:17:59.397+03:00,21,0.8668733,0,0,16.08946,0,0,2025-04-28T22:42:51.752+03:00,767562429.8278584,0,-0.9300001,100.8076,1,0.35,2025-04-28T22:45:54.443+03:00,76,1.266666666666667,2025-04-22T14:20:19.516+03:00,0.02197104130929222,0
2025-04-28T22:47:11.066+03:00,1745869628.543501,40.9855756091106,29.13738873439781,126.3238,-1,-1,-1,-1,30,19.49210119458397,-9999,1478.380327416667,-0.6421966552734375,0.4645843505859375,-0.6056060791015625,1478.370250416667,0.04822353811885032,-0.8256261174387699,-0.4870124723279827,-0.01058627385646105,0.001531780697405338,-0.01571808755397797,0.004806578159332275,-7.700920104980469e-05,-0.002197742462158203,XArbitraryZVertical,-0.2114016706501943,-0.3945635080806971,0.1181336176223047,0.8863822307645213,-0.6495208740234375,0.4679878056049347,-0.5992579460144043,0,0,0,-1,-1,1469.30867825,unknown,2,2025-04-28T22:47:01.989+03:00,2025-04-28T22:17:59.397+03:00,21,0.8668733,0,0,16.08946,0,0,2025-04-28T22:42:51.752+03:00,767562429.8278584,0,-0.9300001,100.8076,1,0.35,2025-04-28T22:45:54.443+03:00,76,1.266666666666667,2025-04-22T14:20:19.516+03:00,0.02197104130929222,0
2025-04-28T22:47:11.076+03:00,1745869628.543501,40.9855756091106,29.13738873439781,126.3238,-1,-1,-1,-1,30,19.49210119458397,-9999,1478.390404416667,-0.6413726806640625,0.4618377685546875,-0.607330322265625,1478.380327416667,0.04807362503377614,-0.8256047252189274,-0.4868615655649405,-0.008909480646252632,-0.003792610950767994,-0.01774339005351067,0.007210791110992432,-0.00209510326385498,-0.004806280136108398,XArbitraryZVertical,-0.2113652766608861,-0.3945438666071687,0.1180359505938997,0.8864126509838797,-0.6495599746704102,0.4678544402122498,-0.5993196964263916,0,0,0,-1,-1,1469.30867825,unknown,2,2025-04-28T22:47:01.989+03:00,2025-04-28T22:17:59.397+03:00,21,0.8668733,0,0,16.08946,0,0,2025-04-28T22:42:51.752+03:00,767562429.8278584,0,-0.9300001,100.8076,1,0.35,2025-04-28T22:45:54.443+03:00,76,1.266666666666667,2025-04-22T14:20:19.516+03:00,0.02197104130929222,0
2025-04-28T22:47:11.086+03:00,1745869628.543501,40.9855756091106,29.13738873439781,126.3238,-1,-1,-1,-1,30,19.49210119458397,-9999,1478.400481416667,-0.6425628662109375,0.4608001708984375,-0.605926513671875,1478.390404416667,0.04788832899160938,-0.8256860430507182,-0.48671428939447,-0.01199901383370161,-0.008144215680658817,-0.01954661495983601,0.008271455764770508,-0.005321860313415527,-0.007436871528625488,XArbitraryZVertical,-0.2113314207081649,-0.3945658788403549,0.1179341493555647,0.886424457655248,-0.6496593356132507,0.4677242636680603,-0.5993136167526245,0,0,0,-1,-1,1469.30867825,unknown,2,2025-04-28T22:47:01.989+03:00,2025-04-28T22:17:59.397+03:00,21,0.8668733,0,0,16.08946,0,0,2025-04-28T22:42:51.752+03:00,767562429.8278584,0,-0.9300001,100.8076,1,0.35,2025-04-28T22:45:54.443+03:00,76,1.266666666666667,2025-04-22T14:20:19.516+03:00,0.02197104130929222,0
2025-04-28T22:47:11.096+03:00,1745869628.543501,40.9855756091106,29.13738873439781,126.3238,-1,-1,-1,-1,30,19.49210119458397,-9999,1478.410558416667,-0.64453125,0.4525299072265625,-0.61077880859375,1478.400481416667,0.04770151546102894,-0.8258316777564737,-0.4865628154470958,-0.001985328271985054,-0.01613909192383289,-0.02163709700107574,0.008364975452423096,-0.00628662109375,-0.007758140563964844,XArbitraryZVertical,-0.2112922114858714,-0.3946164040121018,0.1178376574403106,0.8864241263874925,-0.6497986316680908,0.4675903618335724,-0.5992670059204102,0,0,0,-1,-1,1469.30867825,unknown,2,2025-04-28T22:47:01.989+03:00,2025-04-28T22:17:59.397+03:00,21,0.8668733,0,0,16.08946,0,0,2025-04-28T22:42:51.752+03:00,767562429.8278584,0,-0.9300001,100.8076,1,0.35,2025-04-28T22:45:54.443+03:00,76,1.266666666666667,2025-04-22T14:20:19.516+03:00,0.02197104130929222,0
2025-04-28T22:47:11.106+03:00,1745869628.543501,40.9855756091106,29.13738873439781,126.3238,-1,-1,-1,-1,30,19.49210119458397,-9999,1478.420635416667,-0.64959716796875,0.44744873046875,-0.626739501953125,1478.410558416667,0.04765597227670736,-0.8259720224099462,-0.4862132883603102,0.01304581854492426,-0.01328418217599392,-0.02071004919707775,0.005349576473236084,-0.01192855834960938,-0.008898258209228516,XArbitraryZVertical,-0.2111372111035524,-0.394686978522281,0.1177651609576069,0.886439270450877,-0.6500028371810913,0.4672813713550568,-0.5992865562438965,0,0,0,-1,-1,1469.30867825,unknown,2,2025-04-28T22:47:01.989+03:00,2025-04-28T22:17:59.397+03:00,21,0.8668733,0,0,16.08946,0,0,2025-04-28T22:42:51.752+03:00,767562429.8278584,0,-0.9300001,100.8076,1,0.35,2025-04-28T22:45:54.443+03:00,76,1.266666666666667,2025-04-22T14:20:19.516+03:00,0.02197104130929222,0
2025-04-28T22:47:11.116+03:00,1745869628.543501,40.9855756091106,29.13738873439781,126.3238,-1,-1,-1,-1,30,19.49210119458397,-9999,1478.430711416667,-0.6560211181640625,0.45281982421875,-0.635711669921875,1478.420635416667,0.04745093084477022,-0.8260556705250058,-0.4859756314706639,-0.01723598688840866,0.003365566721186042,-0.03092117607593536,0.002460122108459473,-0.01928678154945374,-0.02380049228668213,XArbitraryZVertical,-0.2110668715624136,-0.3947113737386819,0.1176374538156762,0.8864621183423457,-0.6501346230506897,0.4670712649822235,-0.5993074178695679,0,0,0,-1,-1,1469.30867825,unknown,2,2025-04-28T22:47:01.989+03:00,2025-04-28T22:17:59.397+03:00,21,0.8668733,0,0,16.08946,0,0,2025-04-28T22:42:51.752+03:00,767562429.8278584,0,-0.9300001,100.8076,1,0.35,2025-04-28T22:45:54.443+03:00,76,1.266666666666667,2025-04-22T14:20:19.516+03:00,0.02197104130929222,0
2025-04-28T22:47:11.126+03:00,1745869628.543501,40.9855756091106,29.13738873439781,126.3238,-1,-1,-1,-1,30,19.49210119458397,-9999,1478.440788416667,-0.6513214111328125,0.45428466796875,-0.6612701416015625,1478.430711416667,0.04709870078240343,-0.8261157729574384,-0.4857641204870358,-0.0114281652495265,0.0001748334616422653,-0.03865686058998108,-0.00467914342880249,-0.01516297459602356,-0.03367561101913452,XArbitraryZVertical,-0.2110386233535881,-0.3947088357469921,0.117447037860601,0.8864952027105745,-0.6502432823181152,0.4668842256069183,-0.599335253238678,0,0,0,-1,-1,1469.30867825,unknown,2,2025-04-28T22:47:01.989+03:00,2025-04-28T22:17:59.397+03:00,21,0.8668733,0,0,16.08946,0,0,2025-04-28T22:42:51.752+03:00,767562429.8278584,0,-0.9300001,100.8076,1,0.35,2025-04-28T22:45:54.443+03:00,76,1.266666666666667,2025-04-22T14:20:19.516+03:00,0.02197104130929222,0
2025-04-28T22:47:11.136+03:00,1745869628.543501,40.9855756091106,29.13738873439781,126.3238,-1,-1,-1,-1,30,19.49210119458397,-9999,1478.450865416667,-0.650604248046875,0.45428466796875,-0.6656341552734375,1478.440788416667,0.04671850815161587,-0.8262429443396871,-0.4856563072361906,-0.04091288521885872,-0.01115831546485424,-0.0394156277179718,-0.003314673900604248,-0.01422843337059021,-0.05523902177810669,XArbitraryZVertical,-0.2110581668085073,-0.3947291713439856,0.1172712236815043,0.8865047425944735,-0.6503564715385437,0.4667888879776001,-0.599286675453186,0,0,0,-1,-1,1469.30867825,unknown,2,2025-04-28T22:47:01.989+03:00,2025-04-28T22:17:59.397+03:00,21,0.8668733,0,0,16.08946,0,0,2025-04-28T22:42:51.752+03:00,767562429.8278584,0,-0.9300001,100.8076,1,0.35,2025-04-28T22:45:54.443+03:00,76,1.266666666666667,2025-04-22T14:20:19.516+03:00,0.02197104130929222,0
