loggingTime(txt),locationTimestamp_since1970(s),locationLatitude(WGS84),locationLongitude(WGS84),locationAltitude(m),locationSpeed(m/s),locationSpeedAccuracy(m/s),locationCourse(°),locationCourseAccuracy(°),locationVerticalAccuracy(m),locationHorizontalAccuracy(m),locationFloor(Z),accelerometerTimestamp_sinceReboot(s),accelerometerAccelerationX(G),accelerometerAccelerationY(G),accelerometerAccelerationZ(G),motionTimestamp_sinceReboot(s),motionYaw(rad),motionRoll(rad),motionPitch(rad),motionRotationRateX(rad/s),motionRotationRateY(rad/s),motionRotationRateZ(rad/s),motionUserAccelerationX(G),motionUserAccelerationY(G),motionUserAccelerationZ(G),motionAttitudeReferenceFrame(txt),motionQuaternionX(R),motionQuaternionY(R),motionQuaternionZ(R),motionQuaternionW(R),motionGravityX(G),motionGravityY(G),motionGravityZ(G),motionMagneticFieldX(µT),motionMagneticFieldY(µT),motionMagneticFieldZ(µT),motionHeading(°),motionMagneticFieldCalibrationAccuracy(Z),activityTimestamp_sinceReboot(s),activity(txt),activityActivityConfidence(Z),activityActivityStartDate(txt),pedometerStartDate(txt),pedometerNumberofSteps(N),pedometerAverageActivePace(s/m),pedometerCurrentPace(s/m),pedometerCurrentCadence(steps/s),pedometerDistance(m),pedometerFloorAscended(N),pedometerFloorDescended(N),pedometerEndDate(txt),altimeterTimestamp_sinceReboot(s),altimeterReset(bool),altimeterRelativeAltitude(m),altimeterPressure(kPa),batteryState(N),batteryLevel(R),heartRateBPMTimestamp(txt),heartRateBPM(N),heartRateBPS(R),heartRateVariabilityTimestamp(txt),heartRateVariability(ms),label
2025-04-28T22:25:26.423+03:00,1745868324.265106,40.98553583423499,29.1374642380764,128.2676,-1,-1,-1,-1,30.00575485195334,24.22467901491021,-9999,462.8524928750001,-0.7431640625,0.4888458251953125,-0.471038818359375,462.842415875,-0.9573282488048335,-0.9962174753989997,-0.4642124183033094,-0.0006869040080346167,0.007750782649964094,0.004779133480042219,-0.005743324756622314,-0.03425127267837524,0.02043673396110535,XArbitraryZVertical,-0.3935200068476247,-0.319622377221985,-0.2962278620989678,0.8094643230577689,-0.7505890130996704,0.4477187097072601,-0.4859670698642731,0,0,0,-1,-1,458.117546125,unknown,2,2025-04-28T22:25:21.646+03:00,null,0,0,0,0,0,0,0,null,767561124.3248035,0,0.41,100.7959,1,0.15,2025-04-27T20:36:35.266+03:00,71,1.183333333333333,2025-04-22T14:20:19.516+03:00,0.02197104130929222,0
2025-04-28T22:25:26.426+03:00,1745868324.265106,40.98553583423499,29.1374642380764,128.2676,-1,-1,-1,-1,30.00575485195334,24.22467901491021,-9999,462.862569875,-0.743865966796875,0.462310791015625,-0.47637939453125,462.8524928750001,-0.9572019493516538,-0.9960828302866362,-0.4642138379504294,0.01990079507231712,0.01576436683535576,0.0008214764529839158,-0.02691221237182617,0.0728183388710022,0.01064977049827576,XArbitraryZVertical,-0.3934803969239949,-0.3195923774776845,-0.2962028716420376,0.8095045385458854,-0.7505230307579041,0.4477199614048004,-0.4860677719116211,0,0,0,-1,-1,458.117546125,unknown,2,2025-04-28T22:25:21.646+03:00,null,0,0,0,0,0,0,0,null,767561124.3248035,0,0.41,100.7959,1,0.15,2025-04-27T20:36:35.266+03:00,71,1.183333333333333,2025-04-22T14:20:19.516+03:00,0.02197104130929222,0
2025-04-28T22:25:26.428+03:00,1745868324.265106,40.98553583423499,29.1374642380764,128.2676,-1,-1,-1,-1,30.00575485195334,24.22467901491021,-9999,462.872646125,-0.7548065185546875,0.4478302001953125,-0.481964111328125,462.862569875,-0.9570413003217748,-0.9958180203860639,-0.464114885129028,0.01840809360146523,0.02510646916925907,-0.0001652246864978224,0.01102113723754883,0.03637734055519104,0.01569432020187378,XArbitraryZVertical,-0.3933804400390548,-0.3195411047387667,-0.2962149643167034,0.8095689823167868,-0.7504314780235291,0.4476314783096313,-0.4862906336784363,0,0,0,-1,-1,458.117546125,unknown,2,2025-04-28T22:25:21.646+03:00,null,0,0,0,0,0,0,0,null,767561124.3248035,0,0.41,100.7959,1,0.15,2025-04-27T20:36:35.266+03:00,71,1.183333333333333,2025-04-22T14:20:19.516+03:00,0.02197104130929222,0
2025-04-28T22:25:26.429+03:00,1745868324.265106,40.98553583423499,29.1374642380764,128.2676,-1,-1,-1,-1,30.00575485195334,24.22467901491021,-9999,462.882723125,-0.7412261962890625,0.45037841796875,-0.48297119140625,462.872646125,-0.9569227635116662,-0.9955826611259604,-0.4640309116276344,0.004026491660624743,0.00918236467987299,0.003507806919515133,0.00327831506729126,0.01202309131622314,0.009345382452011108,XArbitraryZVertical,-0.3932969040982948,-0.3194897654813607,-0.2962344938518946,0.8096226670375302,-0.7503485083580017,0.4475564062595367,-0.4864876568317413,0,0,0,-1,-1,458.117546125,unknown,2,2025-04-28T22:25:21.646+03:00,null,0,0,0,0,0,0,0,null,767561124.3248035,0,0.41,100.7959,1,0.15,2025-04-27T20:36:35.266+03:00,71,1.183333333333333,2025-04-22T14:20:19.516+03:00,0.02197104130929222,0
2025-04-28T22:25:26.430+03:00,1745868324.265106,40.98553583423499,29.1374642380764,128.2676,-1,-1,-1,-1,30.00575485195334,24.22467901491021,-9999,462.892800125,-0.743377685546875,0.4373321533203125,-0.486358642578125,462.882723125,-0.9568990404689246,-0.9955029815648714,-0.4640727848266901,-0.009319141507148743,0.002693306654691696,0.006512118969112635,-0.003245949745178223,-0.0003434717655181885,0.004573166370391846,XArbitraryZVertical,-0.3932961546171747,-0.3194518894553735,-0.2962299729047637,0.8096396132084062,-0.750294029712677,0.4475938379764557,-0.4865372478961945,0,0,0,-1,-1,458.117546125,unknown,2,2025-04-28T22:25:21.646+03:00,null,0,0,0,0,0,0,0,null,767561124.3248035,0,0.41,100.7959,1,0.15,2025-04-27T20:36:35.266+03:00,71,1.183333333333333,2025-04-22T14:20:19.516+03:00,0.02197104130929222,0
2025-04-28T22:25:26.437+03:00,1745868324.265106,40.98553583423499,29.1374642380764,128.2676,-1,-1,-1,-1,30.00575485195334,24.22467901491021,-9999,462.902878125,-0.75830078125,0.4293060302734375,-0.4905548095703125,462.892800125,-0.9569878977163383,-0.9954138235783391,-0.4642638388155471,-0.02437245845794678,0.01815049350261688,0.01553633995354176,0.009975135326385498,0.00236964225769043,0.003433942794799805,XArbitraryZVertical,-0.3933647703540584,-0.3193514152753358,-0.296235206621465,0.8096441219934278,-0.7501789927482605,0.4477646946907043,-0.48655766248703,0,0,0,-1,-1,458.117546125,unknown,2,2025-04-28T22:25:21.646+03:00,null,0,0,0,0,0,0,0,null,767561124.3248035,0,0.41,100.7959,1,0.15,2025-04-27T20:36:35.266+03:00,71,1.183333333333333,2025-04-22T14:20:19.516+03:00,0.02197104130929222,0
2025-04-28T22:25:26.446+03:00,1745868324.265106,40.98553583423499,29.1374642380764,128.2676,-1,-1,-1,-1,30.00575485195334,24.22467901491021,-9999,462.9129551250001,-0.7538909912109375,0.4388427734375,-0.484954833984375,462.902878125,-0.9571150351311147,-0.9952599300778721,-0.4645433679042287,-0.02863404899835587,0.01902374252676964,0.01766127720475197,0.005660057067871094,-0.01271185278892517,-0.0007149875164031982,XArbitraryZVertical,-0.3934613544303398,-0.3191954248291143,-0.2962462756484301,0.8096545080467316,-0.749998927116394,0.4480146169662476,-0.4866048991680145,0,0,0,-1,-1,458.117546125,unknown,2,2025-04-28T22:25:21.646+03:00,null,0,0,0,0,0,0,0,null,767561124.3248035,0,0.41,100.7959,1,0.15,2025-04-27T20:36:35.266+03:00,71,1.183333333333333,2025-04-22T14:20:19.516+03:00,0.02197104130929222,0
2025-04-28T22:25:26.456+03:00,1745868324.265106,40.98553583423499,29.1374642380764,128.2676,-1,-1,-1,-1,30.00575485195334,24.22467901491021,-9999,462.923032125,-0.744781494140625,0.4494781494140625,-0.478729248046875,462.9129551250001,-0.9572407425805231,-0.9951682194954371,-0.4648020770651276,-0.023316515609622,0.01273495517671108,0.02199450694024563,-0.008611440658569336,-0.01805484294891357,-0.003837376832962036,XArbitraryZVertical,-0.393559463066575,-0.3190700056398578,-0.2962498240309725,0.80965497050831,-0.7498570680618286,0.4482458829879761,-0.4866105616092682,0,0,0,-1,-1,458.117546125,unknown,2,2025-04-28T22:25:21.646+03:00,null,0,0,0,0,0,0,0,null,767561124.3248035,0,0.41,100.7959,1,0.15,2025-04-27T20:36:35.266+03:00,71,1.183333333333333,2025-04-22T14:20:19.516+03:00,0.02197104130929222,0
2025-04-28T22:25:26.466+03:00,1745868324.265106,40.98553583423499,29.1374642380764,128.2676,-1,-1,-1,-1,30.00575485195334,24.22467901491021,-9999,462.933109125,-0.7503814697265625,0.4509124755859375,-0.4792633056640625,462.923032125,-0.9573255813559209,-0.995067194008327,-0.4651019761332124,-0.02235191874206066,0.01390275172889233,0.02128024585545063,-0.003112435340881348,-0.007946878671646118,0.001948237419128418,XArbitraryZVertical,-0.3936642535082802,-0.3189387180794714,-0.296228252297467,0.8096636410255871,-0.7496951222419739,0.4485139548778534,-0.4866130948066711,0,0,0,-1,-1,458.117546125,unknown,2,2025-04-28T22:25:21.646+03:00,null,0,0,0,0,0,0,0,null,767561124.3248035,0,0.41,100.7959,1,0.15,2025-04-27T20:36:35.266+03:00,71,1.183333333333333,2025-04-22T14:20:19.516+03:00,0.02197104130929222,0
2025-04-28T22:25:26.476+03:00,1745868324.265106,40.98553583423499,29.1374642380764,128.2676,-1,-1,-1,-1,30.00575485195334,24.22467901491021,-9999,462.943186125,-0.749237060546875,0.4525604248046875,-0.4813079833984375,462.933109125,-0.9574074061456083,-0.9950142972293635,-0.4654272636036796,-0.02157041430473328,0.005373045802116394,0.01994021050632,0.004262030124664307,0.001100718975067139,0.008042484521865845,XArbitraryZVertical,-0.3937846568911588,-0.3188212552685193,-0.2961895762064797,0.8096655262395158,-0.749547004699707,0.448804646730423,-0.4865733087062836,0,0,0,-1,-1,458.117546125,unknown,2,2025-04-28T22:25:21.646+03:00,null,0,0,0,0,0,0,0,null,767561124.3248035,0,0.41,100.7959,1,0.15,2025-04-27T20:36:35.266+03:00,71,1.183333333333333,2025-04-22T14:20:19.516+03:00,0.02197104130929222,0
2025-04-28T22:25:26.486+03:00,1745868324.265106,40.98553583423499,29.1374642380764,128.2676,-1,-1,-1,-1,30.00575485195334,24.22467901491021,-9999,462.953263125,-0.7457427978515625,0.453094482421875,-0.482666015625,462.943186125,-0.9575106229534011,-0.9950215929322744,-0.4657109375406276,-0.01917277090251446,0.002414806745946407,0.01446075644344091,-0.00124281644821167,0.001320362091064453,0.007204711437225342,XArbitraryZVertical,-0.3939025905106324,-0.3187341712776446,-0.2961582369450961,0.8096540301838069,-0.7494438290596008,0.4490581452846527,-0.4864985644817352,0,0,0,-1,-1,458.117546125,unknown,2,2025-04-28T22:25:21.646+03:00,null,0,0,0,0,0,0,0,null,767561124.3248035,0,0.41,100.7959,1,0.15,2025-04-27T20:36:35.266+03:00,71,1.183333333333333,2025-04-22T14:20:19.516+03:00,0.02197104130929222,0
2025-04-28T22:25:26.496+03:00,1745868324.265106,40.98553583423499,29.1374642380764,128.2676,-1,-1,-1,-1,30.00575485195334,24.22467901491021,-9999,462.963340125,-0.748260498046875,0.4503326416015625,-0.4804840087890625,462.953263125,-0.9575874553165595,-0.9950397915014928,-0.4659360737475295,-0.01506044995039701,0.002466871403157711,0.01459557842463255,0.0007717013359069824,0.003621608018875122,0.005106627941131592,XArbitraryZVertical,-0.3939972560015952,-0.3186710533982532,-0.2961288389226793,0.8096435395528936,-0.7493678331375122,0.4492592811584473,-0.4864298403263092,0,0,0,-1,-1,458.117546125,unknown,2,2025-04-28T22:25:21.646+03:00,null,0,0,0,0,0,0,0,null,767561124.3248035,0,0.41,100.7959,1,0.15,2025-04-27T20:36:35.266+03:00,71,1.183333333333333,2025-04-22T14:20:19.516+03:00,0.02197104130929222,0
2025-04-28T22:25:26.506+03:00,1745868324.265106,40.98553583423499,29.1374642380764,128.2676,-1,-1,-1,-1,30.00575485195334,24.22467901491021,-9999,462.973418125,-0.7483978271484375,0.4507293701171875,-0.4753570556640625,462.963340125,-0.9575974561773543,-0.9950599639340979,-0.4660757307034809,-0.002681811340153217,-0.004651491530239582,0.01079311687499285,0.003353297710418701,0.002703398466110229,0.003897666931152344,XArbitraryZVertical,-0.3940512932568774,-0.318642909495076,-0.2960936027271022,0.8096411788716594,-0.7493249773979187,0.4493840634822845,-0.48638054728508,0,0,0,-1,-1,458.117546125,unknown,2,2025-04-28T22:25:21.646+03:00,null,0,0,0,0,0,0,0,null,767561124.3248035,0,0.41,100.7959,1,0.15,2025-04-27T20:36:35.266+03:00,71,1.183333333333333,2025-04-22T14:20:19.516+03:00,0.02197104130929222,0
2025-04-28T22:25:26.516+03:00,1745868324.265106,40.98553583423499,29.1374642380764,128.2676,-1,-1,-1,-1,30.00575485195334,24.22467901491021,-9999,462.983495125,-0.7497711181640625,0.4492034912109375,-0.475555419921875,462.973418125,-0.9575650355588408,-0.9950997921371404,-0.4661569494021058,0.00174442888237536,-0.005545448511838913,0.006355392280966043,0.001221120357513428,0.0003725290298461914,0.00610622763633728,XArbitraryZVertical,-0.3940808080571704,-0.3186454423615328,-0.2960520867430065,0.8096409298099559,-0.7493136525154114,0.4494566023349762,-0.4863308072090149,0,0,0,-1,-1,458.117546125,unknown,2,2025-04-28T22:25:21.646+03:00,null,0,0,0,0,0,0,0,null,767561124.3248035,0,0.41,100.7959,1,0.15,2025-04-27T20:36:35.266+03:00,71,1.183333333333333,2025-04-22T14:20:19.516+03:00,0.02197104130929222,0
2025-04-28T22:25:26.526+03:00,1745868324.265106,40.98553583423499,29.1374642380764,128.2676,-1,-1,-1,-1,30.00575485195334,24.22467901491021,-9999,462.993572125,-0.7512969970703125,0.44854736328125,-0.48089599609375,462.983495125,-0.9574548131299311,-0.9951048691120732,-0.4661665505826371,0.009036962874233723,-0.007635762915015221,0.005962575785815716,0.00105208158493042,0.001142174005508423,0.0111355185508728,XArbitraryZVertical,-0.3940673644732672,-0.3186668652574333,-0.2960040492077055,0.8096566813435688,-0.7493125796318054,0.4494651854038239,-0.486324667930603,0,0,0,-1,-1,458.117546125,unknown,2,2025-04-28T22:25:21.646+03:00,null,0,0,0,0,0,0,0,null,767561124.3248035,0,0.41,100.7959,1,0.15,2025-04-27T20:36:35.266+03:00,71,1.183333333333333,2025-04-22T14:20:19.516+03:00,0.02197104130929222,0
2025-04-28T22:25:26.536+03:00,1745868324.265106,40.98553583423499,29.1374642380764,128.2676,-1,-1,-1,-1,30.00575485195334,24.22467901491021,-9999,463.003649125,-0.7506103515625,0.4423828125,-0.486175537109375,462.993572125,-0.9573504928623733,-0.9951553661542215,-0.466134042948072,0.003304042620584369,-0.0100578423589468,0.00506419176235795,-0.0007268190383911133,0.0003929734230041504,0.009518682956695557,XArbitraryZVertical,-0.3940467011270489,-0.3187158549710092,-0.2959600883822917,0.8096635351989121,-0.7493494153022766,0.4494361579418182,-0.4862948060035706,0,0,0,-1,-1,458.117546125,unknown,2,2025-04-28T22:25:21.646+03:00,null,0,0,0,0,0,0,0,null,767561124.3248035,0,0.41,100.7959,1,0.15,2025-04-27T20:36:35.266+03:00,71,1.183333333333333,2025-04-22T14:20:19.516+03:00,0.02197104130929222,0
2025-04-28T22:25:26.547+03:00,1745868324.265106,40.98553583423499,29.1374642380764,128.2676,-1,-1,-1,-1,30.00575485195334,24.22467901491021,-9999,463.013726125,-0.75,0.4391937255859375,-0.48541259765625,463.003649125,-0.9573136191058773,-0.9952858219058804,-0.4661413220921758,-0.001140506821684539,-0.01589602418243885,0.003820229321718216,-0.001718997955322266,-0.001414060592651367,0.00436854362487793,XArbitraryZVertical,-0.3940627028023062,-0.3187741435735936,-0.2959176177303779,0.8096483291174356,-0.749410092830658,0.4494426548480988,-0.4861952662467957,0,0,0,-1,-1,458.117546125,unknown,2,2025-04-28T22:25:21.646+03:00,null,0,0,0,0,0,0,0,null,767561124.3248035,0,0.41,100.7959,1,0.15,2025-04-27T20:36:35.266+03:00,71,1.183333333333333,2025-04-22T14:20:19.516+03:00,0.02197104130929222,0
2025-04-28T22:25:26.556+03:00,1745868324.265106,40.98553583423499,29.1374642380764,128.2676,-1,-1,-1,-1,30.00575485195334,24.22467901491021,-9999,463.023803125,-0.7489166259765625,0.4385986328125,-0.4795074462890625,463.013726125,-0.9573522680463159,-0.9955155173406884,-0.466187043441132,-0.004754549358040094,-0.02441268041729927,0.00100373663008213,-0.001823008060455322,-0.007482081651687622,-0.0006213188171386719,XArbitraryZVertical,-0.3941190319115577,-0.3188482727938811,-0.2958764410549386,0.809606772324308,-0.7495045065879822,0.4494834840297699,-0.4860119223594666,0,0,0,-1,-1,458.117546125,unknown,2,2025-04-28T22:25:21.646+03:00,null,0,0,0,0,0,0,0,null,767561124.3248035,0,0.41,100.7959,1,0.15,2025-04-27T20:36:35.266+03:00,71,1.183333333333333,2025-04-22T14:20:19.516+03:00,0.02197104130929222,0
2025-04-28T22:25:26.566+03:00,1745868324.265106,40.98553583423499,29.1374642380764,128.2676,-1,-1,-1,-1,30.00575485195334,24.22467901491021,-9999,463.0338801250001,-0.749359130859375,0.4448394775390625,-0.47479248046875,463.023803125,-0.9573881347853961,-0.995793379432556,-0.4662121434408502,-0.0006905658519826829,-0.0247354544699192,-0.0005443589761853218,-0.0002631545066833496,-0.01084622740745544,0.001407265663146973,XArbitraryZVertical,-0.3941747772222607,-0.3189474981396713,-0.2958298388142988,0.8095574888425009,-0.7496299743652344,0.4495059251785278,-0.4857974648475647,0,0,0,-1,-1,458.117546125,unknown,2,2025-04-28T22:25:21.646+03:00,null,0,0,0,0,0,0,0,null,767561124.3248035,0,0.41,100.7959,1,0.15,2025-04-27T20:36:35.266+03:00,71,1.183333333333333,2025-04-22T14:20:19.516+03:00,0.02197104130929222,0
2025-04-28T22:25:26.577+03:00,1745868324.265106,40.98553583423499,29.1374642380764,128.2676,-1,-1,-1,-1,30.00575485195334,24.22467901491021,-9999,463.043958125,-0.7540130615234375,0.4500274658203125,-0.4742889404296875,463.0338801250001,-0.9574074893026148,-0.9960376356445657,-0.466217111920301,0.0008792345179244876,-0.02122447639703751,-0.001396903302520514,0.0007386207580566406,-0.01039290428161621,0.006944954395294189,XArbitraryZVertical,-0.3942157484126427,-0.3190413294638244,-0.2957882739869185,0.8095157548071843,-0.7497467398643494,0.4495103359222412,-0.4856131374835968,0,0,0,-1,-1,458.117546125,unknown,2,2025-04-28T22:25:21.646+03:00,null,0,0,0,0,0,0,0,null,767561124.3248035,0,0.41,100.7959,1,0.15,2025-04-27T20:36:35.266+03:00,71,1.183333333333333,2025-04-22T14:20:19.516+03:00,0.02197104130929222,0
2025-04-28T22:25:26.587+03:00,1745868324.265106,40.98553583423499,29.1374642380764,128.2676,-1,-1,-1,-1,30.00575485195334,24.22467901491021,-9999,463.054035125,-0.757965087890625,0.45330810546875,-0.474365234375,463.043958125,-0.9573624697664943,-0.996184445898902,-0.4662009582942052,0.008206921629607677,-0.01203204318881035,-0.001478129765018821,0.000220954418182373,-0.004213899374008179,0.01071462035179138,XArbitraryZVertical,-0.3942245646818978,-0.3191135947744504,-0.2957451998081059,0.8094987034118669,-0.7498241066932678,0.4494959115982056,-0.4855070114135742,0,0,0,-1,-1,458.117546125,unknown,2,2025-04-28T22:25:21.646+03:00,null,0,0,0,0,0,0,0,null,767561124.3248035,0,0.41,100.7959,1,0.15,2025-04-27T20:36:35.266+03:00,71,1.183333333333333,2025-04-22T14:20:19.516+03:00,0.02197104130929222,0
2025-04-28T22:25:26.597+03:00,1745868324.265106,40.98553583423499,29.1374642380764,128.2676,-1,-1,-1,-1,30.00575485195334,24.22467901491021,-9999,463.064112125,-0.7588348388671875,0.4535675048828125,-0.4766387939453125,463.054035125,-0.9572360012867499,-0.9962027846292801,-0.4661663480704646,0.01436741277575493,-0.001087449956685305,0.006563851144164801,-0.004151642322540283,0.000455707311630249,0.01209783554077148,XArbitraryZVertical,-0.3941948382282325,-0.3191544552980658,-0.2956991568383711,0.8095139104204788,-0.7498461008071899,0.4494650065898895,-0.4855017364025116,0,0,0,-1,-1,458.117546125,unknown,2,2025-04-28T22:25:21.646+03:00,null,0,0,0,0,0,0,0,null,767561124.3248035,0,0.41,100.7959,1,0.15,2025-04-27T20:36:35.266+03:00,71,1.183333333333333,2025-04-22T14:20:19.516+03:00,0.02197104130929222,0
2025-04-28T22:25:26.607+03:00,1745868324.265106,40.98553583423499,29.1374642380764,128.2676,-1,-1,-1,-1,30.00575485195334,24.22467901491021,-9999,463.074189125,-0.7568817138671875,0.4482574462890625,-0.478912353515625,463.064112125,-0.9570509999242518,-0.9961320107421127,-0.4661370656328405,0.0173895675688982,0.002872670534998178,0.008287982083857059,-0.007928609848022461,0.004327058792114258,0.0110594630241394,XArbitraryZVertical,-0.3941444731143514,-0.3191694711927942,-0.2956456370998058,0.8095520956928993,-0.7498227953910828,0.4494388401508331,-0.4855619668960571,0,0,0,-1,-1,458.117546125,unknown,2,2025-04-28T22:25:21.646+03:00,null,0,0,0,0,0,0,0,null,767561124.3248035,0,0.41,100.7959,1,0.15,2025-04-27T20:36:35.266+03:00,71,1.183333333333333,2025-04-22T14:20:19.516+03:00,0.02197104130929222,0
2025-04-28T22:25:26.617+03:00,1745868324.265106,40.98553583423499,29.1374642380764,128.2676,-1,-1,-1,-1,30.00575485195334,24.22467901491021,-9999,463.0842661250001,-0.753204345703125,0.4426116943359375,-0.4860992431640625,463.074189125,-0.9568589079111294,-0.9960334410411296,-0.4661422240239255,0.01407113671302795,0.002239237539470196,0.008930934593081474,-0.009748399257659912,0.003422200679779053,0.00881272554397583,XArbitraryZVertical,-0.3941010671663124,-0.3191661601209619,-0.2955860025202368,0.8095963258535404,-0.7497730255126953,0.4494434595108032,-0.4856346249580383,0,0,0,-1,-1,458.117546125,unknown,2,2025-04-28T22:25:21.646+03:00,null,0,0,0,0,0,0,0,null,767561124.3248035,0,0.41,100.7959,1,0.15,2025-04-27T20:36:35.266+03:00,71,1.183333333333333,2025-04-22T14:20:19.516+03:00,0.02197104130929222,0
2025-04-28T22:25:26.627+03:00,1745868324.265106,40.98553583423499,29.1374642380764,128.2676,-1,-1,-1,-1,30.00575485195334,24.22467901491021,-9999,463.094343125,-0.7473297119140625,0.4416351318359375,-0.493072509765625,463.0842661250001,-0.9567190387643965,-0.9959783510665738,-0.4662035255378488,0.002145234495401382,-0.002581882756203413,0.01489268708974123,-0.007295846939086914,-0.002705574035644531,0.005649983882904053,XArbitraryZVertical,-0.3940922953192339,-0.3191563608047958,-0.2955247328973636,0.8096268534555928,-0.7497231364250183,0.4494982063770294,-0.4856609702110291,0,0,0,-1,-1,458.117546125,unknown,2,2025-04-28T22:25:21.646+03:00,null,0,0,0,0,0,0,0,null,767561124.3248035,0,0.41,100.7959,1,0.15,2025-04-27T20:36:35.266+03:00,71,1.183333333333333,2025-04-22T14:20:19.516+03:00,0.02197104130929222,0
2025-04-28T22:25:26.638+03:00,1745868324.265106,40.98553583423499,29.1374642380764,128.2676,-1,-1,-1,-1,30.00575485195334,24.22467901491021,-9999,463.104421125,-0.7448272705078125,0.442901611328125,-0.489105224609375,463.094343125,-0.9566638342410541,-0.9960474856026392,-0.4663192145181472,-0.009135182946920395,-0.01288731675595045,0.0127824991941452,-0.003216564655303955,-0.007600158452987671,-0.001723825931549072,XArbitraryZVertical,-0.394134657245687,-0.3191667989135976,-0.2954594913205454,0.809625925635769,-0.7497130632400513,0.4496015608310699,-0.4855808615684509,0,0,0,-1,-1,458.117546125,unknown,2,2025-04-28T22:25:21.646+03:00,null,0,0,0,0,0,0,0,null,767561124.3248035,0,0.41,100.7959,1,0.15,2025-04-27T20:36:35.266+03:00,71,1.183333333333333,2025-04-22T14:20:19.516+03:00,0.02197104130929222,0
2025-04-28T22:25:26.647+03:00,1745868324.265106,40.98553583423499,29.1374642380764,128.2676,-1,-1,-1,-1,30.00575485195334,24.22467901491021,-9999,463.114498125,-0.7474517822265625,0.444915771484375,-0.47979736328125,463.104421125,-0.9566677723261536,-0.996210370461965,-0.4664515498129078,-0.008243822492659092,-0.01881125196814537,0.01340807508677244,0.002900838851928711,-0.007611572742462158,-0.007813930511474609,XArbitraryZVertical,-0.3942061964208015,-0.3191994409519201,-0.2953954959468848,0.8096015679498298,-0.7497422099113464,0.4497197568416595,-0.4854263961315155,0,0,0,-1,-1,458.117546125,unknown,2,2025-04-28T22:25:21.646+03:00,null,0,0,0,0,0,0,0,null,767561124.3248035,0,0.41,100.7959,1,0.15,2025-04-27T20:36:35.266+03:00,71,1.183333333333333,2025-04-22T14:20:19.516+03:00,0.02197104130929222,0
2025-04-28T22:25:26.657+03:00,1745868324.265106,40.98553583423499,29.1374642380764,128.2676,-1,-1,-1,-1,30.00575485195334,24.22467901491021,-9999,463.124575125,-0.7535247802734375,0.44915771484375,-0.4728851318359375,463.114498125,-0.956686259188598,-0.9963980990370889,-0.4665732701968456,-0.004619460552930832,-0.01383640244603157,0.01184030529111624,0.005372107028961182,-0.006224900484085083,-0.002231895923614502,XArbitraryZVertical,-0.3942799508655386,-0.319241879061003,-0.2953351706783341,0.8095709368579461,-0.7497873902320862,0.4498284757137299,-0.4852558970451355,0,0,0,-1,-1,458.117546125,unknown,2,2025-04-28T22:25:21.646+03:00,null,0,0,0,0,0,0,0,null,767561124.3248035,0,0.41,100.7959,1,0.15,2025-04-27T20:36:35.266+03:00,71,1.183333333333333,2025-04-22T14:20:19.516+03:00,0.02197104130929222,0
2025-04-28T22:25:26.667+03:00,1745868324.265106,40.98553583423499,29.1374642380764,128.2676,-1,-1,-1,-1,30.00575485195334,24.22467901491021,-9999,463.134652125,-0.756988525390625,0.456146240234375,-0.472259521484375,463.124575125,-0.9566216050286417,-0.9964481843114459,-0.4666564554171397,0.004431026056408882,0.0005928715690970421,0.00971696712076664,0.0008637309074401855,-0.004697024822235107,0.006575644016265869,XArbitraryZVertical,-0.3943064367358049,-0.3192544676613712,-0.2952780812457104,0.809573969559473,-0.7497802972793579,0.4499027729034424,-0.485198050737381,0,0,0,-1,-1,458.117546125,unknown,2,2025-04-28T22:25:21.646+03:00,null,0,0,0,0,0,0,0,null,767561124.3248035,0,0.41,100.7959,1,0.15,2025-04-27T20:36:35.266+03:00,71,1.183333333333333,2025-04-22T14:20:19.516+03:00,0.02197104130929222,0
2025-04-28T22:25:26.678+03:00,1745868324.265106,40.98553583423499,29.1374642380764,128.2676,-1,-1,-1,-1,30.00575485195334,24.22467901491021,-9999,463.144729125,-0.7554779052734375,0.4572296142578125,-0.47198486328125,463.134652125,-0.9564980310810433,-0.9963710022427434,-0.4666867787112437,0.01357012894004583,0.007803313434123993,0.01026820857077837,-0.004663169384002686,0.0001891851425170898,0.01233285665512085,XArbitraryZVertical,-0.3942860830915473,-0.3192401256669765,-0.2952355891048087,0.8096049575432035,-0.7497313618659973,0.4499298334121704,-0.4852484464645386,0,0,0,-1,-1,458.117546125,unknown,2,2025-04-28T22:25:21.646+03:00,null,0,0,0,0,0,0,0,null,767561124.3248035,0,0.41,100.7959,1,0.15,2025-04-27T20:36:35.266+03:00,71,1.183333333333333,2025-04-22T14:20:19.516+03:00,0.02197104130929222,0
2025-04-28T22:25:26.688+03:00,1745868324.265106,40.98553583423499,29.1374642380764,128.2676,-1,-1,-1,-1,30.00575485195334,24.22467901491021,-9999,463.1548061250001,-0.7516326904296875,0.4486541748046875,-0.4732208251953125,463.144729125,-0.9563065084608582,-0.996218530101752,-0.4667079274126368,0.01784849725663662,0.008684286847710609,0.01157448906451464,-0.007064461708068848,0.007479280233383179,0.01320487260818481,XArbitraryZVertical,-0.3942405160121892,-0.3192109547222857,-0.2951827548492225,0.8096578625057896,-0.7496493458747864,0.4499487280845642,-0.4853575527667999,0,0,0,-1,-1,458.117546125,unknown,2,2025-04-28T22:25:21.646+03:00,null,0,0,0,0,0,0,0,null,767561124.3248035,0,0.41,100.7959,1,0.15,2025-04-27T20:36:35.266+03:00,71,1.183333333333333,2025-04-22T14:20:19.516+03:00,0.02197104130929222,0
2025-04-28T22:25:26.700+03:00,1745868324.265106,40.98553583423499,29.1374642380764,128.2676,-1,-1,-1,-1,30.00575485195334,24.22467901491021,-9999,463.164883125,-0.747955322265625,0.445068359375,-0.4828033447265625,463.1548061250001,-0.9561271181999806,-0.996056744235856,-0.4667162113338291,0.01188681181520224,0.01036427542567253,0.007171917241066694,-0.005360841751098633,0.00684627890586853,0.01369035243988037,XArbitraryZVertical,-0.3941909134594011,-0.3191787900659459,-0.2951399326430453,0.8097103692803114,-0.7495676875114441,0.4499561190605164,-0.4854768514633179,0,0,0,-1,-1,458.117546125,unknown,2,2025-04-28T22:25:21.646+03:00,null,0,0,0,0,0,0,0,null,767561124.3248035,0,0.41,100.7959,1,0.15,2025-04-27T20:36:35.266+03:00,71,1.183333333333333,2025-04-22T14:20:19.516+03:00,0.02197104130929222,0
2025-04-28T22:25:26.708+03:00,1745868324.265106,40.98553583423499,29.1374642380764,128.2676,-1,-1,-1,-1,30.00575485195334,24.22467901491021,-9999,463.174961125,-0.7436065673828125,0.445953369140625,-0.4870147705078125,463.164883125,-0.9560260979347079,-0.995983879229862,-0.4667208064754991,0.006053689867258072,-0.0004774527624249458,0.005207569804042578,-0.002071559429168701,-0.001702725887298584,0.01136350631713867,XArbitraryZVertical,-0.3941656570800275,-0.319168074042993,-0.2951122347501547,0.8097370057653468,-0.7495306134223938,0.4499602317810059,-0.4855303466320038,0,0,0,-1,-1,458.117546125,unknown,2,2025-04-28T22:25:21.646+03:00,null,0,0,0,0,0,0,0,null,767561124.3248035,0,0.41,100.7959,1,0.15,2025-04-27T20:36:35.266+03:00,71,1.183333333333333,2025-04-22T14:20:19.516+03:00,0.02197104130929222,0
2025-04-28T22:25:26.718+03:00,1745868324.265106,40.98553583423499,29.1374642380764,128.2676,-1,-1,-1,-1,30.00575485195334,24.22467901491021,-9999,463.185038125,-0.73980712890625,0.446319580078125,-0.485443115234375,463.174961125,-0.9559923201258945,-0.9960432179464453,-0.4667254307277414,-0.001287713181227446,-0.01293585263192654,0.002905866131186485,0.002533137798309326,-0.005216419696807861,0.001765906810760498,XArbitraryZVertical,-0.3941706643783736,-0.3191976179037976,-0.2950856925501896,0.8097325832941453,-0.7495576739311218,0.4499643743038177,-0.4854847490787506,0,0,0,-1,-1,458.117546125,unknown,2,2025-04-28T22:25:21.646+03:00,null,0,0,0,0,0,0,0,null,767561124.3248035,0,0.41,100.7959,1,0.15,2025-04-27T20:36:35.266+03:00,71,1.183333333333333,2025-04-22T14:20:19.516+03:00,0.02197104130929222,0
2025-04-28T22:25:26.728+03:00,1745868324.265106,40.98553583423499,29.1374642380764,128.2676,-1,-1,-1,-1,30.00575485195334,24.22467901491021,-9999,463.195115125,-0.74334716796875,0.45166015625,-0.4829559326171875,463.185038125,-0.9559567986438444,-0.9961552843597513,-0.4667063847372634,0.004038874991238117,-0.01533749140799046,0.0001154058845713735,0.00662308931350708,-0.0034903883934021,-0.001227855682373047,XArbitraryZVertical,-0.394174769833939,-0.3192546731863419,-0.2950540494689565,0.8097196579523374,-0.7496193051338196,0.4499473571777344,-0.4854054152965546,0,0,0,-1,-1,458.117546125,unknown,2,2025-04-28T22:25:21.646+03:00,null,0,0,0,0,0,0,0,null,767561124.3248035,0,0.41,100.7959,1,0.15,2025-04-27T20:36:35.266+03:00,71,1.183333333333333,2025-04-22T14:20:19.516+03:00,0.02197104130929222,0
2025-04-28T22:25:26.738+03:00,1745868324.265106,40.98553583423499,29.1374642380764,128.2676,-1,-1,-1,-1,30.00575485195334,24.22467901491021,-9999,463.2051921250001,-0.7481536865234375,0.4593658447265625,-0.47833251953125,463.195115125,-0.9558737845749505,-0.9962328416246211,-0.4666568582111433,0.01200578827410936,-0.01058714557439089,-8.895841892808676e-05,0.009487032890319824,-0.003491878509521484,-0.0001142621040344238,XArbitraryZVertical,-0.3941554322825271,-0.3193145950715068,-0.295017686345156,0.8097186727582062,-0.7496756315231323,0.449903130531311,-0.4853593707084656,0,0,0,-1,-1,458.117546125,unknown,2,2025-04-28T22:25:21.646+03:00,null,0,0,0,0,0,0,0,null,767561124.3248035,0,0.41,100.7959,1,0.15,2025-04-27T20:36:35.266+03:00,71,1.183333333333333,2025-04-22T14:20:19.516+03:00,0.02197104130929222,0
2025-04-28T22:25:26.748+03:00,1745868324.265106,40.98553583423499,29.1374642380764,128.2676,-1,-1,-1,-1,30.00575485195334,24.22467901491021,-9999,463.215269125,-0.7517242431640625,0.4565887451171875,-0.478912353515625,463.2051921250001,-0.9557286821607492,-0.9962517115225805,-0.4665756916770749,0.01834411174058914,-0.003875712864100933,0.00240216264501214,0.005590081214904785,0.003263890743255615,0.002958476543426514,XArbitraryZVertical,-0.3941063067625614,-0.319370763289462,-0.2949757635465898,0.8097357108366591,-0.7497154474258423,0.4498306214809418,-0.4853650629520416,0,0,0,-1,-1,458.117546125,unknown,2,2025-04-28T22:25:21.646+03:00,null,0,0,0,0,0,0,0,null,767561124.3248035,0,0.41,100.7959,1,0.15,2025-04-27T20:36:35.266+03:00,71,1.183333333333333,2025-04-22T14:20:19.516+03:00,0.02197104130929222,0
2025-04-28T22:25:26.758+03:00,1745868324.265106,40.98553583423499,29.1374642380764,128.2676,-1,-1,-1,-1,30.00575485195334,24.22467901491021,-9999,463.225346125,-0.7519683837890625,0.449615478515625,-0.480621337890625,463.215269125,-0.9555581437034629,-0.9962155610243539,-0.4664965832971829,0.01852660439908504,0.002976134652271867,0.002575700636953115,0.000811159610748291,0.009956866502761841,0.007384181022644043,XArbitraryZVertical,-0.3940457246566739,-0.3194091559816827,-0.294933861892327,0.8097653255126321,-0.7497277855873108,0.4497599899768829,-0.485411524772644,0,0,0,-1,-1,458.117546125,unknown,2,2025-04-28T22:25:21.646+03:00,null,0,0,0,0,0,0,0,null,767561124.3248035,0,0.41,100.7959,1,0.15,2025-04-27T20:36:35.266+03:00,71,1.183333333333333,2025-04-22T14:20:19.516+03:00,0.02197104130929222,0
2025-04-28T22:25:26.789+03:00,1745868324.265106,40.98553583423499,29.1374642380764,128.2676,-1,-1,-1,-1,30.00575485195334,24.22467901491021,-9999,463.235424125,-0.75006103515625,0.4449615478515625,-0.481964111328125,463.225346125,-0.9553551636160761,-0.9961205341039074,-0.4664535319766392,0.01671192795038223,0.003427540417760611,0.006549935787916183,-0.00162959098815918,0.00599747896194458,0.005665421485900879,XArbitraryZVertical,-0.3939840524834085,-0.3194212374230487,-0.2948812911290043,0.8098097058750734,-0.7496978640556335,0.4497215151786804,-0.4854932725429535,0,0,0,-1,-1,458.117546125,unknown,2,2025-04-28T22:25:21.646+03:00,null,0,0,0,0,0,0,0,null,767561124.3248035,0,0.41,100.7959,1,0.15,2025-04-27T20:36:35.266+03:00,71,1.183333333333333,2025-04-22T14:20:19.516+03:00,0.02197104130929222,0
2025-04-28T22:25:26.790+03:00,1745868324.265106,40.98553583423499,29.1374642380764,128.2676,-1,-1,-1,-1,30.00575485195334,24.22467901491021,-9999,463.245501125,-0.7470245361328125,0.4441680908203125,-0.4860687255859375,463.235424125,-0.9551941235825505,-0.9960521572231273,-0.4664493259575375,0.008929370902478695,0.002302887383848429,0.006715051829814911,-0.002729356288909912,-0.0007430315017700195,0.004863202571868896,XArbitraryZVertical,-0.393946760203005,-0.3194263059097607,-0.2948306179032,0.8098443033080832,-0.7496662735939026,0.4497177600860596,-0.4855455756187439,0,0,0,-1,-1,458.117546125,unknown,2,2025-04-28T22:25:21.646+03:00,null,0,0,0,0,0,0,0,null,767561124.3248035,0,0.41,100.7959,1,0.15,2025-04-27T20:36:35.266+03:00,71,1.183333333333333,2025-04-22T14:20:19.516+03:00,0.02197104130929222,0
2025-04-28T22:25:26.802+03:00,1745868324.265106,40.98553583423499,29.1374642380764,128.2676,-1,-1,-1,-1,30.00575485195334,24.22467901491021,-9999,463.2555781250001,-0.747344970703125,0.4456787109375,-0.4858245849609375,463.245501125,-0.9550905782939652,-0.9960314512912898,-0.466472514156222,0.003892268519848585,-0.003642353694885969,0.007735841441899538,0.0003035664558410645,-0.005448311567306519,0.003301411867141724,XArbitraryZVertical,-0.3939354309638468,-0.3194326103398216,-0.2947868844228833,0.8098631368731908,-0.7496473789215088,0.449738472700119,-0.4855553805828094,0,0,0,-1,-1,458.117546125,unknown,2,2025-04-28T22:25:21.646+03:00,null,0,0,0,0,0,0,0,null,767561124.3248035,0,0.41,100.7959,1,0.15,2025-04-27T20:36:35.266+03:00,71,1.183333333333333,2025-04-22T14:20:19.516+03:00,0.02197104130929222,0
2025-04-28T22:25:26.803+03:00,1745868324.265106,40.98553583423499,29.1374642380764,128.2676,-1,-1,-1,-1,30.00575485195334,24.22467901491021,-9999,463.265655125,-0.748016357421875,0.4489898681640625,-0.4846954345703125,463.2555781250001,-0.9550367927304149,-0.9960388916187999,-0.4665038576848269,0.003110963385552168,-0.003721116110682487,0.00549628958106041,0.002202689647674561,-0.005522072315216064,-0.001228451728820801,XArbitraryZVertical,-0.3939390312370793,-0.31943852646496,-0.2947557106215715,0.8098704157696626,-0.7496391534805298,0.4497664868831635,-0.4855421483516693,0,0,0,-1,-1,458.117546125,unknown,2,2025-04-28T22:25:21.646+03:00,null,0,0,0,0,0,0,0,null,767561124.3248035,0,0.41,100.7959,1,0.15,2025-04-27T20:36:35.266+03:00,71,1.183333333333333,2025-04-22T14:20:19.516+03:00,0.02197104130929222,0
2025-04-28T22:25:26.809+03:00,1745868324.265106,40.98553583423499,29.1374642380764,128.2676,-1,-1,-1,-1,30.00575485195334,24.22467901491021,-9999,463.275732125,-0.750885009765625,0.4546661376953125,-0.4792938232421875,463.265655125,-0.9549322071178008,-0.9960152348190701,-0.4665027577901146,0.0119694359600544,-0.001378865912556648,0.006513351108878851,0.002206921577453613,-0.003720521926879883,0.0001323223114013672,XArbitraryZVertical,-0.3939184535921997,-0.3194498155852405,-0.2947182966302184,0.8098895813666417,-0.7496281266212463,0.4497655034065247,-0.4855601489543915,0,0,0,-1,-1,458.117546125,unknown,2,2025-04-28T22:25:21.646+03:00,null,0,0,0,0,0,0,0,null,767561124.3248035,0,0.41,100.7959,1,0.15,2025-04-27T20:36:35.266+03:00,71,1.183333333333333,2025-04-22T14:20:19.516+03:00,0.02197104130929222,0
2025-04-28T22:25:26.818+03:00,1745868324.265106,40.98553583423499,29.1374642380764,128.2676,-1,-1,-1,-1,30.00575485195334,24.22467901491021,-9999,463.285809125,-0.7537994384765625,0.4535675048828125,-0.477294921875,463.275732125,-0.9547517528722915,-0.9959106539596565,-0.466449825915762,0.01952642202377319,0.006336044985800982,0.00150487688370049,0.001107990741729736,0.000141441822052002,0.001658022403717041,XArbitraryZVertical,-0.3938554462242823,-0.3194560015277474,-0.2946792187232148,0.8099320593123084,-0.7495973706245422,0.4497182071208954,-0.4856514930725098,0,0,0,-1,-1,458.117546125,unknown,2,2025-04-28T22:25:21.646+03:00,null,0,0,0,0,0,0,0,null,767561124.3248035,0,0.41,100.7959,1,0.15,2025-04-27T20:36:35.266+03:00,71,1.183333333333333,2025-04-22T14:20:19.516+03:00,0.02197104130929222,0
2025-04-28T22:25:26.828+03:00,1745868324.265106,40.98553583423499,29.1374642380764,128.2676,-1,-1,-1,-1,30.00575485195334,24.22467901491021,-9999,463.295887125,-0.756134033203125,0.45355224609375,-0.4786529541015625,463.285809125,-0.9545169288325568,-0.9956991481960084,-0.4663752029806061,0.02608578652143478,0.0136693250387907,0.006308154202997684,-0.001911520957946777,0.004877299070358276,0.00648874044418335,XArbitraryZVertical,-0.3937603203604624,-0.3194348992167043,-0.2946446517260419,0.8099992551158082,-0.7495228052139282,0.4496515691280365,-0.485828310251236,0,0,0,-1,-1,458.117546125,unknown,2,2025-04-28T22:25:21.646+03:00,null,0,0,0,0,0,0,0,null,767561124.3248035,0,0.41,100.7959,1,0.15,2025-04-27T20:36:35.266+03:00,71,1.183333333333333,2025-04-22T14:20:19.516+03:00,0.02197104130929222,0
2025-04-28T22:25:26.839+03:00,1745868324.265106,40.98553583423499,29.1374642380764,128.2676,-1,-1,-1,-1,30.00575485195334,24.22467901491021,-9999,463.305964125,-0.7558441162109375,0.4478912353515625,-0.48309326171875,463.295887125,-0.954244139237407,-0.9954073457905545,-0.4663063815693675,0.02367882244288921,0.01949126273393631,0.004193071275949478,-0.004514575004577637,0.004679352045059204,0.008799463510513306,XArbitraryZVertical,-0.3936494407210472,-0.3193872768326557,-0.2946089965736505,0.8100847541032168,-0.7494068741798401,0.4495900869369507,-0.4860637784004211,0,0,0,-1,-1,458.117546125,unknown,2,2025-04-28T22:25:21.646+03:00,null,0,0,0,0,0,0,0,null,767561124.3248035,0,0.41,100.7959,1,0.15,2025-04-27T20:36:35.266+03:00,71,1.183333333333333,2025-04-22T14:20:19.516+03:00,0.02197104130929222,0
2025-04-28T22:25:26.849+03:00,1745868324.265106,40.98553583423499,29.1374642380764,128.2676,-1,-1,-1,-1,30.00575485195334,24.22467901491021,-9999,463.316041125,-0.75311279296875,0.4411773681640625,-0.4852752685546875,463.305964125,-0.9540091725590728,-0.9951224945980641,-0.4662487135658537,0.01952828466892242,0.01700200513005257,0.006438116542994976,-0.006874382495880127,0.003326982259750366,0.007470607757568359,XArbitraryZVertical,-0.3935495283498878,-0.3193322785909958,-0.2945844618047876,0.8101638898989618,-0.7492901086807251,0.4495385885238647,-0.4862913191318512,0,0,0,-1,-1,458.117546125,unknown,2,2025-04-28T22:25:21.646+03:00,null,0,0,0,0,0,0,0,null,767561124.3248035,0,0.41,100.7959,1,0.15,2025-04-27T20:36:35.266+03:00,71,1.183333333333333,2025-04-22T14:20:19.516+03:00,0.02197104130929222,0
2025-04-28T22:25:26.859+03:00,1745868324.265106,40.98553583423499,29.1374642380764,128.2676,-1,-1,-1,-1,30.00575485195334,24.22467901491021,-9999,463.3261181250001,-0.748626708984375,0.441925048828125,-0.4854278564453125,463.316041125,-0.9538364025053444,-0.9948961545720013,-0.4662020976134811,0.01111402921378613,0.01430528797209263,0.006679665297269821,-0.005791962146759033,-0.002307593822479248,0.002906113862991333,XArbitraryZVertical,-0.3934720926765377,-0.3192860108596732,-0.2945707902730784,0.8102246829128351,-0.7491976022720337,0.4494969248771667,-0.4864723086357117,0,0,0,-1,-1,458.117546125,unknown,2,2025-04-28T22:25:21.646+03:00,null,0,0,0,0,0,0,0,null,767561124.3248035,0,0.41,100.7959,1,0.15,2025-04-27T20:36:35.266+03:00,71,1.183333333333333,2025-04-22T14:20:19.516+03:00,0.02197104130929222,0
2025-04-28T22:25:26.869+03:00,1745868324.265106,40.98553583423499,29.1374642380764,128.2676,-1,-1,-1,-1,30.00575485195334,24.22467901491021,-9999,463.336195125,-0.7436370849609375,0.4451751708984375,-0.489044189453125,463.3261181250001,-0.9537007410607118,-0.9947451471817382,-0.4661755386400457,0.01138966623693705,0.005634568631649017,0.001633507665246725,-0.004054844379425049,-0.008829891681671143,0.001850813627243042,XArbitraryZVertical,-0.3934187817654153,-0.3192580335857175,-0.2945522510688903,0.8102683293660925,-0.7491341233253479,0.4494732022285461,-0.4865919351577759,0,0,0,-1,-1,458.117546125,unknown,2,2025-04-28T22:25:21.646+03:00,null,0,0,0,0,0,0,0,null,767561124.3248035,0,0.41,100.7959,1,0.15,2025-04-27T20:36:35.266+03:00,71,1.183333333333333,2025-04-22T14:20:19.516+03:00,0.02197104130929222,0
2025-04-28T22:25:26.879+03:00,1745868324.265106,40.98553583423499,29.1374642380764,128.2676,-1,-1,-1,-1,30.00575485195334,24.22467901491021,-9999,463.346272125,-0.746337890625,0.4465484619140625,-0.4878692626953125,463.336195125,-0.9535876306510093,-0.9946611811435672,-0.466128294382476,0.01134465914219618,0.001252869609743357,-0.000747092068195343,0.00115591287612915,-0.007078647613525391,0.0008419156074523926,XArbitraryZVertical,-0.3933715440253843,-0.3192578673072587,-0.2945349060861338,0.8102977849603207,-0.7491111755371094,0.4494310021400452,-0.4866664707660675,0,0,0,-1,-1,458.117546125,unknown,2,2025-04-28T22:25:21.646+03:00,null,0,0,0,0,0,0,0,null,767561124.3248035,0,0.41,100.7959,1,0.15,2025-04-27T20:36:35.266+03:00,71,1.183333333333333,2025-04-22T14:20:19.516+03:00,0.02197104130929222,0
2025-04-28T22:25:26.889+03:00,1745868324.265106,40.98553583423499,29.1374642380764,128.2676,-1,-1,-1,-1,30.00575485195334,24.22467901491021,-9999,463.356350125,-0.7510528564453125,0.4486541748046875,-0.4825439453125,463.346272125,-0.9534619464411443,-0.9945877436629866,-0.466036892802231,0.01591411046683788,0.003738930448889732,-3.975650179199874e-05,0.005594909191131592,-0.003518015146255493,-0.002880126237869263,XArbitraryZVertical,-0.3933082839079648,-0.319275230237142,-0.2945215216403172,0.8103264496451126,-0.7491098642349243,0.4493493437767029,-0.486743837594986,0,0,0,-1,-1,458.117546125,unknown,2,2025-04-28T22:25:21.646+03:00,null,0,0,0,0,0,0,0,null,767561124.3248035,0,0.41,100.7959,1,0.15,2025-04-27T20:36:35.266+03:00,71,1.183333333333333,2025-04-22T14:20:19.516+03:00,0.02197104130929222,0
2025-04-28T22:25:26.899+03:00,1745868324.265106,40.98553583423499,29.1374642380764,128.2676,-1,-1,-1,-1,30.00575485195334,24.22467901491021,-9999,463.366427125,-0.75311279296875,0.4448699951171875,-0.4791259765625,463.356350125,-0.9533079222045601,-0.9944853485603428,-0.4659244679788958,0.01673835888504982,0.005418586079031229,-0.002991071669384837,0.001711606979370117,-0.00224265456199646,-0.0004718303680419922,XArbitraryZVertical,-0.3932287475106858,-0.3192915862074224,-0.2945076650864966,0.8103636397769184,-0.7491023540496826,0.4492489099502563,-0.4868480563163757,0,0,0,-1,-1,458.117546125,unknown,2,2025-04-28T22:25:21.646+03:00,null,0,0,0,0,0,0,0,null,767561124.3248035,0,0.41,100.7959,1,0.15,2025-04-27T20:36:35.266+03:00,71,1.183333333333333,2025-04-22T14:20:19.516+03:00,0.02197104130929222,0
2025-04-28T22:25:26.909+03:00,1745868324.265106,40.98553583423499,29.1374642380764,128.2676,-1,-1,-1,-1,30.00575485195334,24.22467901491021,-9999,463.3765041250001,-0.753692626953125,0.4434814453125,-0.4788360595703125,463.366427125,-0.9531742373887948,-0.9943767276296848,-0.4658102325576942,0.01559492945671082,0.006629658862948418,-0.004474518820643425,-0.002860605716705322,-0.001667559146881104,0.004703402519226074,XArbitraryZVertical,-0.3931508852041549,-0.3193018556731155,-0.2945037246568095,0.8103988227703979,-0.7490925192832947,0.4491468667984009,-0.4869574010372162,0,0,0,-1,-1,463.277000125,unknown,2,2025-04-28T22:25:26.805+03:00,null,0,0,0,0,0,0,0,null,767561126.8967664,0,0.4899999,100.7916,1,0.15,2025-04-27T20:36:35.266+03:00,71,1.183333333333333,2025-04-22T14:20:19.516+03:00,0.02197104130929222,0
2025-04-28T22:25:26.919+03:00,1745868324.265106,40.98553583423499,29.1374642380764,128.2676,-1,-1,-1,-1,30.00575485195334,24.22467901491021,-9999,463.386581125,-0.7510833740234375,0.4424591064453125,-0.48095703125,463.3765041250001,-0.9530606842126039,-0.9942672660636587,-0.4657007429323658,0.01352385710924864,0.008051586337387562,-0.003888989798724651,-0.004734218120574951,-0.004056960344314575,0.007986068725585938,XArbitraryZVertical,-0.3930777989395349,-0.319306651922444,-0.2945068958171151,0.8104312351194838,-0.7490804195404053,0.4490490257740021,-0.4870662093162537,0,0,0,-1,-1,463.277000125,unknown,2,2025-04-28T22:25:26.805+03:00,null,0,0,0,0,0,0,0,null,767561126.8967664,0,0.4899999,100.7916,1,0.15,2025-04-27T20:36:35.266+03:00,71,1.183333333333333,2025-04-22T14:20:19.516+03:00,0.02197104130929222,0
2025-04-28T22:25:26.929+03:00,1745868324.265106,40.98553583423499,29.1374642380764,128.2676,-1,-1,-1,-1,30.00575485195334,24.22467901491021,-9999,463.396658125,-0.748565673828125,0.4396209716796875,-0.4835357666015625,463.386581125,-0.9529786402026769,-0.9941648056409,-0.4656231711570102,0.01155178621411324,0.007409764919430017,-0.003030386753380299,-0.003946244716644287,-0.005330413579940796,0.007746100425720215,XArbitraryZVertical,-0.3930221018598364,-0.319300261373653,-0.2945133835628679,0.810458388781066,-0.7490596771240234,0.4489797055721283,-0.4871619343757629,0,0,0,-1,-1,463.277000125,unknown,2,2025-04-28T22:25:26.805+03:00,null,0,0,0,0,0,0,0,null,767561126.8967664,0,0.4899999,100.7916,1,0.15,2025-04-27T20:36:35.266+03:00,71,1.183333333333333,2025-04-22T14:20:19.516+03:00,0.02197104130929222,0
2025-04-28T22:25:26.939+03:00,1745868324.265106,40.98553583423499,29.1374642380764,128.2676,-1,-1,-1,-1,30.00575485195334,24.22467901491021,-9999,463.406735125,-0.7467803955078125,0.43865966796875,-0.486724853515625,463.396658125,-0.9529221015832224,-0.9940934257532794,-0.4655730620553467,0.003981750458478928,0.002877597697079182,0.0003154759178869426,-0.002115845680236816,-0.00643002986907959,0.006194353103637695,XArbitraryZVertical,-0.3929847964038258,-0.3192947202025452,-0.29451715556014,0.8104772683296325,-0.7490437626838684,0.448934942483902,-0.4872276484966278,0,0,0,-1,-1,463.277000125,unknown,2,2025-04-28T22:25:26.805+03:00,null,0,0,0,0,0,0,0,null,767561126.8967664,0,0.4899999,100.7916,1,0.15,2025-04-27T20:36:35.266+03:00,71,1.183333333333333,2025-04-22T14:20:19.516+03:00,0.02197104130929222,0
2025-04-28T22:25:26.949+03:00,1745868324.265106,40.98553583423499,29.1374642380764,128.2676,-1,-1,-1,-1,30.00575485195334,24.22467901491021,-9999,463.416813125,-0.7479248046875,0.440765380859375,-0.4882049560546875,463.406735125,-0.9529231574898405,-0.9940673927129008,-0.4655498663157756,-0.0001195175282191485,0.003112754784524441,0.0006502352771349251,0.001389682292938232,-0.009171187877655029,0.003366202116012573,XArbitraryZVertical,-0.3929729144128753,-0.3192896422938334,-0.2945285546822958,0.8104808580668912,-0.7490397691726685,0.4489142298698425,-0.4872528314590454,0,0,0,-1,-1,463.277000125,unknown,2,2025-04-28T22:25:26.805+03:00,null,0,0,0,0,0,0,0,null,767561126.8967664,0,0.4899999,100.7916,1,0.15,2025-04-27T20:36:35.266+03:00,71,1.183333333333333,2025-04-22T14:20:19.516+03:00,0.02197104130929222,0
2025-04-28T22:25:26.959+03:00,1745868324.265106,40.98553583423499,29.1374642380764,128.2676,-1,-1,-1,-1,30.00575485195334,24.22467901491021,-9999,463.426890125,-0.747955322265625,0.445709228515625,-0.48602294921875,463.416813125,-0.9529419507948347,-0.9940378253001931,-0.4655542610775997,-0.002539665205404162,0.004611714743077755,0.0007674809312447906,0.002975821495056152,-0.00980067253112793,0.0002591609954833984,XArbitraryZVertical,-0.3929731147849214,-0.319272892440419,-0.2945408713915102,0.8104828943530638,-0.7490237355232239,0.4489181339740753,-0.4872739017009735,0,0,0,-1,-1,463.277000125,unknown,2,2025-04-28T22:25:26.805+03:00,null,0,0,0,0,0,0,0,null,767561126.8967664,0,0.4899999,100.7916,1,0.15,2025-04-27T20:36:35.266+03:00,71,1.183333333333333,2025-04-22T14:20:19.516+03:00,0.02197104130929222,0
2025-04-28T22:25:26.970+03:00,1745868324.265106,40.98553583423499,29.1374642380764,128.2676,-1,-1,-1,-1,30.00575485195334,24.22467901491021,-9999,463.436967125,-0.7467193603515625,0.447296142578125,-0.4865875244140625,463.426890125,-0.9529588550720777,-0.9939839588017162,-0.4655633909686137,-0.001130054006353021,0.005182962864637375,0.0005227364599704742,0.0009319782257080078,-0.007611572742462158,-0.0008776187896728516,XArbitraryZVertical,-0.3929710965070751,-0.3192455120583681,-0.2945560068806858,0.8104892107902469,-0.7489940524101257,0.4489262998104095,-0.4873120486736298,0,0,0,-1,-1,463.277000125,unknown,2,2025-04-28T22:25:26.805+03:00,null,0,0,0,0,0,0,0,null,767561126.8967664,0,0.4899999,100.7916,1,0.15,2025-04-27T20:36:35.266+03:00,71,1.183333333333333,2025-04-22T14:20:19.516+03:00,0.02197104130929222,0
2025-04-28T22:25:26.980+03:00,1745868324.265106,40.98553583423499,29.1374642380764,128.2676,-1,-1,-1,-1,30.00575485195334,24.22467901491021,-9999,463.447044125,-0.7497711181640625,0.4509429931640625,-0.484222412109375,463.436967125,-0.9529923682333217,-0.9939121481191188,-0.4655940797630987,-0.01026929076761007,0.009572850540280342,0.0001985963899642229,0.001190662384033203,-0.003259718418121338,0.002052575349807739,XArbitraryZVertical,-0.3929767627856621,-0.3192023051873658,-0.294575943402196,0.8104962230402124,-0.7489475011825562,0.4489537179470062,-0.4873583018779755,0,0,0,-1,-1,463.277000125,unknown,2,2025-04-28T22:25:26.805+03:00,null,0,0,0,0,0,0,0,null,767561126.8967664,0,0.4899999,100.7916,1,0.15,2025-04-27T20:36:35.266+03:00,71,1.183333333333333,2025-04-22T14:20:19.516+03:00,0.02197104130929222,0
2025-04-28T22:25:26.990+03:00,1745868324.265106,40.98553583423499,29.1374642380764,128.2676,-1,-1,-1,-1,30.00575485195334,24.22467901491021,-9999,463.457121125,-0.74969482421875,0.44580078125,-0.480712890625,463.447044125,-0.9531094355198373,-0.9938737730014539,-0.4656770270676686,-0.01422994397580624,0.009400544688105583,0.0006340232212096453,0.002315640449523926,-0.001197636127471924,0.001130163669586182,XArbitraryZVertical,-0.3930192313360033,-0.3191434220993556,-0.294609968063636,0.8104864291772471,-0.7488976120948792,0.4490278363227844,-0.4873667061328888,0,0,0,-1,-1,463.277000125,unknown,2,2025-04-28T22:25:26.805+03:00,null,0,0,0,0,0,0,0,null,767561126.8967664,0,0.4899999,100.7916,1,0.15,2025-04-27T20:36:35.266+03:00,71,1.183333333333333,2025-04-22T14:20:19.516+03:00,0.02197104130929222,0
2025-04-28T22:25:27.000+03:00,1745868324.265106,40.98553583423499,29.1374642380764,128.2676,-1,-1,-1,-1,30.00575485195334,24.22467901491021,-9999,463.467198125,-0.749725341796875,0.442962646484375,-0.4798126220703125,463.457121125,-0.953271486864775,-0.9938606715770676,-0.4657669930362289,-0.01870059035718441,0.01397425681352615,0.001228840323165059,-0.0008984804153442383,0.001163393259048462,0.003788292407989502,XArbitraryZVertical,-0.3930750799321979,-0.3190842165881693,-0.2946554836339361,0.8104660982623962,-0.748857319355011,0.449108213186264,-0.4873544871807098,0,0,0,-1,-1,463.277000125,unknown,2,2025-04-28T22:25:26.805+03:00,null,0,0,0,0,0,0,0,null,767561126.8967664,0,0.4899999,100.7916,1,0.15,2025-04-27T20:36:35.266+03:00,71,1.183333333333333,2025-04-22T14:20:19.516+03:00,0.02197104130929222,0
2025-04-28T22:25:27.010+03:00,1745868324.265106,40.98553583423499,29.1374642380764,128.2676,-1,-1,-1,-1,30.00575485195334,24.22467901491021,-9999,463.477276125,-0.7461700439453125,0.4434661865234375,-0.4814453125,463.467198125,-0.9534520559952332,-0.9938049221730891,-0.4658841619335552,-0.0198015421628952,0.01476521603763103,0.002220601541921496,-0.0008934736251831055,-0.004052966833114624,0.006944596767425537,XArbitraryZVertical,-0.393137224305583,-0.3189974182002524,-0.2947100180240576,0.8104503204081827,-0.7487860918045044,0.449212908744812,-0.4873675405979156,0,0,0,-1,-1,463.277000125,unknown,2,2025-04-28T22:25:26.805+03:00,null,0,0,0,0,0,0,0,null,767561126.8967664,0,0.4899999,100.7916,1,0.15,2025-04-27T20:36:35.266+03:00,71,1.183333333333333,2025-04-22T14:20:19.516+03:00,0.02197104130929222,0
2025-04-28T22:25:27.020+03:00,1745868324.265106,40.98553583423499,29.1374642380764,128.2676,-1,-1,-1,-1,30.00575485195334,24.22467901491021,-9999,463.487353125,-0.7449798583984375,0.4444427490234375,-0.4803009033203125,463.477276125,-0.9536154445138328,-0.993758218142592,-0.4660006829253966,-0.01494866423308849,0.01353543438017368,0.002294803969562054,-0.001326322555541992,-0.006384819746017456,0.007225692272186279,XArbitraryZVertical,-0.3931977288570634,-0.3189178088731192,-0.2947559735203055,0.8104355905932591,-0.7487194538116455,0.4493170082569122,-0.487373948097229,0,0,0,-1,-1,463.277000125,unknown,2,2025-04-28T22:25:26.805+03:00,null,0,0,0,0,0,0,0,null,767561126.8967664,0,0.4899999,100.7916,1,0.15,2025-04-27T20:36:35.266+03:00,71,1.183333333333333,2025-04-22T14:20:19.516+03:00,0.02197104130929222,0
2025-04-28T22:25:27.030+03:00,1745868324.265106,40.98553583423499,29.1374642380764,128.2676,-1,-1,-1,-1,30.00575485195334,24.22467901491021,-9999,463.4974301250001,-0.7509307861328125,0.4438323974609375,-0.4812774658203125,463.487353125,-0.953771557108782,-0.9936754589406106,-0.4661120401973192,-0.0207959022372961,0.01599113643169403,0.001929684425704181,0.002406120300292969,-0.006026536226272583,0.005642950534820557,XArbitraryZVertical,-0.3932499000211104,-0.3188262824744471,-0.294807380520249,0.8104276336803444,-0.7486371994018555,0.4494164884090424,-0.4874086380004883,0,0,0,-1,-1,463.277000125,unknown,2,2025-04-28T22:25:26.805+03:00,null,0,0,0,0,0,0,0,null,767561126.8967664,0,0.4899999,100.7916,1,0.15,2025-04-27T20:36:35.266+03:00,71,1.183333333333333,2025-04-22T14:20:19.516+03:00,0.02197104130929222,0
2025-04-28T22:25:27.040+03:00,1745868324.265106,40.98553583423499,29.1374642380764,128.2676,-1,-1,-1,-1,30.00575485195334,24.22467901491021,-9999,463.507507125,-0.747711181640625,0.4472808837890625,-0.48419189453125,463.4974301250001,-0.9539647319189735,-0.9936034862951891,-0.4662533954430325,-0.02569744922220707,0.01390721276402473,0.004196167457848787,0.00356900691986084,-0.004169225692749023,0.006882786750793457,XArbitraryZVertical,-0.3933202388457677,-0.3187244602012457,-0.2948640945671163,0.8104128602833861,-0.7485488057136536,0.449542760848999,-0.487427830696106,0,0,0,-1,-1,463.277000125,unknown,2,2025-04-28T22:25:26.805+03:00,null,0,0,0,0,0,0,0,null,767561126.8967664,0,0.4899999,100.7916,1,0.15,2025-04-27T20:36:35.266+03:00,71,1.183333333333333,2025-04-22T14:20:19.516+03:00,0.02197104130929222,0
2025-04-28T22:25:27.050+03:00,1745868324.265106,40.98553583423499,29.1374642380764,128.2676,-1,-1,-1,-1,30.00575485195334,24.22467901491021,-9999,463.517584125,-0.745880126953125,0.4499053955078125,-0.48583984375,463.507507125,-0.9541913642040643,-0.9936184515645556,-0.4663795434486506,-0.02421699836850166,0.004300124943256378,-0.0009607774554751813,-0.002269506454467773,-0.006616443395614624,0.005070626735687256,XArbitraryZVertical,-0.3934032854939398,-0.318655011642722,-0.2949211192590723,0.8103791311958407,-0.748508632183075,0.4496554434299469,-0.4873856902122498,0,0,0,-1,-1,463.277000125,unknown,2,2025-04-28T22:25:26.805+03:00,null,0,0,0,0,0,0,0,null,767561126.8967664,0,0.4899999,100.7916,1,0.15,2025-04-27T20:36:35.266+03:00,71,1.183333333333333,2025-04-22T14:20:19.516+03:00,0.02197104130929222,0
2025-04-28T22:25:27.060+03:00,1745868324.265106,40.98553583423499,29.1374642380764,128.2676,-1,-1,-1,-1,30.00575485195334,24.22467901491021,-9999,463.527661125,-0.746551513671875,0.4484100341796875,-0.4860992431640625,463.517584125,-0.9544321305439946,-0.9936776155329344,-0.4665028837772393,-0.02459809556603432,0.006862352136522532,-0.001372235827147961,0.001481711864471436,-0.001874387264251709,0.003119289875030518,XArbitraryZVertical,-0.3934941149841404,-0.3186013567196823,-0.2949758713700736,0.8103361725185627,-0.7484909296035767,0.4497655928134918,-0.4873111248016357,0,0,0,-1,-1,463.277000125,unknown,2,2025-04-28T22:25:26.805+03:00,null,0,0,0,0,0,0,0,null,767561126.8967664,0,0.4899999,100.7916,1,0.15,2025-04-27T20:36:35.266+03:00,71,1.183333333333333,2025-04-22T14:20:19.516+03:00,0.02197104130929222,0
2025-04-28T22:25:27.071+03:00,1745868324.265106,40.98553583423499,29.1374642380764,128.2676,-1,-1,-1,-1,30.00575485195334,24.22467901491021,-9999,463.537739125,-0.743743896484375,0.44793701171875,-0.4813385009765625,463.527661125,-0.954679359373783,-0.9937471150489802,-0.4666128847254704,-0.02315759286284447,0.00194828724488616,-0.004644195549190044,0.002771139144897461,-0.000538259744644165,0.0008735060691833496,XArbitraryZVertical,-0.3935827343083604,-0.3185538798811074,-0.2950345760505109,0.8102904559940607,-0.7484833598136902,0.4498638510704041,-0.487232118844986,0,0,0,-1,-1,463.277000125,unknown,2,2025-04-28T22:25:26.805+03:00,null,0,0,0,0,0,0,0,null,767561126.8967664,0,0.4899999,100.7916,1,0.15,2025-04-27T20:36:35.266+03:00,71,1.183333333333333,2025-04-22T14:20:19.516+03:00,0.02197104130929222,0
2025-04-28T22:25:27.081+03:00,1745868324.265106,40.98553583423499,29.1374642380764,128.2676,-1,-1,-1,-1,30.00575485195334,24.22467901491021,-9999,463.5478161250001,-0.743072509765625,0.4479827880859375,-0.4808502197265625,463.537739125,-0.9549247776495992,-0.9938775165341626,-0.466677402636164,-0.01814858615398407,-0.003255396150052547,-0.007761625107377768,0.001910150051116943,-0.00151139497756958,0.0009279251098632812,XArbitraryZVertical,-0.3936639005406892,-0.3185425837468269,-0.2950920476003516,0.8102346115930369,-0.7485226392745972,0.4499214589595795,-0.4871187210083008,0,0,0,-1,-1,463.277000125,unknown,2,2025-04-28T22:25:26.805+03:00,null,0,0,0,0,0,0,0,null,767561126.8967664,0,0.4899999,100.7916,1,0.15,2025-04-27T20:36:35.266+03:00,71,1.183333333333333,2025-04-22T14:20:19.516+03:00,0.02197104130929222,0
2025-04-28T22:25:27.091+03:00,1745868324.265106,40.98553583423499,29.1374642380764,128.2676,-1,-1,-1,-1,30.00575485195334,24.22467901491021,-9999,463.557893125,-0.7454071044921875,0.4494171142578125,-0.4847869873046875,463.5478161250001,-0.9551471281544942,-0.9940604582314801,-0.4666839401323939,-0.01638530567288399,-0.01108748652040958,-0.0118772741407156,0.005429983139038086,-0.002005487680435181,0.005244970321655273,XArbitraryZVertical,-0.3937286289066119,-0.318571319441159,-0.2951444582115124,0.8101727675759428,-0.7486092448234558,0.4499273002147675,-0.4869801700115204,0,0,0,-1,-1,463.277000125,unknown,2,2025-04-28T22:25:26.805+03:00,null,0,0,0,0,0,0,0,null,767561126.8967664,0,0.4899999,100.7916,1,0.15,2025-04-27T20:36:35.266+03:00,71,1.183333333333333,2025-04-22T14:20:19.516+03:00,0.02197104130929222,0
2025-04-28T22:25:27.101+03:00,1745868324.265106,40.98553583423499,29.1374642380764,128.2676,-1,-1,-1,-1,30.00575485195334,24.22467901491021,-9999,463.567970125,-0.746490478515625,0.4468536376953125,-0.4891204833984375,463.557893125,-0.9553757907944577,-0.9942976050117206,-0.4666314928695136,-0.01358559168875217,-0.01353020593523979,-0.01342899817973375,0.006129801273345947,-0.001424610614776611,0.005187094211578369,XArbitraryZVertical,-0.3937814595666159,-0.3186352405573624,-0.2952036510022409,0.8101004055828117,-0.7487445473670959,0.4498804807662964,-0.486815482378006,0,0,0,-1,-1,463.277000125,unknown,2,2025-04-28T22:25:26.805+03:00,null,0,0,0,0,0,0,0,null,767561126.8967664,0,0.4899999,100.7916,1,0.15,2025-04-27T20:36:35.266+03:00,71,1.183333333333333,2025-04-22T14:20:19.516+03:00,0.02197104130929222,0
