loggingTime(txt),locationTimestamp_since1970(s),locationLatitude(WGS84),locationLongitude(WGS84),locationAltitude(m),locationSpeed(m/s),locationSpeedAccuracy(m/s),locationCourse(°),locationCourseAccuracy(°),locationVerticalAccuracy(m),locationHorizontalAccuracy(m),locationFloor(Z),accelerometerTimestamp_sinceReboot(s),accelerometerAccelerationX(G),accelerometerAccelerationY(G),accelerometerAccelerationZ(G),motionTimestamp_sinceReboot(s),motionYaw(rad),motionRoll(rad),motionPitch(rad),motionRotationRateX(rad/s),motionRotationRateY(rad/s),motionRotationRateZ(rad/s),motionUserAccelerationX(G),motionUserAccelerationY(G),motionUserAccelerationZ(G),motionAttitudeReferenceFrame(txt),motionQuaternionX(R),motionQuaternionY(R),motionQuaternionZ(R),motionQuaternionW(R),motionGravityX(G),motionGravityY(G),motionGravityZ(G),motionMagneticFieldX(µT),motionMagneticFieldY(µT),motionMagneticFieldZ(µT),motionHeading(°),motionMagneticFieldCalibrationAccuracy(Z),activityTimestamp_sinceReboot(s),activity(txt),activityActivityConfidence(Z),activityActivityStartDate(txt),pedometerStartDate(txt),pedometerNumberofSteps(N),pedometerAverageActivePace(s/m),pedometerCurrentPace(s/m),pedometerCurrentCadence(steps/s),pedometerDistance(m),pedometerFloorAscended(N),pedometerFloorDescended(N),pedometerEndDate(txt),altimeterTimestamp_sinceReboot(s),altimeterReset(bool),altimeterRelativeAltitude(m),altimeterPressure(kPa),batteryState(N),batteryLevel(R),heartRateBPMTimestamp(txt),heartRateBPM(N),heartRateBPS(R),heartRateVariabilityTimestamp(txt),heartRateVariability(ms),label
2025-04-22T12:15:40.250+03:00,1745313339.469681,40.95212370955056,29.14023444794606,75.95811,-1,-1,-1,-1,30,23.14434125577553,-9999,29675.55936241667,-0.823974609375,0.5058441162109375,-0.2235107421875,29675.55686141667,-1.093872661873446,-1.284599223340588,-0.530935769076034,-0.005097060464322567,0.05014688521623611,0.04780517518520355,0.004961609840393066,0.007300734519958496,0.02560746669769287,XArbitraryZVertical,-0.4800620926038634,-0.3844728547440608,-0.2676078979554071,0.7416920267740811,-0.8272576928138733,0.506340503692627,-0.24344202876091,0,0,0,-1,-1,29661.316794875,unknown,2,2025-04-22T12:15:07.401+03:00,2025-04-21T17:08:51.449+03:00,7224,0.9707136,0,0,6027.237,5,20,2025-04-22T12:15:09.980+03:00,767006094.6096033,0,-20.45,100.4477,1,0.85,2025-04-22T12:14:03.331+03:00,112,1.866666666666667,2025-04-22T09:54:17.825+03:00,0.02225348692287972,0
2025-04-22T12:15:40.253+03:00,1745313339.469681,40.95212370955056,29.14023444794606,75.95811,-1,-1,-1,-1,30,23.14434125577553,-9999,29675.56943841667,-0.815521240234375,0.494384765625,-0.222991943359375,29675.56693641667,-1.093705088914878,-1.283780026897832,-0.5314510253009663,0.05919391289353371,0.2053794860839844,0.0602339468896389,0.003367125988006592,-0.001169681549072266,0.0200924277305603,XArbitraryZVertical,-0.480069291912733,-0.3840711049100458,-0.2675870423050803,0.741902968442686,-0.8268076181411743,0.5067847371101379,-0.2440457195043564,0,0,0,-1,-1,29661.316794875,unknown,2,2025-04-22T12:15:07.401+03:00,2025-04-21T17:08:51.449+03:00,7224,0.9707136,0,0,6027.237,5,20,2025-04-22T12:15:09.980+03:00,767006094.6096033,0,-20.45,100.4477,1,0.85,2025-04-22T12:14:03.331+03:00,112,1.866666666666667,2025-04-22T09:54:17.825+03:00,0.02225348692287972,0
2025-04-22T12:15:40.254+03:00,1745313339.469681,40.95212370955056,29.14023444794606,75.95811,-1,-1,-1,-1,30,23.14434125577553,-9999,29675.57951441667,-0.8119354248046875,0.4687042236328125,-0.23333740234375,29675.57701241667,-1.093209209481912,-1.282600259051753,-0.5311718367553602,-0.05827945470809937,0.09431634843349457,0.01848490163683891,0.01261353492736816,-0.01489073038101196,0.02126047015190125,XArbitraryZVertical,-0.4797354144551813,-0.3838272153819212,-0.2677702769058627,0.7421790021634234,-0.8266547918319702,0.5065440535545349,-0.2450612038373947,0,0,0,-1,-1,29661.316794875,unknown,2,2025-04-22T12:15:07.401+03:00,2025-04-21T17:08:51.449+03:00,7224,0.9707136,0,0,6027.237,5,20,2025-04-22T12:15:09.980+03:00,767006094.6096033,0,-20.45,100.4477,1,0.85,2025-04-22T12:14:03.331+03:00,112,1.866666666666667,2025-04-22T09:54:17.825+03:00,0.02225348692287972,0
2025-04-22T12:15:40.255+03:00,1745313339.469681,40.95212370955056,29.14023444794606,75.95811,-1,-1,-1,-1,30,23.14434125577553,-9999,29675.58959041667,-0.816162109375,0.4996490478515625,-0.22540283203125,29675.58708841667,-1.093345752066698,-1.282176126004089,-0.5314312369508672,-0.008277140557765961,0.04400110989809036,0.004114951472729445,0.01319229602813721,-0.04262596368789673,0.01189962029457092,XArbitraryZVertical,-0.4797798821441281,-0.3835675449433699,-0.2678445725196272,0.742257753075742,-0.8264248371124268,0.5067676901817322,-0.2453744113445282,0,0,0,-1,-1,29661.316794875,unknown,2,2025-04-22T12:15:07.401+03:00,2025-04-21T17:08:51.449+03:00,7224,0.9707136,0,0,6027.237,5,20,2025-04-22T12:15:09.980+03:00,767006094.6096033,0,-20.45,100.4477,1,0.85,2025-04-22T12:14:03.331+03:00,112,1.866666666666667,2025-04-22T09:54:17.825+03:00,0.02225348692287972,0
2025-04-22T12:15:40.262+03:00,1745313339.469681,40.95212370955056,29.14023444794606,75.95811,-1,-1,-1,-1,30,23.14434125577553,-9999,29675.59966641667,-0.81768798828125,0.546356201171875,-0.2426605224609375,29675.59716441667,-1.093500190461236,-1.282014720403749,-0.5315618761476772,-0.01399148534983397,0.02514779381453991,-0.003999699838459492,0.01208215951919556,0.005280792713165283,0.02043700218200684,XArbitraryZVertical,-0.4798257377154464,-0.3834355385311913,-0.2679012350535807,0.7422757623325142,-0.8263216018676758,0.5068803429603577,-0.2454888969659805,0,0,0,-1,-1,29661.316794875,unknown,2,2025-04-22T12:15:07.401+03:00,2025-04-21T17:08:51.449+03:00,7224,0.9707136,0,0,6027.237,5,20,2025-04-22T12:15:09.980+03:00,767006094.6096033,0,-20.45,100.4477,1,0.85,2025-04-22T12:14:03.331+03:00,112,1.866666666666667,2025-04-22T09:54:17.825+03:00,0.02225348692287972,0
2025-04-22T12:15:40.272+03:00,1745313339.469681,40.95212370955056,29.14023444794606,75.95811,-1,-1,-1,-1,30,23.14434125577553,-9999,29675.60974241667,-0.8231048583984375,0.499969482421875,-0.2434539794921875,29675.60724041667,-1.093749141187162,-1.282142746765183,-0.5315640405719191,-0.008857309818267822,0.00773298367857933,-0.01005273219197989,0.00605475902557373,0.03324824571609497,0.0001893192529678345,XArbitraryZVertical,-0.47989125941313,-0.3834227301724226,-0.2679622456654694,0.7422179558956129,-0.8263519406318665,0.5068821907043457,-0.2453827708959579,0,0,0,-1,-1,29661.316794875,unknown,2,2025-04-22T12:15:07.401+03:00,2025-04-21T17:08:51.449+03:00,7224,0.9707136,0,0,6027.237,5,20,2025-04-22T12:15:09.980+03:00,767006094.6096033,0,-20.45,100.4477,1,0.85,2025-04-22T12:14:03.331+03:00,112,1.866666666666667,2025-04-22T09:54:17.825+03:00,0.02225348692287972,0
2025-04-22T12:15:40.282+03:00,1745313339.469681,40.95212370955056,29.14023444794606,75.95811,-1,-1,-1,-1,30,23.14434125577553,-9999,29675.61981841667,-0.8177337646484375,0.51544189453125,-0.2296600341796875,29675.61731641667,-1.093925657740576,-1.2822926199189,-0.5314719222138337,-0.006605341099202633,0.005726824514567852,-0.0123856607824564,0.004335701465606689,-0.007550537586212158,0.004045933485031128,XArbitraryZVertical,-0.479918497423898,-0.3834607124105566,-0.2680195514815135,0.742160093987511,-0.826433539390564,0.5068027973175049,-0.245272234082222,0,0,0,-1,-1,29661.316794875,unknown,2,2025-04-22T12:15:07.401+03:00,2025-04-21T17:08:51.449+03:00,7224,0.9707136,0,0,6027.237,5,20,2025-04-22T12:15:09.980+03:00,767006094.6096033,0,-20.45,100.4477,1,0.85,2025-04-22T12:14:03.331+03:00,112,1.866666666666667,2025-04-22T09:54:17.825+03:00,0.02225348692287972,0
2025-04-22T12:15:40.292+03:00,1745313339.469681,40.95212370955056,29.14023444794606,75.95811,-1,-1,-1,-1,30,23.14434125577553,-9999,29675.62989441667,-0.826385498046875,0.519561767578125,-0.2297210693359375,29675.62739241667,-1.094115057287714,-1.282454086565962,-0.5314883898242198,-0.009329156018793583,0.006773779634386301,-0.01576012000441551,0.007785379886627197,0.01079148054122925,0.01630029082298279,XArbitraryZVertical,-0.479981239027667,-0.3834707443033883,-0.2680461068032827,0.7421046868934347,-0.8264650702476501,0.5068169832229614,-0.2451363950967789,0,0,0,-1,-1,29661.316794875,unknown,2,2025-04-22T12:15:07.401+03:00,2025-04-21T17:08:51.449+03:00,7224,0.9707136,0,0,6027.237,5,20,2025-04-22T12:15:09.980+03:00,767006094.6096033,0,-20.45,100.4477,1,0.85,2025-04-22T12:14:03.331+03:00,112,1.866666666666667,2025-04-22T09:54:17.825+03:00,0.02225348692287972,0
2025-04-22T12:15:40.303+03:00,1745313339.469681,40.95212370955056,29.14023444794606,75.95811,-1,-1,-1,-1,30,23.14434125577553,-9999,29675.63997041667,-0.8218231201171875,0.508697509765625,-0.22772216796875,29675.63746841667,-1.094400746560832,-1.282700425804579,-0.5314536601985436,-0.0160531047731638,0.001355844549834728,-0.01471962314099073,0.0002789497375488281,0.01158446073532104,0.01610174775123596,XArbitraryZVertical,-0.4800589390201062,-0.3835029237954521,-0.2681034794270853,0.7420171915416908,-0.8265424966812134,0.5067870616912842,-0.244937852025032,0,0,0,-1,-1,29661.316794875,unknown,2,2025-04-22T12:15:07.401+03:00,2025-04-21T17:08:51.449+03:00,7224,0.9707136,0,0,6027.237,5,20,2025-04-22T12:15:09.980+03:00,767006094.6096033,0,-20.45,100.4477,1,0.85,2025-04-22T12:14:03.331+03:00,112,1.866666666666667,2025-04-22T09:54:17.825+03:00,0.02225348692287972,0
2025-04-22T12:15:40.312+03:00,1745313339.469681,40.95212370955056,29.14023444794606,75.95811,-1,-1,-1,-1,30,23.14434125577553,-9999,29675.65004641667,-0.8187408447265625,0.5060882568359375,-0.229400634765625,29675.64754441667,-1.094707457501988,-1.282949912142523,-0.5313762921032574,-0.02104480192065239,0.002998349256813526,-0.01267784368246794,0.0055808424949646,0.001961767673492432,0.01641011238098145,XArbitraryZVertical,-0.4801288756833175,-0.3835425747495319,-0.2681806481512879,0.7419234347946815,-0.8266410231590271,0.5067203640937805,-0.2447427064180374,0,0,0,-1,-1,29661.316794875,unknown,2,2025-04-22T12:15:07.401+03:00,2025-04-21T17:08:51.449+03:00,7224,0.9707136,0,0,6027.237,5,20,2025-04-22T12:15:09.980+03:00,767006094.6096033,0,-20.45,100.4477,1,0.85,2025-04-22T12:14:03.331+03:00,112,1.866666666666667,2025-04-22T09:54:17.825+03:00,0.02225348692287972,0
2025-04-22T12:15:40.322+03:00,1745313339.469681,40.95212370955056,29.14023444794606,75.95811,-1,-1,-1,-1,30,23.14434125577553,-9999,29675.66012241667,-0.8221282958984375,0.505950927734375,-0.2318572998046875,29675.65762041667,-1.095024899946303,-1.283164317130742,-0.5312996357461987,-0.02020750381052494,0.004942190833389759,-0.008499077521264553,0.007730543613433838,-0.0003525018692016602,0.01499271392822266,XArbitraryZVertical,-0.4801963311113023,-0.3835664662034494,-0.2682700274565647,0.7418351365311988,-0.8267307281494141,0.5066542625427246,-0.2445764988660812,0,0,0,-1,-1,29661.316794875,unknown,2,2025-04-22T12:15:07.401+03:00,2025-04-21T17:08:51.449+03:00,7224,0.9707136,0,0,6027.237,5,20,2025-04-22T12:15:09.980+03:00,767006094.6096033,0,-20.45,100.4477,1,0.85,2025-04-22T12:14:03.331+03:00,112,1.866666666666667,2025-04-22T09:54:17.825+03:00,0.02225348692287972,0
2025-04-22T12:15:40.332+03:00,1745313339.469681,40.95212370955056,29.14023444794606,75.95811,-1,-1,-1,-1,30,23.14434125577553,-9999,29675.67019841667,-0.8210296630859375,0.5056915283203125,-0.234466552734375,29675.66769641667,-1.095321868854545,-1.283310758058737,-0.5311021973303998,-0.02538708411157131,0.003580516204237938,-0.009580986574292183,0.004871487617492676,-0.0006857514381408691,0.01229080557823181,XArbitraryZVertical,-0.4802158148513256,-0.3836024758153374,-0.2684045224145715,0.7417553464460437,-0.8268625736236572,0.5064840316772461,-0.2444838285446167,0,0,0,-1,-1,29661.316794875,unknown,2,2025-04-22T12:15:07.401+03:00,2025-04-21T17:08:51.449+03:00,7224,0.9707136,0,0,6027.237,5,20,2025-04-22T12:15:09.980+03:00,767006094.6096033,0,-20.45,100.4477,1,0.85,2025-04-22T12:14:03.331+03:00,112,1.866666666666667,2025-04-22T09:54:17.825+03:00,0.02225348692287972,0
2025-04-22T12:15:40.342+03:00,1745313339.469681,40.95212370955056,29.14023444794606,75.95811,-1,-1,-1,-1,30,23.14434125577553,-9999,29675.68027441667,-0.8192596435546875,0.5046539306640625,-0.2335357666015625,29675.67777241667,-1.095671847970231,-1.283549620746028,-0.5311726421066556,-0.02431649342179298,0.002102994592860341,-0.006573479156941175,0.006680905818939209,-0.001402676105499268,0.009794354438781738,XArbitraryZVertical,-0.4803353926735499,-0.3835880922337225,-0.2684557073050976,0.7416667534741563,-0.8268866539001465,0.5065447688102722,-0.2442761659622192,0,0,0,-1,-1,29661.316794875,unknown,2,2025-04-22T12:15:07.401+03:00,2025-04-21T17:08:51.449+03:00,7224,0.9707136,0,0,6027.237,5,20,2025-04-22T12:15:09.980+03:00,767006094.6096033,0,-20.45,100.4477,1,0.85,2025-04-22T12:14:03.331+03:00,112,1.866666666666667,2025-04-22T09:54:17.825+03:00,0.02225348692287972,0
2025-04-22T12:15:40.353+03:00,1745313339.469681,40.95212370955056,29.14023444794606,75.95811,-1,-1,-1,-1,30,23.14434125577553,-9999,29675.69035041667,-0.82421875,0.5078125,-0.2338714599609375,29675.68784841667,-1.095942072176861,-1.28362257372809,-0.5313807035092947,-0.02184734493494034,0.007824396714568138,-0.003308110404759645,0.006933391094207764,-0.002482354640960693,0.01055866479873657,XArbitraryZVertical,-0.4804571148493609,-0.3834944060746074,-0.2684757082231456,0.7416291508985039,-0.8268033862113953,0.5067241191864014,-0.2441859990358353,0,0,0,-1,-1,29661.316794875,unknown,2,2025-04-22T12:15:07.401+03:00,2025-04-21T17:08:51.449+03:00,7224,0.9707136,0,0,6027.237,5,20,2025-04-22T12:15:09.980+03:00,767006094.6096033,0,-20.45,100.4477,1,0.85,2025-04-22T12:14:03.331+03:00,112,1.866666666666667,2025-04-22T09:54:17.825+03:00,0.02225348692287972,0
2025-04-22T12:15:40.363+03:00,1745313339.469681,40.95212370955056,29.14023444794606,75.95811,-1,-1,-1,-1,30,23.14434125577553,-9999,29675.70042641667,-0.8261871337890625,0.5147857666015625,-0.2322235107421875,29675.69792441667,-1.096186908379601,-1.283679639104067,-0.5313659932847387,-0.01807763986289501,0.008254230953752995,-0.006467950996011496,0.001919090747833252,0.001695990562438965,0.01002532243728638,XArbitraryZVertical,-0.4805074681769408,-0.383460696963532,-0.2685572193754568,0.7415844519466032,-0.8268244862556458,0.506711483001709,-0.2441409379243851,0,0,0,-1,-1,29661.316794875,unknown,2,2025-04-22T12:15:07.401+03:00,2025-04-21T17:08:51.449+03:00,7224,0.9707136,0,0,6027.237,5,20,2025-04-22T12:15:09.980+03:00,767006094.6096033,0,-20.45,100.4477,1,0.85,2025-04-22T12:14:03.331+03:00,112,1.866666666666667,2025-04-22T09:54:17.825+03:00,0.02225348692287972,0
2025-04-22T12:15:40.373+03:00,1745313339.469681,40.95212370955056,29.14023444794606,75.95811,-1,-1,-1,-1,30,23.14434125577553,-9999,29675.71050241667,-0.8253173828125,0.516082763671875,-0.2301177978515625,29675.70800041667,-1.09643598057876,-1.283809050545741,-0.5314097952140114,-0.01361131947487593,0.003870334941893816,-0.01156527455896139,0.001059591770172119,0.008051633834838867,0.01195669174194336,XArbitraryZVertical,-0.4805852619701774,-0.3834370691062364,-0.2686052706137349,0.7415288311178324,-0.8268347382545471,0.5067492127418518,-0.2440276443958282,0,0,0,-1,-1,29661.316794875,unknown,2,2025-04-22T12:15:07.401+03:00,2025-04-21T17:08:51.449+03:00,7224,0.9707136,0,0,6027.237,5,20,2025-04-22T12:15:09.980+03:00,767006094.6096033,0,-20.45,100.4477,1,0.85,2025-04-22T12:14:03.331+03:00,112,1.866666666666667,2025-04-22T09:54:17.825+03:00,0.02225348692287972,0
2025-04-22T12:15:40.383+03:00,1745313339.469681,40.95212370955056,29.14023444794606,75.95811,-1,-1,-1,-1,30,23.14434125577553,-9999,29675.72057841667,-0.8261566162109375,0.51654052734375,-0.2293548583984375,29675.71807641667,-1.096696281838644,-1.28395697108497,-0.5314209078333944,-0.01655224896967411,0.005708182230591774,-0.01298180967569351,0.001013994216918945,0.009705305099487305,0.01393848657608032,XArbitraryZVertical,-0.4806582428713165,-0.3834263738758257,-0.2686628817803938,0.7414661867038699,-0.8268654346466064,0.5067588090896606,-0.2439037412405014,0,0,0,-1,-1,29661.316794875,unknown,2,2025-04-22T12:15:07.401+03:00,2025-04-21T17:08:51.449+03:00,7224,0.9707136,0,0,6027.237,5,20,2025-04-22T12:15:09.980+03:00,767006094.6096033,0,-20.45,100.4477,1,0.85,2025-04-22T12:14:03.331+03:00,112,1.866666666666667,2025-04-22T09:54:17.825+03:00,0.02225348692287972,0
2025-04-22T12:15:40.393+03:00,1745313339.469681,40.95212370955056,29.14023444794606,75.95811,-1,-1,-1,-1,30,23.14434125577553,-9999,29675.73065441667,-0.8267059326171875,0.5126495361328125,-0.2294921875,29675.72815241667,-1.096973058647425,-1.284093316329408,-0.5313796514780043,-0.01628872752189636,0.007961615920066833,-0.01380625832825899,0.0004110932350158691,0.01001548767089844,0.01453351974487305,XArbitraryZVertical,-0.4807177455817223,-0.3834214525490067,-0.2687451252276019,0.7414002622781345,-0.8269186615943909,0.5067232251167297,-0.2437968850135803,0,0,0,-1,-1,29661.316794875,unknown,2,2025-04-22T12:15:07.401+03:00,2025-04-21T17:08:51.449+03:00,7224,0.9707136,0,0,6027.237,5,20,2025-04-22T12:15:09.980+03:00,767006094.6096033,0,-20.45,100.4477,1,0.85,2025-04-22T12:14:03.331+03:00,112,1.866666666666667,2025-04-22T09:54:17.825+03:00,0.02225348692287972,0
2025-04-22T12:15:40.406+03:00,1745313339.469681,40.95212370955056,29.14023444794606,75.95811,-1,-1,-1,-1,30,23.14434125577553,-9999,29675.74073041667,-0.8265838623046875,0.5083770751953125,-0.2310638427734375,29675.73822841667,-1.097238121777325,-1.284192518114394,-0.5313568532108461,-0.01844189316034317,0.009718770161271095,-0.008705772459506989,0.0001869797706604004,0.004892885684967041,0.01442421972751617,XArbitraryZVertical,-0.480775311905329,-0.3834006326808672,-0.2688264040540687,0.7413442279302179,-0.8269538879394531,0.5067035555839539,-0.2437181025743484,0,0,0,-1,-1,29661.316794875,unknown,2,2025-04-22T12:15:07.401+03:00,2025-04-21T17:08:51.449+03:00,7224,0.9707136,0,0,6027.237,5,20,2025-04-22T12:15:09.980+03:00,767006094.6096033,0,-20.45,100.4477,1,0.85,2025-04-22T12:14:03.331+03:00,112,1.866666666666667,2025-04-22T09:54:17.825+03:00,0.02225348692287972,0
2025-04-22T12:15:40.413+03:00,1745313339.469681,40.95212370955056,29.14023444794606,75.95811,-1,-1,-1,-1,30,23.14434125577553,-9999,29675.75080641667,-0.826324462890625,0.5078277587890625,-0.2326507568359375,29675.74830441667,-1.097520005010931,-1.284263348579981,-0.5313475251641421,-0.01943292282521725,0.01163111906498671,-0.009158809669315815,0.0001477599143981934,0.001925468444824219,0.0126274973154068,XArbitraryZVertical,-0.4808361760019337,-0.3833616265467356,-0.2689166698443731,0.7412921859937613,-0.8269757032394409,0.5066955089569092,-0.2436608672142029,0,0,0,-1,-1,29661.316794875,unknown,2,2025-04-22T12:15:07.401+03:00,2025-04-21T17:08:51.449+03:00,7224,0.9707136,0,0,6027.237,5,20,2025-04-22T12:15:09.980+03:00,767006094.6096033,0,-20.45,100.4477,1,0.85,2025-04-22T12:14:03.331+03:00,112,1.866666666666667,2025-04-22T09:54:17.825+03:00,0.02225348692287972,0
2025-04-22T12:15:40.423+03:00,1745313339.469681,40.95212370955056,29.14023444794606,75.95811,-1,-1,-1,-1,30,23.14434125577553,-9999,29675.76088241667,-0.8257598876953125,0.5079345703125,-0.235015869140625,29675.75838041667,-1.097788945620004,-1.284299993688415,-0.5313491401772114,-0.02242738008499146,0.01473663188517094,-0.009446164593100548,0.0007510781288146973,0.00131380558013916,0.01055228710174561,XArbitraryZVertical,-0.4808930746804948,-0.3833101413166149,-0.2690070817449884,0.741249199696325,-0.8269839286804199,0.5066969394683838,-0.2436303794384003,0,0,0,-1,-1,29661.316794875,unknown,2,2025-04-22T12:15:07.401+03:00,2025-04-21T17:08:51.449+03:00,7224,0.9707136,0,0,6027.237,5,20,2025-04-22T12:15:09.980+03:00,767006094.6096033,0,-20.45,100.4477,1,0.85,2025-04-22T12:14:03.331+03:00,112,1.866666666666667,2025-04-22T09:54:17.825+03:00,0.02225348692287972,0
2025-04-22T12:15:40.433+03:00,1745313339.469681,40.95212370955056,29.14023444794606,75.95811,-1,-1,-1,-1,30,23.14434125577553,-9999,29675.77095841667,-0.82464599609375,0.5113525390625,-0.23626708984375,29675.76845641667,-1.098072106395066,-1.284331671275661,-0.5313549739191096,-0.02217964082956314,0.0128671582788229,-0.006840227637439966,0.0005269646644592285,0.001568257808685303,0.008327990770339966,XArbitraryZVertical,-0.4809532733884594,-0.3832522323396012,-0.2691026577183266,0.7412054204683393,-0.8269888758659363,0.5067019462585449,-0.2436033487319946,0,0,0,-1,-1,29661.316794875,unknown,2,2025-04-22T12:15:07.401+03:00,2025-04-21T17:08:51.449+03:00,7224,0.9707136,0,0,6027.237,5,20,2025-04-22T12:15:09.980+03:00,767006094.6096033,0,-20.45,100.4477,1,0.85,2025-04-22T12:14:03.331+03:00,112,1.866666666666667,2025-04-22T09:54:17.825+03:00,0.02225348692287972,0
2025-04-22T12:15:40.443+03:00,1745313339.469681,40.95212370955056,29.14023444794606,75.95811,-1,-1,-1,-1,30,23.14434125577553,-9999,29675.78103441667,-0.82623291015625,0.51373291015625,-0.2379150390625,29675.77853241667,-1.098384175670653,-1.284381457638918,-0.5313715777676498,-0.0187260527163744,0.01303014345467091,-0.007141431327909231,0.001797497272491455,0.005215883255004883,0.006331339478492737,XArbitraryZVertical,-0.4810246275126483,-0.3831911244653199,-0.2692012823340543,0.7411547306586496,-0.8269927501678467,0.506716251373291,-0.2435597330331802,0,0,0,-1,-1,29661.316794875,unknown,2,2025-04-22T12:15:07.401+03:00,2025-04-21T17:08:51.449+03:00,7224,0.9707136,0,0,6027.237,5,20,2025-04-22T12:15:09.980+03:00,767006094.6096033,0,-20.45,100.4477,1,0.85,2025-04-22T12:14:03.331+03:00,112,1.866666666666667,2025-04-22T09:54:17.825+03:00,0.02225348692287972,0
2025-04-22T12:15:40.453+03:00,1745313339.469681,40.95212370955056,29.14023444794606,75.95811,-1,-1,-1,-1,30,23.14434125577553,-9999,29675.79111041667,-0.8267974853515625,0.5173187255859375,-0.2386932373046875,29675.78860841667,-1.098599889642514,-1.284380082440454,-0.5313782491617939,-0.009063838049769402,0.01890401169657707,-0.01171660795807838,0.000649571418762207,0.007209062576293945,0.005522757768630981,XArbitraryZVertical,-0.4810676833300961,-0.3831369447029531,-0.269279547311883,0.7411263888296198,-0.8269891738891602,0.5067220330238342,-0.2435599267482758,0,0,0,-1,-1,29661.316794875,unknown,2,2025-04-22T12:15:07.401+03:00,2025-04-21T17:08:51.449+03:00,7224,0.9707136,0,0,6027.237,5,20,2025-04-22T12:15:09.980+03:00,767006094.6096033,0,-20.45,100.4477,1,0.85,2025-04-22T12:14:03.331+03:00,112,1.866666666666667,2025-04-22T09:54:17.825+03:00,0.02225348692287972,0
2025-04-22T12:15:40.463+03:00,1745313339.469681,40.95212370955056,29.14023444794606,75.95811,-1,-1,-1,-1,30,23.14434125577553,-9999,29675.80118641667,-0.8289947509765625,0.5146331787109375,-0.2306671142578125,29675.79868441667,-1.09878485457745,-1.284307978909665,-0.5313631215145617,-0.009864650666713715,0.02404125034809113,-0.009091796353459358,-0.0005508661270141602,0.01071637868881226,0.005462542176246643,XArbitraryZVertical,-0.4810890341112062,-0.3830698050827401,-0.2693699947523027,0.7411143824373564,-0.8269789814949036,0.5067089796066284,-0.2436217367649078,0,0,0,-1,-1,29661.316794875,unknown,2,2025-04-22T12:15:07.401+03:00,2025-04-21T17:08:51.449+03:00,7224,0.9707136,0,0,6027.237,5,20,2025-04-22T12:15:09.980+03:00,767006094.6096033,0,-20.45,100.4477,1,0.85,2025-04-22T12:14:03.331+03:00,112,1.866666666666667,2025-04-22T09:54:17.825+03:00,0.02225348692287972,0
2025-04-22T12:15:40.473+03:00,1745313339.469681,40.95212370955056,29.14023444794606,75.95811,-1,-1,-1,-1,30,23.14434125577553,-9999,29675.81126241667,-0.8265838623046875,0.50518798828125,-0.23046875,29675.80876041667,-1.09897390822142,-1.284218779806885,-0.5313952105524149,-0.0104080680757761,0.02643396705389023,-0.00305940443649888,-0.002770185470581055,0.00768280029296875,0.01386302709579468,XArbitraryZVertical,-0.4811224573922873,-0.3829826637827664,-0.2694518539545162,0.7411080203444466,-0.8269417285919189,0.5067366361618042,-0.2436909228563309,0,0,0,-1,-1,29661.316794875,unknown,2,2025-04-22T12:15:07.401+03:00,2025-04-21T17:08:51.449+03:00,7224,0.9707136,0,0,6027.237,5,20,2025-04-22T12:15:09.980+03:00,767006094.6096033,0,-20.45,100.4477,1,0.85,2025-04-22T12:14:03.331+03:00,112,1.866666666666667,2025-04-22T09:54:17.825+03:00,0.02225348692287972,0
2025-04-22T12:15:40.483+03:00,1745313339.469681,40.95212370955056,29.14023444794606,75.95811,-1,-1,-1,-1,30,23.14434125577553,-9999,29675.82133841667,-0.8200225830078125,0.506805419921875,-0.2303009033203125,29675.81883641667,-1.099202086798654,-1.284165564098566,-0.5314180059376853,-0.01789128594100475,0.01954436860978603,-0.007661879528313875,0.001142561435699463,-0.002026200294494629,0.01324760913848877,XArbitraryZVertical,-0.4811655352995807,-0.3829019331727567,-0.2695423501692677,0.7410888973533496,-0.8269177079200745,0.5067563056945801,-0.243731677532196,0,0,0,-1,-1,29661.316794875,unknown,2,2025-04-22T12:15:07.401+03:00,2025-04-21T17:08:51.449+03:00,7224,0.9707136,0,0,6027.237,5,20,2025-04-22T12:15:09.980+03:00,767006094.6096033,0,-20.45,100.4477,1,0.85,2025-04-22T12:14:03.331+03:00,112,1.866666666666667,2025-04-22T09:54:17.825+03:00,0.02225348692287972,0
2025-04-22T12:15:40.494+03:00,1745313339.469681,40.95212370955056,29.14023444794606,75.95811,-1,-1,-1,-1,30,23.14434125577553,-9999,29675.83141441667,-0.8205718994140625,0.506805419921875,-0.2319488525390625,29675.82891241667,-1.099523060357868,-1.284165643463763,-0.5314514271627706,-0.02721254900097847,0.0237911120057106,-0.005393898114562035,0.007199347019195557,2.014636993408203e-05,0.01368522644042969,XArbitraryZVertical,-0.4812366290900487,-0.3828157484444362,-0.2696511920855459,0.7410476599401848,-0.8269014954566956,0.5067850947380066,-0.2437268197536469,0,0,0,-1,-1,29661.316794875,unknown,2,2025-04-22T12:15:07.401+03:00,2025-04-21T17:08:51.449+03:00,7224,0.9707136,0,0,6027.237,5,20,2025-04-22T12:15:09.980+03:00,767006094.6096033,0,-20.45,100.4477,1,0.85,2025-04-22T12:14:03.331+03:00,112,1.866666666666667,2025-04-22T09:54:17.825+03:00,0.02225348692287972,0
2025-04-22T12:15:40.504+03:00,1745313339.469681,40.95212370955056,29.14023444794606,75.95811,-1,-1,-1,-1,30,23.14434125577553,-9999,29675.84149041667,-0.8248443603515625,0.5046234130859375,-0.2340545654296875,29675.83898841667,-1.099877933389631,-1.284146557230122,-0.5315014869920834,-0.02710149623453617,0.02442973852157593,-0.003136070445179939,0.005690217018127441,-0.0005112290382385254,0.01200017333030701,XArbitraryZVertical,-0.4813163963075734,-0.3827098230436998,-0.2697721940264093,0.7410065470511932,-0.8268725275993347,0.506828248500824,-0.2437354326248169,0,0,0,-1,-1,29661.316794875,unknown,2,2025-04-22T12:15:07.401+03:00,2025-04-21T17:08:51.449+03:00,7224,0.9707136,0,0,6027.237,5,20,2025-04-22T12:15:09.980+03:00,767006094.6096033,0,-20.45,100.4477,1,0.85,2025-04-22T12:14:03.331+03:00,112,1.866666666666667,2025-04-22T09:54:17.825+03:00,0.02225348692287972,0
2025-04-22T12:15:40.514+03:00,1745313339.469681,40.95212370955056,29.14023444794606,75.95811,-1,-1,-1,-1,30,23.14434125577553,-9999,29675.85156641667,-0.824249267578125,0.508087158203125,-0.2334747314453125,29675.84906441667,-1.100230733779021,-1.284134282771095,-0.5315590200805056,-0.02817634679377079,0.02122116088867188,-0.005533847026526928,0.001951336860656738,-0.001537442207336426,0.009850561618804932,XArbitraryZVertical,-0.4813988575770994,-0.3826048663621571,-0.2698885027890563,0.7409647506470369,-0.8268414735794067,0.5068778395652771,-0.2437373101711273,0,0,0,-1,-1,29661.316794875,unknown,2,2025-04-22T12:15:07.401+03:00,2025-04-21T17:08:51.449+03:00,7224,0.9707136,0,0,6027.237,5,20,2025-04-22T12:15:09.980+03:00,767006094.6096033,0,-20.45,100.4477,1,0.85,2025-04-22T12:14:03.331+03:00,112,1.866666666666667,2025-04-22T09:54:17.825+03:00,0.02225348692287972,0
2025-04-22T12:15:40.526+03:00,1745313339.469681,40.95212370955056,29.14023444794606,75.95811,-1,-1,-1,-1,30,23.14434125577553,-9999,29675.86164241667,-0.82025146484375,0.5126495361328125,-0.2323760986328125,29675.85914041667,-1.100576839040018,-1.284137298865457,-0.5316041687002792,-0.02715262770652771,0.0183396227657795,-0.006174337584525347,0.003272891044616699,0.002619743347167969,0.009902611374855042,XArbitraryZVertical,-0.4814785019703494,-0.3825105071806917,-0.2700023814351237,0.7409201771782833,-0.8268201947212219,0.5069167613983154,-0.2437283247709274,0,0,0,-1,-1,29661.316794875,unknown,2,2025-04-22T12:15:07.401+03:00,2025-04-21T17:08:51.449+03:00,7224,0.9707136,0,0,6027.237,5,20,2025-04-22T12:15:09.980+03:00,767006094.6096033,0,-20.45,100.4477,1,0.85,2025-04-22T12:14:03.331+03:00,112,1.866666666666667,2025-04-22T09:54:17.825+03:00,0.02225348692287972,0
2025-04-22T12:15:40.539+03:00,1745313339.469681,40.95212370955056,29.14023444794606,75.95811,-1,-1,-1,-1,30,23.14434125577553,-9999,29675.87171841667,-0.823516845703125,0.51171875,-0.2314910888671875,29675.86921641667,-1.100946200649789,-1.284151690517641,-0.5316615687845957,-0.02833180874586105,0.02254881523549557,-0.006973252631723881,0.00625455379486084,0.00545424222946167,0.01162201166152954,XArbitraryZVertical,-0.4815675768704124,-0.3824114918035293,-0.2701184834324835,0.7408711826732349,-0.8267959356307983,0.506966233253479,-0.2437082380056381,0,0,0,-1,-1,29661.316794875,unknown,2,2025-04-22T12:15:07.401+03:00,2025-04-21T17:08:51.449+03:00,7224,0.9707136,0,0,6027.237,5,20,2025-04-22T12:15:09.980+03:00,767006094.6096033,0,-20.45,100.4477,1,0.85,2025-04-22T12:14:03.331+03:00,112,1.866666666666667,2025-04-22T09:54:17.825+03:00,0.02225348692287972,0
2025-04-22T12:15:40.544+03:00,1745313339.469681,40.95212370955056,29.14023444794606,75.95811,-1,-1,-1,-1,30,23.14434125577553,-9999,29675.88179441667,-0.8260040283203125,0.5113525390625,-0.2310333251953125,29675.87929241667,-1.101305099121746,-1.284141747706789,-0.5317246597399728,-0.02559967152774334,0.02205133624374866,-0.006882971152663231,0.002635657787322998,0.003950297832489014,0.01229256391525269,XArbitraryZVertical,-0.4816530357462455,-0.3823043943144349,-0.2702348083262746,0.7408284529725039,-0.8267627954483032,0.5070206522941589,-0.2437074035406113,0,0,0,-1,-1,29661.316794875,unknown,2,2025-04-22T12:15:07.401+03:00,2025-04-21T17:08:51.449+03:00,7224,0.9707136,0,0,6027.237,5,20,2025-04-22T12:15:09.980+03:00,767006094.6096033,0,-20.45,100.4477,1,0.85,2025-04-22T12:14:03.331+03:00,112,1.866666666666667,2025-04-22T09:54:17.825+03:00,0.02225348692287972,0
2025-04-22T12:15:40.554+03:00,1745313339.469681,40.95212370955056,29.14023444794606,75.95811,-1,-1,-1,-1,30,23.14434125577553,-9999,29675.89187041667,-0.8232269287109375,0.5124359130859375,-0.23406982421875,29675.88936841667,-1.101688597441485,-1.284181603527299,-0.5317681415378892,-0.02623137459158897,0.02166730910539627,-0.009430950507521629,0.0008083581924438477,0.004187405109405518,0.01208551228046417,XArbitraryZVertical,-0.4817442772011954,-0.3822150633301413,-0.2703541351737466,0.7407716030801926,-0.8267512321472168,0.5070581436157227,-0.2436681985855103,0,0,0,-1,-1,29661.316794875,unknown,2,2025-04-22T12:15:07.401+03:00,2025-04-21T17:08:51.449+03:00,7224,0.9707136,0,0,6027.237,5,20,2025-04-22T12:15:09.980+03:00,767006094.6096033,0,-20.45,100.4477,1,0.85,2025-04-22T12:14:03.331+03:00,112,1.866666666666667,2025-04-22T09:54:17.825+03:00,0.02225348692287972,0
2025-04-22T12:15:40.564+03:00,1745313339.469681,40.95212370955056,29.14023444794606,75.95811,-1,-1,-1,-1,30,23.14434125577553,-9999,29675.90194641667,-0.8218536376953125,0.512542724609375,-0.2349853515625,29675.89944441667,-1.102067940885805,-1.284240635632034,-0.5317747223568791,-0.02981625497341156,0.01854128949344158,-0.00666898675262928,0.003932356834411621,0.005463480949401855,0.009624853730201721,XArbitraryZVertical,-0.4818266346856103,-0.3821437792361591,-0.27047843555047,0.7407094575283383,-0.8267624378204346,0.5070638060569763,-0.2436184585094452,0,0,0,-1,-1,29661.316794875,unknown,2,2025-04-22T12:15:07.401+03:00,2025-04-21T17:08:51.449+03:00,7224,0.9707136,0,0,6027.237,5,20,2025-04-22T12:15:09.980+03:00,767006094.6096033,0,-20.45,100.4477,1,0.85,2025-04-22T12:14:03.331+03:00,112,1.866666666666667,2025-04-22T09:54:17.825+03:00,0.02225348692287972,0
2025-04-22T12:15:40.574+03:00,1745313339.469681,40.95212370955056,29.14023444794606,75.95811,-1,-1,-1,-1,30,23.14434125577553,-9999,29675.91202241667,-0.8217315673828125,0.5102081298828125,-0.2354583740234375,29675.90952041667,-1.102461565786868,-1.284298739607524,-0.5318109775236295,-0.02895905077457428,0.01952952146530151,-0.009778260253369808,0.004920721054077148,0.005661129951477051,0.008137315511703491,XArbitraryZVertical,-0.4819201392912816,-0.3820606912194474,-0.2705992866729712,0.7406473380098708,-0.8267589807510376,0.5070950388908386,-0.2435652166604996,0,0,0,-1,-1,29661.316794875,unknown,2,2025-04-22T12:15:07.401+03:00,2025-04-21T17:08:51.449+03:00,7224,0.9707136,0,0,6027.237,5,20,2025-04-22T12:15:09.980+03:00,767006094.6096033,0,-20.45,100.4477,1,0.85,2025-04-22T12:14:03.331+03:00,112,1.866666666666667,2025-04-22T09:54:17.825+03:00,0.02225348692287972,0
2025-04-22T12:15:40.584+03:00,1745313339.469681,40.95212370955056,29.14023444794606,75.95811,-1,-1,-1,-1,30,23.14434125577553,-9999,29675.92209841667,-0.8223876953125,0.5081024169921875,-0.2344512939453125,29675.91959641667,-1.102852692078352,-1.284365726793979,-0.5318521563115182,-0.02867569029331207,0.01717662066221237,-0.003944606054574251,0.005222082138061523,0.002772271633148193,0.008213400840759277,XArbitraryZVertical,-0.4820157740457773,-0.3819801438293986,-0.2707155713964193,0.740584137471445,-0.8267552256584167,0.50713050365448,-0.2435039281845093,0,0,0,-1,-1,29661.316794875,unknown,2,2025-04-22T12:15:07.401+03:00,2025-04-21T17:08:51.449+03:00,7224,0.9707136,0,0,6027.237,5,20,2025-04-22T12:15:09.980+03:00,767006094.6096033,0,-20.45,100.4477,1,0.85,2025-04-22T12:14:03.331+03:00,112,1.866666666666667,2025-04-22T09:54:17.825+03:00,0.02225348692287972,0
2025-04-22T12:15:40.594+03:00,1745313339.469681,40.95212370955056,29.14023444794606,75.95811,-1,-1,-1,-1,30,23.14434125577553,-9999,29675.93217441667,-0.823760986328125,0.5091552734375,-0.2340545654296875,29675.92967241667,-1.10326073635771,-1.28443400785078,-0.5318990670483101,-0.03400454297661781,0.01865347474813461,-0.006021538749337196,0.004361391067504883,0.001190721988677979,0.009477734565734863,XArbitraryZVertical,-0.4821164312867461,-0.3818944415204811,-0.2708360787845335,0.7405187801849336,-0.8267490863800049,0.5071709752082825,-0.2434407621622086,0,0,0,-1,-1,29661.316794875,unknown,2,2025-04-22T12:15:07.401+03:00,2025-04-21T17:08:51.449+03:00,7224,0.9707136,0,0,6027.237,5,20,2025-04-22T12:15:09.980+03:00,767006094.6096033,0,-20.45,100.4477,1,0.85,2025-04-22T12:14:03.331+03:00,112,1.866666666666667,2025-04-22T09:54:17.825+03:00,0.02225348692287972,0
2025-04-22T12:15:40.604+03:00,1745313339.469681,40.95212370955056,29.14023444794606,75.95811,-1,-1,-1,-1,30,23.14434125577553,-9999,29675.94225041667,-0.8265380859375,0.5107421875,-0.233001708984375,29675.93974841667,-1.103684290860373,-1.284494124287159,-0.5319913052368145,-0.03450654819607735,0.02233822643756866,-0.0018054882530123,0.00250011682510376,0.001477420330047607,0.009033381938934326,XArbitraryZVertical,-0.4822319731798595,-0.3817897282768662,-0.2709506207703936,0.7404556494506597,-0.826718807220459,0.5072504281997681,-0.2433778494596481,0,0,0,-1,-1,29661.316794875,unknown,2,2025-04-22T12:15:07.401+03:00,2025-04-21T17:08:51.449+03:00,7224,0.9707136,0,0,6027.237,5,20,2025-04-22T12:15:09.980+03:00,767006094.6096033,0,-20.45,100.4477,1,0.85,2025-04-22T12:14:03.331+03:00,112,1.866666666666667,2025-04-22T09:54:17.825+03:00,0.02225348692287972,0
2025-04-22T12:15:40.615+03:00,1745313339.469681,40.95212370955056,29.14023444794606,75.95811,-1,-1,-1,-1,30,23.14434125577553,-9999,29675.95232641667,-0.82635498046875,0.511932373046875,-0.2300567626953125,29675.94982441667,-1.104121575464841,-1.284533020892601,-0.5321312769951608,-0.03598147258162498,0.02429771237075329,-0.001635745167732239,-0.0003203153610229492,0.004057586193084717,0.01130044460296631,XArbitraryZVertical,-0.4823609438458297,-0.3816609570415848,-0.2710609793317811,0.7403976909937305,-0.8266602158546448,0.5073710680007935,-0.2433256655931473,0,0,0,-1,-1,29661.316794875,unknown,2,2025-04-22T12:15:07.401+03:00,2025-04-21T17:08:51.449+03:00,7224,0.9707136,0,0,6027.237,5,20,2025-04-22T12:15:09.980+03:00,767006094.6096033,0,-20.45,100.4477,1,0.85,2025-04-22T12:14:03.331+03:00,112,1.866666666666667,2025-04-22T09:54:17.825+03:00,0.02225348692287972,0
2025-04-22T12:15:40.625+03:00,1745313339.469681,40.95212370955056,29.14023444794606,75.95811,-1,-1,-1,-1,30,23.14434125577553,-9999,29675.96240241667,-0.823516845703125,0.509033203125,-0.2315216064453125,29675.95990041667,-1.104578164297148,-1.284565069354686,-0.5322595396924384,-0.03913971409201622,0.02380422875285149,-0.0003054961853194982,0.0007541775703430176,0.003596127033233643,0.01337659358978271,XArbitraryZVertical,-0.4824892770345647,-0.3815281035995262,-0.2711836388470306,0.7403376497483385,-0.8266056180000305,0.507481575012207,-0.2432808130979538,0,0,0,-1,-1,29661.316794875,unknown,2,2025-04-22T12:15:07.401+03:00,2025-04-21T17:08:51.449+03:00,7224,0.9707136,0,0,6027.237,5,20,2025-04-22T12:15:09.980+03:00,767006094.6096033,0,-20.45,100.4477,1,0.85,2025-04-22T12:14:03.331+03:00,112,1.866666666666667,2025-04-22T09:54:17.825+03:00,0.02225348692287972,0
2025-04-22T12:15:40.635+03:00,1745313339.469681,40.95212370955056,29.14023444794606,75.95811,-1,-1,-1,-1,30,23.14434125577553,-9999,29675.97247841667,-0.823486328125,0.5093231201171875,-0.2320556640625,29675.96997641667,-1.105041529586736,-1.284577105098943,-0.5324252546808641,-0.03870262205600739,0.02786162123084068,0.002604972803965211,0.002690494060516357,0.001485049724578857,0.01175597310066223,XArbitraryZVertical,-0.4826269222620925,-0.3813760572575513,-0.2713023318012317,0.7402827873832174,-0.8265278935432434,0.5076243877410889,-0.2432471066713333,0,0,0,-1,-1,29661.316794875,unknown,2,2025-04-22T12:15:07.401+03:00,2025-04-21T17:08:51.449+03:00,7224,0.9707136,0,0,6027.237,5,20,2025-04-22T12:15:09.980+03:00,767006094.6096033,0,-20.45,100.4477,1,0.85,2025-04-22T12:14:03.331+03:00,112,1.866666666666667,2025-04-22T09:54:17.825+03:00,0.02225348692287972,0
2025-04-22T12:15:40.645+03:00,1745313339.469681,40.95212370955056,29.14023444794606,75.95811,-1,-1,-1,-1,30,23.14434125577553,-9999,29675.98255441667,-0.82489013671875,0.509002685546875,-0.2344970703125,29675.98005241667,-1.105488072684102,-1.284571736801228,-0.5326178102776596,-0.03574438393115997,0.02455104514956474,0.003735218429937959,0.002519190311431885,0.00220412015914917,0.0104205310344696,XArbitraryZVertical,-0.4827666472747972,-0.3812143513813057,-0.2714109121498018,0.7402352102729449,-0.8264328241348267,0.5077902674674988,-0.2432239651679993,0,0,0,-1,-1,29661.316794875,unknown,2,2025-04-22T12:15:07.401+03:00,2025-04-21T17:08:51.449+03:00,7224,0.9707136,0,0,6027.237,5,20,2025-04-22T12:15:09.980+03:00,767006094.6096033,0,-20.45,100.4477,1,0.85,2025-04-22T12:14:03.331+03:00,112,1.866666666666667,2025-04-22T09:54:17.825+03:00,0.02225348692287972,0
2025-04-22T12:15:40.655+03:00,1745313339.469681,40.95212370955056,29.14023444794606,75.95811,-1,-1,-1,-1,30,23.14434125577553,-9999,29675.99263041667,-0.8220062255859375,0.509735107421875,-0.234466552734375,29675.99012841667,-1.105883969955103,-1.284553050234212,-0.5328035921616144,-0.03244219720363617,0.0235343836247921,0.003565241815522313,0.001737475395202637,0.001387953758239746,0.008669853210449219,XArbitraryZVertical,-0.4828929789934662,-0.3810616841084861,-0.2715059502565231,0.7401964522128882,-0.8263376355171204,0.5079503059387207,-0.2432127296924591,0,0,0,-1,-1,29661.316794875,unknown,2,2025-04-22T12:15:07.401+03:00,2025-04-21T17:08:51.449+03:00,7224,0.9707136,0,0,6027.237,5,20,2025-04-22T12:15:09.980+03:00,767006094.6096033,0,-20.45,100.4477,1,0.85,2025-04-22T12:14:03.331+03:00,112,1.866666666666667,2025-04-22T09:54:17.825+03:00,0.02225348692287972,0
2025-04-22T12:15:40.665+03:00,1745313339.469681,40.95212370955056,29.14023444794606,75.95811,-1,-1,-1,-1,30,23.14434125577553,-9999,29676.00270641667,-0.8225250244140625,0.51446533203125,-0.2368621826171875,29676.00020441667,-1.106279361235771,-1.284540894745814,-0.5329837095590446,-0.04237046092748642,0.02472455054521561,0.004828912205994129,0.004637420177459717,0.001965224742889404,0.009218573570251465,XArbitraryZVertical,-0.4830183926941513,-0.3809130721572865,-0.2716009506323187,0.7401562431752077,-0.8262468576431274,0.508105456829071,-0.2431969344615936,0,0,0,-1,-1,29661.316794875,unknown,2,2025-04-22T12:15:07.401+03:00,2025-04-21T17:08:51.449+03:00,7224,0.9707136,0,0,6027.237,5,20,2025-04-22T12:15:09.980+03:00,767006094.6096033,0,-20.45,100.4477,1,0.85,2025-04-22T12:14:03.331+03:00,112,1.866666666666667,2025-04-22T09:54:17.825+03:00,0.02225348692287972,0
2025-04-22T12:15:40.675+03:00,1745313339.469681,40.95212370955056,29.14023444794606,75.95811,-1,-1,-1,-1,30,23.14434125577553,-9999,29676.01278241667,-0.8275146484375,0.51116943359375,-0.2342987060546875,29676.01028041667,-1.106800318874753,-1.284579478082054,-0.5331823425222433,-0.04731734842061996,0.02674715407192707,0.006553541868925095,0.003787040710449219,0.006722688674926758,0.006030216813087463,XArbitraryZVertical,-0.4831798818027257,-0.3807478596870396,-0.2717245719375313,0.7400904400938892,-0.8261594176292419,0.5082765221595764,-0.243136540055275,0,0,0,-1,-1,29661.316794875,unknown,2,2025-04-22T12:15:07.401+03:00,2025-04-21T17:08:51.449+03:00,7224,0.9707136,0,0,6027.237,5,20,2025-04-22T12:15:09.980+03:00,767006094.6096033,0,-20.45,100.4477,1,0.85,2025-04-22T12:14:03.331+03:00,112,1.866666666666667,2025-04-22T09:54:17.825+03:00,0.02225348692287972,0
2025-04-22T12:15:40.685+03:00,1745313339.469681,40.95212370955056,29.14023444794606,75.95811,-1,-1,-1,-1,30,23.14434125577553,-9999,29676.02285841667,-0.8270263671875,0.505096435546875,-0.2331695556640625,29676.02035641667,-1.107367664955921,-1.28463139744907,-0.5334198213185958,-0.04998317360877991,0.02629175409674644,0.009300592355430126,-0.001916110515594482,0.002230525016784668,0.009111762046813965,XArbitraryZVertical,-0.4833630608736207,-0.3805658380324282,-0.2718504385748109,0.740018283541546,-0.8260563015937805,0.5084810256958008,-0.2430595904588699,0,0,0,-1,-1,29661.316794875,unknown,2,2025-04-22T12:15:07.401+03:00,2025-04-21T17:08:51.449+03:00,7224,0.9707136,0,0,6027.237,5,20,2025-04-22T12:15:09.980+03:00,767006094.6096033,0,-20.45,100.4477,1,0.85,2025-04-22T12:14:03.331+03:00,112,1.866666666666667,2025-04-22T09:54:17.825+03:00,0.02225348692287972,0
2025-04-22T12:15:40.695+03:00,1745313339.469681,40.95212370955056,29.14023444794606,75.95811,-1,-1,-1,-1,30,23.14434125577553,-9999,29676.03293441667,-0.825225830078125,0.510009765625,-0.2352752685546875,29676.03043241667,-1.107909189880203,-1.284690331263361,-0.5336765058523653,-0.04272039979696274,0.02610433474183083,0.01072408445179462,-0.0006384849548339844,-0.00371253490447998,0.009682416915893555,XArbitraryZVertical,-0.4835477329915253,-0.3803873737826966,-0.2719592323134599,0.7399494405867189,-0.8259453773498535,0.5087020397186279,-0.2429740726947784,0,0,0,-1,-1,29661.316794875,unknown,2,2025-04-22T12:15:07.401+03:00,2025-04-21T17:08:51.449+03:00,7224,0.9707136,0,0,6027.237,5,20,2025-04-22T12:15:09.980+03:00,767006094.6096033,0,-20.45,100.4477,1,0.85,2025-04-22T12:14:03.331+03:00,112,1.866666666666667,2025-04-22T09:54:17.825+03:00,0.02225348692287972,0
2025-04-22T12:15:40.705+03:00,1745313339.469681,40.95212370955056,29.14023444794606,75.95811,-1,-1,-1,-1,30,23.14434125577553,-9999,29676.04301041667,-0.8245849609375,0.511322021484375,-0.2357635498046875,29676.04050841667,-1.10844484654991,-1.284751580396153,-0.5339443684953082,-0.05412352457642555,0.02684282884001732,0.01186578162014484,0.0005274415016174316,0.001214325428009033,0.007884383201599121,XArbitraryZVertical,-0.483734731843367,-0.3802080875467312,-0.2720619039684881,0.7398816480819481,-0.8258295655250549,0.5089326500892639,-0.2428850382566452,0,0,0,-1,-1,29661.316794875,unknown,2,2025-04-22T12:15:07.401+03:00,2025-04-21T17:08:51.449+03:00,7224,0.9707136,0,0,6027.237,5,20,2025-04-22T12:15:09.980+03:00,767006094.6096033,0,-20.45,100.4477,1,0.85,2025-04-22T12:14:03.331+03:00,112,1.866666666666667,2025-04-22T09:54:17.825+03:00,0.02225348692287972,0
2025-04-22T12:15:40.716+03:00,1745313339.469681,40.95212370955056,29.14023444794606,75.95811,-1,-1,-1,-1,30,23.14434125577553,-9999,29676.05308641667,-0.82513427734375,0.5072174072265625,-0.23260498046875,29676.05058441667,-1.109452452983673,-1.285061482732616,-0.5343578449105063,-0.1719983667135239,0.02145858108997345,0.02049688808619976,0.0011025071144104,0.002231717109680176,0.006897687911987305,XArbitraryZVertical,-0.4840869459453793,-0.379967051723933,-0.2722350326218741,0.7397113265595332,-0.8257027268409729,0.509288489818573,-0.2425697296857834,0,0,0,-1,-1,29661.316794875,unknown,2,2025-04-22T12:15:07.401+03:00,2025-04-21T17:08:51.449+03:00,7224,0.9707136,0,0,6027.237,5,20,2025-04-22T12:15:09.980+03:00,767006094.6096033,0,-20.45,100.4477,1,0.85,2025-04-22T12:14:03.331+03:00,112,1.866666666666667,2025-04-22T09:54:17.825+03:00,0.02225348692287972,0
2025-04-22T12:15:40.726+03:00,1745313339.469681,40.95212370955056,29.14023444794606,75.95811,-1,-1,-1,-1,30,23.14434125577553,-9999,29676.06316241667,-0.828887939453125,0.485565185546875,-0.2148284912109375,29676.06066041667,-1.11193558770329,-1.285956793642874,-0.5351820251964787,-0.2411760985851288,0.05116667598485947,0.02326391264796257,0.0006263852119445801,-0.004458844661712646,0.009824454784393311,XArbitraryZVertical,-0.4849162614004326,-0.379473369080319,-0.2726878957205727,0.7392546585984123,-0.8255165219306946,0.5099976062774658,-0.241712361574173,0,0,0,-1,-1,29661.316794875,unknown,2,2025-04-22T12:15:07.401+03:00,2025-04-21T17:08:51.449+03:00,7224,0.9707136,0,0,6027.237,5,20,2025-04-22T12:15:09.980+03:00,767006094.6096033,0,-20.45,100.4477,1,0.85,2025-04-22T12:14:03.331+03:00,112,1.866666666666667,2025-04-22T09:54:17.825+03:00,0.02225348692287972,0
2025-04-22T12:15:40.736+03:00,1745313339.469681,40.95212370955056,29.14023444794606,75.95811,-1,-1,-1,-1,30,23.14434125577553,-9999,29676.07323841667,-0.8320465087890625,0.460052490234375,-0.243011474609375,29676.07073641667,-1.114593471683859,-1.286902988832383,-0.5361882273133115,-0.2364029884338379,0.03009914234280586,0.03441226854920387,-0.004872024059295654,-0.03126400709152222,0.02586722373962402,XArbitraryZVertical,-0.4858366939816083,-0.3789050649708545,-0.2731370407449919,0.7387759088428185,-0.8252518773078918,0.5108628869056702,-0.2407873123884201,0,0,0,-1,-1,29661.316794875,unknown,2,2025-04-22T12:15:07.401+03:00,2025-04-21T17:08:51.449+03:00,7224,0.9707136,0,0,6027.237,5,20,2025-04-22T12:15:09.980+03:00,767006094.6096033,0,-20.45,100.4477,1,0.85,2025-04-22T12:14:03.331+03:00,112,1.866666666666667,2025-04-22T09:54:17.825+03:00,0.02225348692287972,0
2025-04-22T12:15:40.746+03:00,1745313339.469681,40.95212370955056,29.14023444794606,75.95811,-1,-1,-1,-1,30,23.14434125577553,-9999,29676.08331441667,-0.8207244873046875,0.509613037109375,-0.2379150390625,29676.08081241667,-1.11691375918423,-1.287828479791426,-0.5370558539803377,-0.1918749362230301,0.02584607526659966,0.02018273621797562,-0.005456984043121338,-0.04868757724761963,-0.005888998508453369,XArbitraryZVertical,-0.4866498237854269,-0.3784470266774514,-0.273507183876791,0.7383384040649448,-0.8250483870506287,0.5116085410118103,-0.2398995906114578,0,0,0,-1,-1,29661.316794875,unknown,2,2025-04-22T12:15:07.401+03:00,2025-04-21T17:08:51.449+03:00,7224,0.9707136,0,0,6027.237,5,20,2025-04-22T12:15:09.980+03:00,767006094.6096033,0,-20.45,100.4477,1,0.85,2025-04-22T12:14:03.331+03:00,112,1.866666666666667,2025-04-22T09:54:17.825+03:00,0.02225348692287972,0
2025-04-22T12:15:40.756+03:00,1745313339.469681,40.95212370955056,29.14023444794606,75.95811,-1,-1,-1,-1,30,23.14434125577553,-9999,29676.09339041667,-0.8210906982421875,0.527587890625,-0.236785888671875,29676.09088841667,-1.118925079721501,-1.288593505309938,-0.5378396624220365,-0.1807455122470856,0.03006112575531006,0.03011262975633144,0.005144059658050537,0.003617644309997559,0.002004444599151611,XArbitraryZVertical,-0.4873579262758411,-0.3780264061216781,-0.2738267324473115,0.7379682215071773,-0.8248462080955505,0.5122818350791931,-0.239156574010849,0,0,0,-1,-1,29661.316794875,unknown,2,2025-04-22T12:15:07.401+03:00,2025-04-21T17:08:51.449+03:00,7224,0.9707136,0,0,6027.237,5,20,2025-04-22T12:15:09.980+03:00,767006094.6096033,0,-20.45,100.4477,1,0.85,2025-04-22T12:14:03.331+03:00,112,1.866666666666667,2025-04-22T09:54:17.825+03:00,0.02225348692287972,0
2025-04-22T12:15:40.766+03:00,1745313339.469681,40.95212370955056,29.14023444794606,75.95811,-1,-1,-1,-1,30,23.14434125577553,-9999,29676.10346641667,-0.82965087890625,0.52362060546875,-0.2311859130859375,29676.10096441667,-1.120857969399913,-1.289237407493935,-0.5386164614738281,-0.1762466430664062,0.04271566867828369,0.03007827512919903,0.003130078315734863,0.01434898376464844,0.002400219440460205,XArbitraryZVertical,-0.4880319367571496,-0.3775810546918739,-0.2741483158713524,0.7376312831432954,-0.8246174454689026,0.5129488110542297,-0.2385147511959076,0,0,0,-1,-1,29661.316794875,unknown,2,2025-04-22T12:15:07.401+03:00,2025-04-21T17:08:51.449+03:00,7224,0.9707136,0,0,6027.237,5,20,2025-04-22T12:15:09.980+03:00,767006094.6096033,0,-20.45,100.4477,1,0.85,2025-04-22T12:14:03.331+03:00,112,1.866666666666667,2025-04-22T09:54:17.825+03:00,0.02225348692287972,0
2025-04-22T12:15:40.776+03:00,1745313339.469681,40.95212370955056,29.14023444794606,75.95811,-1,-1,-1,-1,30,23.14434125577553,-9999,29676.11354241667,-0.831268310546875,0.51837158203125,-0.229705810546875,29676.11104041667,-1.122688921294432,-1.289789393146051,-0.5393365037248581,-0.1565460413694382,0.03706377372145653,0.02720452472567558,-0.005806148052215576,0.009626388549804688,0.007259398698806763,XArbitraryZVertical,-0.4886573333617267,-0.377141203918812,-0.2744713157270666,0.7373220738987998,-0.8243939280509949,0.513566792011261,-0.2379570454359055,0,0,0,-1,-1,29661.316794875,unknown,2,2025-04-22T12:15:07.401+03:00,2025-04-21T17:08:51.449+03:00,7224,0.9707136,0,0,6027.237,5,20,2025-04-22T12:15:09.980+03:00,767006094.6096033,0,-20.45,100.4477,1,0.85,2025-04-22T12:14:03.331+03:00,112,1.866666666666667,2025-04-22T09:54:17.825+03:00,0.02225348692287972,0
2025-04-22T12:15:40.786+03:00,1745313339.469681,40.95212370955056,29.14023444794606,75.95811,-1,-1,-1,-1,30,23.14434125577553,-9999,29676.12361841667,-0.8239898681640625,0.527984619140625,-0.2272491455078125,29676.12111641667,-1.124287212896063,-1.29029797016801,-0.5399383321801723,-0.141844853758812,0.03103571012616158,0.01592417247593403,-0.007264137268066406,0.005203843116760254,0.007929399609565735,XArbitraryZVertical,-0.489198849808431,-0.3767736843894802,-0.2747543998125955,0.7370454294534059,-0.8242177367210388,0.5140830874443054,-0.2374521493911743,0,0,0,-1,-1,29661.316794875,unknown,2,2025-04-22T12:15:07.401+03:00,2025-04-21T17:08:51.449+03:00,7224,0.9707136,0,0,6027.237,5,20,2025-04-22T12:15:09.980+03:00,767006094.6096033,0,-20.45,100.4477,1,0.85,2025-04-22T12:14:03.331+03:00,112,1.866666666666667,2025-04-22T09:54:17.825+03:00,0.02225348692287972,0
2025-04-22T12:15:40.796+03:00,1745313339.469681,40.95212370955056,29.14023444794606,75.95811,-1,-1,-1,-1,30,23.14434125577553,-9999,29676.13369441667,-0.822662353515625,0.525482177734375,-0.2299652099609375,29676.13119241667,-1.125928948687494,-1.290776228636543,-0.5404544948818529,-0.158711314201355,0.0422472208738327,0.01031815353780985,0.00110858678817749,0.01496928930282593,0.009475961327552795,XArbitraryZVertical,-0.4897197373191974,-0.3764070930491569,-0.2750863710465489,0.7367629179298226,-0.8240760564804077,0.5145257711410522,-0.2369845509529114,0,0,0,-1,-1,29661.316794875,unknown,2,2025-04-22T12:15:07.401+03:00,2025-04-21T17:08:51.449+03:00,7224,0.9707136,0,0,6027.237,5,20,2025-04-22T12:15:09.980+03:00,767006094.6096033,0,-20.45,100.4477,1,0.85,2025-04-22T12:14:03.331+03:00,112,1.866666666666667,2025-04-22T09:54:17.825+03:00,0.02225348692287972,0
2025-04-22T12:15:40.806+03:00,1745313339.469681,40.95212370955056,29.14023444794606,75.95811,-1,-1,-1,-1,30,23.14434125577553,-9999,29676.14377041667,-0.8326263427734375,0.5004425048828125,-0.223663330078125,29676.14126841667,-1.127912822925474,-1.291345030830319,-0.541047736899185,-0.1863530725240707,0.05024868622422218,0.01558615174144506,-0.0001336932182312012,0.006816089153289795,0.006710410118103027,XArbitraryZVertical,-0.4903387381847508,-0.3759682680096609,-0.275498487270017,0.736421257675695,-0.8239172101020813,0.5150343775749207,-0.2364315688610077,0,0,0,-1,-1,29661.316794875,unknown,2,2025-04-22T12:15:07.401+03:00,2025-04-21T17:08:51.449+03:00,7224,0.9707136,0,0,6027.237,5,20,2025-04-22T12:15:09.980+03:00,767006094.6096033,0,-20.45,100.4477,1,0.85,2025-04-22T12:14:03.331+03:00,112,1.866666666666667,2025-04-22T09:54:17.825+03:00,0.02225348692287972,0
2025-04-22T12:15:40.816+03:00,1745313339.469681,40.95212370955056,29.14023444794606,75.95811,-1,-1,-1,-1,30,23.14434125577553,-9999,29676.15384641667,-0.8282623291015625,0.506622314453125,-0.2272186279296875,29676.15134441667,-1.130061931337922,-1.29207676146519,-0.5415374414522806,-0.1827458143234253,0.04723265394568443,0.01336520910263062,-0.008519470691680908,-0.01653760671615601,0.01296557486057281,XArbitraryZVertical,-0.4909815249708452,-0.375576287326979,-0.2759621278519417,0.7360192659611476,-0.8238473534584045,0.5154540538787842,-0.2357591837644577,0,0,0,-1,-1,29661.316794875,unknown,2,2025-04-22T12:15:07.401+03:00,2025-04-21T17:08:51.449+03:00,7224,0.9707136,0,0,6027.237,5,20,2025-04-22T12:15:09.980+03:00,767006094.6096033,0,-20.45,100.4477,1,0.85,2025-04-22T12:14:03.331+03:00,112,1.866666666666667,2025-04-22T09:54:17.825+03:00,0.02225348692287972,0
2025-04-22T12:15:40.826+03:00,1745313339.469681,40.95212370955056,29.14023444794606,75.95811,-1,-1,-1,-1,30,23.14434125577553,-9999,29676.16392241667,-0.8249969482421875,0.523681640625,-0.240386962890625,29676.16142041667,-1.131970380060951,-1.292530904872446,-0.5418912293391432,-0.1700931340456009,0.05094696581363678,0.01307092979550362,-0.003079473972320557,-0.005884945392608643,0.006575062870979309,XArbitraryZVertical,-0.4915020613991472,-0.3751776457220621,-0.2764458564233164,0.7356935636727923,-0.8237789869308472,0.5157572031021118,-0.2353349179029465,0,0,0,-1,-1,29661.316794875,unknown,2,2025-04-22T12:15:07.401+03:00,2025-04-21T17:08:51.449+03:00,7224,0.9707136,0,0,6027.237,5,20,2025-04-22T12:15:09.980+03:00,767006094.6096033,0,-20.45,100.4477,1,0.85,2025-04-22T12:14:03.331+03:00,112,1.866666666666667,2025-04-22T09:54:17.825+03:00,0.02225348692287972,0
2025-04-22T12:15:40.836+03:00,1745313339.469681,40.95212370955056,29.14023444794606,75.95811,-1,-1,-1,-1,30,23.14434125577553,-9999,29676.17399841667,-0.831085205078125,0.526611328125,-0.2337188720703125,29676.17149641667,-1.133827740494249,-1.292936706922618,-0.5425425895923551,-0.1584276258945465,0.05976609140634537,0.02146844193339348,-0.0017203688621521,0.007610440254211426,-0.005417555570602417,XArbitraryZVertical,-0.4920895733907777,-0.3746914120878678,-0.2768323160072907,0.7354032177443812,-0.8235511183738708,0.5163151025772095,-0.234908401966095,0,0,0,-1,-1,29661.316794875,unknown,2,2025-04-22T12:15:07.401+03:00,2025-04-21T17:08:51.449+03:00,7224,0.9707136,0,0,6027.237,5,20,2025-04-22T12:15:09.980+03:00,767006094.6096033,0,-20.45,100.4477,1,0.85,2025-04-22T12:14:03.331+03:00,112,1.866666666666667,2025-04-22T09:54:17.825+03:00,0.02225348692287972,0
2025-04-22T12:15:40.847+03:00,1745313339.469681,40.95212370955056,29.14023444794606,75.95811,-1,-1,-1,-1,30,23.14434125577553,-9999,29676.18407441667,-0.834381103515625,0.5339202880859375,-0.22869873046875,29676.18157241667,-1.135493852367788,-1.293150908743829,-0.5432262616992087,-0.1436902284622192,0.0670277327299118,0.01592400670051575,-0.008632063865661621,0.01135855913162231,0.002213254570960999,XArbitraryZVertical,-0.4926231685135383,-0.3741721852418915,-0.2771855040934351,0.7351772730422984,-0.8232617974281311,0.5169004797935486,-0.2346351742744446,0,0,0,-1,-1,29661.316794875,unknown,2,2025-04-22T12:15:07.401+03:00,2025-04-21T17:08:51.449+03:00,7224,0.9707136,0,0,6027.237,5,20,2025-04-22T12:15:09.980+03:00,767006094.6096033,0,-20.45,100.4477,1,0.85,2025-04-22T12:14:03.331+03:00,112,1.866666666666667,2025-04-22T09:54:17.825+03:00,0.02225348692287972,0
2025-04-22T12:15:40.857+03:00,1745313339.469681,40.95212370955056,29.14023444794606,75.95811,-1,-1,-1,-1,30,23.14434125577553,-9999,29676.19415041667,-0.8325958251953125,0.5275726318359375,-0.222412109375,29676.19164841667,-1.137067176930012,-1.293272846653914,-0.5438035022611177,-0.1452970504760742,0.06578975915908813,0.01819468475878239,-0.01110309362411499,0.0164949893951416,0.006929174065589905,XArbitraryZVertical,-0.4930961627267667,-0.3736705425202183,-0.2775592453467784,0.7349742749625449,-0.8230032920837402,0.5173945426940918,-0.2344529926776886,0,0,0,-1,-1,29661.316794875,unknown,2,2025-04-22T12:15:07.401+03:00,2025-04-21T17:08:51.449+03:00,7224,0.9707136,0,0,6027.237,5,20,2025-04-22T12:15:09.980+03:00,767006094.6096033,0,-20.45,100.4477,1,0.85,2025-04-22T12:14:03.331+03:00,112,1.866666666666667,2025-04-22T09:54:17.825+03:00,0.02225348692287972,0
2025-04-22T12:15:40.866+03:00,1745313339.469681,40.95212370955056,29.14023444794606,75.95811,-1,-1,-1,-1,30,23.14434125577553,-9999,29676.20422641667,-0.8244781494140625,0.5314788818359375,-0.2275390625,29676.20172441667,-1.138531607777808,-1.293383493777588,-0.5443265902293424,-0.1183959171175957,0.06950434297323227,0.01647907681763172,-0.008758842945098877,0.01061528921127319,0.01147891581058502,XArbitraryZVertical,-0.4935315480967921,-0.3732060010544611,-0.2779119462853603,0.7347847741068548,-0.8227688074111938,0.5178421139717102,-0.2342877835035324,0,0,0,-1,-1,29661.316794875,unknown,2,2025-04-22T12:15:07.401+03:00,2025-04-21T17:08:51.449+03:00,7224,0.9707136,0,0,6027.237,5,20,2025-04-22T12:15:09.980+03:00,767006094.6096033,0,-20.45,100.4477,1,0.85,2025-04-22T12:14:03.331+03:00,112,1.866666666666667,2025-04-22T09:54:17.825+03:00,0.02225348692287972,0
2025-04-22T12:15:40.877+03:00,1745313339.469681,40.95212370955056,29.14023444794606,75.95811,-1,-1,-1,-1,30,23.14434125577553,-9999,29676.21430241667,-0.8247528076171875,0.4996490478515625,-0.2306365966796875,29676.21180041667,-1.139622774671079,-1.293238935860616,-0.5447689814018047,-0.07287377864122391,0.07560157775878906,0.00844202283769846,-0.001231133937835693,0.01016062498092651,0.00663699209690094,XArbitraryZVertical,-0.4938387982512418,-0.3727616849949446,-0.2782147959607305,0.734689296587955,-0.822514533996582,0.5182205438613892,-0.2343439310789108,0,0,0,-1,-1,29661.316794875,unknown,2,2025-04-22T12:15:07.401+03:00,2025-04-21T17:08:51.449+03:00,7224,0.9707136,0,0,6027.237,5,20,2025-04-22T12:15:09.980+03:00,767006094.6096033,0,-20.45,100.4477,1,0.85,2025-04-22T12:14:03.331+03:00,112,1.866666666666667,2025-04-22T09:54:17.825+03:00,0.02225348692287972,0
2025-04-22T12:15:40.887+03:00,1745313339.469681,40.95212370955056,29.14023444794606,75.95811,-1,-1,-1,-1,30,23.14434125577553,-9999,29676.22437841667,-0.8262939453125,0.5103759765625,-0.2293701171875,29676.22187641667,-1.140170428510075,-1.292757082993442,-0.5449117911477511,-0.02267079427838326,0.08210741728544235,-0.008655471727252007,-0.003246307373046875,-0.02137929201126099,0.003534018993377686,XArbitraryZVertical,-0.493913709912372,-0.3724100910727827,-0.2784918266938538,0.7347123365980713,-0.8223304152488708,0.5183426737785339,-0.2347199469804764,0,0,0,-1,-1,29661.316794875,unknown,2,2025-04-22T12:15:07.401+03:00,2025-04-21T17:08:51.449+03:00,7224,0.9707136,0,0,6027.237,5,20,2025-04-22T12:15:09.980+03:00,767006094.6096033,0,-20.45,100.4477,1,0.85,2025-04-22T12:14:03.331+03:00,112,1.866666666666667,2025-04-22T09:54:17.825+03:00,0.02225348692287972,0
