loggingTime(txt),locationTimestamp_since1970(s),locationLatitude(WGS84),locationLongitude(WGS84),locationAltitude(m),locationSpeed(m/s),locationSpeedAccuracy(m/s),locationCourse(°),locationCourseAccuracy(°),locationVerticalAccuracy(m),locationHorizontalAccuracy(m),locationFloor(Z),accelerometerTimestamp_sinceReboot(s),accelerometerAccelerationX(G),accelerometerAccelerationY(G),accelerometerAccelerationZ(G),motionTimestamp_sinceReboot(s),motionYaw(rad),motionRoll(rad),motionPitch(rad),motionRotationRateX(rad/s),motionRotationRateY(rad/s),motionRotationRateZ(rad/s),motionUserAccelerationX(G),motionUserAccelerationY(G),motionUserAccelerationZ(G),motionAttitudeReferenceFrame(txt),motionQuaternionX(R),motionQuaternionY(R),motionQuaternionZ(R),motionQuaternionW(R),motionGravityX(G),motionGravityY(G),motionGravityZ(G),motionMagneticFieldX(µT),motionMagneticFieldY(µT),motionMagneticFieldZ(µT),motionHeading(°),motionMagneticFieldCalibrationAccuracy(Z),activityTimestamp_sinceReboot(s),activity(txt),activityActivityConfidence(Z),activityActivityStartDate(txt),pedometerStartDate(txt),pedometerNumberofSteps(N),pedometerAverageActivePace(s/m),pedometerCurrentPace(s/m),pedometerCurrentCadence(steps/s),pedometerDistance(m),pedometerFloorAscended(N),pedometerFloorDescended(N),pedometerEndDate(txt),altimeterTimestamp_sinceReboot(s),altimeterReset(bool),altimeterRelativeAltitude(m),altimeterPressure(kPa),batteryState(N),batteryLevel(R),heartRateBPMTimestamp(txt),heartRateBPM(N),heartRateBPS(R),heartRateVariabilityTimestamp(txt),heartRateVariability(ms),label
2025-04-21T10:59:45.224+03:00,1745222379.683002,40.95358469045333,29.14095995195676,92.5589,-1,-1,-1,-1,30,23.16670695740329,-9999,13039.19303325,-0.7519378662109375,0.3570098876953125,-0.5370635986328125,13039.18422525,-1.637480019830725,-0.9608129899136905,-0.3595032256838605,0.1208104118704796,-0.07792978733778,-0.02399324811995029,0.02720701694488525,0.07473498582839966,-0.04198431968688965,XArbitraryZVertical,-0.4403671257397405,-0.1948350266239598,-0.5807443716635634,0.656393173741289,-0.7672582268714905,0.3518092632293701,-0.5362322330474854,0,0,0,-1,-1,13033.96356004167,unknown,2,2025-04-21T10:59:39.965+03:00,2025-04-20T21:57:49.637+03:00,1517,1.088974,0,0,1136.478,1,4,2025-04-21T10:59:42.545+03:00,766915182.6491463,0,-47.68,100.3032,1,0.65,2025-04-21T10:59:35.766+03:00,104,1.733333333333333,2025-04-21T09:28:58.093+03:00,0.01174319131481236,0
2025-04-21T10:59:45.226+03:00,1745222379.683002,40.95358469045333,29.14095995195676,92.5589,-1,-1,-1,-1,30,23.16670695740329,-9999,13039.20310925,-0.8124237060546875,0.28265380859375,-0.5207366943359375,13039.19430125,-1.637031028983994,-0.9609694559697827,-0.3588863070050909,0.02060471475124359,0.003393835853785276,-0.03234012797474861,0.01558208465576172,0.005778193473815918,-0.0008271336555480957,XArbitraryZVertical,-0.4402035072128547,-0.1951991365592537,-0.5806940648457464,0.6564391968094735,-0.7675198316574097,0.351231724023819,-0.5362363457679749,0,0,0,-1,-1,13033.96356004167,unknown,2,2025-04-21T10:59:39.965+03:00,2025-04-20T21:57:49.637+03:00,1517,1.088974,0,0,1136.478,1,4,2025-04-21T10:59:42.545+03:00,766915182.6491463,0,-47.68,100.3032,1,0.65,2025-04-21T10:59:35.766+03:00,104,1.733333333333333,2025-04-21T09:28:58.093+03:00,0.01174319131481236,0
2025-04-21T10:59:45.226+03:00,1745222379.683002,40.95358469045333,29.14095995195676,92.5589,-1,-1,-1,-1,30,23.16670695740329,-9999,13039.21318525,-0.773895263671875,0.3420867919921875,-0.519683837890625,13039.20437725,-1.637423362324968,-0.9612009070292284,-0.358651830112471,-0.04207864031195641,-0.02781681343913078,-0.04964961111545563,-0.04471218585968018,-0.06835830211639404,0.01536917686462402,XArbitraryZVertical,-0.4402461711917922,-0.1952700473174985,-0.5808218658372498,0.6562764537935289,-0.7677114605903625,0.3510121703147888,-0.5361058115959167,0,0,0,-1,-1,13033.96356004167,unknown,2,2025-04-21T10:59:39.965+03:00,2025-04-20T21:57:49.637+03:00,1517,1.088974,0,0,1136.478,1,4,2025-04-21T10:59:42.545+03:00,766915182.6491463,0,-47.68,100.3032,1,0.65,2025-04-21T10:59:35.766+03:00,104,1.733333333333333,2025-04-21T09:28:58.093+03:00,0.01174319131481236,0
2025-04-21T10:59:45.231+03:00,1745222379.683002,40.95358469045333,29.14095995195676,92.5589,-1,-1,-1,-1,30,23.16670695740329,-9999,13039.22326125,-0.7451171875,0.363006591796875,-0.521453857421875,13039.21445325,-1.638217955191292,-0.9619892042434944,-0.3584593333489587,-0.04941378533840179,-0.06466004997491837,-0.05752218142151833,-0.005705893039703369,-0.008745074272155762,0.01585537195205688,XArbitraryZVertical,-0.440501145914694,-0.1954204729757286,-0.5809500273740704,0.6559471800935365,-0.7681893110275269,0.3508318960666656,-0.5355391502380371,0,0,0,-1,-1,13033.96356004167,unknown,2,2025-04-21T10:59:39.965+03:00,2025-04-20T21:57:49.637+03:00,1517,1.088974,0,0,1136.478,1,4,2025-04-21T10:59:42.545+03:00,766915182.6491463,0,-47.68,100.3032,1,0.65,2025-04-21T10:59:35.766+03:00,104,1.733333333333333,2025-04-21T09:28:58.093+03:00,0.01174319131481236,0
2025-04-21T10:59:45.240+03:00,1745222379.683002,40.95358469045333,29.14095995195676,92.5589,-1,-1,-1,-1,30,23.16670695740329,-9999,13039.23333725,-0.7630157470703125,0.3592681884765625,-0.529022216796875,13039.22452925,-1.638843746363803,-0.9628754785948699,-0.3581899325371196,-0.01648959144949913,-0.05537433922290802,-0.03758252784609795,0.0236240029335022,0.01242700219154358,0.013458251953125,XArbitraryZVertical,-0.4407477087596255,-0.195666625410413,-0.5810173792718506,0.6556483778051405,-0.7687411904335022,0.3505796194076538,-0.5349120497703552,0,0,0,-1,-1,13033.96356004167,unknown,2,2025-04-21T10:59:39.965+03:00,2025-04-20T21:57:49.637+03:00,1517,1.088974,0,0,1136.478,1,4,2025-04-21T10:59:42.545+03:00,766915182.6491463,0,-47.68,100.3032,1,0.65,2025-04-21T10:59:35.766+03:00,104,1.733333333333333,2025-04-21T09:28:58.093+03:00,0.01174319131481236,0
2025-04-21T10:59:45.250+03:00,1745222379.683002,40.95358469045333,29.14095995195676,92.5589,-1,-1,-1,-1,30,23.16670695740329,-9999,13039.24341325,-0.7740936279296875,0.3576202392578125,-0.531097412109375,13039.23460525,-1.639026091554056,-0.9633100128861892,-0.3579789433064686,0.01008582767099142,-0.02422840520739555,-0.02279692329466343,0.006018579006195068,0.008886247873306274,0.005597949028015137,XArbitraryZVertical,-0.4408353504645083,-0.1958420484728131,-0.5810263678921598,0.6555291019214933,-0.7690342664718628,0.350382000207901,-0.5346201658248901,0,0,0,-1,-1,13033.96356004167,unknown,2,2025-04-21T10:59:39.965+03:00,2025-04-20T21:57:49.637+03:00,1517,1.088974,0,0,1136.478,1,4,2025-04-21T10:59:42.545+03:00,766915182.6491463,0,-47.68,100.3032,1,0.65,2025-04-21T10:59:35.766+03:00,104,1.733333333333333,2025-04-21T09:28:58.093+03:00,0.01174319131481236,0
2025-04-21T10:59:45.261+03:00,1745222379.683002,40.95358469045333,29.14095995195676,92.5589,-1,-1,-1,-1,30,23.16670695740329,-9999,13039.25348925,-0.7620086669921875,0.33843994140625,-0.5213165283203125,13039.24468125,-1.639124878271203,-0.963492639227819,-0.3578224625696214,-0.004264016635715961,-0.009898667223751545,-0.0214337520301342,-0.004916667938232422,0.007384836673736572,0.003413617610931396,XArbitraryZVertical,-0.4408562223781334,-0.1959344008434307,-0.5810518599867308,0.6554648841189549,-0.7691769003868103,0.3502354621887207,-0.5345110297203064,0,0,0,-1,-1,13033.96356004167,unknown,2,2025-04-21T10:59:39.965+03:00,2025-04-20T21:57:49.637+03:00,1517,1.088974,0,0,1136.478,1,4,2025-04-21T10:59:42.545+03:00,766915182.6491463,0,-47.68,100.3032,1,0.65,2025-04-21T10:59:35.766+03:00,104,1.733333333333333,2025-04-21T09:28:58.093+03:00,0.01174319131481236,0
2025-04-21T10:59:45.270+03:00,1745222379.683002,40.95358469045333,29.14095995195676,92.5589,-1,-1,-1,-1,30,23.16670695740329,-9999,13039.26356525,-0.754669189453125,0.3274383544921875,-0.513519287109375,13039.25475725,-1.639358141318723,-0.9635962138325274,-0.3577191463571909,-0.01614810712635517,0.004607304930686951,-0.01975942216813564,0.007253348827362061,-0.01169869303703308,0.01313543319702148,XArbitraryZVertical,-0.4408815474598156,-0.1959527475215732,-0.5811274902536222,0.6553752762055639,-0.7692619562149048,0.3501386642456055,-0.534451961517334,0,0,0,-1,-1,13033.96356004167,unknown,2,2025-04-21T10:59:39.965+03:00,2025-04-20T21:57:49.637+03:00,1517,1.088974,0,0,1136.478,1,4,2025-04-21T10:59:42.545+03:00,766915182.6491463,0,-47.68,100.3032,1,0.65,2025-04-21T10:59:35.766+03:00,104,1.733333333333333,2025-04-21T09:28:58.093+03:00,0.01174319131481236,0
2025-04-21T10:59:45.288+03:00,1745222379.683002,40.95358469045333,29.14095995195676,92.5589,-1,-1,-1,-1,30,23.16670695740329,-9999,13039.27364125,-0.7584991455078125,0.340179443359375,-0.5188751220703125,13039.26483325,-1.639579496969745,-0.9635425308424722,-0.3577643280024103,-0.020952383056283,0.01837405189871788,0.0002814314793795347,0.01455116271972656,-0.02274256944656372,0.02096498012542725,XArbitraryZVertical,-0.4408997024319042,-0.1958706973478974,-0.5812022338637026,0.6553213427341499,-0.7692202925682068,0.350180983543396,-0.5344842672348022,0,0,0,-1,-1,13033.96356004167,unknown,2,2025-04-21T10:59:39.965+03:00,2025-04-20T21:57:49.637+03:00,1517,1.088974,0,0,1136.478,1,4,2025-04-21T10:59:42.545+03:00,766915182.6491463,0,-47.68,100.3032,1,0.65,2025-04-21T10:59:35.766+03:00,104,1.733333333333333,2025-04-21T09:28:58.093+03:00,0.01174319131481236,0
2025-04-21T10:59:45.290+03:00,1745222379.683002,40.95358469045333,29.14095995195676,92.5589,-1,-1,-1,-1,30,23.16670695740329,-9999,13039.28371725,-0.76019287109375,0.3484344482421875,-0.53118896484375,13039.27490925,-1.639660572994583,-0.9633505439430239,-0.3579119693025847,-0.01107099000364542,0.0253928117454052,0.01305554993450642,0.01057600975036621,-0.01013979315757751,0.01572728157043457,XArbitraryZVertical,-0.4408913095520456,-0.195738715200441,-0.5812396597206343,0.65533327758743,-0.7690752148628235,0.3503192961215973,-0.5346024036407471,0,0,0,-1,-1,13033.96356004167,unknown,2,2025-04-21T10:59:39.965+03:00,2025-04-20T21:57:49.637+03:00,1517,1.088974,0,0,1136.478,1,4,2025-04-21T10:59:42.545+03:00,766915182.6491463,0,-47.68,100.3032,1,0.65,2025-04-21T10:59:35.766+03:00,104,1.733333333333333,2025-04-21T09:28:58.093+03:00,0.01174319131481236,0
2025-04-21T10:59:45.300+03:00,1745222379.683002,40.95358469045333,29.14095995195676,92.5589,-1,-1,-1,-1,30,23.16670695740329,-9999,13039.29379325,-0.75775146484375,0.3519744873046875,-0.5376739501953125,13039.28498525,-1.639614303918002,-0.9631024301036043,-0.3580906220479682,-0.007197954226285219,0.02066037431359291,0.02402697503566742,0.00869828462600708,-0.002052098512649536,0.003568530082702637,XArbitraryZVertical,-0.4408624701333032,-0.1956056209703522,-0.5812410841148897,0.6553910765664153,-0.7688910961151123,0.3504866063594818,-0.5347574353218079,0,0,0,-1,-1,13033.96356004167,unknown,2,2025-04-21T10:59:39.965+03:00,2025-04-20T21:57:49.637+03:00,1517,1.088974,0,0,1136.478,1,4,2025-04-21T10:59:42.545+03:00,766915182.6491463,0,-47.68,100.3032,1,0.65,2025-04-21T10:59:35.766+03:00,104,1.733333333333333,2025-04-21T09:28:58.093+03:00,0.01174319131481236,0
2025-04-21T10:59:45.310+03:00,1745222379.683002,40.95358469045333,29.14095995195676,92.5589,-1,-1,-1,-1,30,23.16670695740329,-9999,13039.30387025,-0.757110595703125,0.3493194580078125,-0.5338134765625,13039.29506125,-1.639480894871339,-0.9629146979615056,-0.3583424914585123,-0.004447175189852715,0.009258050471544266,0.02947899699211121,0.01096683740615845,0.001252025365829468,-0.002822518348693848,XArbitraryZVertical,-0.4408622418613354,-0.1954861155472522,-0.5811850306666654,0.6554765257023022,-0.7687181830406189,0.3507224917411804,-0.5348513126373291,0,0,0,-1,-1,13033.96356004167,unknown,2,2025-04-21T10:59:39.965+03:00,2025-04-20T21:57:49.637+03:00,1517,1.088974,0,0,1136.478,1,4,2025-04-21T10:59:42.545+03:00,766915182.6491463,0,-47.68,100.3032,1,0.65,2025-04-21T10:59:35.766+03:00,104,1.733333333333333,2025-04-21T09:28:58.093+03:00,0.01174319131481236,0
2025-04-21T10:59:45.320+03:00,1745222379.683002,40.95358469045333,29.14095995195676,92.5589,-1,-1,-1,-1,30,23.16670695740329,-9999,13039.31394625,-0.75885009765625,0.343170166015625,-0.5326080322265625,13039.30513825,-1.639376975299332,-0.962847871156397,-0.3586441056562598,-0.01130994129925966,-0.005178214050829411,0.02743751928210258,0.01148509979248047,-0.001685470342636108,0.001028835773468018,XArbitraryZVertical,-0.4409133346697736,-0.1953824798051628,-0.5811013810686241,0.655547184540211,-0.7685955762863159,0.3510049283504486,-0.5348422527313232,0,0,0,-1,-1,13033.96356004167,unknown,2,2025-04-21T10:59:39.965+03:00,2025-04-20T21:57:49.637+03:00,1517,1.088974,0,0,1136.478,1,4,2025-04-21T10:59:42.545+03:00,766915182.6491463,0,-47.68,100.3032,1,0.65,2025-04-21T10:59:35.766+03:00,104,1.733333333333333,2025-04-21T09:28:58.093+03:00,0.01174319131481236,0
2025-04-21T10:59:45.330+03:00,1745222379.683002,40.95358469045333,29.14095995195676,92.5589,-1,-1,-1,-1,30,23.16670695740329,-9999,13039.32402225,-0.7606964111328125,0.3458404541015625,-0.536651611328125,13039.31521425,-1.639373241913164,-0.9629644435436887,-0.35893566453616,-0.0189319085329771,-0.0165011752396822,0.02036922238767147,0.009723901748657227,-0.008107662200927734,0.002086222171783447,XArbitraryZVertical,-0.4410247614652628,-0.1953203914614301,-0.5810123042634259,0.6555697975522647,-0.7685739398002625,0.3512779176235199,-0.5346941947937012,0,0,0,-1,-1,13033.96356004167,unknown,2,2025-04-21T10:59:39.965+03:00,2025-04-20T21:57:49.637+03:00,1517,1.088974,0,0,1136.478,1,4,2025-04-21T10:59:45.124+03:00,766915185.2267745,0,-47.58,100.3032,1,0.65,2025-04-21T10:59:35.766+03:00,104,1.733333333333333,2025-04-21T09:28:58.093+03:00,0.01174319131481236,0
2025-04-21T10:59:45.341+03:00,1745222379.683002,40.95358469045333,29.14095995195676,92.5589,-1,-1,-1,-1,30,23.16670695740329,-9999,13039.33409825,-0.759063720703125,0.3563232421875,-0.5412139892578125,13039.32529025,-1.639485653613989,-0.9632582139950289,-0.3592215408654684,-0.02790003828704357,-0.03153305500745773,0.01671872660517693,0.00795215368270874,-0.005705088376998901,-0.002240538597106934,XArbitraryZVertical,-0.4411974866346232,-0.1952927179103554,-0.5809233766937948,0.6555406557901375,-0.7686485052108765,0.3515455722808838,-0.5344110727310181,0,0,0,-1,-1,13033.96356004167,unknown,2,2025-04-21T10:59:39.965+03:00,2025-04-20T21:57:49.637+03:00,1517,1.088974,0,0,1136.478,1,4,2025-04-21T10:59:45.124+03:00,766915185.2267745,0,-47.58,100.3032,1,0.65,2025-04-21T10:59:35.766+03:00,104,1.733333333333333,2025-04-21T09:28:58.093+03:00,0.01174319131481236,0
2025-04-21T10:59:45.350+03:00,1745222379.683002,40.95358469045333,29.14095995195676,92.5589,-1,-1,-1,-1,30,23.16670695740329,-9999,13039.34417425,-0.758026123046875,0.3644256591796875,-0.5416107177734375,13039.33536625,-1.639609611860419,-0.9637290047573133,-0.3594358518746883,-0.01794860325753689,-0.0493120551109314,0.007702862843871117,0.009774446487426758,0.004577100276947021,-0.007207810878753662,XArbitraryZVertical,-0.4414035874651251,-0.195345326286237,-0.5808143949808759,0.6554828327611559,-0.768838107585907,0.3517462015151978,-0.5340061783790588,0,0,0,-1,-1,13033.96356004167,unknown,2,2025-04-21T10:59:39.965+03:00,2025-04-20T21:57:49.637+03:00,1517,1.088974,0,0,1136.478,1,4,2025-04-21T10:59:45.124+03:00,766915185.2267745,0,-47.58,100.3032,1,0.65,2025-04-21T10:59:35.766+03:00,104,1.733333333333333,2025-04-21T09:28:58.093+03:00,0.01174319131481236,0
2025-04-21T10:59:45.361+03:00,1745222379.683002,40.95358469045333,29.14095995195676,92.5589,-1,-1,-1,-1,30,23.16670695740329,-9999,13039.35425025,-0.7609710693359375,0.362640380859375,-0.5346527099609375,13039.34544225,-1.639727780268187,-0.9643574590819132,-0.3594506559502713,-0.008607432246208191,-0.05879196897149086,-0.007024484686553478,0.01114314794540405,0.01266565918922424,-0.008090794086456299,XArbitraryZVertical,-0.4416015719898849,-0.1955200666815628,-0.5807112358823936,0.6553888013938222,-0.7691693305969238,0.351760059595108,-0.5335199236869812,0,0,0,-1,-1,13033.96356004167,unknown,2,2025-04-21T10:59:39.965+03:00,2025-04-20T21:57:49.637+03:00,1517,1.088974,0,0,1136.478,1,4,2025-04-21T10:59:45.124+03:00,766915185.2267745,0,-47.58,100.3032,1,0.65,2025-04-21T10:59:35.766+03:00,104,1.733333333333333,2025-04-21T09:28:58.093+03:00,0.01174319131481236,0
2025-04-21T10:59:45.371+03:00,1745222379.683002,40.95358469045333,29.14095995195676,92.5589,-1,-1,-1,-1,30,23.16670695740329,-9999,13039.36432625,-0.7683258056640625,0.354644775390625,-0.5338897705078125,13039.35551825,-1.639869988351745,-0.965028603720508,-0.3593699268165431,-0.00215113116428256,-0.058884646743536,-0.01695967465639114,0.008579492568969727,0.01095592975616455,-0.001632928848266602,XArbitraryZVertical,-0.4417888263936053,-0.1957365419300008,-0.5806268115658217,0.6552726255208607,-0.7695504426956177,0.3516844809055328,-0.5330196619033813,0,0,0,-1,-1,13033.96356004167,unknown,2,2025-04-21T10:59:39.965+03:00,2025-04-20T21:57:49.637+03:00,1517,1.088974,0,0,1136.478,1,4,2025-04-21T10:59:45.124+03:00,766915185.2267745,0,-47.58,100.3032,1,0.65,2025-04-21T10:59:35.766+03:00,104,1.733333333333333,2025-04-21T09:28:58.093+03:00,0.01174319131481236,0
2025-04-21T10:59:45.381+03:00,1745222379.683002,40.95358469045333,29.14095995195676,92.5589,-1,-1,-1,-1,30,23.16670695740329,-9999,13039.37440225,-0.7767486572265625,0.3462982177734375,-0.5305023193359375,13039.36559425,-1.640060139394608,-0.9656071373621632,-0.359261434028161,-0.01360225770622492,-0.04726108536124229,-0.02077148854732513,0.001564383506774902,0.003061920404434204,-0.001293599605560303,XArbitraryZVertical,-0.4419464250389008,-0.19592170080671,-0.5805844719540048,0.6551485398654497,-0.7698900699615479,0.3515829145908356,-0.5325961112976074,0,0,0,-1,-1,13033.96356004167,unknown,2,2025-04-21T10:59:39.965+03:00,2025-04-20T21:57:49.637+03:00,1517,1.088974,0,0,1136.478,1,4,2025-04-21T10:59:45.124+03:00,766915185.2267745,0,-47.58,100.3032,1,0.65,2025-04-21T10:59:35.766+03:00,104,1.733333333333333,2025-04-21T09:28:58.093+03:00,0.01174319131481236,0
2025-04-21T10:59:45.391+03:00,1745222379.683002,40.95358469045333,29.14095995195676,92.5589,-1,-1,-1,-1,30,23.16670695740329,-9999,13039.38447825,-0.7758941650390625,0.343505859375,-0.5265350341796875,13039.37567025,-1.640263583484234,-0.9660666050667839,-0.359176756792505,-0.009619234129786491,-0.03691044449806213,-0.01661296188831329,-0.006589353084564209,-0.005205422639846802,0.001756966114044189,XArbitraryZVertical,-0.4420771403606833,-0.1960566077192151,-0.5805676579682015,0.6550348814222418,-0.7701591849327087,0.3515036404132843,-0.5322592258453369,0,0,0,-1,-1,13033.96356004167,unknown,2,2025-04-21T10:59:39.965+03:00,2025-04-20T21:57:49.637+03:00,1517,1.088974,0,0,1136.478,1,4,2025-04-21T10:59:45.124+03:00,766915185.2267745,0,-47.58,100.3032,1,0.65,2025-04-21T10:59:35.766+03:00,104,1.733333333333333,2025-04-21T09:28:58.093+03:00,0.01174319131481236,0
2025-04-21T10:59:45.401+03:00,1745222379.683002,40.95358469045333,29.14095995195676,92.5589,-1,-1,-1,-1,30,23.16670695740329,-9999,13039.39455425,-0.772705078125,0.3442535400390625,-0.52728271484375,13039.38574625,-1.640389291329452,-0.9663984509028464,-0.359098646489429,-0.004230061545968056,-0.02387906238436699,-0.01065600477159023,-0.005535721778869629,-0.007924586534500122,0.005484223365783691,XArbitraryZVertical,-0.4421649485844231,-0.1961645952067189,-0.5805521663029298,0.6549570241308557,-0.7703583836555481,0.3514305055141449,-0.5320191979408264,0,0,0,-1,-1,13033.96356004167,unknown,2,2025-04-21T10:59:39.965+03:00,2025-04-20T21:57:49.637+03:00,1517,1.088974,0,0,1136.478,1,4,2025-04-21T10:59:45.124+03:00,766915185.2267745,0,-47.58,100.3032,1,0.65,2025-04-21T10:59:35.766+03:00,104,1.733333333333333,2025-04-21T09:28:58.093+03:00,0.01174319131481236,0
2025-04-21T10:59:45.411+03:00,1745222379.683002,40.95358469045333,29.14095995195676,92.5589,-1,-1,-1,-1,30,23.16670695740329,-9999,13039.40463025,-0.7705841064453125,0.3459930419921875,-0.526458740234375,13039.39582225,-1.640410375410903,-0.966576615516867,-0.3590429124482502,0.003119996748864651,-0.01614417880773544,-6.556103471666574e-06,-0.002235710620880127,-0.007124722003936768,0.004610419273376465,XArbitraryZVertical,-0.4422038467649194,-0.1962376219943404,-0.5805316073151646,0.654927162358847,-0.7704693078994751,0.3513783514499664,-0.5318931341171265,0,0,0,-1,-1,13033.96356004167,unknown,2,2025-04-21T10:59:39.965+03:00,2025-04-20T21:57:49.637+03:00,1517,1.088974,0,0,1136.478,1,4,2025-04-21T10:59:45.124+03:00,766915185.2267745,0,-47.58,100.3032,1,0.65,2025-04-21T10:59:35.766+03:00,104,1.733333333333333,2025-04-21T09:28:58.093+03:00,0.01174319131481236,0
2025-04-21T10:59:45.421+03:00,1745222379.683002,40.95358469045333,29.14095995195676,92.5589,-1,-1,-1,-1,30,23.16670695740329,-9999,13039.41470625,-0.7691192626953125,0.3460540771484375,-0.52532958984375,13039.40589825,-1.640336972525839,-0.9666332133142372,-0.3590651400838175,-0.0003941106842830777,-0.009406447410583496,0.01009238418191671,-9.107589721679688e-05,-0.005406081676483154,0.0053863525390625,XArbitraryZVertical,-0.4422190033223309,-0.1962646749829669,-0.5804903037233636,0.6549454277962273,-0.7704929709434509,0.351399153470993,-0.5318450331687927,0,0,0,-1,-1,13033.96356004167,unknown,2,2025-04-21T10:59:39.965+03:00,2025-04-20T21:57:49.637+03:00,1517,1.088974,0,0,1136.478,1,4,2025-04-21T10:59:45.124+03:00,766915185.2267745,0,-47.58,100.3032,1,0.65,2025-04-21T10:59:35.766+03:00,104,1.733333333333333,2025-04-21T09:28:58.093+03:00,0.01174319131481236,0
2025-04-21T10:59:45.432+03:00,1745222379.683002,40.95358469045333,29.14095995195676,92.5589,-1,-1,-1,-1,30,23.16670695740329,-9999,13039.42478225,-0.77020263671875,0.3458251953125,-0.5268707275390625,13039.41597425,-1.640265239815794,-0.9666254976834728,-0.3592040434669717,-0.005115895066410303,-0.00518959853798151,0.01247324980795383,0.001329541206359863,-0.005475074052810669,0.006493747234344482,XArbitraryZVertical,-0.4422467692142562,-0.1962298414780125,-0.5804388380785737,0.6549827734960938,-0.7704487442970276,0.3515291810035706,-0.5318232774734497,0,0,0,-1,-1,13033.96356004167,unknown,2,2025-04-21T10:59:39.965+03:00,2025-04-20T21:57:49.637+03:00,1517,1.088974,0,0,1136.478,1,4,2025-04-21T10:59:45.124+03:00,766915185.2267745,0,-47.58,100.3032,1,0.65,2025-04-21T10:59:35.766+03:00,104,1.733333333333333,2025-04-21T09:28:58.093+03:00,0.01174319131481236,0
2025-04-21T10:59:45.441+03:00,1745222379.683002,40.95358469045333,29.14095995195676,92.5589,-1,-1,-1,-1,30,23.16670695740329,-9999,13039.43485825,-0.7746124267578125,0.348480224609375,-0.52886962890625,13039.42605025,-1.640242548524187,-0.966573411829069,-0.3594007442466443,-0.008177531883120537,0.003321797354146838,0.01090634614229202,0.0001614689826965332,-0.005888104438781738,0.004953384399414062,XArbitraryZVertical,-0.4422819574255074,-0.1961495354669173,-0.5804008229399903,0.6550165820482846,-0.7703640460968018,0.3517133295536041,-0.5318240523338318,0,0,0,-1,-1,13033.96356004167,unknown,2,2025-04-21T10:59:39.965+03:00,2025-04-20T21:57:49.637+03:00,1517,1.088974,0,0,1136.478,1,4,2025-04-21T10:59:45.124+03:00,766915185.2267745,0,-47.58,100.3032,1,0.65,2025-04-21T10:59:35.766+03:00,104,1.733333333333333,2025-04-21T09:28:58.093+03:00,0.01174319131481236,0
2025-04-21T10:59:45.452+03:00,1745222379.683002,40.95358469045333,29.14095995195676,92.5589,-1,-1,-1,-1,30,23.16670695740329,-9999,13039.44493425,-0.774200439453125,0.352783203125,-0.530487060546875,13039.43612625,-1.64023308112701,-0.9664696442115736,-0.3595722888834427,-0.005805188324302435,0.00797194242477417,0.01034495141357183,-0.004353165626525879,-0.003393620252609253,0.003000140190124512,XArbitraryZVertical,-0.4422966723347364,-0.196058146354747,-0.5803839986303767,0.6550489362965578,-0.7702592015266418,0.351873904466629,-0.5318697094917297,0,0,0,-1,-1,13033.96356004167,unknown,2,2025-04-21T10:59:39.965+03:00,2025-04-20T21:57:49.637+03:00,1517,1.088974,0,0,1136.478,1,4,2025-04-21T10:59:45.124+03:00,766915185.2267745,0,-47.58,100.3032,1,0.65,2025-04-21T10:59:35.766+03:00,104,1.733333333333333,2025-04-21T09:28:58.093+03:00,0.01174319131481236,0
2025-04-21T10:59:45.462+03:00,1745222379.683002,40.95358469045333,29.14095995195676,92.5589,-1,-1,-1,-1,30,23.16670695740329,-9999,13039.45501025,-0.7688446044921875,0.3568878173828125,-0.5362701416015625,13039.44620225,-1.640192163126777,-0.9663811868580137,-0.3596398541546629,0.004233131650835276,-0.0001817899756133556,0.002272677142173052,-0.00400775671005249,0.0008460581302642822,0.001437366008758545,XArbitraryZVertical,-0.4422850062918936,-0.1960147939613102,-0.5803757217224157,0.6550771537216675,-0.770192563533783,0.3519371449947357,-0.5319243669509888,0,0,0,-1,-1,13033.96356004167,unknown,2,2025-04-21T10:59:39.965+03:00,2025-04-20T21:57:49.637+03:00,1517,1.088974,0,0,1136.478,1,4,2025-04-21T10:59:45.124+03:00,766915185.2267745,0,-47.58,100.3032,1,0.65,2025-04-21T10:59:35.766+03:00,104,1.733333333333333,2025-04-21T09:28:58.093+03:00,0.01174319131481236,0
2025-04-21T10:59:45.472+03:00,1745222379.683002,40.95358469045333,29.14095995195676,92.5589,-1,-1,-1,-1,30,23.16670695740329,-9999,13039.46508725,-0.7643585205078125,0.357818603515625,-0.53875732421875,13039.45627825,-1.640113976629119,-0.9664122396330862,-0.3595769563286103,0.01259279437363148,-0.00957928691059351,6.544910138472915e-05,0.001382768154144287,0.005009591579437256,-0.004357099533081055,XArbitraryZVertical,-0.4422695654760235,-0.196064077793139,-0.5803567008218034,0.6550897059666971,-0.770227313041687,0.35187828540802,-0.5319130420684814,0,0,0,-1,-1,13033.96356004167,unknown,2,2025-04-21T10:59:39.965+03:00,2025-04-20T21:57:49.637+03:00,1517,1.088974,0,0,1136.478,1,4,2025-04-21T10:59:45.124+03:00,766915185.2267745,0,-47.58,100.3032,1,0.65,2025-04-21T10:59:35.766+03:00,104,1.733333333333333,2025-04-21T09:28:58.093+03:00,0.01174319131481236,0
2025-04-21T10:59:45.482+03:00,1745222379.683002,40.95358469045333,29.14095995195676,92.5589,-1,-1,-1,-1,30,23.16670695740329,-9999,13039.47516325,-0.765869140625,0.3553314208984375,-0.54034423828125,13039.46635525,-1.640008021521994,-0.9665058458446404,-0.3594530595079773,0.0157233402132988,-0.01155508495867252,-0.002825811738148332,0.005954504013061523,0.006056338548660278,-0.006891608238220215,XArbitraryZVertical,-0.4422532852694442,-0.1961611380704301,-0.5803277836651927,0.655097245216989,-0.7703129649162292,0.3517622947692871,-0.531865656375885,0,0,0,-1,-1,13033.96356004167,unknown,2,2025-04-21T10:59:39.965+03:00,2025-04-20T21:57:49.637+03:00,1517,1.088974,0,0,1136.478,1,4,2025-04-21T10:59:45.124+03:00,766915185.2267745,0,-47.58,100.3032,1,0.65,2025-04-21T10:59:35.766+03:00,104,1.733333333333333,2025-04-21T09:28:58.093+03:00,0.01174319131481236,0
2025-04-21T10:59:45.495+03:00,1745222379.683002,40.95358469045333,29.14095995195676,92.5589,-1,-1,-1,-1,30,23.16670695740329,-9999,13039.48523925,-0.767120361328125,0.3522796630859375,-0.534210205078125,13039.47643125,-1.639875560296967,-0.9666351412471309,-0.3593135489611627,0.01644079573452473,-0.01927851885557175,-0.002791989594697952,0.004553020000457764,0.003699749708175659,-0.008550286293029785,XArbitraryZVertical,-0.4422405878613365,-0.1962811573642517,-0.580285627621588,0.6551071838127231,-0.770422101020813,0.3516317009925842,-0.5317939519882202,0,0,0,-1,-1,13033.96356004167,unknown,2,2025-04-21T10:59:39.965+03:00,2025-04-20T21:57:49.637+03:00,1517,1.088974,0,0,1136.478,1,4,2025-04-21T10:59:45.124+03:00,766915185.2267745,0,-47.58,100.3032,1,0.65,2025-04-21T10:59:35.766+03:00,104,1.733333333333333,2025-04-21T09:28:58.093+03:00,0.01174319131481236,0
2025-04-21T10:59:45.509+03:00,1745222379.683002,40.95358469045333,29.14095995195676,92.5589,-1,-1,-1,-1,30,23.16670695740329,-9999,13039.49531525,-0.7662506103515625,0.348724365234375,-0.5252227783203125,13039.48650725,-1.639782670907231,-0.966853879986177,-0.3591814314497928,0.01207214687019587,-0.02664509043097496,-0.008899150416254997,0.003456354141235352,0.0007717013359069824,-0.002558350563049316,XArbitraryZVertical,-0.4422596759102196,-0.1964191621107571,-0.5802350834610032,0.65509770507776,-0.7705766558647156,0.3515080213546753,-0.5316517949104309,0,0,0,-1,-1,13033.96356004167,unknown,2,2025-04-21T10:59:39.965+03:00,2025-04-20T21:57:49.637+03:00,1517,1.088974,0,0,1136.478,1,4,2025-04-21T10:59:45.124+03:00,766915185.2267745,0,-47.58,100.3032,1,0.65,2025-04-21T10:59:35.766+03:00,104,1.733333333333333,2025-04-21T09:28:58.093+03:00,0.01174319131481236,0
2025-04-21T10:59:45.512+03:00,1745222379.683002,40.95358469045333,29.14095995195676,92.5589,-1,-1,-1,-1,30,23.16670695740329,-9999,13039.50539125,-0.7703399658203125,0.3460540771484375,-0.5247802734375,13039.49658325,-1.639752510870528,-0.9671083934372905,-0.3590181619476234,0.009853733703494072,-0.02256379462778568,-0.01464172545820475,0.004508554935455322,-0.002630740404129028,0.006265461444854736,XArbitraryZVertical,-0.4422869576965438,-0.1965658271427966,-0.5802038577934344,0.6550630273679774,-0.7707592248916626,0.3513551652431488,-0.5314882397651672,0,0,0,-1,-1,13033.96356004167,unknown,2,2025-04-21T10:59:39.965+03:00,2025-04-20T21:57:49.637+03:00,1517,1.088974,0,0,1136.478,1,4,2025-04-21T10:59:45.124+03:00,766915185.2267745,0,-47.58,100.3032,1,0.65,2025-04-21T10:59:35.766+03:00,104,1.733333333333333,2025-04-21T09:28:58.093+03:00,0.01174319131481236,0
2025-04-21T10:59:45.522+03:00,1745222379.683002,40.95358469045333,29.14095995195676,92.5589,-1,-1,-1,-1,30,23.16670695740329,-9999,13039.51546725,-0.772613525390625,0.34613037109375,-0.5319671630859375,13039.50665925,-1.639722237088201,-0.967271403698819,-0.3588262354267576,0.01677342504262924,-0.009845070540904999,-0.009118595160543919,0.0005614757537841797,-0.005121350288391113,0.006620645523071289,XArbitraryZVertical,-0.4422800507018896,-0.196692461822271,-0.5801989404178242,0.6550340483124885,-0.7709013819694519,0.351175457239151,-0.5314008593559265,0,0,0,-1,-1,13033.96356004167,unknown,2,2025-04-21T10:59:39.965+03:00,2025-04-20T21:57:49.637+03:00,1517,1.088974,0,0,1136.478,1,4,2025-04-21T10:59:45.124+03:00,766915185.2267745,0,-47.58,100.3032,1,0.65,2025-04-21T10:59:35.766+03:00,104,1.733333333333333,2025-04-21T09:28:58.093+03:00,0.01174319131481236,0
2025-04-21T10:59:45.532+03:00,1745222379.683002,40.95358469045333,29.14095995195676,92.5589,-1,-1,-1,-1,30,23.16670695740329,-9999,13039.52554325,-0.7711029052734375,0.350067138671875,-0.5311279296875,13039.51673525,-1.639592795222543,-0.9672981882709545,-0.3586488834684284,0.02463347837328911,-0.003921400755643845,-0.002009286545217037,-0.001646578311920166,-0.004878997802734375,-0.0005515813827514648,XArbitraryZVertical,-0.4422277429523847,-0.1967913565435118,-0.5801885592884011,0.655048900649375,-0.7709668874740601,0.3510093986988068,-0.531415581703186,0,0,0,-1,-1,13033.96356004167,unknown,2,2025-04-21T10:59:39.965+03:00,2025-04-20T21:57:49.637+03:00,1517,1.088974,0,0,1136.478,1,4,2025-04-21T10:59:45.124+03:00,766915185.2267745,0,-47.58,100.3032,1,0.65,2025-04-21T10:59:35.766+03:00,104,1.733333333333333,2025-04-21T09:28:58.093+03:00,0.01174319131481236,0
2025-04-21T10:59:45.542+03:00,1745222379.683002,40.95358469045333,29.14095995195676,92.5589,-1,-1,-1,-1,30,23.16670695740329,-9999,13039.53561925,-0.76654052734375,0.349822998046875,-0.5289764404296875,13039.52681125,-1.639331588797736,-0.9672618339521382,-0.3584828132586043,0.03195291012525558,-0.002870517782866955,0.00308227795176208,-0.0001073479652404785,-0.0007866919040679932,0.0003487467765808105,XArbitraryZVertical,-0.442147191493769,-0.1968947488256178,-0.5801465224018556,0.6551093356367131,-0.7709954977035522,0.3508538901805878,-0.531476616859436,0,0,0,-1,-1,13033.96356004167,unknown,2,2025-04-21T10:59:39.965+03:00,2025-04-20T21:57:49.637+03:00,1517,1.088974,0,0,1136.478,1,4,2025-04-21T10:59:45.124+03:00,766915185.2267745,0,-47.58,100.3032,1,0.65,2025-04-21T10:59:35.766+03:00,104,1.733333333333333,2025-04-21T09:28:58.093+03:00,0.01174319131481236,0
2025-04-21T10:59:45.552+03:00,1745222379.683002,40.95358469045333,29.14095995195676,92.5589,-1,-1,-1,-1,30,23.16670695740329,-9999,13039.54569525,-0.7657012939453125,0.3477630615234375,-0.5290679931640625,13039.53688725,-1.63903374587993,-0.9671574349700128,-0.3583706116724275,0.02646173723042011,-0.001785279717296362,0.00450547132641077,0.004431962966918945,-0.0009258091449737549,0.002603054046630859,XArbitraryZVertical,-0.4420576069059743,-0.1969652944129238,-0.5800960392720029,0.6551933415900587,-0.7709724307060242,0.3507488369941711,-0.5315794944763184,0,0,0,-1,-1,13033.96356004167,unknown,2,2025-04-21T10:59:39.965+03:00,2025-04-20T21:57:49.637+03:00,1517,1.088974,0,0,1136.478,1,4,2025-04-21T10:59:45.124+03:00,766915185.2267745,0,-47.58,100.3032,1,0.65,2025-04-21T10:59:35.766+03:00,104,1.733333333333333,2025-04-21T09:28:58.093+03:00,0.01174319131481236,0
2025-04-21T10:59:45.562+03:00,1745222379.683002,40.95358469045333,29.14095995195676,92.5589,-1,-1,-1,-1,30,23.16670695740329,-9999,13039.55577125,-0.76593017578125,0.3432769775390625,-0.52972412109375,13039.54696325,-1.638803815262017,-0.9670385474672188,-0.3583306553405126,0.01686090789735317,0.0009770840406417847,0.00694259675219655,0.005219519138336182,-0.002948284149169922,0.002611160278320312,XArbitraryZVertical,-0.4419898282168862,-0.1969909967104061,-0.5800555107256194,0.6552671557400868,-0.7709207534790039,0.3507114052772522,-0.531679093837738,0,0,0,-1,-1,13033.96356004167,unknown,2,2025-04-21T10:59:39.965+03:00,2025-04-20T21:57:49.637+03:00,1517,1.088974,0,0,1136.478,1,4,2025-04-21T10:59:45.124+03:00,766915185.2267745,0,-47.58,100.3032,1,0.65,2025-04-21T10:59:35.766+03:00,104,1.733333333333333,2025-04-21T09:28:58.093+03:00,0.01174319131481236,0
2025-04-21T10:59:45.572+03:00,1745222379.683002,40.95358469045333,29.14095995195676,92.5589,-1,-1,-1,-1,30,23.16670695740329,-9999,13039.56584725,-0.76641845703125,0.341461181640625,-0.527435302734375,13039.55703925,-1.638645747306474,-0.9669538354410674,-0.3583364593826136,0.007374197244644165,-0.005282675847411156,0.005703427828848362,0.004943907260894775,-0.007439792156219482,0.002019166946411133,XArbitraryZVertical,-0.4419512263911092,-0.1969961711036835,-0.5800212128299944,0.6553220420725208,-0.7708740234375,0.3507168292999268,-0.5317432284355164,0,0,0,-1,-1,13033.96356004167,unknown,2,2025-04-21T10:59:39.965+03:00,2025-04-20T21:57:49.637+03:00,1517,1.088974,0,0,1136.478,1,4,2025-04-21T10:59:45.124+03:00,766915185.2267745,0,-47.58,100.3032,1,0.65,2025-04-21T10:59:35.766+03:00,104,1.733333333333333,2025-04-21T09:28:58.093+03:00,0.01174319131481236,0
2025-04-21T10:59:45.582+03:00,1745222379.683002,40.95358469045333,29.14095995195676,92.5589,-1,-1,-1,-1,30,23.16670695740329,-9999,13039.57592325,-0.7653045654296875,0.3462677001953125,-0.5226898193359375,13039.56711525,-1.638589463488565,-0.9669977183060463,-0.3583971821693137,-0.005556847900152206,-0.01361843664199114,0.007277988363057375,0.004461467266082764,-0.009312450885772705,0.004262089729309082,XArbitraryZVertical,-0.4419746152172934,-0.1970019535957272,-0.5799801034797718,0.6553409587558282,-0.770879864692688,0.3507737219333649,-0.5316973328590393,0,0,0,-1,-1,13033.96356004167,unknown,2,2025-04-21T10:59:39.965+03:00,2025-04-20T21:57:49.637+03:00,1517,1.088974,0,0,1136.478,1,4,2025-04-21T10:59:45.124+03:00,766915185.2267745,0,-47.58,100.3032,1,0.65,2025-04-21T10:59:35.766+03:00,104,1.733333333333333,2025-04-21T09:28:58.093+03:00,0.01174319131481236,0
2025-04-21T10:59:45.593+03:00,1745222379.683002,40.95358469045333,29.14095995195676,92.5589,-1,-1,-1,-1,30,23.16670695740329,-9999,13039.58599925,-0.7672271728515625,0.345489501953125,-0.523956298828125,13039.57719125,-1.638669123049295,-0.9671620513296389,-0.3585251822873811,-0.02284529060125351,-0.01390286255627871,0.005541075021028519,0.005625724792480469,-0.004625827074050903,0.008855342864990234,XArbitraryZVertical,-0.4420643318598124,-0.1969938134331057,-0.5799424914787569,0.655316090475165,-0.7709302306175232,0.3508935868740082,-0.531545102596283,0,0,0,-1,-1,13033.96356004167,unknown,2,2025-04-21T10:59:39.965+03:00,2025-04-20T21:57:49.637+03:00,1517,1.088974,0,0,1136.478,1,4,2025-04-21T10:59:45.124+03:00,766915185.2267745,0,-47.58,100.3032,1,0.65,2025-04-21T10:59:35.766+03:00,104,1.733333333333333,2025-04-21T09:28:58.093+03:00,0.01174319131481236,0
2025-04-21T10:59:45.602+03:00,1745222379.683002,40.95358469045333,29.14095995195676,92.5589,-1,-1,-1,-1,30,23.16670695740329,-9999,13039.59607525,-0.7701568603515625,0.3429107666015625,-0.5275115966796875,13039.58726725,-1.638907314152986,-0.9674108389132565,-0.3587065081270314,-0.03098011575639248,-0.01371850538998842,0.001852230401709676,0.003782927989959717,-0.005573809146881104,0.007360935211181641,XArbitraryZVertical,-0.442208349391684,-0.1969598271480067,-0.5799267562555049,0.6552430682470806,-0.7710100412368774,0.3510633707046509,-0.5313172340393066,0,0,0,-1,-1,13033.96356004167,unknown,2,2025-04-21T10:59:39.965+03:00,2025-04-20T21:57:49.637+03:00,1517,1.088974,0,0,1136.478,1,4,2025-04-21T10:59:45.124+03:00,766915185.2267745,0,-47.58,100.3032,1,0.65,2025-04-21T10:59:35.766+03:00,104,1.733333333333333,2025-04-21T09:28:58.093+03:00,0.01174319131481236,0
2025-04-21T10:59:45.613+03:00,1745222379.683002,40.95358469045333,29.14095995195676,92.5589,-1,-1,-1,-1,30,23.16670695740329,-9999,13039.60615125,-0.7734527587890625,0.348663330078125,-0.531829833984375,13039.59734325,-1.639106505968742,-0.9676003597034796,-0.3588567491059834,-0.01812370494008064,-0.009525890462100506,0.00286529678851366,0.0009104609489440918,-0.008293241262435913,0.003629565238952637,XArbitraryZVertical,-0.4423230320246769,-0.196925788261012,-0.5799179603247299,0.6551836546775371,-0.7710672616958618,0.3512040376663208,-0.5311411619186401,0,0,0,-1,-1,13033.96356004167,unknown,2,2025-04-21T10:59:39.965+03:00,2025-04-20T21:57:49.637+03:00,1517,1.088974,0,0,1136.478,1,4,2025-04-21T10:59:45.124+03:00,766915185.2267745,0,-47.58,100.3032,1,0.65,2025-04-21T10:59:35.766+03:00,104,1.733333333333333,2025-04-21T09:28:58.093+03:00,0.01174319131481236,0
2025-04-21T10:59:45.623+03:00,1745222379.683002,40.95358469045333,29.14095995195676,92.5589,-1,-1,-1,-1,30,23.16670695740329,-9999,13039.61622725,-0.77294921875,0.3597412109375,-0.531982421875,13039.60741925,-1.639145354202437,-0.9676847375022358,-0.3589192869716866,0.004242985043674707,-0.004517150111496449,0.004751680418848991,-0.002358734607696533,-0.002599209547042847,-0.0007661581039428711,XArbitraryZVertical,-0.4423680138479519,-0.1969231610789641,-0.5798986464188737,0.6551711729088281,-0.7710939645767212,0.3512625992298126,-0.5310636162757874,0,0,0,-1,-1,13033.96356004167,unknown,2,2025-04-21T10:59:39.965+03:00,2025-04-20T21:57:49.637+03:00,1517,1.088974,0,0,1136.478,1,4,2025-04-21T10:59:45.124+03:00,766915185.2267745,0,-47.58,100.3032,1,0.65,2025-04-21T10:59:35.766+03:00,104,1.733333333333333,2025-04-21T09:28:58.093+03:00,0.01174319131481236,0
2025-04-21T10:59:45.633+03:00,1745222379.683002,40.95358469045333,29.14095995195676,92.5589,-1,-1,-1,-1,30,23.16670695740329,-9999,13039.62630425,-0.7699432373046875,0.358673095703125,-0.5328216552734375,13039.61749525,-1.639000801668238,-0.967652923134645,-0.3588928764703237,0.0198160856962204,0.001922905910760164,0.003990282770246267,-0.001864433288574219,0.008503377437591553,-0.0008889436721801758,XArbitraryZVertical,-0.4423374974446364,-0.1969538711292599,-0.5798639864266807,0.655213249222243,-0.771084725856781,0.3512378633022308,-0.531093418598175,0,0,0,-1,-1,13033.96356004167,unknown,2,2025-04-21T10:59:39.965+03:00,2025-04-20T21:57:49.637+03:00,1517,1.088974,0,0,1136.478,1,4,2025-04-21T10:59:45.124+03:00,766915185.2267745,0,-47.58,100.3032,1,0.65,2025-04-21T10:59:35.766+03:00,104,1.733333333333333,2025-04-21T09:28:58.093+03:00,0.01174319131481236,0
2025-04-21T10:59:45.643+03:00,1745222379.683002,40.95358469045333,29.14095995195676,92.5589,-1,-1,-1,-1,30,23.16670695740329,-9999,13039.63638025,-0.766082763671875,0.35064697265625,-0.5337371826171875,13039.62757225,-1.638800605984985,-0.967557071249207,-0.358790706069735,0.02027834393084049,0.002519919769838452,0.0004619605024345219,0.001120209693908691,0.00753098726272583,-0.001633942127227783,XArbitraryZVertical,-0.4422627099054517,-0.1970021565154278,-0.5798414583279872,0.6552691693139846,-0.7710633873939514,0.3511421978473663,-0.5311877131462097,0,0,0,-1,-1,13033.96356004167,unknown,2,2025-04-21T10:59:39.965+03:00,2025-04-20T21:57:49.637+03:00,1517,1.088974,0,0,1136.478,1,4,2025-04-21T10:59:45.124+03:00,766915185.2267745,0,-47.58,100.3032,1,0.65,2025-04-21T10:59:35.766+03:00,104,1.733333333333333,2025-04-21T09:28:58.093+03:00,0.01174319131481236,0
2025-04-21T10:59:45.653+03:00,1745222379.683002,40.95358469045333,29.14095995195676,92.5589,-1,-1,-1,-1,30,23.16670695740329,-9999,13039.64645625,-0.763275146484375,0.340972900390625,-0.5322113037109375,13039.63764825,-1.638620127936314,-0.9674642983892837,-0.3586500036084084,0.01834382303059101,0.002277838299050927,-0.001604386139661074,0.00497204065322876,-0.0003634095191955566,-0.002449870109558105,XArbitraryZVertical,-0.4421804669635314,-0.1970604256383428,-0.5798329339844325,0.6553146827535749,-0.7710548043251038,0.3510104417800903,-0.5312872529029846,0,0,0,-1,-1,13033.96356004167,unknown,2,2025-04-21T10:59:39.965+03:00,2025-04-20T21:57:49.637+03:00,1517,1.088974,0,0,1136.478,1,4,2025-04-21T10:59:45.124+03:00,766915185.2267745,0,-47.58,100.3032,1,0.65,2025-04-21T10:59:35.766+03:00,104,1.733333333333333,2025-04-21T09:28:58.093+03:00,0.01174319131481236,0
2025-04-21T10:59:45.664+03:00,1745222379.683002,40.95358469045333,29.14095995195676,92.5589,-1,-1,-1,-1,30,23.16670695740329,-9999,13039.65653225,-0.7691497802734375,0.3370513916015625,-0.53173828125,13039.64772425,-1.638512631853559,-0.9674379138155031,-0.358555726503797,0.007324928417801857,0.001346198376268148,0.002812299877405167,0.007792890071868896,-0.009949207305908203,-0.0008848905563354492,XArbitraryZVertical,-0.4421370581510941,-0.1971082085880276,-0.5798237004323721,0.6553377357238556,-0.7710679769515991,0.350922167301178,-0.5313263535499573,0,0,0,-1,-1,13033.96356004167,unknown,2,2025-04-21T10:59:39.965+03:00,2025-04-20T21:57:49.637+03:00,1517,1.088974,0,0,1136.478,1,4,2025-04-21T10:59:45.124+03:00,766915185.2267745,0,-47.58,100.3032,1,0.65,2025-04-21T10:59:35.766+03:00,104,1.733333333333333,2025-04-21T09:28:58.093+03:00,0.01174319131481236,0
2025-04-21T10:59:45.673+03:00,1745222379.683002,40.95358469045333,29.14095995195676,92.5589,-1,-1,-1,-1,30,23.16670695740329,-9999,13039.66660825,-0.7716064453125,0.3396148681640625,-0.533935546875,13039.65780025,-1.638461831416717,-0.9674806809929788,-0.3586109750206263,-0.005130942445248365,-0.008457163348793983,0.01245320960879326,0.001924991607666016,-0.01392245292663574,-0.0004558563232421875,XArbitraryZVertical,-0.4421592317542324,-0.1971142880701578,-0.5797857581836074,0.6553544312595003,-0.7710747122764587,0.350973904132843,-0.531282365322113,0,0,0,-1,-1,13033.96356004167,unknown,2,2025-04-21T10:59:39.965+03:00,2025-04-20T21:57:49.637+03:00,1517,1.088974,0,0,1136.478,1,4,2025-04-21T10:59:45.124+03:00,766915185.2267745,0,-47.58,100.3032,1,0.65,2025-04-21T10:59:35.766+03:00,104,1.733333333333333,2025-04-21T09:28:58.093+03:00,0.01174319131481236,0
2025-04-21T10:59:45.683+03:00,1745222379.683002,40.95358469045333,29.14095995195676,92.5589,-1,-1,-1,-1,30,23.16670695740329,-9999,13039.67668425,-0.771575927734375,0.3394317626953125,-0.538604736328125,13039.66787625,-1.638455238097991,-0.9676270760836647,-0.3587593857176196,-0.01430166978389025,-0.01777756214141846,0.01452361792325974,-0.0004967451095581055,-0.01149797439575195,-0.002795577049255371,XArbitraryZVertical,-0.4422406275967216,-0.1971123065036678,-0.5797195028284988,0.6553587978961132,-0.7711095809936523,0.3511128723621368,-0.5311399102210999,0,0,0,-1,-1,13033.96356004167,unknown,2,2025-04-21T10:59:39.965+03:00,2025-04-20T21:57:49.637+03:00,1517,1.088974,0,0,1136.478,1,4,2025-04-21T10:59:45.124+03:00,766915185.2267745,0,-47.58,100.3032,1,0.65,2025-04-21T10:59:35.766+03:00,104,1.733333333333333,2025-04-21T09:28:58.093+03:00,0.01174319131481236,0
2025-04-21T10:59:45.693+03:00,1745222379.683002,40.95358469045333,29.14095995195676,92.5589,-1,-1,-1,-1,30,23.16670695740329,-9999,13039.68676025,-0.7735137939453125,0.3361053466796875,-0.536712646484375,13039.67795225,-1.638541608740736,-0.9679154275955133,-0.3589987790099291,-0.03063377365469933,-0.02797054499387741,0.01704350113868713,-0.0003823637962341309,-0.01190522313117981,-0.007734775543212891,XArbitraryZVertical,-0.4423966560779404,-0.197104717119254,-0.5796327865576316,0.6553324061208208,-0.7711934447288513,0.3513370156288147,-0.5308698415756226,0,0,0,-1,-1,13033.96356004167,unknown,2,2025-04-21T10:59:39.965+03:00,2025-04-20T21:57:49.637+03:00,1517,1.088974,0,0,1136.478,1,4,2025-04-21T10:59:45.124+03:00,766915185.2267745,0,-47.58,100.3032,1,0.65,2025-04-21T10:59:35.766+03:00,104,1.733333333333333,2025-04-21T09:28:58.093+03:00,0.01174319131481236,0
2025-04-21T10:59:45.704+03:00,1745222379.683002,40.95358469045333,29.14095995195676,92.5589,-1,-1,-1,-1,30,23.16670695740329,-9999,13039.69683625,-0.772552490234375,0.3395538330078125,-0.5357513427734375,13039.68802825,-1.638816543063753,-0.9683297300260397,-0.3593291678596633,-0.05016546323895454,-0.03383515775203705,0.01130462158471346,-0.002196073532104492,-0.0155409574508667,-0.006228029727935791,XArbitraryZVertical,-0.4426320003939438,-0.1970651312702174,-0.5795604719000005,0.6552493321993029,-0.7713176012039185,0.3516463339328766,-0.5304844975471497,0,0,0,-1,-1,13033.96356004167,unknown,2,2025-04-21T10:59:39.965+03:00,2025-04-20T21:57:49.637+03:00,1517,1.088974,0,0,1136.478,1,4,2025-04-21T10:59:45.124+03:00,766915185.2267745,0,-47.58,100.3032,1,0.65,2025-04-21T10:59:35.766+03:00,104,1.733333333333333,2025-04-21T09:28:58.093+03:00,0.01174319131481236,0
2025-04-21T10:59:45.713+03:00,1745222379.683002,40.95358469045333,29.14095995195676,92.5589,-1,-1,-1,-1,30,23.16670695740329,-9999,13039.70691225,-0.77117919921875,0.34295654296875,-0.536529541015625,13039.69810425,-1.639294997119967,-0.9688944149356787,-0.3598105801619465,-0.06724431365728378,-0.03862698376178741,0.01054215803742409,-0.00107496976852417,-0.01254308223724365,-0.005798280239105225,XArbitraryZVertical,-0.4429711695593262,-0.1969773345677541,-0.5794890863315032,0.6551096557619553,-0.7714774012565613,0.3520969450473785,-0.5299529433250427,0,0,0,-1,-1,13033.96356004167,unknown,2,2025-04-21T10:59:39.965+03:00,2025-04-20T21:57:49.637+03:00,1517,1.088974,0,0,1136.478,1,4,2025-04-21T10:59:45.124+03:00,766915185.2267745,0,-47.58,100.3032,1,0.65,2025-04-21T10:59:35.766+03:00,104,1.733333333333333,2025-04-21T09:28:58.093+03:00,0.01174319131481236,0
2025-04-21T10:59:45.724+03:00,1745222379.683002,40.95358469045333,29.14095995195676,92.5589,-1,-1,-1,-1,30,23.16670695740329,-9999,13039.71698779167,-0.7730255126953125,0.3461151123046875,-0.546478271484375,13039.70818025,-1.639893636637021,-0.9695196595290364,-0.3603291504084037,-0.08010025322437286,-0.04524713754653931,0.00620436854660511,0.0004788637161254883,-0.009625673294067383,-0.007162332534790039,XArbitraryZVertical,-0.443349459155826,-0.1968697142067584,-0.5794355019818993,0.6549335477561868,-0.7716580033302307,0.3525822758674622,-0.5293671488761902,0,0,0,-1,-1,13033.96356004167,unknown,2,2025-04-21T10:59:39.965+03:00,2025-04-20T21:57:49.637+03:00,1517,1.088974,0,0,1136.478,1,4,2025-04-21T10:59:45.124+03:00,766915185.2267745,0,-47.58,100.3032,1,0.65,2025-04-21T10:59:35.766+03:00,104,1.733333333333333,2025-04-21T09:28:58.093+03:00,0.01174319131481236,0
2025-04-21T10:59:45.734+03:00,1745222379.683002,40.95358469045333,29.14095995195676,92.5589,-1,-1,-1,-1,30,23.16670695740329,-9999,13039.72706379167,-0.7728271484375,0.35601806640625,-0.558502197265625,13039.71825579167,-1.640528765810948,-0.9701895616313393,-0.3607861534339854,-0.06998050957918167,-0.05205896869301796,-9.001290891319513e-05,-0.00114595890045166,-0.006894737482070923,-0.01771920919418335,XArbitraryZVertical,-0.4437277457848408,-0.1967897432747552,-0.5793969011821349,0.6547355030613647,-0.7718794345855713,0.3530098795890808,-0.5287589430809021,0,0,0,-1,-1,13033.96356004167,unknown,2,2025-04-21T10:59:39.965+03:00,2025-04-20T21:57:49.637+03:00,1517,1.088974,0,0,1136.478,1,4,2025-04-21T10:59:45.124+03:00,766915185.2267745,0,-47.58,100.3032,1,0.65,2025-04-21T10:59:35.766+03:00,104,1.733333333333333,2025-04-21T09:28:58.093+03:00,0.01174319131481236,0
2025-04-21T10:59:45.744+03:00,1745222379.683002,40.95358469045333,29.14095995195676,92.5589,-1,-1,-1,-1,30,23.16670695740329,-9999,13039.73713979167,-0.7741546630859375,0.35870361328125,-0.5668487548828125,13039.72833179167,-1.641022486781158,-0.9708935449819316,-0.3610557422904043,-0.04128581658005714,-0.05667269602417946,-0.0040476368740201,-0.0006541609764099121,0.002756029367446899,-0.03034043312072754,XArbitraryZVertical,-0.4440519864415855,-0.1968171147042286,-0.5793444387340411,0.6545538834183428,-0.7721729278564453,0.3532620966434479,-0.5281617045402527,0,0,0,-1,-1,13033.96356004167,unknown,2,2025-04-21T10:59:39.965+03:00,2025-04-20T21:57:49.637+03:00,1517,1.088974,0,0,1136.478,1,4,2025-04-21T10:59:45.124+03:00,766915185.2267745,0,-47.58,100.3032,1,0.65,2025-04-21T10:59:35.766+03:00,104,1.733333333333333,2025-04-21T09:28:58.093+03:00,0.01174319131481236,0
2025-04-21T10:59:45.754+03:00,1745222379.683002,40.95358469045333,29.14095995195676,92.5589,-1,-1,-1,-1,30,23.16670695740329,-9999,13039.74721579167,-0.7787933349609375,0.361175537109375,-0.5706787109375,13039.73840779167,-1.641307132637358,-0.9715182821548706,-0.3610583542509555,-0.01007729768753052,-0.05280046164989471,-0.01986015401780605,-0.00165259838104248,0.005439132452011108,-0.0391700267791748,XArbitraryZVertical,-0.4442616491470298,-0.1969574461868707,-0.5792982992850649,0.6544102720884656,-0.7725020051002502,0.3532645404338837,-0.5276787281036377,0,0,0,-1,-1,13033.96356004167,unknown,2,2025-04-21T10:59:39.965+03:00,2025-04-20T21:57:49.637+03:00,1517,1.088974,0,0,1136.478,1,4,2025-04-21T10:59:45.124+03:00,766915185.2267745,0,-47.58,100.3032,1,0.65,2025-04-21T10:59:35.766+03:00,104,1.733333333333333,2025-04-21T09:28:58.093+03:00,0.01174319131481236,0
2025-04-21T10:59:45.764+03:00,1745222379.683002,40.95358469045333,29.14095995195676,92.5589,-1,-1,-1,-1,30,23.16670695740329,-9999,13039.75729179167,-0.7792510986328125,0.3600921630859375,-0.5671539306640625,13039.74848379167,-1.641527461712248,-0.972199662057539,-0.3608492022068991,-0.01260783337056637,-0.07282609492540359,-0.03468970209360123,-0.005870938301086426,0.008106708526611328,-0.04348486661911011,XArbitraryZVertical,-0.4444251377274118,-0.1972039355049861,-0.5792638781392389,0.6542554137587284,-0.7729223370552063,0.3530688583850861,-0.5271937847137451,0,0,0,-1,-1,13033.96356004167,unknown,2,2025-04-21T10:59:39.965+03:00,2025-04-20T21:57:49.637+03:00,1517,1.088974,0,0,1136.478,1,4,2025-04-21T10:59:45.124+03:00,766915185.2267745,0,-47.58,100.3032,1,0.65,2025-04-21T10:59:35.766+03:00,104,1.733333333333333,2025-04-21T09:28:58.093+03:00,0.01174319131481236,0
2025-04-21T10:59:45.774+03:00,1745222379.683002,40.95358469045333,29.14095995195676,92.5589,-1,-1,-1,-1,30,23.16670695740329,-9999,13039.76736779167,-0.782684326171875,0.3409576416015625,-0.549835205078125,13039.75855979167,-1.642117265655518,-0.973217432548897,-0.3606674814991334,-0.08053015917539597,-0.08905673027038574,-0.05189931765198708,-0.005739450454711914,0.00719335675239563,-0.04071086645126343,XArbitraryZVertical,-0.4447298240429955,-0.1974687184397633,-0.5792695638742634,0.6539634334615186,-0.773511528968811,0.3528988361358643,-0.5264430046081543,0,0,0,-1,-1,13033.96356004167,unknown,2,2025-04-21T10:59:39.965+03:00,2025-04-20T21:57:49.637+03:00,1517,1.088974,0,0,1136.478,1,4,2025-04-21T10:59:45.124+03:00,766915185.2267745,0,-47.58,100.3032,1,0.65,2025-04-21T10:59:35.766+03:00,104,1.733333333333333,2025-04-21T09:28:58.093+03:00,0.01174319131481236,0
2025-04-21T10:59:45.795+03:00,1745222379.683002,40.95358469045333,29.14095995195676,92.5589,-1,-1,-1,-1,30,23.16670695740329,-9999,13039.77744379167,-0.7932586669921875,0.31756591796875,-0.527191162109375,13039.76863579167,-1.643758434589899,-0.9747293308266134,-0.3609919110610406,-0.2234835922718048,-0.0986502394080162,-0.05668741092085838,-0.0084725022315979,-0.01224467158317566,-0.02462655305862427,XArbitraryZVertical,-0.4454159149235655,-0.1974851013119435,-0.5793997951937304,0.6533758912082716,-0.7742117643356323,0.3532023727893829,-0.525208592414856,0,0,0,-1,-1,13033.96356004167,unknown,2,2025-04-21T10:59:39.965+03:00,2025-04-20T21:57:49.637+03:00,1517,1.088974,0,0,1136.478,1,4,2025-04-21T10:59:45.124+03:00,766915185.2267745,0,-47.58,100.3032,1,0.65,2025-04-21T10:59:35.766+03:00,104,1.733333333333333,2025-04-21T09:28:58.093+03:00,0.01174319131481236,0
2025-04-21T10:59:45.798+03:00,1745222379.683002,40.95358469045333,29.14095995195676,92.5589,-1,-1,-1,-1,30,23.16670695740329,-9999,13039.78752079167,-0.7964935302734375,0.3047637939453125,-0.5084991455078125,13039.77871179167,-1.646840438732816,-0.9767993119685142,-0.3622502121233927,-0.3982000052928925,-0.1015602797269821,-0.05541228875517845,-0.01833021640777588,-0.03681331872940063,-0.003835380077362061,XArbitraryZVertical,-0.4466527240909788,-0.197036745139172,-0.5796736808217321,0.6524233539881145,-0.7749283909797668,0.3543792963027954,-0.5233557224273682,0,0,0,-1,-1,13033.96356004167,unknown,2,2025-04-21T10:59:39.965+03:00,2025-04-20T21:57:49.637+03:00,1517,1.088974,0,0,1136.478,1,4,2025-04-21T10:59:45.124+03:00,766915185.2267745,0,-47.58,100.3032,1,0.65,2025-04-21T10:59:35.766+03:00,104,1.733333333333333,2025-04-21T09:28:58.093+03:00,0.01174319131481236,0
2025-04-21T10:59:45.804+03:00,1745222379.683002,40.95358469045333,29.14095995195676,92.5589,-1,-1,-1,-1,30,23.16670695740329,-9999,13039.79759679167,-0.7935638427734375,0.301422119140625,-0.498687744140625,13039.78878879167,-1.651557263669827,-0.9794383663457592,-0.3645305057050715,-0.5836605429649353,-0.09785301983356476,-0.05188380181789398,-0.0208594799041748,-0.05174681544303894,0.01235783100128174,XArbitraryZVertical,-0.4484823906250796,-0.1960486053256258,-0.5801290056426206,0.6510597366962083,-0.7756339907646179,0.3565106987953186,-0.5208569765090942,0,0,0,-1,-1,13033.96356004167,unknown,2,2025-04-21T10:59:39.965+03:00,2025-04-20T21:57:49.637+03:00,1517,1.088974,0,0,1136.478,1,4,2025-04-21T10:59:45.124+03:00,766915185.2267745,0,-47.58,100.3032,1,0.65,2025-04-21T10:59:35.766+03:00,104,1.733333333333333,2025-04-21T09:28:58.093+03:00,0.01174319131481236,0
2025-04-21T10:59:45.814+03:00,1745222379.683002,40.95358469045333,29.14095995195676,92.5589,-1,-1,-1,-1,30,23.16670695740329,-9999,13039.80767279167,-0.7890777587890625,0.3051605224609375,-0.4948272705078125,13039.79886479167,-1.6578090129606,-0.982532944534524,-0.367816864597639,-0.7528895139694214,-0.08369459211826324,-0.0432857871055603,-0.01730060577392578,-0.05815699696540833,0.01911354064941406,XArbitraryZVertical,-0.4508517977131958,-0.1945045117667323,-0.5807562774157021,0.6493249116022498,-0.7762632966041565,0.3595791757106781,-0.5178012847900391,0,0,0,-1,-1,13033.96356004167,unknown,2,2025-04-21T10:59:39.965+03:00,2025-04-20T21:57:49.637+03:00,1517,1.088974,0,0,1136.478,1,4,2025-04-21T10:59:45.124+03:00,766915185.2267745,0,-47.58,100.3032,1,0.65,2025-04-21T10:59:35.766+03:00,104,1.733333333333333,2025-04-21T09:28:58.093+03:00,0.01174319131481236,0
2025-04-21T10:59:45.824+03:00,1745222379.683002,40.95358469045333,29.14095995195676,92.5589,-1,-1,-1,-1,30,23.16670695740329,-9999,13039.81774879167,-0.7946014404296875,0.3148345947265625,-0.4965667724609375,13039.80894079167,-1.665479923945672,-0.985891008865726,-0.3720138014313551,-0.897338330745697,-0.05037611722946167,-0.04798643290996552,-0.01234513521194458,-0.05833163857460022,0.01952660083770752,XArbitraryZVertical,-0.4536606883936384,-0.192392940005292,-0.5815751020670568,0.6472614026938627,-0.7767325639724731,0.3634922206401825,-0.51435387134552,0,0,0,-1,-1,13033.96356004167,unknown,2,2025-04-21T10:59:39.965+03:00,2025-04-20T21:57:49.637+03:00,1517,1.088974,0,0,1136.478,1,4,2025-04-21T10:59:45.124+03:00,766915185.2267745,0,-47.58,100.3032,1,0.65,2025-04-21T10:59:35.766+03:00,104,1.733333333333333,2025-04-21T09:28:58.093+03:00,0.01174319131481236,0
2025-04-21T10:59:45.834+03:00,1745222379.683002,40.95358469045333,29.14095995195676,92.5589,-1,-1,-1,-1,30,23.16670695740329,-9999,13039.82782479167,-0.80694580078125,0.3147125244140625,-0.507415771484375,13039.81901679167,-1.674325427073911,-0.9892387840622632,-0.3769192229675615,-1.008412957191467,0.007105284370481968,-0.03899693116545677,-0.0176505446434021,-0.05322310328483582,0.01419830322265625,XArbitraryZVertical,-0.4567440321949497,-0.189742976766566,-0.5826060226671147,0.6449438476918069,-0.7769507765769958,0.3680576980113983,-0.5107649564743042,0,0,0,-1,-1,13033.96356004167,unknown,2,2025-04-21T10:59:39.965+03:00,2025-04-20T21:57:49.637+03:00,1517,1.088974,0,0,1136.478,1,4,2025-04-21T10:59:45.124+03:00,766915185.2267745,0,-47.58,100.3032,1,0.65,2025-04-21T10:59:35.766+03:00,104,1.733333333333333,2025-04-21T09:28:58.093+03:00,0.01174319131481236,0
2025-04-21T10:59:45.844+03:00,1745222379.683002,40.95358469045333,29.14095995195676,92.5589,-1,-1,-1,-1,30,23.16670695740329,-9999,13039.83790079167,-0.822174072265625,0.32110595703125,-0.5155029296875,13039.82909279167,-1.68411016808271,-0.9924222667464778,-0.3824840763537533,-1.106781125068665,0.08249638229608536,-0.0281447172164917,-0.03009998798370361,-0.05851367115974426,-0.000254213809967041,XArbitraryZVertical,-0.4600123166311558,-0.186568883471134,-0.5838143155427887,0.6424495009553303,-0.7768457531929016,0.3732261955738068,-0.5071614384651184,0,0,0,-1,-1,13033.96356004167,unknown,2,2025-04-21T10:59:39.965+03:00,2025-04-20T21:57:49.637+03:00,1517,1.088974,0,0,1136.478,1,4,2025-04-21T10:59:45.124+03:00,766915185.2267745,0,-47.58,100.3032,1,0.65,2025-04-21T10:59:35.766+03:00,104,1.733333333333333,2025-04-21T09:28:58.093+03:00,0.01174319131481236,0
2025-04-21T10:59:45.855+03:00,1745222379.683002,40.95358469045333,29.14095995195676,92.5589,-1,-1,-1,-1,30,23.16670695740329,-9999,13039.84797679167,-0.8300018310546875,0.32562255859375,-0.5196533203125,13039.83916879167,-1.694988707369909,-0.9952875735803498,-0.3887546704237302,-1.25425922870636,0.1581298857927322,-0.0214679054915905,-0.04585695266723633,-0.05793032050132751,-0.01185309886932373,XArbitraryZVertical,-0.4634358992409663,-0.1827628940804925,-0.5852710797868464,0.6397518812252394,-0.7763170599937439,0.3790363073348999,-0.5036497712135315,0,0,0,-1,-1,13033.96356004167,unknown,2,2025-04-21T10:59:39.965+03:00,2025-04-20T21:57:49.637+03:00,1517,1.088974,0,0,1136.478,1,4,2025-04-21T10:59:45.124+03:00,766915185.2267745,0,-47.58,100.3032,1,0.65,2025-04-21T10:59:35.766+03:00,104,1.733333333333333,2025-04-21T09:28:58.093+03:00,0.01174319131481236,0
2025-04-21T10:59:45.865+03:00,1745222379.683002,40.95358469045333,29.14095995195676,92.5589,-1,-1,-1,-1,30,23.16670695740329,-9999,13039.85805279167,-0.83233642578125,0.2840423583984375,-0.5424957275390625,13039.84924479167,-1.707474733691525,-0.9980239231345261,-0.39598117624237,-1.455490112304688,0.2495727837085724,-0.01865064725279808,-0.05463165044784546,-0.0600910484790802,-0.01962721347808838,XArbitraryZVertical,-0.467164507933845,-0.1781692601195616,-0.5870368018870056,0.6367108812229443,-0.7753701210021973,0.3857136368751526,-0.5000260472297668,0,0,0,-1,-1,13033.96356004167,unknown,2,2025-04-21T10:59:39.965+03:00,2025-04-20T21:57:49.637+03:00,1517,1.088974,0,0,1136.478,1,4,2025-04-21T10:59:45.124+03:00,766915185.2267745,0,-47.58,100.3032,1,0.65,2025-04-21T10:59:35.766+03:00,104,1.733333333333333,2025-04-21T09:28:58.093+03:00,0.01174319131481236,0
