loggingTime(txt),locationTimestamp_since1970(s),locationLatitude(WGS84),locationLongitude(WGS84),locationAltitude(m),locationSpeed(m/s),locationSpeedAccuracy(m/s),locationCourse(°),locationCourseAccuracy(°),locationVerticalAccuracy(m),locationHorizontalAccuracy(m),locationFloor(Z),accelerometerTimestamp_sinceReboot(s),accelerometerAccelerationX(G),accelerometerAccelerationY(G),accelerometerAccelerationZ(G),motionTimestamp_sinceReboot(s),motionYaw(rad),motionRoll(rad),motionPitch(rad),motionRotationRateX(rad/s),motionRotationRateY(rad/s),motionRotationRateZ(rad/s),motionUserAccelerationX(G),motionUserAccelerationY(G),motionUserAccelerationZ(G),motionAttitudeReferenceFrame(txt),motionQuaternionX(R),motionQuaternionY(R),motionQuaternionZ(R),motionQuaternionW(R),motionGravityX(G),motionGravityY(G),motionGravityZ(G),motionMagneticFieldX(µT),motionMagneticFieldY(µT),motionMagneticFieldZ(µT),motionHeading(°),motionMagneticFieldCalibrationAccuracy(Z),activityTimestamp_sinceReboot(s),activity(txt),activityActivityConfidence(Z),activityActivityStartDate(txt),pedometerStartDate(txt),pedometerNumberofSteps(N),pedometerAverageActivePace(s/m),pedometerCurrentPace(s/m),pedometerCurrentCadence(steps/s),pedometerDistance(m),pedometerFloorAscended(N),pedometerFloorDescended(N),pedometerEndDate(txt),altimeterTimestamp_sinceReboot(s),altimeterReset(bool),altimeterRelativeAltitude(m),altimeterPressure(kPa),batteryState(N),batteryLevel(R),heartRateBPMTimestamp(txt),heartRateBPM(N),heartRateBPS(R),heartRateVariabilityTimestamp(txt),heartRateVariability(ms),label
2025-04-30T12:05:26.099+03:00,1746003925.099867,40.95226695023776,29.14029258169347,76.49437,-1,-1,-1,-1,30,23.52888653378506,-9999,11629.877124125,-0.5960235595703125,0.6376190185546875,-0.4875640869140625,11629.872086125,-0.257544591461518,-0.8700991071794641,-0.6900589446336418,-0.01878760941326618,-0.02139976434409618,-0.0155678354203701,-0.01304805278778076,-0.01107901334762573,0.006743669509887695,XArbitraryZVertical,0.3551111945316092,0.3539454010197169,-0.03177481435154113,-0.8646440221688092,-0.5895063877105713,0.636582612991333,-0.4972373843193054,0,0,0,-1,-1,11626.41096479167,unknown,2,2025-04-30T12:05:22.605+03:00,2025-04-30T12:00:08.093+03:00,78,0.8511127,0,0,67.24366,0,0,2025-04-30T12:05:25.185+03:00,767696725.2885216,0,1.72,100.9503,1,0.8,2025-04-30T12:05:06.899+03:00,94,1.566666666666667,2025-04-22T14:20:19.516+03:00,0.02197104130929222,0
2025-04-30T12:05:26.100+03:00,1746003925.099867,40.95226695023776,29.14029258169347,76.49437,-1,-1,-1,-1,30,23.52888653378506,-9999,11629.887200125,-0.5834503173828125,0.644927978515625,-0.4878997802734375,11629.882162125,-0.2578162051041981,-0.8704761310201884,-0.6900084403313181,-0.01329823583364487,-0.01489679142832756,-0.01372622698545456,-0.006305277347564697,0.001075387001037598,0.0094718337059021,XArbitraryZVertical,0.3551323864521244,0.354066506010859,-0.031713416265879,-0.8645879652433768,-0.5897183418273926,0.6365436911582947,-0.497035801410675,0,0,0,-1,-1,11626.41096479167,unknown,2,2025-04-30T12:05:22.605+03:00,2025-04-30T12:00:08.093+03:00,78,0.8511127,0,0,67.24366,0,0,2025-04-30T12:05:25.185+03:00,767696725.2885216,0,1.72,100.9503,1,0.8,2025-04-30T12:05:06.899+03:00,94,1.566666666666667,2025-04-22T14:20:19.516+03:00,0.02197104130929222,0
2025-04-30T12:05:26.102+03:00,1746003925.099867,40.95226695023776,29.14029258169347,76.49437,-1,-1,-1,-1,30,23.52888653378506,-9999,11629.897276125,-0.595977783203125,0.6342926025390625,-0.49395751953125,11629.892238125,-0.2580370822806931,-0.8707008176401715,-0.6899093124792534,-0.007968184538185596,-0.00815180316567421,-0.01654092222452164,0.0064278244972229,0.008460819721221924,0.009044229984283447,XArbitraryZVertical,0.3551269153715114,0.3541368701490834,-0.03163638423969973,-0.8645641747235804,-0.589878261089325,0.6364672183990479,-0.4969438910484314,0,0,0,-1,-1,11626.41096479167,unknown,2,2025-04-30T12:05:22.605+03:00,2025-04-30T12:00:08.093+03:00,78,0.8511127,0,0,67.24366,0,0,2025-04-30T12:05:25.185+03:00,767696725.2885216,0,1.72,100.9503,1,0.8,2025-04-30T12:05:06.899+03:00,94,1.566666666666667,2025-04-22T14:20:19.516+03:00,0.02197104130929222,0
2025-04-30T12:05:26.108+03:00,1746003925.099867,40.95226695023776,29.14029258169347,76.49437,-1,-1,-1,-1,30,23.52888653378506,-9999,11629.907352125,-0.5897674560546875,0.6334228515625,-0.49542236328125,11629.902314125,-0.2582480362310343,-0.8709056814085561,-0.6897899707747148,-0.008597557432949543,-0.01122702099382877,-0.01889465749263763,-0.005939722061157227,-0.002082586288452148,0.002914518117904663,XArbitraryZVertical,0.3551116587261345,0.35420297308684,-0.03155574617051751,-0.8645462499880494,-0.5900380611419678,0.6363751888275146,-0.4968719184398651,0,0,0,-1,-1,11626.41096479167,unknown,2,2025-04-30T12:05:22.605+03:00,2025-04-30T12:00:08.093+03:00,78,0.8511127,0,0,67.24366,0,0,2025-04-30T12:05:25.185+03:00,767696725.2885216,0,1.72,100.9503,1,0.8,2025-04-30T12:05:06.899+03:00,94,1.566666666666667,2025-04-22T14:20:19.516+03:00,0.02197104130929222,0
2025-04-30T12:05:26.116+03:00,1746003925.099867,40.95226695023776,29.14029258169347,76.49437,-1,-1,-1,-1,30,23.52888653378506,-9999,11629.917428125,-0.5833282470703125,0.6339874267578125,-0.4958343505859375,11629.912390125,-0.2584428655567635,-0.8711483207285817,-0.6896360043848554,-0.003379092551767826,-0.01350349187850952,-0.01873832941055298,0.0004661083221435547,-0.002833545207977295,0.001369565725326538,XArbitraryZVertical,0.3550786231061501,0.3542926185283767,-0.03148126280841784,-0.8645257865026752,-0.5902335643768311,0.6362563967704773,-0.496791809797287,0,0,0,-1,-1,11626.41096479167,unknown,2,2025-04-30T12:05:22.605+03:00,2025-04-30T12:00:08.093+03:00,78,0.8511127,0,0,67.24366,0,0,2025-04-30T12:05:25.185+03:00,767696725.2885216,0,1.72,100.9503,1,0.8,2025-04-30T12:05:06.899+03:00,94,1.566666666666667,2025-04-22T14:20:19.516+03:00,0.02197104130929222,0
2025-04-30T12:05:26.127+03:00,1746003925.099867,40.95226695023776,29.14029258169347,76.49437,-1,-1,-1,-1,30,23.52888653378506,-9999,11629.927504125,-0.5839385986328125,0.6293182373046875,-0.4999542236328125,11629.922466125,-0.2586614656417793,-0.8714204659499367,-0.6895420737647604,-0.01110572181642056,-0.01743511669337749,-0.01603162474930286,0.007086217403411865,-0.002196431159973145,0.000835418701171875,XArbitraryZVertical,0.3550741829661196,0.3543832471363824,-0.03141472132083288,-0.8644929274819843,-0.5904145240783691,0.6361839175224304,-0.4966696798801422,0,0,0,-1,-1,11626.41096479167,unknown,2,2025-04-30T12:05:22.605+03:00,2025-04-30T12:00:08.093+03:00,78,0.8511127,0,0,67.24366,0,0,2025-04-30T12:05:25.185+03:00,767696725.2885216,0,1.72,100.9503,1,0.8,2025-04-30T12:05:06.899+03:00,94,1.566666666666667,2025-04-22T14:20:19.516+03:00,0.02197104130929222,0
2025-04-30T12:05:26.137+03:00,1746003925.099867,40.95226695023776,29.14029258169347,76.49437,-1,-1,-1,-1,30,23.52888653378506,-9999,11629.937580125,-0.58477783203125,0.6243133544921875,-0.4985504150390625,11629.932542125,-0.2588984815865852,-0.8717632022747499,-0.6895804045030161,-0.01239895354956388,-0.02482565492391586,-0.0165429525077343,0.006627380847930908,-0.006895184516906738,-0.003502488136291504,XArbitraryZVertical,0.3551266508219802,0.3544844775078207,-0.03138142090517636,-0.8644311265218708,-0.590566098690033,0.6362135410308838,-0.4964516460895538,0,0,0,-1,-1,11626.41096479167,unknown,2,2025-04-30T12:05:22.605+03:00,2025-04-30T12:00:08.093+03:00,78,0.8511127,0,0,67.24366,0,0,2025-04-30T12:05:25.185+03:00,767696725.2885216,0,1.72,100.9503,1,0.8,2025-04-30T12:05:06.899+03:00,94,1.566666666666667,2025-04-22T14:20:19.516+03:00,0.02197104130929222,0
2025-04-30T12:05:26.147+03:00,1746003925.099867,40.95226695023776,29.14029258169347,76.49437,-1,-1,-1,-1,30,23.52888653378506,-9999,11629.947656125,-0.5887451171875,0.62835693359375,-0.494384765625,11629.942618125,-0.2591507199907548,-0.8721300661259032,-0.6896267830235697,-0.01667918637394905,-0.0213472992181778,-0.01203661691397429,0.005947649478912354,-0.01193588972091675,-0.002334356307983398,XArbitraryZVertical,0.3551848059054084,0.3545924083182863,-0.03134761162926275,-0.8643641779952119,-0.5907255411148071,0.636249303817749,-0.4962159693241119,0,0,0,-1,-1,11626.41096479167,unknown,2,2025-04-30T12:05:22.605+03:00,2025-04-30T12:00:08.093+03:00,78,0.8511127,0,0,67.24366,0,0,2025-04-30T12:05:25.185+03:00,767696725.2885216,0,1.72,100.9503,1,0.8,2025-04-30T12:05:06.899+03:00,94,1.566666666666667,2025-04-22T14:20:19.516+03:00,0.02197104130929222,0
2025-04-30T12:05:26.157+03:00,1746003925.099867,40.95226695023776,29.14029258169347,76.49437,-1,-1,-1,-1,30,23.52888653378506,-9999,11629.957733125,-0.5913543701171875,0.6324920654296875,-0.490203857421875,11629.952694125,-0.2594466711082249,-0.8725817415299545,-0.6895790498205217,-0.01366022601723671,-0.02183945290744305,-0.01505584269762039,0.002227663993835449,-0.007855474948883057,0.00158393383026123,XArbitraryZVertical,0.3552104748739455,0.3547410607256863,-0.03128958052997621,-0.8642947141837445,-0.590972900390625,0.6362124681472778,-0.4959686100482941,0,0,0,-1,-1,11626.41096479167,unknown,2,2025-04-30T12:05:22.605+03:00,2025-04-30T12:00:08.093+03:00,78,0.8511127,0,0,67.24366,0,0,2025-04-30T12:05:25.185+03:00,767696725.2885216,0,1.72,100.9503,1,0.8,2025-04-30T12:05:06.899+03:00,94,1.566666666666667,2025-04-22T14:20:19.516+03:00,0.02197104130929222,0
2025-04-30T12:05:26.167+03:00,1746003925.099867,40.95226695023776,29.14029258169347,76.49437,-1,-1,-1,-1,30,23.52888653378506,-9999,11629.967809125,-0.592529296875,0.6349029541015625,-0.4912109375,11629.962771125,-0.2597259358033756,-0.8730038045894608,-0.6895622644765393,-0.01011868752539158,-0.02130435593426228,-0.01498350407928228,-0.0001640915870666504,-0.003707408905029297,0.005522221326828003,XArbitraryZVertical,0.3552465041605671,0.3548759727600367,-0.03124024899770082,-0.8642262271049281,-0.5911902785301208,0.6361995339393616,-0.4957259297370911,0,0,0,-1,-1,11626.41096479167,unknown,2,2025-04-30T12:05:22.605+03:00,2025-04-30T12:00:08.093+03:00,78,0.8511127,0,0,67.24366,0,0,2025-04-30T12:05:25.185+03:00,767696725.2885216,0,1.72,100.9503,1,0.8,2025-04-30T12:05:06.899+03:00,94,1.566666666666667,2025-04-22T14:20:19.516+03:00,0.02197104130929222,0
2025-04-30T12:05:26.177+03:00,1746003925.099867,40.95226695023776,29.14029258169347,76.49437,-1,-1,-1,-1,30,23.52888653378506,-9999,11629.977885125,-0.596282958984375,0.635040283203125,-0.4932403564453125,11629.972847125,-0.2599080688564892,-0.873284275792652,-0.6895495182932341,-0.003151858691126108,-0.01212763600051403,-0.0121869184076786,-0.001193821430206299,-0.001286685466766357,0.004354536533355713,XArbitraryZVertical,0.355269179693791,0.3549664219677149,-0.03120860539265409,-0.8641808895056386,-0.5913354754447937,0.6361896991729736,-0.4955652952194214,0,0,0,-1,-1,11626.41096479167,unknown,2,2025-04-30T12:05:22.605+03:00,2025-04-30T12:00:08.093+03:00,78,0.8511127,0,0,67.24366,0,0,2025-04-30T12:05:25.185+03:00,767696725.2885216,0,1.72,100.9503,1,0.8,2025-04-30T12:05:06.899+03:00,94,1.566666666666667,2025-04-22T14:20:19.516+03:00,0.02197104130929222,0
2025-04-30T12:05:26.187+03:00,1746003925.099867,40.95226695023776,29.14029258169347,76.49437,-1,-1,-1,-1,30,23.52888653378506,-9999,11629.987961125,-0.59674072265625,0.6387176513671875,-0.490234375,11629.982923125,-0.260008525345747,-0.8734587481349929,-0.6894560304896786,0.001179706421680748,-0.009698633104562759,-0.01290986780077219,-0.004815340042114258,-0.001077175140380859,0.002260208129882812,XArbitraryZVertical,0.3552455606264956,0.3550357288543913,-0.03117582304073531,-0.8641634965886323,-0.5914676785469055,0.6361175775527954,-0.4955004453659058,0,0,0,-1,-1,11626.41096479167,unknown,2,2025-04-30T12:05:22.605+03:00,2025-04-30T12:00:08.093+03:00,78,0.8511127,0,0,67.24366,0,0,2025-04-30T12:05:25.185+03:00,767696725.2885216,0,1.72,100.9503,1,0.8,2025-04-30T12:05:06.899+03:00,94,1.566666666666667,2025-04-22T14:20:19.516+03:00,0.02197104130929222,0
2025-04-30T12:05:26.197+03:00,1746003925.099867,40.95226695023776,29.14029258169347,76.49437,-1,-1,-1,-1,30,23.52888653378506,-9999,11629.998037125,-0.592132568359375,0.6392059326171875,-0.48876953125,11629.992999125,-0.2600945589563985,-0.8736083632167833,-0.6893213175762828,0.006353163160383701,-0.007655723486095667,-0.01326326932758093,-0.005133330821990967,0.002704143524169922,0.005232632160186768,XArbitraryZVertical,0.3552028177401427,0.3551020987895021,-0.03113598142713253,-0.8641551659840664,-0.5916074514389038,0.6360136270523071,-0.4954669177532196,0,0,0,-1,-1,11626.41096479167,unknown,2,2025-04-30T12:05:22.605+03:00,2025-04-30T12:00:08.093+03:00,78,0.8511127,0,0,67.24366,0,0,2025-04-30T12:05:25.185+03:00,767696725.2885216,0,1.72,100.9503,1,0.8,2025-04-30T12:05:06.899+03:00,94,1.566666666666667,2025-04-22T14:20:19.516+03:00,0.02197104130929222,0
2025-04-30T12:05:26.207+03:00,1746003925.099867,40.95226695023776,29.14029258169347,76.49437,-1,-1,-1,-1,30,23.52888653378506,-9999,11630.008113125,-0.5932464599609375,0.632598876953125,-0.4907379150390625,11630.003075125,-0.2601224527200946,-0.8736692744374485,-0.6891674252273091,0.009363333694636822,-0.005022655241191387,-0.01288390159606934,-0.0004200339317321777,0.0033111572265625,0.006724238395690918,XArbitraryZVertical,0.3551431900204317,0.3551428824813435,-0.03110131924476245,-0.8641641380430961,-0.5917126536369324,0.6358948349952698,-0.4954937100410461,0,0,0,-1,-1,11626.41096479167,unknown,2,2025-04-30T12:05:22.605+03:00,2025-04-30T12:00:08.093+03:00,78,0.8511127,0,0,67.24366,0,0,2025-04-30T12:05:25.185+03:00,767696725.2885216,0,1.72,100.9503,1,0.8,2025-04-30T12:05:06.899+03:00,94,1.566666666666667,2025-04-22T14:20:19.516+03:00,0.02197104130929222,0
2025-04-30T12:05:26.217+03:00,1746003925.099867,40.95226695023776,29.14029258169347,76.49437,-1,-1,-1,-1,30,23.52888653378506,-9999,11630.018189125,-0.5921783447265625,0.6315765380859375,-0.493438720703125,11630.013151125,-0.2601557182721814,-0.8737175107344062,-0.6889896546120727,0.005836510099470615,-0.007360644638538361,-0.01808186061680317,-0.001423299312591553,-0.003158748149871826,0.004799872636795044,XArbitraryZVertical,0.3550748543392017,0.355180255160809,-0.03105690750299145,-0.8641783900633266,-0.5918231606483459,0.6357576251029968,-0.495537668466568,0,0,0,-1,-1,11626.41096479167,unknown,2,2025-04-30T12:05:22.605+03:00,2025-04-30T12:00:08.093+03:00,78,0.8511127,0,0,67.24366,0,0,2025-04-30T12:05:25.185+03:00,767696725.2885216,0,1.72,100.9503,1,0.8,2025-04-30T12:05:06.899+03:00,94,1.566666666666667,2025-04-22T14:20:19.516+03:00,0.02197104130929222,0
2025-04-30T12:05:26.227+03:00,1746003925.099867,40.95226695023776,29.14029258169347,76.49437,-1,-1,-1,-1,30,23.52888653378506,-9999,11630.028265125,-0.5880126953125,0.628753662109375,-0.495697021484375,11630.023227125,-0.2602554851479845,-0.8738180743365279,-0.6888166557637155,0.0005049280007369816,-0.005095027387142181,-0.0169190913438797,-0.0002210736274719238,-0.0040474534034729,0.002110183238983154,XArbitraryZVertical,0.3550194543241321,0.3552278158674544,-0.03099404588370924,-0.8641838993803627,-0.5919573307037354,0.6356241106987,-0.4955487847328186,0,0,0,-1,-1,11626.41096479167,unknown,2,2025-04-30T12:05:22.605+03:00,2025-04-30T12:00:08.093+03:00,78,0.8511127,0,0,67.24366,0,0,2025-04-30T12:05:25.185+03:00,767696725.2885216,0,1.72,100.9503,1,0.8,2025-04-30T12:05:06.899+03:00,94,1.566666666666667,2025-04-22T14:20:19.516+03:00,0.02197104130929222,0
2025-04-30T12:05:26.237+03:00,1746003925.099867,40.95226695023776,29.14029258169347,76.49437,-1,-1,-1,-1,30,23.52888653378506,-9999,11630.038341125,-0.5897216796875,0.6261444091796875,-0.4950103759765625,11630.033303125,-0.2604233249240012,-0.8739999310628649,-0.6886938627762339,-0.006130870431661606,-0.009190170094370842,-0.01970928534865379,0.004094600677490234,-0.006775557994842529,-0.000205695629119873,XArbitraryZVertical,0.3549956535655709,0.3552920880951526,-0.03092709957136054,-0.8641697055749311,-0.592107355594635,0.6355292797088623,-0.495491236448288,0,0,0,-1,-1,11626.41096479167,unknown,2,2025-04-30T12:05:22.605+03:00,2025-04-30T12:00:08.093+03:00,78,0.8511127,0,0,67.24366,0,0,2025-04-30T12:05:25.185+03:00,767696725.2885216,0,1.72,100.9503,1,0.8,2025-04-30T12:05:06.899+03:00,94,1.566666666666667,2025-04-22T14:20:19.516+03:00,0.02197104130929222,0
2025-04-30T12:05:26.247+03:00,1746003925.099867,40.95226695023776,29.14029258169347,76.49437,-1,-1,-1,-1,30,23.52888653378506,-9999,11630.048417125,-0.5926513671875,0.6263885498046875,-0.49774169921875,11630.043379125,-0.2606749820447893,-0.8742521391399025,-0.6886097244550481,-0.01093008648604155,-0.006416953168809414,-0.01790376007556915,0.002551555633544922,-0.009319782257080078,0.000365912914276123,XArbitraryZVertical,0.3550016565067439,0.3553670045769241,-0.03084482065508149,-0.864139432354525,-0.5922733545303345,0.6354643106460571,-0.4953762292861938,0,0,0,-1,-1,11626.41096479167,unknown,2,2025-04-30T12:05:22.605+03:00,2025-04-30T12:00:08.093+03:00,78,0.8511127,0,0,67.24366,0,0,2025-04-30T12:05:25.185+03:00,767696725.2885216,0,1.72,100.9503,1,0.8,2025-04-30T12:05:06.899+03:00,94,1.566666666666667,2025-04-22T14:20:19.516+03:00,0.02197104130929222,0
2025-04-30T12:05:26.258+03:00,1746003925.099867,40.95226695023776,29.14029258169347,76.49437,-1,-1,-1,-1,30,23.52888653378506,-9999,11630.058493125,-0.595001220703125,0.6311187744140625,-0.4954986572265625,11630.053455125,-0.2609612564750272,-0.8744872780518537,-0.6885602113409427,-0.01546038966625929,-0.005465139634907246,-0.01890404336154461,-0.0002375245094299316,-0.009037435054779053,-0.002484500408172607,XArbitraryZVertical,0.3550284512882527,0.3554240442150569,-0.03075212115584981,-0.8641082183790694,-0.5924139022827148,0.6354261040687561,-0.4952571094036102,0,0,0,-1,-1,11626.41096479167,unknown,2,2025-04-30T12:05:22.605+03:00,2025-04-30T12:00:08.093+03:00,78,0.8511127,0,0,67.24366,0,0,2025-04-30T12:05:25.185+03:00,767696725.2885216,0,1.72,100.9503,1,0.8,2025-04-30T12:05:06.899+03:00,94,1.566666666666667,2025-04-22T14:20:19.516+03:00,0.02197104130929222,0
2025-04-30T12:05:26.268+03:00,1746003925.099867,40.95226695023776,29.14029258169347,76.49437,-1,-1,-1,-1,30,23.52888653378506,-9999,11630.068569125,-0.5930938720703125,0.6324310302734375,-0.492523193359375,11630.063531125,-0.2612896790740007,-0.8747541736554012,-0.6884878970543438,-0.01143322419375181,-0.002875815145671368,-0.02196191810071468,-0.002420008182525635,-0.004251420497894287,-0.0003701448440551758,XArbitraryZVertical,0.3550528471916172,0.3554902002903969,-0.03064189478997898,-0.8640748409842015,-0.5925812721252441,0.6353702545166016,-0.4951283931732178,0,0,0,-1,-1,11626.41096479167,unknown,2,2025-04-30T12:05:22.605+03:00,2025-04-30T12:00:08.093+03:00,78,0.8511127,0,0,67.24366,0,0,2025-04-30T12:05:25.185+03:00,767696725.2885216,0,1.72,100.9503,1,0.8,2025-04-30T12:05:06.899+03:00,94,1.566666666666667,2025-04-22T14:20:19.516+03:00,0.02197104130929222,0
2025-04-30T12:05:26.278+03:00,1746003925.099867,40.95226695023776,29.14029258169347,76.49437,-1,-1,-1,-1,30,23.52888653378506,-9999,11630.078646125,-0.5906829833984375,0.632659912109375,-0.4944915771484375,11630.073607125,-0.2616012865457995,-0.8750056259527071,-0.688406688875947,-0.01303112041205168,-0.005625529214739799,-0.02101170271635056,-0.000348508358001709,-0.002876400947570801,0.002489387989044189,XArbitraryZVertical,0.3550708047663695,0.3555537762065335,-0.0305342237125155,-0.8640451630938816,-0.5927454233169556,0.6353075504302979,-0.4950124621391296,0,0,0,-1,-1,11626.41096479167,unknown,2,2025-04-30T12:05:22.605+03:00,2025-04-30T12:00:08.093+03:00,78,0.8511127,0,0,67.24366,0,0,2025-04-30T12:05:25.185+03:00,767696725.2885216,0,1.72,100.9503,1,0.8,2025-04-30T12:05:06.899+03:00,94,1.566666666666667,2025-04-22T14:20:19.516+03:00,0.02197104130929222,0
2025-04-30T12:05:26.288+03:00,1746003925.099867,40.95226695023776,29.14029258169347,76.49437,-1,-1,-1,-1,30,23.52888653378506,-9999,11630.088722125,-0.5934295654296875,0.62725830078125,-0.4928131103515625,11630.083684125,-0.2619326015565667,-0.8752719075053894,-0.6883609884969091,-0.01548329275101423,-0.0008980846032500267,-0.01938820630311966,0.002216458320617676,-0.00261223316192627,0.0003817081451416016,XArbitraryZVertical,0.3551067628810756,0.3556157730005919,-0.03042842126302494,-0.8640085993271472,-0.5928995013237,0.6352722644805908,-0.4948732256889343,0,0,0,-1,-1,11626.41096479167,unknown,2,2025-04-30T12:05:22.605+03:00,2025-04-30T12:00:08.093+03:00,78,0.8511127,0,0,67.24366,0,0,2025-04-30T12:05:25.185+03:00,767696725.2885216,0,1.72,100.9503,1,0.8,2025-04-30T12:05:06.899+03:00,94,1.566666666666667,2025-04-22T14:20:19.516+03:00,0.02197104130929222,0
2025-04-30T12:05:26.298+03:00,1746003925.099867,40.95226695023776,29.14029258169347,76.49437,-1,-1,-1,-1,30,23.52888653378506,-9999,11630.098798125,-0.5970611572265625,0.6318817138671875,-0.4922637939453125,11630.093760125,-0.2622651352074208,-0.8754863180801734,-0.6883069776095885,-0.01419778540730476,0.001568002160638571,-0.01966703869402409,-0.0003976821899414062,-0.007972121238708496,0.001955032348632812,XArbitraryZVertical,0.3551402918181372,0.3556561808670811,-0.0303110563463986,-0.8639823738314882,-0.5930320024490356,0.635230541229248,-0.4947681128978729,0,0,0,-1,-1,11626.41096479167,unknown,2,2025-04-30T12:05:22.605+03:00,2025-04-30T12:00:08.093+03:00,78,0.8511127,0,0,67.24366,0,0,2025-04-30T12:05:25.185+03:00,767696725.2885216,0,1.72,100.9503,1,0.8,2025-04-30T12:05:06.899+03:00,94,1.566666666666667,2025-04-22T14:20:19.516+03:00,0.02197104130929222,0
2025-04-30T12:05:26.308+03:00,1746003925.099867,40.95226695023776,29.14029258169347,76.49437,-1,-1,-1,-1,30,23.52888653378506,-9999,11630.108874125,-0.59588623046875,0.6357421875,-0.49237060546875,11630.103836125,-0.2625711847493684,-0.8756341541834984,-0.6882353065206219,-0.01440804172307253,0.005457415711134672,-0.01885484158992767,-0.003921270370483398,-0.003293395042419434,0.002445816993713379,XArbitraryZVertical,0.3551629038098073,0.3556747939857383,-0.03018952796530549,-0.863969553293353,-0.5931400060653687,0.6351751685142517,-0.4947094917297363,0,0,0,-1,-1,11626.41096479167,unknown,2,2025-04-30T12:05:22.605+03:00,2025-04-30T12:00:08.093+03:00,78,0.8511127,0,0,67.24366,0,0,2025-04-30T12:05:25.185+03:00,767696725.2885216,0,1.72,100.9503,1,0.8,2025-04-30T12:05:06.899+03:00,94,1.566666666666667,2025-04-22T14:20:19.516+03:00,0.02197104130929222,0
2025-04-30T12:05:26.319+03:00,1746003925.099867,40.95226695023776,29.14029258169347,76.49437,-1,-1,-1,-1,30,23.52888653378506,-9999,11630.118950125,-0.5923004150390625,0.6313018798828125,-0.495147705078125,11630.113912125,-0.2628900739838914,-0.875765618270497,-0.6881824425887598,-0.02051999792456627,0.006935203913599253,-0.0192231573164463,-0.002655506134033203,0.000607907772064209,0.002282559871673584,XArbitraryZVertical,0.3551957889295945,0.3556816527140517,-0.03006360358298165,-0.8639576008351131,-0.5932307839393616,0.6351343393325806,-0.4946530163288116,0,0,0,-1,-1,11626.41096479167,unknown,2,2025-04-30T12:05:22.605+03:00,2025-04-30T12:00:08.093+03:00,78,0.8511127,0,0,67.24366,0,0,2025-04-30T12:05:25.185+03:00,767696725.2885216,0,1.72,100.9503,1,0.8,2025-04-30T12:05:06.899+03:00,94,1.566666666666667,2025-04-22T14:20:19.516+03:00,0.02197104130929222,0
2025-04-30T12:05:26.328+03:00,1746003925.099867,40.95226695023776,29.14029258169347,76.49437,-1,-1,-1,-1,30,23.52888653378506,-9999,11630.129026125,-0.588104248046875,0.629730224609375,-0.497161865234375,11630.123988125,-0.2632433092073624,-0.8759274468459789,-0.6881608925400355,-0.02071713656187057,0.004984105471521616,-0.01633139699697495,0.001020908355712891,-0.003815770149230957,-0.0005818009376525879,XArbitraryZVertical,0.3552472673081514,0.3556915486467752,-0.02993505233817207,-0.8639368525455211,-0.5933213829994202,0.6351177096366882,-0.4945658147335052,0,0,0,-1,-1,11626.41096479167,unknown,2,2025-04-30T12:05:22.605+03:00,2025-04-30T12:00:08.093+03:00,78,0.8511127,0,0,67.24366,0,0,2025-04-30T12:05:25.185+03:00,767696725.2885216,0,1.72,100.9503,1,0.8,2025-04-30T12:05:06.899+03:00,94,1.566666666666667,2025-04-22T14:20:19.516+03:00,0.02197104130929222,0
2025-04-30T12:05:26.338+03:00,1746003925.099867,40.95226695023776,29.14029258169347,76.49437,-1,-1,-1,-1,30,23.52888653378506,-9999,11630.139102125,-0.58929443359375,0.6334228515625,-0.49517822265625,11630.134064125,-0.2635522374928512,-0.8760781497260475,-0.6881188990557302,-0.01521478034555912,0.001193095929920673,-0.01641315594315529,0.005312085151672363,-0.005354940891265869,-0.002668321132659912,XArbitraryZVertical,0.3552825994359975,0.3557070961339274,-0.02981921487537307,-0.8639199521371671,-0.5934163928031921,0.6350852847099304,-0.4944934844970703,0,0,0,-1,-1,11626.41096479167,unknown,2,2025-04-30T12:05:22.605+03:00,2025-04-30T12:00:08.093+03:00,78,0.8511127,0,0,67.24366,0,0,2025-04-30T12:05:25.185+03:00,767696725.2885216,0,1.72,100.9503,1,0.8,2025-04-30T12:05:06.899+03:00,94,1.566666666666667,2025-04-22T14:20:19.516+03:00,0.02197104130929222,0
2025-04-30T12:05:26.348+03:00,1746003925.099867,40.95226695023776,29.14029258169347,76.49437,-1,-1,-1,-1,30,23.52888653378506,-9999,11630.149178125,-0.588287353515625,0.6341094970703125,-0.4951019287109375,11630.144140125,-0.2638792589798028,-0.8762855683067957,-0.6880902421419618,-0.02039695717394352,-0.002137919422239065,-0.01749130338430405,0.004238426685333252,-0.001640260219573975,-0.0007961094379425049,XArbitraryZVertical,0.3553258775173603,0.3557422501465416,-0.02970859466451045,-0.8638913788926881,-0.5935328602790833,0.635063111782074,-0.4943819344043732,0,0,0,-1,-1,11626.41096479167,unknown,2,2025-04-30T12:05:22.605+03:00,2025-04-30T12:00:08.093+03:00,78,0.8511127,0,0,67.24366,0,0,2025-04-30T12:05:25.185+03:00,767696725.2885216,0,1.72,100.9503,1,0.8,2025-04-30T12:05:06.899+03:00,94,1.566666666666667,2025-04-22T14:20:19.516+03:00,0.02197104130929222,0
2025-04-30T12:05:26.362+03:00,1746003925.099867,40.95226695023776,29.14029258169347,76.49437,-1,-1,-1,-1,30,23.52888653378506,-9999,11630.159254125,-0.58685302734375,0.6307220458984375,-0.495025634765625,11630.154216125,-0.2642411681315076,-0.8765521421981369,-0.6880870023202098,-0.0233493372797966,-0.004866593983024359,-0.01717731729149818,0.005378901958465576,-0.0009510517120361328,-0.0008767247200012207,XArbitraryZVertical,0.3553849106325406,0.3557934785530266,-0.02959888020912782,-0.8638499146845071,-0.5936663150787354,0.6350606083869934,-0.4942251443862915,0,0,0,-1,-1,11626.41096479167,unknown,2,2025-04-30T12:05:22.605+03:00,2025-04-30T12:00:08.093+03:00,78,0.8511127,0,0,67.24366,0,0,2025-04-30T12:05:25.185+03:00,767696725.2885216,0,1.72,100.9503,1,0.8,2025-04-30T12:05:06.899+03:00,94,1.566666666666667,2025-04-22T14:20:19.516+03:00,0.02197104130929222,0
2025-04-30T12:05:26.369+03:00,1746003925.099867,40.95226695023776,29.14029258169347,76.49437,-1,-1,-1,-1,30,23.52888653378506,-9999,11630.169330125,-0.5898284912109375,0.62933349609375,-0.4925537109375,11630.164292125,-0.2646277283770198,-0.8768381543083855,-0.6881024248675642,-0.02588420175015926,-0.002593918703496456,-0.01927844993770123,0.006946980953216553,-0.004350483417510986,-0.0009765326976776123,XArbitraryZVertical,0.3554558780260813,0.355846375014819,-0.02948615808273045,-0.8638026445071033,-0.5938000082969666,0.6350725293159485,-0.4940489530563354,0,0,0,-1,-1,11626.41096479167,unknown,2,2025-04-30T12:05:22.605+03:00,2025-04-30T12:00:08.093+03:00,78,0.8511127,0,0,67.24366,0,0,2025-04-30T12:05:25.185+03:00,767696725.2885216,0,1.72,100.9503,1,0.8,2025-04-30T12:05:06.899+03:00,94,1.566666666666667,2025-04-22T14:20:19.516+03:00,0.02197104130929222,0
2025-04-30T12:05:26.378+03:00,1746003925.099867,40.95226695023776,29.14029258169347,76.49437,-1,-1,-1,-1,30,23.52888653378506,-9999,11630.179406125,-0.5965423583984375,0.6298828125,-0.490325927734375,11630.174368125,-0.2650113672604681,-0.8771053382940091,-0.6880871237450725,-0.02111527882516384,0.0006354302167892456,-0.01689731888473034,0.004110991954803467,-0.005727112293243408,0.001342952251434326,XArbitraryZVertical,0.355513846136121,0.3558955087158254,-0.02936457606594264,-0.8637628119953271,-0.5939396023750305,0.635060727596283,-0.4938965737819672,0,0,0,-1,-1,11626.41096479167,unknown,2,2025-04-30T12:05:22.605+03:00,2025-04-30T12:00:08.093+03:00,78,0.8511127,0,0,67.24366,0,0,2025-04-30T12:05:25.185+03:00,767696725.2885216,0,1.72,100.9503,1,0.8,2025-04-30T12:05:06.899+03:00,94,1.566666666666667,2025-04-22T14:20:19.516+03:00,0.02197104130929222,0
2025-04-30T12:05:26.388+03:00,1746003925.099867,40.95226695023776,29.14029258169347,76.49437,-1,-1,-1,-1,30,23.52888653378506,-9999,11630.189483125,-0.597015380859375,0.632354736328125,-0.4901275634765625,11630.184444125,-0.2653232395602307,-0.8772938811874562,-0.688061272727319,-0.01451583299785852,0.001909353071823716,-0.01557712350040674,-0.00249713659286499,-0.005157887935638428,0.003469198942184448,XArbitraryZVertical,0.3555559502955325,0.3559248044370883,-0.02925779965120833,-0.8637369132235434,-0.5940452218055725,0.6350407600402832,-0.4937950074672699,0,0,0,-1,-1,11626.41096479167,unknown,2,2025-04-30T12:05:22.605+03:00,2025-04-30T12:00:08.093+03:00,78,0.8511127,0,0,67.24366,0,0,2025-04-30T12:05:25.185+03:00,767696725.2885216,0,1.72,100.9503,1,0.8,2025-04-30T12:05:06.899+03:00,94,1.566666666666667,2025-04-22T14:20:19.516+03:00,0.02197104130929222,0
2025-04-30T12:05:26.398+03:00,1746003925.099867,40.95226695023776,29.14029258169347,76.49437,-1,-1,-1,-1,30,23.52888653378506,-9999,11630.199559125,-0.5937347412109375,0.6310272216796875,-0.489105224609375,11630.194521125,-0.2655554398656119,-0.8774257639085102,-0.6880096687674012,-0.005498103331774473,0.002338920952752233,-0.01344686094671488,-0.002879858016967773,-0.002646148204803467,0.003610163927078247,XArbitraryZVertical,0.3555740308197351,0.3559470485243723,-0.02916968893083871,-0.8637233104882338,-0.594135582447052,0.6350008845329285,-0.4937376081943512,0,0,0,-1,-1,11626.41096479167,unknown,2,2025-04-30T12:05:22.605+03:00,2025-04-30T12:00:08.093+03:00,78,0.8511127,0,0,67.24366,0,0,2025-04-30T12:05:25.185+03:00,767696725.2885216,0,1.72,100.9503,1,0.8,2025-04-30T12:05:06.899+03:00,94,1.566666666666667,2025-04-22T14:20:19.516+03:00,0.02197104130929222,0
2025-04-30T12:05:26.409+03:00,1746003925.099867,40.95226695023776,29.14029258169347,76.49437,-1,-1,-1,-1,30,23.52888653378506,-9999,11630.209635125,-0.5929412841796875,0.631011962890625,-0.487518310546875,11630.204597125,-0.2657274041155473,-0.8774713022766212,-0.6879330835526077,-0.005615282338112593,0.007532618008553982,-0.01193005777895451,0.0004606842994689941,-0.003914475440979004,0.004636496305465698,XArbitraryZVertical,0.3555723581365877,0.3559459039904574,-0.02908680000172579,-0.8637272469270869,-0.5941954255104065,0.6349416971206665,-0.4937416315078735,0,0,0,-1,-1,11626.41096479167,unknown,2,2025-04-30T12:05:22.605+03:00,2025-04-30T12:00:08.093+03:00,78,0.8511127,0,0,67.24366,0,0,2025-04-30T12:05:25.185+03:00,767696725.2885216,0,1.72,100.9503,1,0.8,2025-04-30T12:05:06.899+03:00,94,1.566666666666667,2025-04-22T14:20:19.516+03:00,0.02197104130929222,0
2025-04-30T12:05:26.419+03:00,1746003925.099867,40.95226695023776,29.14029258169347,76.49437,-1,-1,-1,-1,30,23.52888653378506,-9999,11630.219711125,-0.5905303955078125,0.635498046875,-0.4888916015625,11630.214673125,-0.26583516883216,-0.8774669785266663,-0.6878582588244286,-0.0006615365855395794,0.00449847849085927,-0.01021950878202915,0.001288533210754395,-0.003871917724609375,0.006256371736526489,XArbitraryZVertical,0.3555607017153877,0.3559344129025825,-0.02902314450391115,-0.8637389332685691,-0.5942298173904419,0.6348839402198792,-0.4937745630741119,0,0,0,-1,-1,11626.41096479167,unknown,2,2025-04-30T12:05:22.605+03:00,2025-04-30T12:00:08.093+03:00,78,0.8511127,0,0,67.24366,0,0,2025-04-30T12:05:25.185+03:00,767696725.2885216,0,1.72,100.9503,1,0.8,2025-04-30T12:05:06.899+03:00,94,1.566666666666667,2025-04-22T14:20:19.516+03:00,0.02197104130929222,0
2025-04-30T12:05:26.429+03:00,1746003925.099867,40.95226695023776,29.14029258169347,76.49437,-1,-1,-1,-1,30,23.52888653378506,-9999,11630.229787125,-0.5863494873046875,0.6325836181640625,-0.4909210205078125,11630.224749125,-0.2659661446618647,-0.8775336792978833,-0.6877950479756813,-0.006716765929013491,7.656589150428772e-05,-0.01260397024452686,0.003763258457183838,0.0006629824638366699,0.004869073629379272,XArbitraryZVertical,0.3555569459319337,0.3559479917602789,-0.02896463077189124,-0.8637368479126178,-0.5942936539649963,0.6348350644111633,-0.4937605559825897,0,0,0,-1,-1,11626.41096479167,unknown,2,2025-04-30T12:05:22.605+03:00,2025-04-30T12:00:08.093+03:00,78,0.8511127,0,0,67.24366,0,0,2025-04-30T12:05:25.185+03:00,767696725.2885216,0,1.72,100.9503,1,0.8,2025-04-30T12:05:06.899+03:00,94,1.566666666666667,2025-04-22T14:20:19.516+03:00,0.02197104130929222,0
2025-04-30T12:05:26.439+03:00,1746003925.099867,40.95226695023776,29.14029258169347,76.49437,-1,-1,-1,-1,30,23.52888653378506,-9999,11630.239863125,-0.5880889892578125,0.6278228759765625,-0.4918975830078125,11630.234825125,-0.2660990154926728,-0.877617267733051,-0.6877683553572995,-0.006441128440201283,-0.001837448216974735,-0.008182589896023273,0.007998466491699219,-0.002230823040008545,0.002800852060317993,XArbitraryZVertical,0.3555683609558828,0.3559638709220336,-0.02891627488694055,-0.8637272332475754,-0.5943479537963867,0.634814441204071,-0.4937217235565186,0,0,0,-1,-1,11626.41096479167,unknown,2,2025-04-30T12:05:22.605+03:00,2025-04-30T12:00:08.093+03:00,78,0.8511127,0,0,67.24366,0,0,2025-04-30T12:05:25.185+03:00,767696725.2885216,0,1.72,100.9503,1,0.8,2025-04-30T12:05:06.899+03:00,94,1.566666666666667,2025-04-22T14:20:19.516+03:00,0.02197104130929222,0
2025-04-30T12:05:26.449+03:00,1746003925.099867,40.95226695023776,29.14029258169347,76.49437,-1,-1,-1,-1,30,23.52888653378506,-9999,11630.249939125,-0.59088134765625,0.630859375,-0.491668701171875,11630.244901125,-0.266257121095239,-0.8777443605346833,-0.6877633097616819,-0.01300235837697983,-0.00384840089827776,-0.009789940901100636,0.006324172019958496,-0.006987571716308594,0.001750826835632324,XArbitraryZVertical,0.3555925453840454,0.3559912752775498,-0.02886945385689752,-0.863707653018341,-0.5944132804870605,0.6348105669021606,-0.4936483204364777,0,0,0,-1,-1,11626.41096479167,unknown,2,2025-04-30T12:05:22.605+03:00,2025-04-30T12:00:08.093+03:00,78,0.8511127,0,0,67.24366,0,0,2025-04-30T12:05:25.185+03:00,767696725.2885216,0,1.72,100.9503,1,0.8,2025-04-30T12:05:06.899+03:00,94,1.566666666666667,2025-04-22T14:20:19.516+03:00,0.02197104130929222,0
2025-04-30T12:05:26.459+03:00,1746003925.099867,40.95226695023776,29.14029258169347,76.49437,-1,-1,-1,-1,30,23.52888653378506,-9999,11630.260015125,-0.5901336669921875,0.6336212158203125,-0.4881439208984375,11630.254977125,-0.2664545998356211,-0.8779208376194259,-0.68774081269128,-0.01031922362744808,-0.007841278798878193,-0.01142512168735266,0.003629803657531738,-0.003933727741241455,0.001883864402770996,XArbitraryZVertical,0.3556159096406756,0.3560352627955201,-0.02881067609847831,-0.8636817422267539,-0.5945112705230713,0.6347931623458862,-0.4935524463653564,0,0,0,-1,-1,11626.41096479167,unknown,2,2025-04-30T12:05:22.605+03:00,2025-04-30T12:00:08.093+03:00,78,0.8511127,0,0,67.24366,0,0,2025-04-30T12:05:25.185+03:00,767696725.2885216,0,1.72,100.9503,1,0.8,2025-04-30T12:05:06.899+03:00,94,1.566666666666667,2025-04-22T14:20:19.516+03:00,0.02197104130929222,0
2025-04-30T12:05:26.469+03:00,1746003925.099867,40.95226695023776,29.14029258169347,76.49437,-1,-1,-1,-1,30,23.52888653378506,-9999,11630.270091125,-0.5911407470703125,0.62908935546875,-0.4901885986328125,11630.265053125,-0.2666791300830639,-0.8781578201117636,-0.6877288327976697,-0.01514879986643791,-0.0110188964754343,-0.01157169602811337,0.004500329494476318,-0.00116264820098877,0.005272626876831055,XArbitraryZVertical,0.3556475189784267,0.3560991995754123,-0.02875322899906549,-0.8636443064219403,-0.5946340560913086,0.634783923625946,-0.4934163987636566,0,0,0,-1,-1,11626.41096479167,unknown,2,2025-04-30T12:05:22.605+03:00,2025-04-30T12:00:08.093+03:00,78,0.8511127,0,0,67.24366,0,0,2025-04-30T12:05:25.185+03:00,767696725.2885216,0,1.72,100.9503,1,0.8,2025-04-30T12:05:06.899+03:00,94,1.566666666666667,2025-04-22T14:20:19.516+03:00,0.02197104130929222,0
2025-04-30T12:05:26.479+03:00,1746003925.099867,40.95226695023776,29.14029258169347,76.49437,-1,-1,-1,-1,30,23.52888653378506,-9999,11630.280167125,-0.5938568115234375,0.624420166015625,-0.492767333984375,11630.275129125,-0.2669461149647776,-0.8784398025564627,-0.6877367580806513,-0.01722287014126778,-0.009946174919605255,-0.009449156001210213,0.00362849235534668,-0.005700588226318359,0.003057003021240234,XArbitraryZVertical,0.3556942665166749,0.3561724645792421,-0.0286898069616393,-0.8635969939219627,-0.5947693586349487,0.6347900629043579,-0.493245542049408,0,0,0,-1,-1,11626.41096479167,unknown,2,2025-04-30T12:05:22.605+03:00,2025-04-30T12:00:08.093+03:00,78,0.8511127,0,0,67.24366,0,0,2025-04-30T12:05:25.185+03:00,767696725.2885216,0,1.72,100.9503,1,0.8,2025-04-30T12:05:06.899+03:00,94,1.566666666666667,2025-04-22T14:20:19.516+03:00,0.02197104130929222,0
2025-04-30T12:05:26.489+03:00,1746003925.099867,40.95226695023776,29.14029258169347,76.49437,-1,-1,-1,-1,30,23.52888653378506,-9999,11630.290243125,-0.594970703125,0.62799072265625,-0.492156982421875,11630.285205125,-0.2672093343365924,-0.8787232371908349,-0.6877675701050745,-0.01674516499042511,-0.01207597088068724,-0.01040859334170818,0.001037180423736572,-0.01039361953735352,0.000297248363494873,XArbitraryZVertical,0.3557497945406776,0.3562440913810587,-0.02863329787633325,-0.8635464698531911,-0.5948940515518188,0.6348138451576233,-0.4930644631385803,0,0,0,-1,-1,11626.41096479167,unknown,2,2025-04-30T12:05:22.605+03:00,2025-04-30T12:00:08.093+03:00,78,0.8511127,0,0,67.24366,0,0,2025-04-30T12:05:25.185+03:00,767696725.2885216,0,1.72,100.9503,1,0.8,2025-04-30T12:05:06.899+03:00,94,1.566666666666667,2025-04-22T14:20:19.516+03:00,0.02197104130929222,0
2025-04-30T12:05:26.500+03:00,1746003925.099867,40.95226695023776,29.14029258169347,76.49437,-1,-1,-1,-1,30,23.52888653378506,-9999,11630.300320125,-0.593597412109375,0.6287689208984375,-0.4940185546875,11630.295282125,-0.2674848540416002,-0.879041582130991,-0.6878349635109487,-0.02029489167034626,-0.01404484640806913,-0.005810645408928394,4.732608795166016e-05,-0.006875157356262207,0.000690847635269165,XArbitraryZVertical,0.3558221535934075,0.3563239188120919,-0.02858573829180766,-0.8634852343080478,-0.5950180292129517,0.634865939617157,-0.4928477108478546,0,0,0,-1,-1,11626.41096479167,unknown,2,2025-04-30T12:05:22.605+03:00,2025-04-30T12:00:08.093+03:00,78,0.8511127,0,0,67.24366,0,0,2025-04-30T12:05:25.185+03:00,767696725.2885216,0,1.72,100.9503,1,0.8,2025-04-30T12:05:06.899+03:00,94,1.566666666666667,2025-04-22T14:20:19.516+03:00,0.02197104130929222,0
2025-04-30T12:05:26.510+03:00,1746003925.099867,40.95226695023776,29.14029258169347,76.49437,-1,-1,-1,-1,30,23.52888653378506,-9999,11630.310396125,-0.592559814453125,0.625213623046875,-0.495208740234375,11630.305358125,-0.2677531234385376,-0.879365829001393,-0.6879395663532053,-0.02511807717382908,-0.0182722806930542,-0.007474156096577644,0.001529216766357422,-0.006177723407745361,-0.001406013965606689,XArbitraryZVertical,0.3559084533520693,0.3564027768920262,-0.02855048529572898,-0.8634183603449136,-0.5951266884803772,0.6349467039108276,-0.4926124811172485,0,0,0,-1,-1,11626.41096479167,unknown,2,2025-04-30T12:05:22.605+03:00,2025-04-30T12:00:08.093+03:00,78,0.8511127,0,0,67.24366,0,0,2025-04-30T12:05:25.185+03:00,767696725.2885216,0,1.72,100.9503,1,0.8,2025-04-30T12:05:06.899+03:00,94,1.566666666666667,2025-04-22T14:20:19.516+03:00,0.02197104130929222,0
2025-04-30T12:05:26.520+03:00,1746003925.099867,40.95226695023776,29.14029258169347,76.49437,-1,-1,-1,-1,30,23.52888653378506,-9999,11630.320472125,-0.592437744140625,0.625946044921875,-0.494781494140625,11630.315434125,-0.2680623742993627,-0.8797523770746339,-0.6880619502595647,-0.02606509812176228,-0.01881636492908001,-0.005050412844866514,0.002697229385375977,-0.009827554225921631,-0.002875804901123047,XArbitraryZVertical,0.3560085630025354,0.3564989457390165,-0.02851260370286271,-0.863338571248436,-0.5952571034431458,0.6350412964820862,-0.4923328161239624,0,0,0,-1,-1,11626.41096479167,unknown,2,2025-04-30T12:05:22.605+03:00,2025-04-30T12:00:08.093+03:00,78,0.8511127,0,0,67.24366,0,0,2025-04-30T12:05:25.185+03:00,767696725.2885216,0,1.72,100.9503,1,0.8,2025-04-30T12:05:06.899+03:00,94,1.566666666666667,2025-04-22T14:20:19.516+03:00,0.02197104130929222,0
2025-04-30T12:05:26.551+03:00,1746003925.099867,40.95226695023776,29.14029258169347,76.49437,-1,-1,-1,-1,30,23.52888653378506,-9999,11630.330548125,-0.59661865234375,0.6299896240234375,-0.4955291748046875,11630.325510125,-0.2683284659557905,-0.8800713142910185,-0.6881600188681474,-0.02376765385270119,-0.01313005015254021,-0.003487437032163143,0.002928376197814941,-0.009170949459075928,-0.002678126096725464,XArbitraryZVertical,0.3560919038264103,0.3565766805184931,-0.028476008107896,-0.8632733009397311,-0.5953661203384399,0.6351170539855957,-0.49210324883461,0,0,0,-1,-1,11626.41096479167,unknown,2,2025-04-30T12:05:22.605+03:00,2025-04-30T12:00:08.093+03:00,78,0.8511127,0,0,67.24366,0,0,2025-04-30T12:05:25.185+03:00,767696725.2885216,0,1.72,100.9503,1,0.8,2025-04-30T12:05:06.899+03:00,94,1.566666666666667,2025-04-22T14:20:19.516+03:00,0.02197104130929222,0
2025-04-30T12:05:26.554+03:00,1746003925.099867,40.95226695023776,29.14029258169347,76.49437,-1,-1,-1,-1,30,23.52888653378506,-9999,11630.340624125,-0.598388671875,0.636077880859375,-0.4901123046875,11630.335586125,-0.2685821561469128,-0.8803587092931359,-0.6882843738394532,-0.02031406760215759,-0.0101302657276392,-0.001617099158465862,-0.001172065734863281,-0.005223393440246582,-0.003647208213806152,XArbitraryZVertical,0.3561843155099991,0.3566396027811872,-0.0284449245363294,-0.8632102485934897,-0.5954466462135315,0.6352130770683289,-0.4918818473815918,0,0,0,-1,-1,11626.41096479167,unknown,2,2025-04-30T12:05:22.605+03:00,2025-04-30T12:00:08.093+03:00,78,0.8511127,0,0,67.24366,0,0,2025-04-30T12:05:25.185+03:00,767696725.2885216,0,1.72,100.9503,1,0.8,2025-04-30T12:05:06.899+03:00,94,1.566666666666667,2025-04-22T14:20:19.516+03:00,0.02197104130929222,0
2025-04-30T12:05:26.556+03:00,1746003925.099867,40.95226695023776,29.14029258169347,76.49437,-1,-1,-1,-1,30,23.52888653378506,-9999,11630.350700125,-0.6003570556640625,0.6331329345703125,-0.486907958984375,11630.345662125,-0.2688191970160178,-0.8805754972142213,-0.6884296307007766,-0.02081906795501709,-0.003301187884062529,-0.002220338210463524,-0.002906680107116699,0.0007526874542236328,0.001581788063049316,XArbitraryZVertical,0.3562834089595708,0.3566723158302635,-0.02841308520911093,-0.8631568570365616,-0.5954821109771729,0.6353252530097961,-0.4916939735412598,0,0,0,-1,-1,11626.41096479167,unknown,2,2025-04-30T12:05:22.605+03:00,2025-04-30T12:00:08.093+03:00,78,0.8511127,0,0,67.24366,0,0,2025-04-30T12:05:25.185+03:00,767696725.2885216,0,1.72,100.9503,1,0.8,2025-04-30T12:05:06.899+03:00,94,1.566666666666667,2025-04-22T14:20:19.516+03:00,0.02197104130929222,0
2025-04-30T12:05:26.560+03:00,1746003925.099867,40.95226695023776,29.14029258169347,76.49437,-1,-1,-1,-1,30,23.52888653378506,-9999,11630.360777625,-0.6035614013671875,0.6312255859375,-0.488861083984375,11630.355739625,-0.2690758698515457,-0.8807291033275778,-0.6885418108487471,-0.02105875313282013,0.003955126740038395,-0.005179642699658871,-0.004854500293731689,-0.00227886438369751,0.00464928150177002,XArbitraryZVertical,0.3563732522207372,0.3566784779613095,-0.02835427661052748,-0.8631191581093086,-0.5955026149749756,0.6354118585586548,-0.4915571510791779,0,0,0,-1,-1,11626.41096479167,unknown,2,2025-04-30T12:05:22.605+03:00,2025-04-30T12:00:08.093+03:00,78,0.8511127,0,0,67.24366,0,0,2025-04-30T12:05:25.185+03:00,767696725.2885216,0,1.72,100.9503,1,0.8,2025-04-30T12:05:06.899+03:00,94,1.566666666666667,2025-04-22T14:20:19.516+03:00,0.02197104130929222,0
2025-04-30T12:05:26.570+03:00,1746003925.099867,40.95226695023776,29.14029258169347,76.49437,-1,-1,-1,-1,30,23.52888653378506,-9999,11630.370853625,-0.600677490234375,0.6299591064453125,-0.4913787841796875,11630.365815625,-0.2693105473623434,-0.8807921429304879,-0.6886226749950921,-0.02071553841233253,0.01148461550474167,-0.002818783978000283,-0.008067488670349121,-0.004248678684234619,0.002625882625579834,XArbitraryZVertical,0.3564475403164153,0.3566534749700221,-0.0282819625128673,-0.8631012033478308,-0.5954940319061279,0.6354743242263794,-0.4914869070053101,0,0,0,-1,-1,11626.41096479167,unknown,2,2025-04-30T12:05:22.605+03:00,2025-04-30T12:00:08.093+03:00,78,0.8511127,0,0,67.24366,0,0,2025-04-30T12:05:25.185+03:00,767696725.2885216,0,1.72,100.9503,1,0.8,2025-04-30T12:05:06.899+03:00,94,1.566666666666667,2025-04-22T14:20:19.516+03:00,0.02197104130929222,0
2025-04-30T12:05:26.580+03:00,1746003925.099867,40.95226695023776,29.14029258169347,76.49437,-1,-1,-1,-1,30,23.52888653378506,-9999,11630.380929625,-0.59765625,0.6285400390625,-0.48992919921875,11630.375891625,-0.2695463553528887,-0.8808279829652282,-0.6887393145013977,-0.02073098532855511,0.01142096612602472,-0.001087462995201349,-0.005223095417022705,-0.005605220794677734,3.966689109802246e-05,XArbitraryZVertical,0.3565371799687586,0.3566119302965017,-0.02821218676135133,-0.8630835825813307,-0.5954543948173523,0.635564386844635,-0.491418331861496,0,0,0,-1,-1,11626.41096479167,unknown,2,2025-04-30T12:05:22.605+03:00,2025-04-30T12:00:08.093+03:00,78,0.8511127,0,0,67.24366,0,0,2025-04-30T12:05:25.185+03:00,767696725.2885216,0,1.72,100.9503,1,0.8,2025-04-30T12:05:06.899+03:00,94,1.566666666666667,2025-04-22T14:20:19.516+03:00,0.02197104130929222,0
2025-04-30T12:05:26.590+03:00,1746003925.099867,40.95226695023776,29.14029258169347,76.49437,-1,-1,-1,-1,30,23.52888653378506,-9999,11630.391006625,-0.594696044921875,0.6292877197265625,-0.4892578125,11630.385968625,-0.2697858863090567,-0.8808564696334987,-0.6888673672450505,-0.02559844590723515,0.01140791643410921,0.0002632924006320536,-0.00225067138671875,-0.007123172283172607,0.001420468091964722,XArbitraryZVertical,0.3566322831457861,0.3565650626930321,-0.02814200218044159,-0.8630659017229193,-0.5954055786132812,0.6356632113456726,-0.4913495481014252,0,0,0,-1,-1,11626.41096479167,unknown,2,2025-04-30T12:05:22.605+03:00,2025-04-30T12:00:08.093+03:00,78,0.8511127,0,0,67.24366,0,0,2025-04-30T12:05:25.185+03:00,767696725.2885216,0,1.72,100.9503,1,0.8,2025-04-30T12:05:06.899+03:00,94,1.566666666666667,2025-04-22T14:20:19.516+03:00,0.02197104130929222,0
2025-04-30T12:05:26.600+03:00,1746003925.099867,40.95226695023776,29.14029258169347,76.49437,-1,-1,-1,-1,30,23.52888653378506,-9999,11630.401082625,-0.5931243896484375,0.6298065185546875,-0.4883880615234375,11630.396044625,-0.270039858025785,-0.8808993463259694,-0.6890064983781712,-0.02851167693734169,0.01060017943382263,0.0003871293156407773,0.000662386417388916,-0.006482899188995361,0.002010047435760498,XArbitraryZVertical,0.3567342925944061,0.3565203746196587,-0.02807056721917035,-0.8630445523978626,-0.5953584909439087,0.6357706189155579,-0.4912677407264709,0,0,0,-1,-1,11626.41096479167,unknown,2,2025-04-30T12:05:22.605+03:00,2025-04-30T12:00:08.093+03:00,78,0.8511127,0,0,67.24366,0,0,2025-04-30T12:05:25.185+03:00,767696725.2885216,0,1.72,100.9503,1,0.8,2025-04-30T12:05:06.899+03:00,94,1.566666666666667,2025-04-22T14:20:19.516+03:00,0.02197104130929222,0
2025-04-30T12:05:26.610+03:00,1746003925.099867,40.95226695023776,29.14029258169347,76.49437,-1,-1,-1,-1,30,23.52888653378506,-9999,11630.411158625,-0.592681884765625,0.631134033203125,-0.4917755126953125,11630.406120625,-0.2702953956247617,-0.8809370818071429,-0.6891484669063435,-0.02659926190972328,0.01083240658044815,-0.001311301602981985,0.002182960510253906,-0.006073653697967529,0.002799898386001587,XArbitraryZVertical,0.3568378227953147,0.3564728044296219,-0.02799817861222206,-0.8630237494086911,-0.5953073501586914,0.6358802318572998,-0.4911878108978271,0,0,0,-1,-1,11626.41096479167,unknown,2,2025-04-30T12:05:22.605+03:00,2025-04-30T12:00:08.093+03:00,78,0.8511127,0,0,67.24366,0,0,2025-04-30T12:05:25.185+03:00,767696725.2885216,0,1.72,100.9503,1,0.8,2025-04-30T12:05:06.899+03:00,94,1.566666666666667,2025-04-22T14:20:19.516+03:00,0.02197104130929222,0
2025-04-30T12:05:26.620+03:00,1746003925.099867,40.95226695023776,29.14029258169347,76.49437,-1,-1,-1,-1,30,23.52888653378506,-9999,11630.421234625,-0.5920257568359375,0.6329498291015625,-0.489990234375,11630.416196625,-0.2706053089707776,-0.8810381877566984,-0.6892951381537722,-0.03082410059869289,0.007557251490652561,-0.002074829768389463,0.002603232860565186,-0.004859328269958496,-0.0007070600986480713,XArbitraryZVertical,0.3569520743481212,0.3564422396906996,-0.02791466440700938,-0.8629918629465068,-0.5952851176261902,0.6359934210777283,-0.4910683035850525,0,0,0,-1,-1,11626.41096479167,unknown,2,2025-04-30T12:05:22.605+03:00,2025-04-30T12:00:08.093+03:00,78,0.8511127,0,0,67.24366,0,0,2025-04-30T12:05:25.185+03:00,767696725.2885216,0,1.72,100.9503,1,0.8,2025-04-30T12:05:06.899+03:00,94,1.566666666666667,2025-04-22T14:20:19.516+03:00,0.02197104130929222,0
2025-04-30T12:05:26.631+03:00,1746003925.099867,40.95226695023776,29.14029258169347,76.49437,-1,-1,-1,-1,30,23.52888653378506,-9999,11630.431310625,-0.594146728515625,0.6324615478515625,-0.488922119140625,11630.426272625,-0.2709532979024672,-0.8812183857195852,-0.6894432733433916,-0.02814189717173576,0.002558631589636207,-0.00753091461956501,0.003275096416473389,-0.003157854080200195,0.0009109675884246826,XArbitraryZVertical,0.3570726229118681,0.3564387897507401,-0.0278291948056978,-0.862946165299716,-0.5953009128570557,0.6361076831817627,-0.4909010529518127,0,0,0,-1,-1,11626.41096479167,unknown,2,2025-04-30T12:05:22.605+03:00,2025-04-30T12:00:08.093+03:00,78,0.8511127,0,0,67.24366,0,0,2025-04-30T12:05:25.185+03:00,767696725.2885216,0,1.72,100.9503,1,0.8,2025-04-30T12:05:06.899+03:00,94,1.566666666666667,2025-04-22T14:20:19.516+03:00,0.02197104130929222,0
2025-04-30T12:05:26.641+03:00,1746003925.099867,40.95226695023776,29.14029258169347,76.49437,-1,-1,-1,-1,30,23.52888653378506,-9999,11630.441386625,-0.5946502685546875,0.63238525390625,-0.49078369140625,11630.436348625,-0.2713066110788819,-0.8814558509013954,-0.6895317864531395,-0.02386326156556606,-0.001060604117810726,-0.009525089524686337,0.001227259635925293,-0.003714382648468018,0.001801908016204834,XArbitraryZVertical,0.3571687357810685,0.3564667366956792,-0.02773856574831758,-0.8628978279091004,-0.5953740477561951,0.6361759901046753,-0.4907239079475403,0,0,0,-1,-1,11626.41096479167,unknown,2,2025-04-30T12:05:22.605+03:00,2025-04-30T12:00:08.093+03:00,78,0.8511127,0,0,67.24366,0,0,2025-04-30T12:05:25.185+03:00,767696725.2885216,0,1.72,100.9503,1,0.8,2025-04-30T12:05:06.899+03:00,94,1.566666666666667,2025-04-22T14:20:19.516+03:00,0.02197104130929222,0
2025-04-30T12:05:26.651+03:00,1746003925.099867,40.95226695023776,29.14029258169347,76.49437,-1,-1,-1,-1,30,23.52888653378506,-9999,11630.451462625,-0.5940704345703125,0.6344757080078125,-0.4912261962890625,11630.446424625,-0.2716427221898429,-0.8816952073976126,-0.6895889194601752,-0.0254365261644125,-0.002233859617263079,-0.009884550236165524,0.0008130669593811035,-0.003834724426269531,-0.0002253055572509766,XArbitraryZVertical,0.3572488707009189,0.3565026035238291,-0.02764885698919128,-0.8628526998666295,-0.5954633951187134,0.6362200975418091,-0.4905582666397095,0,0,0,-1,-1,11626.41096479167,unknown,2,2025-04-30T12:05:22.605+03:00,2025-04-30T12:00:08.093+03:00,78,0.8511127,0,0,67.24366,0,0,2025-04-30T12:05:25.185+03:00,767696725.2885216,0,1.72,100.9503,1,0.8,2025-04-30T12:05:06.899+03:00,94,1.566666666666667,2025-04-22T14:20:19.516+03:00,0.02197104130929222,0
2025-04-30T12:05:26.661+03:00,1746003925.099867,40.95226695023776,29.14029258169347,76.49437,-1,-1,-1,-1,30,23.52888653378506,-9999,11630.461538625,-0.5945281982421875,0.6343994140625,-0.489532470703125,11630.456500625,-0.2719714266294174,-0.8819375718282739,-0.6896137405423984,-0.02007238566875458,-0.001945173367857933,-0.01284731645137072,0.001499593257904053,-0.001763463020324707,-0.0008221864700317383,XArbitraryZVertical,0.3573143524552067,0.3565452417869983,-0.02755580503912927,-0.8628109213918308,-0.5955700874328613,0.636239230632782,-0.4904038906097412,0,0,0,-1,-1,11626.41096479167,unknown,2,2025-04-30T12:05:22.605+03:00,2025-04-30T12:00:08.093+03:00,78,0.8511127,0,0,67.24366,0,0,2025-04-30T12:05:25.185+03:00,767696725.2885216,0,1.72,100.9503,1,0.8,2025-04-30T12:05:06.899+03:00,94,1.566666666666667,2025-04-22T14:20:19.516+03:00,0.02197104130929222,0
2025-04-30T12:05:26.671+03:00,1746003925.099867,40.95226695023776,29.14029258169347,76.49437,-1,-1,-1,-1,30,23.52888653378506,-9999,11630.471614625,-0.5962066650390625,0.63330078125,-0.4857025146484375,11630.466576625,-0.2722868054812188,-0.8821277621916473,-0.6896339412439353,-0.02191103249788284,0.003597397590056062,-0.01042423956096172,0.001125216484069824,-0.001855373382568359,0.0007500946521759033,XArbitraryZVertical,0.3573762725255893,0.3565683264714382,-0.02745816417988868,-0.8627788724842794,-0.5956534743309021,0.6362548470497131,-0.4902824461460114,0,0,0,-1,-1,11626.41096479167,unknown,2,2025-04-30T12:05:22.605+03:00,2025-04-30T12:00:08.093+03:00,78,0.8511127,0,0,67.24366,0,0,2025-04-30T12:05:25.185+03:00,767696725.2885216,0,1.72,100.9503,1,0.8,2025-04-30T12:05:06.899+03:00,94,1.566666666666667,2025-04-22T14:20:19.516+03:00,0.02197104130929222,0
2025-04-30T12:05:26.681+03:00,1746003925.099867,40.95226695023776,29.14029258169347,76.49437,-1,-1,-1,-1,30,23.52888653378506,-9999,11630.481691625,-0.5987396240234375,0.63653564453125,-0.4826202392578125,11630.476652625,-0.2725563182652879,-0.88225010129891,-0.689657128556154,-0.01809445582330227,0.006920756306499243,-0.008982936851680279,-0.0005047321319580078,-0.002971887588500977,0.004497766494750977,XArbitraryZVertical,0.3574322265412012,0.3565699548502355,-0.02736888986477535,-0.8627577665533285,-0.5957019329071045,0.6362727284431458,-0.4902001321315765,0,0,0,-1,-1,11626.41096479167,unknown,2,2025-04-30T12:05:22.605+03:00,2025-04-30T12:00:08.093+03:00,78,0.8511127,0,0,67.24366,0,0,2025-04-30T12:05:25.185+03:00,767696725.2885216,0,1.72,100.9503,1,0.8,2025-04-30T12:05:06.899+03:00,94,1.566666666666667,2025-04-22T14:20:19.516+03:00,0.02197104130929222,0
2025-04-30T12:05:26.691+03:00,1746003925.099867,40.95226695023776,29.14029258169347,76.49437,-1,-1,-1,-1,30,23.52888653378506,-9999,11630.491767625,-0.5952911376953125,0.6373748779296875,-0.4852142333984375,11630.486729625,-0.2728009533041012,-0.8823414812234399,-0.6896761920454763,-0.01582604087889194,0.006877546198666096,-0.009204012341797352,-0.00300222635269165,0.0002483129501342773,0.00751793384552002,XArbitraryZVertical,0.357482402199535,0.3565631690527168,-0.02728384623221252,-0.8627425855266425,-0.5957374572753906,0.6362873911857605,-0.4901380836963654,0,0,0,-1,-1,11626.41096479167,unknown,2,2025-04-30T12:05:22.605+03:00,2025-04-30T12:00:08.093+03:00,78,0.8511127,0,0,67.24366,0,0,2025-04-30T12:05:25.185+03:00,767696725.2885216,0,1.72,100.9503,1,0.8,2025-04-30T12:05:06.899+03:00,94,1.566666666666667,2025-04-22T14:20:19.516+03:00,0.02197104130929222,0
2025-04-30T12:05:26.701+03:00,1746003925.099867,40.95226695023776,29.14029258169347,76.49437,-1,-1,-1,-1,30,23.52888653378506,-9999,11630.501843625,-0.596282958984375,0.6358184814453125,-0.4874114990234375,11630.496805625,-0.2730020958859205,-0.8823629762052361,-0.6896991774093386,-0.01401269529014826,0.01174420677125454,-0.00731370085850358,0.0004455447196960449,0.001069784164428711,0.00490182638168335,XArbitraryZVertical,0.3575274268807894,0.3565335107098689,-0.02720597046148255,-0.8627386579262626,-0.5957367420196533,0.6363051533699036,-0.4901160001754761,0,0,0,-1,-1,11626.41096479167,unknown,2,2025-04-30T12:05:22.605+03:00,2025-04-30T12:00:08.093+03:00,78,0.8511127,0,0,67.24366,0,0,2025-04-30T12:05:25.185+03:00,767696725.2885216,0,1.72,100.9503,1,0.8,2025-04-30T12:05:06.899+03:00,94,1.566666666666667,2025-04-22T14:20:19.516+03:00,0.02197104130929222,0
2025-04-30T12:05:26.711+03:00,1746003925.099867,40.95226695023776,29.14029258169347,76.49437,-1,-1,-1,-1,30,23.52888653378506,-9999,11630.511919625,-0.59637451171875,0.636627197265625,-0.4871826171875,11630.506881625,-0.2731810305471624,-0.8823584445828039,-0.6897338957339283,-0.01135812327265739,0.01039791293442249,-0.006067773792892694,-0.0005655884742736816,-0.0005133748054504395,0.002693235874176025,XArbitraryZVertical,0.3575736837183829,0.3564950752461423,-0.02713561132391018,-0.8627375731555891,-0.5957174301147461,0.6363319158554077,-0.4901046454906464,0,0,0,-1,-1,11626.41096479167,unknown,2,2025-04-30T12:05:22.605+03:00,2025-04-30T12:00:08.093+03:00,78,0.8511127,0,0,67.24366,0,0,2025-04-30T12:05:25.185+03:00,767696725.2885216,0,1.72,100.9503,1,0.8,2025-04-30T12:05:06.899+03:00,94,1.566666666666667,2025-04-22T14:20:19.516+03:00,0.02197104130929222,0
2025-04-30T12:05:26.721+03:00,1746003925.099867,40.95226695023776,29.14029258169347,76.49437,-1,-1,-1,-1,30,23.52888653378506,-9999,11630.521995625,-0.59375,0.6376953125,-0.4869232177734375,11630.516957625,-0.2733495940245055,-0.8823446745651361,-0.6897686405756781,-0.01299410313367844,0.01059498637914658,-0.004813691135495901,-0.0006809234619140625,0.0002685785293579102,0.002916276454925537,XArbitraryZVertical,0.3576182052297959,0.3564544926157705,-0.02706806272299018,-0.8627380485690885,-0.5956936478614807,0.6363587379455566,-0.4900988340377808,0,0,0,-1,-1,11626.41096479167,unknown,2,2025-04-30T12:05:22.605+03:00,2025-04-30T12:00:08.093+03:00,78,0.8511127,0,0,67.24366,0,0,2025-04-30T12:05:25.185+03:00,767696725.2885216,0,1.72,100.9503,1,0.8,2025-04-30T12:05:06.899+03:00,94,1.566666666666667,2025-04-22T14:20:19.516+03:00,0.02197104130929222,0
2025-04-30T12:05:26.731+03:00,1746003925.099867,40.95226695023776,29.14029258169347,76.49437,-1,-1,-1,-1,30,23.52888653378506,-9999,11630.532071625,-0.5915679931640625,0.636993408203125,-0.487091064453125,11630.527033625,-0.2734857289594304,-0.8823503161378631,-0.689759969445166,-0.006386467255651951,0.007088735233992338,-0.007283872924745083,0.001950562000274658,0.001343429088592529,0.003175854682922363,XArbitraryZVertical,0.3576388110355204,0.3564337021050544,-0.02700843078878619,-0.8627399939382325,-0.5957006812095642,0.6363520622253418,-0.4900989830493927,0,0,0,-1,-1,11626.41096479167,unknown,2,2025-04-30T12:05:22.605+03:00,2025-04-30T12:00:08.093+03:00,78,0.8511127,0,0,67.24366,0,0,2025-04-30T12:05:25.185+03:00,767696725.2885216,0,1.72,100.9503,1,0.8,2025-04-30T12:05:06.899+03:00,94,1.566666666666667,2025-04-22T14:20:19.516+03:00,0.02197104130929222,0
2025-04-30T12:05:26.741+03:00,1746003925.099867,40.95226695023776,29.14029258169347,76.49437,-1,-1,-1,-1,30,23.52888653378506,-9999,11630.542147625,-0.593414306640625,0.6341400146484375,-0.488311767578125,11630.537109625,-0.2736106705821945,-0.8823822382727874,-0.6897346880887337,-0.006480476818978786,0.004294812679290771,-0.008336087688803673,0.004160642623901367,0.0006608963012695312,0.002999156713485718,XArbitraryZVertical,0.3576502846687714,0.3564284228895028,-0.02695472655497386,-0.8627389717971705,-0.5957286357879639,0.6363325119018555,-0.4900901019573212,0,0,0,-1,-1,11626.41096479167,unknown,2,2025-04-30T12:05:22.605+03:00,2025-04-30T12:00:08.093+03:00,78,0.8511127,0,0,67.24366,0,0,2025-04-30T12:05:25.185+03:00,767696725.2885216,0,1.72,100.9503,1,0.8,2025-04-30T12:05:06.899+03:00,94,1.566666666666667,2025-04-22T14:20:19.516+03:00,0.02197104130929222,0
