loggingTime(txt),locationTimestamp_since1970(s),locationLatitude(WGS84),locationLongitude(WGS84),locationAltitude(m),locationSpeed(m/s),locationSpeedAccuracy(m/s),locationCourse(°),locationCourseAccuracy(°),locationVerticalAccuracy(m),locationHorizontalAccuracy(m),locationFloor(Z),accelerometerTimestamp_sinceReboot(s),accelerometerAccelerationX(G),accelerometerAccelerationY(G),accelerometerAccelerationZ(G),motionTimestamp_sinceReboot(s),motionYaw(rad),motionRoll(rad),motionPitch(rad),motionRotationRateX(rad/s),motionRotationRateY(rad/s),motionRotationRateZ(rad/s),motionUserAccelerationX(G),motionUserAccelerationY(G),motionUserAccelerationZ(G),motionAttitudeReferenceFrame(txt),motionQuaternionX(R),motionQuaternionY(R),motionQuaternionZ(R),motionQuaternionW(R),motionGravityX(G),motionGravityY(G),motionGravityZ(G),motionMagneticFieldX(µT),motionMagneticFieldY(µT),motionMagneticFieldZ(µT),motionHeading(°),motionMagneticFieldCalibrationAccuracy(Z),activityTimestamp_sinceReboot(s),activity(txt),activityActivityConfidence(Z),activityActivityStartDate(txt),pedometerStartDate(txt),pedometerNumberofSteps(N),pedometerAverageActivePace(s/m),pedometerCurrentPace(s/m),pedometerCurrentCadence(steps/s),pedometerDistance(m),pedometerFloorAscended(N),pedometerFloorDescended(N),pedometerEndDate(txt),altimeterTimestamp_sinceReboot(s),altimeterReset(bool),altimeterRelativeAltitude(m),altimeterPressure(kPa),batteryState(N),batteryLevel(R),heartRateBPMTimestamp(txt),heartRateBPM(N),heartRateBPS(R),heartRateVariabilityTimestamp(txt),heartRateVariability(ms),label
2025-04-30T11:42:12.613+03:00,1746002532.057295,40.95224677673531,29.14029760423168,76.45299,-1,-1,-1,-1,30,23.66668615034241,-9999,10938.98686079167,-0.6531829833984375,0.5419158935546875,-0.4335479736328125,10938.98182279167,-0.8215837526514375,-0.9724299947007872,-0.6170463804510994,-0.007584816310554743,0.003400432178750634,-0.003427267540246248,0.005949616432189941,-0.005233943462371826,0.02437376976013184,XArbitraryZVertical,0.423918181138324,0.3009731548638384,0.2062987334418538,-0.8289447526015168,-0.6738877892494202,0.5786287188529968,-0.4594170749187469,0,0,0,-1,-1,10924.176335875,unknown,2,2025-04-30T11:41:15.341+03:00,2025-04-28T22:17:59.397+03:00,6793,0.81875,0,0,5699.223,11,14,2025-04-30T11:38:30.206+03:00,767695332.2086744,0,-14.62,100.9719,1,0.85,2025-04-30T11:34:04.903+03:00,97,1.616666666666667,2025-04-22T14:20:19.516+03:00,0.02197104130929222,0
2025-04-30T11:42:12.615+03:00,1746002532.057295,40.95224677673531,29.14029760423168,76.45299,-1,-1,-1,-1,30,23.66668615034241,-9999,10938.99693679167,-0.6776885986328125,0.586273193359375,-0.455780029296875,10938.99189879167,-0.8216484319723851,-0.9722794024545003,-0.6170729611433147,-0.005080380011349916,0.0310408491641283,0.0001434987643733621,0.01702189445495605,-0.05431264638900757,0.02904421091079712,XArbitraryZVertical,0.4239219007823999,0.300890825110137,0.2063506061669285,-0.8289598013851733,-0.6738058924674988,0.5786504149436951,-0.4595098793506622,0,0,0,-1,-1,10924.176335875,unknown,2,2025-04-30T11:41:15.341+03:00,2025-04-28T22:17:59.397+03:00,6793,0.81875,0,0,5699.223,11,14,2025-04-30T11:38:30.206+03:00,767695332.2086744,0,-14.62,100.9719,1,0.85,2025-04-30T11:34:04.903+03:00,97,1.616666666666667,2025-04-22T14:20:19.516+03:00,0.02197104130929222,0
2025-04-30T11:42:12.616+03:00,1746002532.057295,40.95224677673531,29.14029760423168,76.45299,-1,-1,-1,-1,30,23.66668615034241,-9999,10939.00701179167,-0.6772003173828125,0.57391357421875,-0.4547271728515625,10939.00197379167,-0.8217137692060438,-0.9721199719561956,-0.6170800398970027,-0.00184430624358356,0.01058038137853146,-0.001363018061965704,0.0116962194442749,-0.008191108703613281,0.01471447944641113,XArbitraryZVertical,0.4239178151798032,0.3008092422362366,0.2064096542594127,-0.8289767880721233,-0.6737292408943176,0.5786561965942383,-0.4596149623394012,0,0,0,-1,-1,10924.176335875,unknown,2,2025-04-30T11:41:15.341+03:00,2025-04-28T22:17:59.397+03:00,6793,0.81875,0,0,5699.223,11,14,2025-04-30T11:38:30.206+03:00,767695332.2086744,0,-14.62,100.9719,1,0.85,2025-04-30T11:34:04.903+03:00,97,1.616666666666667,2025-04-22T14:20:19.516+03:00,0.02197104130929222,0
2025-04-30T11:42:12.617+03:00,1746002532.057295,40.95224677673531,29.14029760423168,76.45299,-1,-1,-1,-1,30,23.66668615034241,-9999,10939.01708779167,-0.65997314453125,0.5788421630859375,-0.4524383544921875,10939.01204979167,-0.8217589992402377,-0.9721127699873688,-0.6170381580288833,0.000138150731800124,-7.039913907647133e-05,-0.005086383782327175,-0.01079374551773071,0.004309475421905518,0.0009390711784362793,XArbitraryZVertical,0.423908863088183,0.3008064472573728,0.2064407298583335,-0.8289746952202268,-0.6737459897994995,0.578622043132782,-0.4596334993839264,0,0,0,-1,-1,10924.176335875,unknown,2,2025-04-30T11:41:15.341+03:00,2025-04-28T22:17:59.397+03:00,6793,0.81875,0,0,5699.223,11,14,2025-04-30T11:38:30.206+03:00,767695332.2086744,0,-14.62,100.9719,1,0.85,2025-04-30T11:34:04.903+03:00,97,1.616666666666667,2025-04-22T14:20:19.516+03:00,0.02197104130929222,0
2025-04-30T11:42:12.621+03:00,1746002532.057295,40.95224677673531,29.14029760423168,76.45299,-1,-1,-1,-1,30,23.66668615034241,-9999,10939.02716279167,-0.667510986328125,0.591339111328125,-0.4597320556640625,10939.02212579167,-0.8217310849858118,-0.9720293036012325,-0.6170182173231722,0.006957707460969687,0.004224214237183332,-0.006029808428138494,0.008266091346740723,-0.007286131381988525,0.008112430572509766,XArbitraryZVertical,0.423888917239867,0.300782417779376,0.2064519859719245,-0.8289908026146831,-0.6737171411514282,0.5786057710647583,-0.4596962332725525,0,0,0,-1,-1,10924.176335875,unknown,2,2025-04-30T11:41:15.341+03:00,2025-04-28T22:17:59.397+03:00,6793,0.81875,0,0,5699.223,11,14,2025-04-30T11:38:30.206+03:00,767695332.2086744,0,-14.62,100.9719,1,0.85,2025-04-30T11:34:04.903+03:00,97,1.616666666666667,2025-04-22T14:20:19.516+03:00,0.02197104130929222,0
2025-04-30T11:42:12.631+03:00,1746002532.057295,40.95224677673531,29.14029760423168,76.45299,-1,-1,-1,-1,30,23.66668615034241,-9999,10939.03723879167,-0.670074462890625,0.5808563232421875,-0.45904541015625,10939.03220079167,-0.8216940141174962,-0.9719965491289664,-0.6169133716851123,0.007794472854584455,-0.003109332174062729,-0.01009139511734247,0.01133763790130615,0.009431421756744385,0.003011167049407959,XArbitraryZVertical,0.4238424712884657,0.3008011431221139,0.2064705579424512,-0.8290030656467575,-0.6737521290779114,0.5785202383995056,-0.4597524702548981,0,0,0,-1,-1,10924.176335875,unknown,2,2025-04-30T11:41:15.341+03:00,2025-04-28T22:17:59.397+03:00,6793,0.81875,0,0,5699.223,11,14,2025-04-30T11:38:30.206+03:00,767695332.2086744,0,-14.62,100.9719,1,0.85,2025-04-30T11:34:04.903+03:00,97,1.616666666666667,2025-04-22T14:20:19.516+03:00,0.02197104130929222,0
2025-04-30T11:42:12.641+03:00,1746002532.057295,40.95224677673531,29.14029760423168,76.45299,-1,-1,-1,-1,30,23.66668615034241,-9999,10939.04731479167,-0.670684814453125,0.5724945068359375,-0.4547271728515625,10939.04227679167,-0.8216693044618986,-0.9720425273883592,-0.6167557558833464,0.01218549255281687,-0.005507242865860462,-0.009956905618309975,0.003957271575927734,0.009392082691192627,-0.00154605507850647,XArbitraryZVertical,0.4237871070104535,0.3008621944333867,0.2064911704231302,-0.8290040550438748,-0.673848569393158,0.5783916711807251,-0.4597728550434113,0,0,0,-1,-1,10924.176335875,unknown,2,2025-04-30T11:41:15.341+03:00,2025-04-28T22:17:59.397+03:00,6793,0.81875,0,0,5699.223,11,14,2025-04-30T11:38:30.206+03:00,767695332.2086744,0,-14.62,100.9719,1,0.85,2025-04-30T11:34:04.903+03:00,97,1.616666666666667,2025-04-22T14:20:19.516+03:00,0.02197104130929222,0
2025-04-30T11:42:12.651+03:00,1746002532.057295,40.95224677673531,29.14029760423168,76.45299,-1,-1,-1,-1,30,23.66668615034241,-9999,10939.05738979167,-0.676361083984375,0.5755767822265625,-0.45343017578125,10939.05235179167,-0.8216352476230219,-0.9720176264884138,-0.6166434813920549,0.009321263059973717,0.006003206130117178,-0.007910799235105515,0.004411458969116211,-0.003165781497955322,0.003695309162139893,XArbitraryZVertical,0.4237392183829481,0.3008852767949409,0.2065112577119245,-0.829015179440206,-0.6738907694816589,0.5783001184463501,-0.45982626080513,0,0,0,-1,-1,10924.176335875,unknown,2,2025-04-30T11:41:15.341+03:00,2025-04-28T22:17:59.397+03:00,6793,0.81875,0,0,5699.223,11,14,2025-04-30T11:38:30.206+03:00,767695332.2086744,0,-14.62,100.9719,1,0.85,2025-04-30T11:34:04.903+03:00,97,1.616666666666667,2025-04-22T14:20:19.516+03:00,0.02197104130929222,0
2025-04-30T11:42:12.661+03:00,1746002532.057295,40.95224677673531,29.14029760423168,76.45299,-1,-1,-1,-1,30,23.66668615034241,-9999,10939.06746579167,-0.6771240234375,0.577423095703125,-0.4528656005859375,10939.06242779167,-0.8215818363531631,-0.9719290388636677,-0.6165375629926995,0.00732442457228899,0.007848776876926422,-0.005938595160841942,0.0006981492042541504,-0.004284799098968506,0.006444573402404785,XArbitraryZVertical,0.423684110601032,0.3008845761498873,0.2065351759821256,-0.8290376728980545,-0.6739006638526917,0.5782136917114258,-0.4599204957485199,0,0,0,-1,-1,10924.176335875,unknown,2,2025-04-30T11:41:15.341+03:00,2025-04-28T22:17:59.397+03:00,6793,0.81875,0,0,5699.223,11,14,2025-04-30T11:38:30.206+03:00,767695332.2086744,0,-14.62,100.9719,1,0.85,2025-04-30T11:34:04.903+03:00,97,1.616666666666667,2025-04-22T14:20:19.516+03:00,0.02197104130929222,0
2025-04-30T11:42:12.671+03:00,1746002532.057295,40.95224677673531,29.14029760423168,76.45299,-1,-1,-1,-1,30,23.66668615034241,-9999,10939.07754079167,-0.6726226806640625,0.5781402587890625,-0.4520263671875,10939.07250379167,-0.8215327010893052,-0.9718534625006852,-0.6164164086040936,0.01041022874414921,0.002898226492106915,-0.007484294008463621,-0.003566443920135498,-0.0009663701057434082,0.006870687007904053,XArbitraryZVertical,0.4236255484508026,0.3008919063884388,0.2065620220303141,-0.8290582471318906,-0.6739237308502197,0.5781148076057434,-0.4600109159946442,0,0,0,-1,-1,10924.176335875,unknown,2,2025-04-30T11:41:15.341+03:00,2025-04-28T22:17:59.397+03:00,6793,0.81875,0,0,5699.223,11,14,2025-04-30T11:38:30.206+03:00,767695332.2086744,0,-14.62,100.9719,1,0.85,2025-04-30T11:34:04.903+03:00,97,1.616666666666667,2025-04-22T14:20:19.516+03:00,0.02197104130929222,0
2025-04-30T11:42:12.681+03:00,1746002532.057295,40.95224677673531,29.14029760423168,76.45299,-1,-1,-1,-1,30,23.66668615034241,-9999,10939.08761679167,-0.66925048828125,0.57720947265625,-0.4534912109375,10939.08257879167,-0.8214770354143974,-0.9718062444036232,-0.6163021942832603,0.007564841769635677,0.0002096989192068577,-0.005940226372331381,-0.001183807849884033,0.0004085302352905273,0.008206188678741455,XArbitraryZVertical,0.4235714139258165,0.3009107522840532,0.2065783620527064,-0.8290749895905097,-0.6739565134048462,0.5780216455459595,-0.4600799381732941,0,0,0,-1,-1,10924.176335875,unknown,2,2025-04-30T11:41:15.341+03:00,2025-04-28T22:17:59.397+03:00,6793,0.81875,0,0,5699.223,11,14,2025-04-30T11:38:30.206+03:00,767695332.2086744,0,-14.62,100.9719,1,0.85,2025-04-30T11:34:04.903+03:00,97,1.616666666666667,2025-04-22T14:20:19.516+03:00,0.02197104130929222,0
2025-04-30T11:42:12.691+03:00,1746002532.057295,40.95224677673531,29.14029760423168,76.45299,-1,-1,-1,-1,30,23.66668615034241,-9999,10939.09769179167,-0.6712799072265625,0.5763092041015625,-0.4547119140625,10939.09265479167,-0.8214472952295799,-0.9718157111798438,-0.6162058079847859,0.006970690563321114,-0.004777070600539446,-0.006416399497538805,0.003551006317138672,-0.0006876587867736816,0.007803976535797119,XArbitraryZVertical,0.4235333990979818,0.300943450679384,0.2065888577636321,-0.82907995390692,-0.6740069389343262,0.577942967414856,-0.4601050019264221,0,0,0,-1,-1,10924.176335875,unknown,2,2025-04-30T11:41:15.341+03:00,2025-04-28T22:17:59.397+03:00,6793,0.81875,0,0,5699.223,11,14,2025-04-30T11:38:30.206+03:00,767695332.2086744,0,-14.62,100.9719,1,0.85,2025-04-30T11:34:04.903+03:00,97,1.616666666666667,2025-04-22T14:20:19.516+03:00,0.02197104130929222,0
2025-04-30T11:42:12.701+03:00,1746002532.057295,40.95224677673531,29.14029760423168,76.45299,-1,-1,-1,-1,30,23.66668615034241,-9999,10939.10776779167,-0.6700897216796875,0.572845458984375,-0.4553375244140625,10939.10272979167,-0.8214572657620292,-0.9718668348072664,-0.6161450191497024,8.795014582574368e-05,-0.004847178235650063,-0.003468846203759313,0.004213929176330566,-0.0006838440895080566,0.005897223949432373,XArbitraryZVertical,0.423518394129163,0.3009767115215733,0.206597831430516,-0.8290733609923167,-0.6740595102310181,0.5778933763504028,-0.4600903689861298,0,0,0,-1,-1,10924.176335875,unknown,2,2025-04-30T11:41:15.341+03:00,2025-04-28T22:17:59.397+03:00,6793,0.81875,0,0,5699.223,11,14,2025-04-30T11:38:30.206+03:00,767695332.2086744,0,-14.62,100.9719,1,0.85,2025-04-30T11:34:04.903+03:00,97,1.616666666666667,2025-04-22T14:20:19.516+03:00,0.02197104130929222,0
2025-04-30T11:42:12.711+03:00,1746002532.057295,40.95224677673531,29.14029760423168,76.45299,-1,-1,-1,-1,30,23.66668615034241,-9999,10939.11784379167,-0.6713409423828125,0.57476806640625,-0.4563140869140625,10939.11280579167,-0.8214825029594279,-0.9719314334102348,-0.6161429401849058,-0.002245777752250433,-0.006623240187764168,-0.003851808840408921,0.003741025924682617,-0.004069685935974121,0.005198240280151367,XArbitraryZVertical,0.4235281984586461,0.3009986064943906,0.2065951136809818,-0.8290609145287444,-0.6740900874137878,0.5778916478157043,-0.4600473940372467,0,0,0,-1,-1,10924.176335875,unknown,2,2025-04-30T11:41:15.341+03:00,2025-04-28T22:17:59.397+03:00,6793,0.81875,0,0,5699.223,11,14,2025-04-30T11:38:30.206+03:00,767695332.2086744,0,-14.62,100.9719,1,0.85,2025-04-30T11:34:04.903+03:00,97,1.616666666666667,2025-04-22T14:20:19.516+03:00,0.02197104130929222,0
2025-04-30T11:42:12.721+03:00,1746002532.057295,40.95224677673531,29.14029760423168,76.45299,-1,-1,-1,-1,30,23.66668615034241,-9999,10939.12791879167,-0.671630859375,0.5759735107421875,-0.454925537109375,10939.12288079167,-0.8215318946254692,-0.9720008044591625,-0.6161464798587721,-0.003442469518631697,-0.00317857414484024,-0.003151730168610811,0.003145754337310791,-0.004743874073028564,0.005043566226959229,XArbitraryZVertical,0.4235440050612621,0.3010160961759611,0.206600012949454,-0.8290453973476638,-0.6741204261779785,0.5778945684432983,-0.4599995613098145,0,0,0,-1,-1,10924.176335875,unknown,2,2025-04-30T11:41:15.341+03:00,2025-04-28T22:17:59.397+03:00,6793,0.81875,0,0,5699.223,11,14,2025-04-30T11:38:30.206+03:00,767695332.2086744,0,-14.62,100.9719,1,0.85,2025-04-30T11:34:04.903+03:00,97,1.616666666666667,2025-04-22T14:20:19.516+03:00,0.02197104130929222,0
2025-04-30T11:42:12.731+03:00,1746002532.057295,40.95224677673531,29.14029760423168,76.45299,-1,-1,-1,-1,30,23.66668615034241,-9999,10939.13799479167,-0.673828125,0.5755157470703125,-0.4524688720703125,10939.13295679167,-0.8215990811467367,-0.9720616020817681,-0.6161380454732898,-0.002380400896072388,0.00180100416764617,-0.004685444757342339,0.0030251145362854,-0.002860128879547119,0.003570973873138428,XArbitraryZVertical,0.4235573792249995,0.3010290359188626,0.2066171599060604,-0.829029592132444,-0.6741523742675781,0.5778876543045044,-0.459961324930191,0,0,0,-1,-1,10924.176335875,unknown,2,2025-04-30T11:41:15.341+03:00,2025-04-28T22:17:59.397+03:00,6793,0.81875,0,0,5699.223,11,14,2025-04-30T11:38:30.206+03:00,767695332.2086744,0,-14.62,100.9719,1,0.85,2025-04-30T11:34:04.903+03:00,97,1.616666666666667,2025-04-22T14:20:19.516+03:00,0.02197104130929222,0
2025-04-30T11:42:12.741+03:00,1746002532.057295,40.95224677673531,29.14029760423168,76.45299,-1,-1,-1,-1,30,23.66668615034241,-9999,10939.14806979167,-0.6751251220703125,0.5769195556640625,-0.4539947509765625,10939.14303279167,-0.8216472769955915,-0.9720689413102441,-0.6161099442293095,0.001263935468159616,0.005308187566697598,-0.00359684438444674,0.001638054847717285,-0.002364218235015869,0.006108105182647705,XArbitraryZVertical,0.4235553501486651,0.3010284182855641,0.2066428138725066,-0.8290244217756784,-0.6741691827774048,0.5778647661209106,-0.4599655270576477,0,0,0,-1,-1,10924.176335875,unknown,2,2025-04-30T11:41:15.341+03:00,2025-04-28T22:17:59.397+03:00,6793,0.81875,0,0,5699.223,11,14,2025-04-30T11:38:30.206+03:00,767695332.2086744,0,-14.62,100.9719,1,0.85,2025-04-30T11:34:04.903+03:00,97,1.616666666666667,2025-04-22T14:20:19.516+03:00,0.02197104130929222,0
2025-04-30T11:42:12.752+03:00,1746002532.057295,40.95224677673531,29.14029760423168,76.45299,-1,-1,-1,-1,30,23.66668615034241,-9999,10939.15814579167,-0.674713134765625,0.58001708984375,-0.457366943359375,10939.15310779167,-0.8216708012695787,-0.9720530930398493,-0.6160747966286071,0.0001233035582117736,0.003271668218076229,-0.004159303847700357,-0.0001987218856811523,-0.002228736877441406,0.00666433572769165,XArbitraryZVertical,0.4235446672428314,0.3010250640688288,0.2066649767875529,-0.8290255837050139,-0.6741786599159241,0.5778360366821289,-0.4599876403808594,0,0,0,-1,-1,10924.176335875,unknown,2,2025-04-30T11:41:15.341+03:00,2025-04-28T22:17:59.397+03:00,6793,0.81875,0,0,5699.223,11,14,2025-04-30T11:38:30.206+03:00,767695332.2086744,0,-14.62,100.9719,1,0.85,2025-04-30T11:34:04.903+03:00,97,1.616666666666667,2025-04-22T14:20:19.516+03:00,0.02197104130929222,0
2025-04-30T11:42:12.762+03:00,1746002532.057295,40.95224677673531,29.14029760423168,76.45299,-1,-1,-1,-1,30,23.66668615034241,-9999,10939.16822179167,-0.67266845703125,0.5794677734375,-0.458465576171875,10939.16318379167,-0.8216913545356277,-0.9720604598552957,-0.6160336185352376,0.003968308679759502,0.002161596436053514,-0.002923630410805345,-0.001503229141235352,0.0005667209625244141,0.00465857982635498,XArbitraryZVertical,0.4235337931232835,0.3010333634299099,0.2066825378684056,-0.8290237244141285,-0.6742016673088074,0.5778024196624756,-0.4599960744380951,0,0,0,-1,-1,10924.176335875,unknown,2,2025-04-30T11:41:15.341+03:00,2025-04-28T22:17:59.397+03:00,6793,0.81875,0,0,5699.223,11,14,2025-04-30T11:38:30.206+03:00,767695332.2086744,0,-14.62,100.9719,1,0.85,2025-04-30T11:34:04.903+03:00,97,1.616666666666667,2025-04-22T14:20:19.516+03:00,0.02197104130929222,0
2025-04-30T11:42:12.772+03:00,1746002532.057295,40.95224677673531,29.14029760423168,76.45299,-1,-1,-1,-1,30,23.66668615034241,-9999,10939.17829679167,-0.6712646484375,0.5784759521484375,-0.458770751953125,10939.17325879167,-0.8216727985635731,-0.9720551166948713,-0.6159852163165741,0.006887932308018208,-3.284821286797523e-05,-0.00385014433413744,0.0003637075424194336,0.003367960453033447,0.001565128564834595,XArbitraryZVertical,0.4235131627554675,0.3010463515119548,0.2066884262616026,-0.8290279921316011,-0.6742222309112549,0.5777629613876343,-0.4600153863430023,0,0,0,-1,-1,10924.176335875,unknown,2,2025-04-30T11:41:15.341+03:00,2025-04-28T22:17:59.397+03:00,6793,0.81875,0,0,5699.223,11,14,2025-04-30T11:38:30.206+03:00,767695332.2086744,0,-14.62,100.9719,1,0.85,2025-04-30T11:34:04.903+03:00,97,1.616666666666667,2025-04-22T14:20:19.516+03:00,0.02197104130929222,0
2025-04-30T11:42:12.796+03:00,1746002532.057295,40.95224677673531,29.14029760423168,76.45299,-1,-1,-1,-1,30,23.66668615034241,-9999,10939.18837279167,-0.671142578125,0.57904052734375,-0.45697021484375,10939.18333479167,-0.8216368209340816,-0.9720270666936227,-0.6159271004614213,0.008780840784311295,0.002189226215705276,-0.004184004850685596,0.002026557922363281,0.0007605552673339844,0.0007637739181518555,XArbitraryZVertical,0.4234839651877578,0.3010559172007675,0.2066944575252559,-0.8290381005736005,-0.6742372512817383,0.5777155160903931,-0.4600533246994019,0,0,0,-1,-1,10924.176335875,unknown,2,2025-04-30T11:41:15.341+03:00,2025-04-28T22:17:59.397+03:00,6793,0.81875,0,0,5699.223,11,14,2025-04-30T11:38:30.206+03:00,767695332.2086744,0,-14.62,100.9719,1,0.85,2025-04-30T11:34:04.903+03:00,97,1.616666666666667,2025-04-22T14:20:19.516+03:00,0.02197104130929222,0
2025-04-30T11:42:12.798+03:00,1746002532.057295,40.95224677673531,29.14029760423168,76.45299,-1,-1,-1,-1,30,23.66668615034241,-9999,10939.19844779167,-0.6714935302734375,0.583099365234375,-0.45404052734375,10939.19340979167,-0.8215762704082673,-0.9719829792264665,-0.6158501808019023,0.009352621622383595,0.001949808094650507,-0.003814357798546553,0.003736734390258789,0.0007622241973876953,0.002115547657012939,XArbitraryZVertical,0.4234427689726449,0.3010683925406104,0.2066984988790546,-0.829053581538875,-0.6742536425590515,0.5776526927947998,-0.4601081013679504,0,0,0,-1,-1,10924.176335875,unknown,2,2025-04-30T11:41:15.341+03:00,2025-04-28T22:17:59.397+03:00,6793,0.81875,0,0,5699.223,11,14,2025-04-30T11:38:30.206+03:00,767695332.2086744,0,-14.62,100.9719,1,0.85,2025-04-30T11:34:04.903+03:00,97,1.616666666666667,2025-04-22T14:20:19.516+03:00,0.02197104130929222,0
2025-04-30T11:42:12.802+03:00,1746002532.057295,40.95224677673531,29.14029760423168,76.45299,-1,-1,-1,-1,30,23.66668615034241,-9999,10939.20852379167,-0.67236328125,0.5810089111328125,-0.451812744140625,10939.20348579167,-0.8214921824296113,-0.9719070245658149,-0.6157735751221234,0.01117522176355124,0.007509623188525438,-0.004490967374294996,0.002059817314147949,0.00323563814163208,0.004755169153213501,XArbitraryZVertical,0.4233948930918511,0.3010725502200846,0.20669942484644,-0.8290761681350576,-0.6742551326751709,0.5775901675224304,-0.4601841568946838,0,0,0,-1,-1,10924.176335875,unknown,2,2025-04-30T11:41:15.341+03:00,2025-04-28T22:17:59.397+03:00,6793,0.81875,0,0,5699.223,11,14,2025-04-30T11:38:30.206+03:00,767695332.2086744,0,-14.62,100.9719,1,0.85,2025-04-30T11:34:04.903+03:00,97,1.616666666666667,2025-04-22T14:20:19.516+03:00,0.02197104130929222,0
2025-04-30T11:42:12.812+03:00,1746002532.057295,40.95224677673531,29.14029760423168,76.45299,-1,-1,-1,-1,30,23.66668615034241,-9999,10939.21859879167,-0.67559814453125,0.5732269287109375,-0.456512451171875,10939.21356179167,-0.8213945268927725,-0.9717458709177482,-0.6156733610594043,0.01193688623607159,0.01281969994306564,-0.002144456142559648,0.002491176128387451,0.005697846412658691,0.007292091846466064,XArbitraryZVertical,0.423327625892037,0.3010497853266227,0.2067188752540806,-0.8291139982108227,-0.6742287874221802,0.5775083899497986,-0.4603255093097687,0,0,0,-1,-1,10924.176335875,unknown,2,2025-04-30T11:41:15.341+03:00,2025-04-28T22:17:59.397+03:00,6793,0.81875,0,0,5699.223,11,14,2025-04-30T11:38:30.206+03:00,767695332.2086744,0,-14.62,100.9719,1,0.85,2025-04-30T11:34:04.903+03:00,97,1.616666666666667,2025-04-22T14:20:19.516+03:00,0.02197104130929222,0
2025-04-30T11:42:12.822+03:00,1746002532.057295,40.95224677673531,29.14029760423168,76.45299,-1,-1,-1,-1,30,23.66668615034241,-9999,10939.22867479167,-0.6750946044921875,0.574371337890625,-0.455322265625,10939.22363679167,-0.8213373432893605,-0.9715637629673994,-0.6156103356267921,0.006885535549372435,0.0126456618309021,-0.003007386811077595,-0.0001718401908874512,-0.0006594061851501465,0.006687700748443604,XArbitraryZVertical,0.4232776285148326,0.3010010818485895,0.2067499390561619,-0.8291494566411942,-0.6741750240325928,0.5774568915367126,-0.4604687988758087,0,0,0,-1,-1,10924.176335875,unknown,2,2025-04-30T11:41:15.341+03:00,2025-04-28T22:17:59.397+03:00,6793,0.81875,0,0,5699.223,11,14,2025-04-30T11:38:30.206+03:00,767695332.2086744,0,-14.62,100.9719,1,0.85,2025-04-30T11:34:04.903+03:00,97,1.616666666666667,2025-04-22T14:20:19.516+03:00,0.02197104130929222,0
2025-04-30T11:42:12.832+03:00,1746002532.057295,40.95224677673531,29.14029760423168,76.45299,-1,-1,-1,-1,30,23.66668615034241,-9999,10939.23875079167,-0.6702117919921875,0.577301025390625,-0.452789306640625,10939.23371279167,-0.8212942125028045,-0.9714164398555789,-0.6155745631077087,0.002798915142193437,0.01196948625147343,0.001787368441000581,-0.002236843109130859,-0.005039989948272705,0.003273904323577881,XArbitraryZVertical,0.423243089498438,0.3009574715946299,0.206772448558434,-0.8291773202663211,-0.6741242408752441,0.5774276852607727,-0.4605797827243805,0,0,0,-1,-1,10924.176335875,unknown,2,2025-04-30T11:41:15.341+03:00,2025-04-28T22:17:59.397+03:00,6793,0.81875,0,0,5699.223,11,14,2025-04-30T11:38:30.206+03:00,767695332.2086744,0,-14.62,100.9719,1,0.85,2025-04-30T11:34:04.903+03:00,97,1.616666666666667,2025-04-22T14:20:19.516+03:00,0.02197104130929222,0
2025-04-30T11:42:12.842+03:00,1746002532.057295,40.95224677673531,29.14029760423168,76.45299,-1,-1,-1,-1,30,23.66668615034241,-9999,10939.24882579167,-0.6654510498046875,0.5746917724609375,-0.458160400390625,10939.24378779167,-0.821262008489371,-0.9713052540567014,-0.6155926830113704,0.004961201921105385,0.006537236273288727,0.001338925212621689,0.0009534955024719238,-0.001636803150177002,0.008210539817810059,XArbitraryZVertical,0.4232332274464518,0.3009139699951697,0.2067779663928712,-0.8291967887925021,-0.6740643978118896,0.5774425268173218,-0.4606488347053528,0,0,0,-1,-1,10924.176335875,unknown,2,2025-04-30T11:41:15.341+03:00,2025-04-28T22:17:59.397+03:00,6793,0.81875,0,0,5699.223,11,14,2025-04-30T11:38:30.206+03:00,767695332.2086744,0,-14.62,100.9719,1,0.85,2025-04-30T11:34:04.903+03:00,97,1.616666666666667,2025-04-22T14:20:19.516+03:00,0.02197104130929222,0
2025-04-30T11:42:12.852+03:00,1746002532.057295,40.95224677673531,29.14029760423168,76.45299,-1,-1,-1,-1,30,23.66668615034241,-9999,10939.25890179167,-0.6667938232421875,0.576324462890625,-0.4599456787109375,10939.25386379167,-0.8211985118983363,-0.9712179470047393,-0.61559986453434,0.002854641526937485,0.005537752062082291,0.003353606443852186,0.006753921508789062,-0.00152057409286499,0.005306780338287354,XArbitraryZVertical,0.4232172139027797,0.3008895371537228,0.2067682700247846,-0.8292162593446141,-0.6740207672119141,0.5774483680725098,-0.4607053399085999,0,0,0,-1,-1,10924.176335875,unknown,2,2025-04-30T11:41:15.341+03:00,2025-04-28T22:17:59.397+03:00,6793,0.81875,0,0,5699.223,11,14,2025-04-30T11:38:30.206+03:00,767695332.2086744,0,-14.62,100.9719,1,0.85,2025-04-30T11:34:04.903+03:00,97,1.616666666666667,2025-04-22T14:20:19.516+03:00,0.02197104130929222,0
2025-04-30T11:42:12.862+03:00,1746002532.057295,40.95224677673531,29.14029760423168,76.45299,-1,-1,-1,-1,30,23.66668615034241,-9999,10939.26897679167,-0.66607666015625,0.583404541015625,-0.4562530517578125,10939.26393979167,-0.8211420300329711,-0.9711720599621902,-0.6155910943939994,0.004303401336073875,0.0002614976838231087,0.0001150695607066154,0.008003532886505127,-0.004092156887054443,0.001113951206207275,XArbitraryZVertical,0.4232008319189916,0.3008845072753792,0.2067568190590691,-0.82922929965031,-0.6740038394927979,0.5774412155151367,-0.4607391357421875,0,0,0,-1,-1,10924.176335875,unknown,2,2025-04-30T11:41:15.341+03:00,2025-04-28T22:17:59.397+03:00,6793,0.81875,0,0,5699.223,11,14,2025-04-30T11:38:30.206+03:00,767695332.2086744,0,-14.62,100.9719,1,0.85,2025-04-30T11:34:04.903+03:00,97,1.616666666666667,2025-04-22T14:20:19.516+03:00,0.02197104130929222,0
2025-04-30T11:42:12.875+03:00,1746002532.057295,40.95224677673531,29.14029760423168,76.45299,-1,-1,-1,-1,30,23.66668615034241,-9999,10939.27905279167,-0.6695404052734375,0.5783538818359375,-0.4559326171875,10939.27401479167,-0.8210961476525879,-0.9711416864513711,-0.6155680050067455,0.005819272715598345,-0.0001907073892652988,-0.0008817515918053687,0.007664740085601807,0.00296097993850708,0.001736998558044434,XArbitraryZVertical,0.423182543222575,0.3008869953677691,0.2067501541551008,-0.8292393403118974,-0.6740007996559143,0.5774223804473877,-0.4607670903205872,0,0,0,-1,-1,10924.176335875,unknown,2,2025-04-30T11:41:15.341+03:00,2025-04-28T22:17:59.397+03:00,6793,0.81875,0,0,5699.223,11,14,2025-04-30T11:38:30.206+03:00,767695332.2086744,0,-14.62,100.9719,1,0.85,2025-04-30T11:34:04.903+03:00,97,1.616666666666667,2025-04-22T14:20:19.516+03:00,0.02197104130929222,0
2025-04-30T11:42:12.894+03:00,1746002532.057295,40.95224677673531,29.14029760423168,76.45299,-1,-1,-1,-1,30,23.66668615034241,-9999,10939.28912879167,-0.669525146484375,0.577850341796875,-0.45867919921875,10939.28409079167,-0.8210270223138454,-0.9710966975903784,-0.6155448207475505,0.007527956739068031,0.001222631894052029,0.0006955055287107825,0.006892204284667969,0.004505753517150879,0.005360692739486694,XArbitraryZVertical,0.4231591835856339,0.300888371503987,0.2067369814292855,-0.8292540565362655,-0.6739910840988159,0.5774034261703491,-0.4608049988746643,0,0,0,-1,-1,10924.176335875,unknown,2,2025-04-30T11:41:15.341+03:00,2025-04-28T22:17:59.397+03:00,6793,0.81875,0,0,5699.223,11,14,2025-04-30T11:38:30.206+03:00,767695332.2086744,0,-14.62,100.9719,1,0.85,2025-04-30T11:34:04.903+03:00,97,1.616666666666667,2025-04-22T14:20:19.516+03:00,0.02197104130929222,0
2025-04-30T11:42:12.900+03:00,1746002532.057295,40.95224677673531,29.14029760423168,76.45299,-1,-1,-1,-1,30,23.66668615034241,-9999,10939.29920379167,-0.6711273193359375,0.577789306640625,-0.4575653076171875,10939.29416579167,-0.8209587213904598,-0.9710504580983473,-0.615543057102044,0.003422960173338652,0.002721725264564157,0.00183027854654938,0.003240108489990234,-0.0001468062400817871,0.003256171941757202,XArbitraryZVertical,0.423143519749029,0.3008840539778417,0.2067188884634931,-0.8292680774298616,-0.6739705801010132,0.5774019956588745,-0.4608367085456848,0,0,0,-1,-1,10924.176335875,unknown,2,2025-04-30T11:41:15.341+03:00,2025-04-28T22:17:59.397+03:00,6793,0.81875,0,0,5699.223,11,14,2025-04-30T11:38:30.206+03:00,767695332.2086744,0,-14.62,100.9719,1,0.85,2025-04-30T11:34:04.903+03:00,97,1.616666666666667,2025-04-22T14:20:19.516+03:00,0.02197104130929222,0
2025-04-30T11:42:12.903+03:00,1746002532.057295,40.95224677673531,29.14029760423168,76.45299,-1,-1,-1,-1,30,23.66668615034241,-9999,10939.30927979167,-0.672332763671875,0.570159912109375,-0.455963134765625,10939.30424179167,-0.8209412917172502,-0.9710315415838042,-0.6155648040231562,-0.00192060589324683,0.001127623487263918,0.002693841699510813,0.004167020320892334,0.0008273124694824219,0.002865135669708252,XArbitraryZVertical,0.4231467308717705,0.3008748319766814,0.2067100678420619,-0.8292719874943125,-0.6739515066146851,0.5774197578430176,-0.4608423709869385,0,0,0,-1,-1,10924.176335875,unknown,2,2025-04-30T11:41:15.341+03:00,2025-04-28T22:17:59.397+03:00,6793,0.81875,0,0,5699.223,11,14,2025-04-30T11:38:30.206+03:00,767695332.2086744,0,-14.62,100.9719,1,0.85,2025-04-30T11:34:04.903+03:00,97,1.616666666666667,2025-04-22T14:20:19.516+03:00,0.02197104130929222,0
2025-04-30T11:42:12.913+03:00,1746002532.057295,40.95224677673531,29.14029760423168,76.45299,-1,-1,-1,-1,30,23.66668615034241,-9999,10939.31935479167,-0.6723175048828125,0.567657470703125,-0.4551239013671875,10939.31431779167,-0.8209662447487883,-0.9710389917568121,-0.6156033109099265,-0.00668287044391036,0.001792615046724677,0.005902418401092291,0.001710712909698486,-0.003446042537689209,0.003869891166687012,XArbitraryZVertical,0.4231650440417621,0.3008636712380141,0.2067089299827526,-0.8292669852716267,-0.6739366054534912,0.5774511694908142,-0.4608247876167297,0,0,0,-1,-1,10924.176335875,unknown,2,2025-04-30T11:41:15.341+03:00,2025-04-28T22:17:59.397+03:00,6793,0.81875,0,0,5699.223,11,14,2025-04-30T11:38:30.206+03:00,767695332.2086744,0,-14.62,100.9719,1,0.85,2025-04-30T11:34:04.903+03:00,97,1.616666666666667,2025-04-22T14:20:19.516+03:00,0.02197104130929222,0
2025-04-30T11:42:12.923+03:00,1746002532.057295,40.95224677673531,29.14029760423168,76.45299,-1,-1,-1,-1,30,23.66668615034241,-9999,10939.32943079167,-0.667327880859375,0.5728912353515625,-0.45758056640625,10939.32439279167,-0.8210212602186944,-0.9711083938761355,-0.6156807911492111,-0.004646084737032652,-0.003424250986427069,0.004898938816040754,0.002026259899139404,-0.009963750839233398,0.005186408758163452,XArbitraryZVertical,0.4232082540346475,0.3008627511360573,0.2066971116662786,-0.8292481979223757,-0.6739316582679749,0.5775144696235657,-0.4607527554035187,0,0,0,-1,-1,10924.176335875,unknown,2,2025-04-30T11:41:15.341+03:00,2025-04-28T22:17:59.397+03:00,6793,0.81875,0,0,5699.223,11,14,2025-04-30T11:38:30.206+03:00,767695332.2086744,0,-14.62,100.9719,1,0.85,2025-04-30T11:34:04.903+03:00,97,1.616666666666667,2025-04-22T14:20:19.516+03:00,0.02197104130929222,0
2025-04-30T11:42:12.933+03:00,1746002532.057295,40.95224677673531,29.14029760423168,76.45299,-1,-1,-1,-1,30,23.66668615034241,-9999,10939.33950679167,-0.668182373046875,0.5748138427734375,-0.4566497802734375,10939.33446879167,-0.821048208961533,-0.9711677362589136,-0.6157516689440115,-0.006059424486011267,-0.005181937012821436,0.002831793623045087,0.003164172172546387,-0.007656574249267578,0.004253596067428589,XArbitraryZVertical,0.4232438181734303,0.3008651402882841,0.2066774891374568,-0.8292340913875579,-0.6739252209663391,0.5775722861289978,-0.4606896638870239,0,0,0,-1,-1,10924.176335875,unknown,2,2025-04-30T11:41:15.341+03:00,2025-04-28T22:17:59.397+03:00,6793,0.81875,0,0,5699.223,11,14,2025-04-30T11:38:30.206+03:00,767695332.2086744,0,-14.62,100.9719,1,0.85,2025-04-30T11:34:04.903+03:00,97,1.616666666666667,2025-04-22T14:20:19.516+03:00,0.02197104130929222,0
2025-04-30T11:42:12.943+03:00,1746002532.057295,40.95224677673531,29.14029760423168,76.45299,-1,-1,-1,-1,30,23.66668615034241,-9999,10939.34958179167,-0.6707611083984375,0.5767974853515625,-0.454803466796875,10939.34454379167,-0.8210809699918461,-0.971208972682406,-0.6158211871323029,-0.006378937512636185,-0.001459304243326187,0.004840782377868891,0.007544517517089844,-0.002815186977386475,0.002494096755981445,XArbitraryZVertical,0.4232779176477865,0.3008591012476621,0.2066644466591322,-0.8292221039826072,-0.6739110350608826,0.577629029750824,-0.4606392085552216,0,0,0,-1,-1,10924.176335875,unknown,2,2025-04-30T11:41:15.341+03:00,2025-04-28T22:17:59.397+03:00,6793,0.81875,0,0,5699.223,11,14,2025-04-30T11:38:30.206+03:00,767695332.2086744,0,-14.62,100.9719,1,0.85,2025-04-30T11:34:04.903+03:00,97,1.616666666666667,2025-04-22T14:20:19.516+03:00,0.02197104130929222,0
2025-04-30T11:42:12.953+03:00,1746002532.057295,40.95224677673531,29.14029760423168,76.45299,-1,-1,-1,-1,30,23.66668615034241,-9999,10939.35965779167,-0.670928955078125,0.5789337158203125,-0.4557342529296875,10939.35461979167,-0.8211100499383855,-0.9712212419879516,-0.615892236147352,-0.00302601745352149,0.001277360133826733,0.0009459092398174107,0.004434049129486084,-0.00207972526550293,0.005255043506622314,XArbitraryZVertical,0.4233089899530357,0.3008414812715324,0.2066556255900274,-0.8292148678878944,-0.6738828420639038,0.5776870250701904,-0.4606077969074249,0,0,0,-1,-1,10924.176335875,unknown,2,2025-04-30T11:41:15.341+03:00,2025-04-28T22:17:59.397+03:00,6793,0.81875,0,0,5699.223,11,14,2025-04-30T11:38:30.206+03:00,767695332.2086744,0,-14.62,100.9719,1,0.85,2025-04-30T11:34:04.903+03:00,97,1.616666666666667,2025-04-22T14:20:19.516+03:00,0.02197104130929222,0
2025-04-30T11:42:12.963+03:00,1746002532.057295,40.95224677673531,29.14029760423168,76.45299,-1,-1,-1,-1,30,23.66668615034241,-9999,10939.36973279167,-0.67132568359375,0.58197021484375,-0.457061767578125,10939.36469479167,-0.8211077140811276,-0.9711985705849603,-0.6159301709918948,-0.000281563465250656,0.00384391495026648,0.004390608053654432,0.002894818782806396,1.025199890136719e-05,0.005471587181091309,XArbitraryZVertical,0.4233198854073976,0.3008237344110013,0.2066496894926771,-0.829217216533691,-0.6738542914390564,0.5777180194854736,-0.4606107175350189,0,0,0,-1,-1,10924.176335875,unknown,2,2025-04-30T11:41:15.341+03:00,2025-04-28T22:17:59.397+03:00,6793,0.81875,0,0,5699.223,11,14,2025-04-30T11:38:30.206+03:00,767695332.2086744,0,-14.62,100.9719,1,0.85,2025-04-30T11:34:04.903+03:00,97,1.616666666666667,2025-04-22T14:20:19.516+03:00,0.02197104130929222,0
2025-04-30T11:42:12.973+03:00,1746002532.057295,40.95224677673531,29.14029760423168,76.45299,-1,-1,-1,-1,30,23.66668615034241,-9999,10939.37980879167,-0.6732940673828125,0.578643798828125,-0.4575653076171875,10939.37477079167,-0.8210972802829627,-0.9711707447849171,-0.6159770709279246,-0.002607035683467984,0.003967485390603542,0.004231084603816271,0.002752900123596191,0.002535462379455566,0.004696875810623169,XArbitraryZVertical,0.4233322310227206,0.3008034782603136,0.2066391840884202,-0.8292208950019262,-0.6738191246986389,0.5777562856674194,-0.4606141746044159,0,0,0,-1,-1,10924.176335875,unknown,2,2025-04-30T11:41:15.341+03:00,2025-04-28T22:17:59.397+03:00,6793,0.81875,0,0,5699.223,11,14,2025-04-30T11:38:30.206+03:00,767695332.2086744,0,-14.62,100.9719,1,0.85,2025-04-30T11:34:04.903+03:00,97,1.616666666666667,2025-04-22T14:20:19.516+03:00,0.02197104130929222,0
2025-04-30T11:42:12.983+03:00,1746002532.057295,40.95224677673531,29.14029760423168,76.45299,-1,-1,-1,-1,30,23.66668615034241,-9999,10939.38988379167,-0.6749725341796875,0.5748138427734375,-0.4564056396484375,10939.38484679167,-0.821110844049884,-0.9711310403343544,-0.6160207011606595,-0.00218985159881413,0.004559639375656843,0.0001229592016898096,0.001798272132873535,0.003842651844024658,0.003259778022766113,XArbitraryZVertical,0.4233457909009899,0.300773978395837,0.2066419831389384,-0.8292239831293441,-0.6737800240516663,0.5777919292449951,-0.4606267213821411,0,0,0,-1,-1,10924.176335875,unknown,2,2025-04-30T11:41:15.341+03:00,2025-04-28T22:17:59.397+03:00,6793,0.81875,0,0,5699.223,11,14,2025-04-30T11:38:30.206+03:00,767695332.2086744,0,-14.62,100.9719,1,0.85,2025-04-30T11:34:04.903+03:00,97,1.616666666666667,2025-04-22T14:20:19.516+03:00,0.02197104130929222,0
2025-04-30T11:42:12.993+03:00,1746002532.057295,40.95224677673531,29.14029760423168,76.45299,-1,-1,-1,-1,30,23.66668615034241,-9999,10939.39995979167,-0.6726837158203125,0.5737457275390625,-0.45697021484375,10939.39492179167,-0.8211284804761925,-0.9711116720435933,-0.6160513764594625,-0.003006909275427461,0.001710589742287993,0.003372281789779663,-0.0004530549049377441,-0.002346932888031006,0.003613770008087158,XArbitraryZVertical,0.4233574266990722,0.3007550662366035,0.2066455000261007,-0.8292240284873638,-0.67375648021698,0.5778169631958008,-0.4606297612190247,0,0,0,-1,-1,10924.176335875,unknown,2,2025-04-30T11:41:15.341+03:00,2025-04-28T22:17:59.397+03:00,6793,0.81875,0,0,5699.223,11,14,2025-04-30T11:38:30.206+03:00,767695332.2086744,0,-14.62,100.9719,1,0.85,2025-04-30T11:34:04.903+03:00,97,1.616666666666667,2025-04-22T14:20:19.516+03:00,0.02197104130929222,0
2025-04-30T11:42:13.004+03:00,1746002532.057295,40.95224677673531,29.14029760423168,76.45299,-1,-1,-1,-1,30,23.66668615034241,-9999,10939.41003579167,-0.6716461181640625,0.5746307373046875,-0.453765869140625,10939.40499779167,-0.8211574630625624,-0.9711244430888339,-0.6160926013853691,-0.005102550610899925,0.001026157289743423,0.004459517542272806,-7.015466690063477e-05,-0.003845512866973877,0.003362864255905151,XArbitraryZVertical,0.4233778885159384,0.300744612055671,0.2066441927020079,-0.8292176560330334,-0.6737426519393921,0.5778505802154541,-0.4606076776981354,0,0,0,-1,-1,10924.176335875,unknown,2,2025-04-30T11:41:15.341+03:00,2025-04-28T22:17:59.397+03:00,6793,0.81875,0,0,5699.223,11,14,2025-04-30T11:38:30.206+03:00,767695332.2086744,0,-14.62,100.9719,1,0.85,2025-04-30T11:34:04.903+03:00,97,1.616666666666667,2025-04-22T14:20:19.516+03:00,0.02197104130929222,0
2025-04-30T11:42:13.014+03:00,1746002532.057295,40.95224677673531,29.14029760423168,76.45299,-1,-1,-1,-1,30,23.66668615034241,-9999,10939.42011079167,-0.6693572998046875,0.58056640625,-0.4556121826171875,10939.41507279167,-0.8211727120608493,-0.9711444498502649,-0.6161280548610738,-0.00177812681067735,-0.001238328404724598,0.003158030798658729,0.00247037410736084,-0.004271149635314941,0.005825012922286987,XArbitraryZVertical,0.4233949524298118,0.3007414136625119,0.2066371506508462,-0.8292118432556882,-0.6737349629402161,0.5778795480728149,-0.4605826437473297,0,0,0,-1,-1,10924.176335875,unknown,2,2025-04-30T11:41:15.341+03:00,2025-04-28T22:17:59.397+03:00,6793,0.81875,0,0,5699.223,11,14,2025-04-30T11:38:30.206+03:00,767695332.2086744,0,-14.62,100.9719,1,0.85,2025-04-30T11:34:04.903+03:00,97,1.616666666666667,2025-04-22T14:20:19.516+03:00,0.02197104130929222,0
2025-04-30T11:42:13.024+03:00,1746002532.057295,40.95224677673531,29.14029760423168,76.45299,-1,-1,-1,-1,30,23.66668615034241,-9999,10939.43018679167,-0.668792724609375,0.5821685791015625,-0.456390380859375,10939.42514879167,-0.8211764548457005,-0.9711469556025738,-0.6161785286030418,-0.001169860828667879,-0.0003432398661971092,0.002641111146658659,0.002905189990997314,-0.0002992749214172363,0.006295144557952881,XArbitraryZVertical,0.4234138601926216,0.3007298928839742,0.2066251747348243,-0.8292093287468353,-0.6737120151519775,0.5779207348823547,-0.4605644643306732,0,0,0,-1,-1,10924.176335875,unknown,2,2025-04-30T11:41:15.341+03:00,2025-04-28T22:17:59.397+03:00,6793,0.81875,0,0,5699.223,11,14,2025-04-30T11:38:30.206+03:00,767695332.2086744,0,-14.62,100.9719,1,0.85,2025-04-30T11:34:04.903+03:00,97,1.616666666666667,2025-04-22T14:20:19.516+03:00,0.02197104130929222,0
2025-04-30T11:42:13.034+03:00,1746002532.057295,40.95224677673531,29.14029760423168,76.45299,-1,-1,-1,-1,30,23.66668615034241,-9999,10939.44026179167,-0.669403076171875,0.578826904296875,-0.4560546875,10939.43522479167,-0.8211712444424346,-0.9711666484808592,-0.6161943215183073,-0.002036453457549214,-0.002382155973464251,0.002048025140538812,0.00519561767578125,0.003487348556518555,0.003881096839904785,XArbitraryZVertical,0.4234207076848834,0.3007354978303843,0.2066148069231968,-0.8292065096988128,-0.6737136244773865,0.5779336094856262,-0.4605461359024048,0,0,0,-1,-1,10924.176335875,unknown,2,2025-04-30T11:41:15.341+03:00,2025-04-28T22:17:59.397+03:00,6793,0.81875,0,0,5699.223,11,14,2025-04-30T11:38:30.206+03:00,767695332.2086744,0,-14.62,100.9719,1,0.85,2025-04-30T11:34:04.903+03:00,97,1.616666666666667,2025-04-22T14:20:19.516+03:00,0.02197104130929222,0
2025-04-30T11:42:13.044+03:00,1746002532.057295,40.95224677673531,29.14029760423168,76.45299,-1,-1,-1,-1,30,23.66668615034241,-9999,10939.45033779167,-0.6695404052734375,0.5741119384765625,-0.457244873046875,10939.44529979167,-0.821168963861023,-0.9711913978640098,-0.6162038347266201,0.001277517643757164,7.773935794830322e-05,-0.000531679077539593,0.004668474197387695,0.002976059913635254,0.004136025905609131,XArbitraryZVertical,0.4234263153208394,0.3007440284508456,0.2066061786698141,-0.8292027299220539,-0.6737205386161804,0.577941358089447,-0.4605263769626617,0,0,0,-1,-1,10924.176335875,unknown,2,2025-04-30T11:41:15.341+03:00,2025-04-28T22:17:59.397+03:00,6793,0.81875,0,0,5699.223,11,14,2025-04-30T11:38:30.206+03:00,767695332.2086744,0,-14.62,100.9719,1,0.85,2025-04-30T11:34:04.903+03:00,97,1.616666666666667,2025-04-22T14:20:19.516+03:00,0.02197104130929222,0
2025-04-30T11:42:13.054+03:00,1746002532.057295,40.95224677673531,29.14029760423168,76.45299,-1,-1,-1,-1,30,23.66668615034241,-9999,10939.46041379167,-0.6728973388671875,0.5734405517578125,-0.4582061767578125,10939.45537579167,-0.821178893019057,-0.97121552422512,-0.6162192362146613,-0.001029845094308257,-0.001055169384926558,0.001676081446930766,0.00455009937286377,-0.0009885430335998535,0.003763735294342041,XArbitraryZVertical,0.4234358100068112,0.3007483411637481,0.2066012254197768,-0.8291975643401237,-0.6737242937088013,0.5779539346694946,-0.4605050981044769,0,0,0,-1,-1,10924.176335875,unknown,2,2025-04-30T11:41:15.341+03:00,2025-04-28T22:17:59.397+03:00,6793,0.81875,0,0,5699.223,11,14,2025-04-30T11:38:30.206+03:00,767695332.2086744,0,-14.62,100.9719,1,0.85,2025-04-30T11:34:04.903+03:00,97,1.616666666666667,2025-04-22T14:20:19.516+03:00,0.02197104130929222,0
2025-04-30T11:42:13.064+03:00,1746002532.057295,40.95224677673531,29.14029760423168,76.45299,-1,-1,-1,-1,30,23.66668615034241,-9999,10939.47048879167,-0.6734161376953125,0.5748748779296875,-0.45843505859375,10939.46545079167,-0.8211652852462245,-0.9712229601621538,-0.6162422362603349,0.0035925367847085,-0.002172166015952826,0.003504707710817456,0.003031909465789795,-0.004562616348266602,0.003339290618896484,XArbitraryZVertical,0.4234427862278837,0.3007489387574353,0.2065880802891567,-0.8291970215375908,-0.6737167239189148,0.5779727101325989,-0.4604925513267517,0,0,0,-1,-1,10924.176335875,unknown,2,2025-04-30T11:41:15.341+03:00,2025-04-28T22:17:59.397+03:00,6793,0.81875,0,0,5699.223,11,14,2025-04-30T11:38:30.206+03:00,767695332.2086744,0,-14.62,100.9719,1,0.85,2025-04-30T11:34:04.903+03:00,97,1.616666666666667,2025-04-22T14:20:19.516+03:00,0.02197104130929222,0
2025-04-30T11:42:13.074+03:00,1746002532.057295,40.95224677673531,29.14029760423168,76.45299,-1,-1,-1,-1,30,23.66668615034241,-9999,10939.48056479167,-0.6736297607421875,0.5751495361328125,-0.458099365234375,10939.47552679167,-0.821139725377131,-0.9712170058257718,-0.6162308209906717,0.00512971356511116,-0.001066687516868114,-0.001573141547851264,0.0002270340919494629,-0.003332555294036865,0.00194317102432251,XArbitraryZVertical,0.4234342258051258,0.3007545465140697,0.2065816887780179,-0.8292009813678477,-0.6737194657325745,0.5779634118080139,-0.4605003297328949,0,0,0,-1,-1,10924.176335875,unknown,2,2025-04-30T11:41:15.341+03:00,2025-04-28T22:17:59.397+03:00,6793,0.81875,0,0,5699.223,11,14,2025-04-30T11:38:30.206+03:00,767695332.2086744,0,-14.62,100.9719,1,0.85,2025-04-30T11:34:04.903+03:00,97,1.616666666666667,2025-04-22T14:20:19.516+03:00,0.02197104130929222,0
2025-04-30T11:42:13.084+03:00,1746002532.057295,40.95224677673531,29.14029760423168,76.45299,-1,-1,-1,-1,30,23.66668615034241,-9999,10939.49063979167,-0.6737213134765625,0.5782470703125,-0.4557952880859375,10939.48560279167,-0.821119615018398,-0.9712053526956694,-0.6161960251421669,0.0001723057503113523,0.002038624603301287,-0.00192997173871845,-6.693601608276367e-05,-0.003411054611206055,0.002450674772262573,XArbitraryZVertical,0.4234175966252243,0.300762064518134,0.2065847483885326,-0.8292058565954141,-0.6737305521965027,0.5779349803924561,-0.4605194330215454,0,0,0,-1,-1,10924.176335875,unknown,2,2025-04-30T11:41:15.341+03:00,2025-04-28T22:17:59.397+03:00,6793,0.81875,0,0,5699.223,11,14,2025-04-30T11:38:30.206+03:00,767695332.2086744,0,-14.62,100.9719,1,0.85,2025-04-30T11:34:04.903+03:00,97,1.616666666666667,2025-04-22T14:20:19.516+03:00,0.02197104130929222,0
2025-04-30T11:42:13.094+03:00,1746002532.057295,40.95224677673531,29.14029760423168,76.45299,-1,-1,-1,-1,30,23.66668615034241,-9999,10939.50071579167,-0.6753387451171875,0.5800323486328125,-0.454345703125,10939.49567779167,-0.8211196088667139,-0.9711728513952015,-0.6161633078574702,0.003719370113685727,0.00625600665807724,-0.003145971102640033,0.0002541542053222656,-0.001232802867889404,0.004070162773132324,XArbitraryZVertical,0.4234024928712651,0.3007562247937326,0.2066000617236832,-0.8292119338924303,-0.67373126745224,0.5779082775115967,-0.4605520367622375,0,0,0,-1,-1,10924.176335875,unknown,2,2025-04-30T11:41:15.341+03:00,2025-04-28T22:17:59.397+03:00,6793,0.81875,0,0,5699.223,11,14,2025-04-30T11:38:30.206+03:00,767695332.2086744,0,-14.62,100.9719,1,0.85,2025-04-30T11:34:04.903+03:00,97,1.616666666666667,2025-04-22T14:20:19.516+03:00,0.02197104130929222,0
2025-04-30T11:42:13.104+03:00,1746002532.057295,40.95224677673531,29.14029760423168,76.45299,-1,-1,-1,-1,30,23.66668615034241,-9999,10939.51079179167,-0.6718902587890625,0.5785980224609375,-0.4555816650390625,10939.50575379167,-0.8211138145160336,-0.9711064834626575,-0.6161255629145411,0.002105094958096743,0.008538202382624149,-0.00261180754750967,-0.0007349848747253418,0.001849710941314697,0.006003975868225098,XArbitraryZVertical,0.4233812621700653,0.3007387272829475,0.2066214184994185,-0.829223768406267,-0.6737186908721924,0.5778774619102478,-0.4606090486049652,0,0,0,-1,-1,10924.176335875,unknown,2,2025-04-30T11:41:15.341+03:00,2025-04-28T22:17:59.397+03:00,6793,0.81875,0,0,5699.223,11,14,2025-04-30T11:38:30.206+03:00,767695332.2086744,0,-14.62,100.9719,1,0.85,2025-04-30T11:34:04.903+03:00,97,1.616666666666667,2025-04-22T14:20:19.516+03:00,0.02197104130929222,0
2025-04-30T11:42:13.114+03:00,1746002532.057295,40.95224677673531,29.14029760423168,76.45299,-1,-1,-1,-1,30,23.66668615034241,-9999,10939.52086679167,-0.6728057861328125,0.578216552734375,-0.455413818359375,10939.51582979167,-0.8210967486632292,-0.9710212651208242,-0.6160990377634669,0.004981841426342726,0.007855634205043316,-0.002929789014160633,0.0002149343490600586,0.001779735088348389,0.005413919687271118,XArbitraryZVertical,0.4233604161025657,0.3007131815210046,0.206639198612052,-0.8292391937164878,-0.6736920475959778,0.5778558254241943,-0.4606750905513763,0,0,0,-1,-1,10924.176335875,unknown,2,2025-04-30T11:41:15.341+03:00,2025-04-28T22:17:59.397+03:00,6793,0.81875,0,0,5699.223,11,14,2025-04-30T11:38:30.206+03:00,767695332.2086744,0,-14.62,100.9719,1,0.85,2025-04-30T11:34:04.903+03:00,97,1.616666666666667,2025-04-22T14:20:19.516+03:00,0.02197104130929222,0
2025-04-30T11:42:13.125+03:00,1746002532.057295,40.95224677673531,29.14029760423168,76.45299,-1,-1,-1,-1,30,23.66668615034241,-9999,10939.53094279167,-0.6706085205078125,0.575775146484375,-0.4575653076171875,10939.52590479167,-0.8210590022013526,-0.9709385290130131,-0.616066773492349,0.005282645579427481,0.004898593295365572,-0.002410272834822536,0.00188601016998291,0.001180529594421387,0.005464941263198853,XArbitraryZVertical,0.4233346203717892,0.3006943911890775,0.2066493725029946,-0.829256676413219,-0.6736693382263184,0.5778294801712036,-0.4607413709163666,0,0,0,-1,-1,10924.176335875,unknown,2,2025-04-30T11:41:15.341+03:00,2025-04-28T22:17:59.397+03:00,6793,0.81875,0,0,5699.223,11,14,2025-04-30T11:38:30.206+03:00,767695332.2086744,0,-14.62,100.9719,1,0.85,2025-04-30T11:34:04.903+03:00,97,1.616666666666667,2025-04-22T14:20:19.516+03:00,0.02197104130929222,0
2025-04-30T11:42:13.135+03:00,1746002532.057295,40.95224677673531,29.14029760423168,76.45299,-1,-1,-1,-1,30,23.66668615034241,-9999,10939.54101879167,-0.670562744140625,0.5765228271484375,-0.4559173583984375,10939.53598079167,-0.8210259246708072,-0.9708416516350986,-0.6160165977538227,0.009173257276415825,0.006715402007102966,-0.003162882290780544,0.001865208148956299,-0.00140303373336792,0.00402069091796875,XArbitraryZVertical,0.4233016611568193,0.3006729178422403,0.2066690773328116,-0.8292763854967509,-0.6736486554145813,0.5777885317802429,-0.4608229994773865,0,0,0,-1,-1,10924.176335875,unknown,2,2025-04-30T11:41:15.341+03:00,2025-04-28T22:17:59.397+03:00,6793,0.81875,0,0,5699.223,11,14,2025-04-30T11:38:30.206+03:00,767695332.2086744,0,-14.62,100.9719,1,0.85,2025-04-30T11:34:04.903+03:00,97,1.616666666666667,2025-04-22T14:20:19.516+03:00,0.02197104130929222,0
2025-04-30T11:42:13.145+03:00,1746002532.057295,40.95224677673531,29.14029760423168,76.45299,-1,-1,-1,-1,30,23.66668615034241,-9999,10939.55109379167,-0.6712646484375,0.5811767578125,-0.4562835693359375,10939.54605579167,-0.8209206996291569,-0.9706855378032822,-0.6159253158626059,0.01543461531400681,0.01302682794630527,-0.002557545667514205,0.003912031650543213,-0.001511693000793457,0.003850430250167847,XArbitraryZVertical,0.423237022938069,0.3006517218348994,0.2066819695932448,-0.8293138249026291,-0.6736201643943787,0.5777140259742737,-0.4609579145908356,0,0,0,-1,-1,10924.176335875,unknown,2,2025-04-30T11:41:15.341+03:00,2025-04-28T22:17:59.397+03:00,6793,0.81875,0,0,5699.223,11,14,2025-04-30T11:38:30.206+03:00,767695332.2086744,0,-14.62,100.9719,1,0.85,2025-04-30T11:34:04.903+03:00,97,1.616666666666667,2025-04-22T14:20:19.516+03:00,0.02197104130929222,0
2025-04-30T11:42:13.155+03:00,1746002532.057295,40.95224677673531,29.14029760423168,76.45299,-1,-1,-1,-1,30,23.66668615034241,-9999,10939.56116979167,-0.6726531982421875,0.58233642578125,-0.45745849609375,10939.55613179167,-0.8207627463511554,-0.9704431016965758,-0.6157877978550506,0.02043949440121651,0.01567667350172997,-0.00628064526244998,0.002950310707092285,0.0005689859390258789,0.006133824586868286,XArbitraryZVertical,0.4231389496535256,0.3006166540622449,0.2067031536948841,-0.8293713176502154,-0.6735739707946777,0.5776017904281616,-0.461166113615036,0,0,0,-1,-1,10924.176335875,unknown,2,2025-04-30T11:41:15.341+03:00,2025-04-28T22:17:59.397+03:00,6793,0.81875,0,0,5699.223,11,14,2025-04-30T11:38:30.206+03:00,767695332.2086744,0,-14.62,100.9719,1,0.85,2025-04-30T11:34:04.903+03:00,97,1.616666666666667,2025-04-22T14:20:19.516+03:00,0.02197104130929222,0
2025-04-30T11:42:13.165+03:00,1746002532.057295,40.95224677673531,29.14029760423168,76.45299,-1,-1,-1,-1,30,23.66668615034241,-9999,10939.57124479167,-0.6734466552734375,0.5816650390625,-0.457275390625,10939.56620779167,-0.8205795049944349,-0.9701507218296658,-0.6155930660037787,0.02453077584505081,0.02057808637619019,-0.007630134932696819,0.001321315765380859,0.005748152732849121,0.004227519035339355,XArbitraryZVertical,0.423011393302487,0.3005795301344262,0.2067391092784848,-0.8294409100087828,-0.6735318899154663,0.5774428248405457,-0.4614266157150269,0,0,0,-1,-1,10924.176335875,unknown,2,2025-04-30T11:41:15.341+03:00,2025-04-28T22:17:59.397+03:00,6793,0.81875,0,0,5699.223,11,14,2025-04-30T11:38:30.206+03:00,767695332.2086744,0,-14.62,100.9719,1,0.85,2025-04-30T11:34:04.903+03:00,97,1.616666666666667,2025-04-22T14:20:19.516+03:00,0.02197104130929222,0
2025-04-30T11:42:13.175+03:00,1746002532.057295,40.95224677673531,29.14029760423168,76.45299,-1,-1,-1,-1,30,23.66668615034241,-9999,10939.58132079167,-0.67236328125,0.5810699462890625,-0.45751953125,10939.57628279167,-0.8203629577379921,-0.9697969845706239,-0.6153772826197913,0.03073594160377979,0.0248335525393486,-0.008332144469022751,0.0002689361572265625,0.0049172043800354,0.004276812076568604,XArbitraryZVertical,0.4228649468684064,0.3005288629549218,0.2067795892587886,-0.8295238355899041,-0.6734713912010193,0.5772666335105896,-0.4617352783679962,0,0,0,-1,-1,10924.176335875,unknown,2,2025-04-30T11:41:15.341+03:00,2025-04-28T22:17:59.397+03:00,6793,0.81875,0,0,5699.223,11,14,2025-04-30T11:38:30.206+03:00,767695332.2086744,0,-14.62,100.9719,1,0.85,2025-04-30T11:34:04.903+03:00,97,1.616666666666667,2025-04-22T14:20:19.516+03:00,0.02197104130929222,0
2025-04-30T11:42:13.185+03:00,1746002532.057295,40.95224677673531,29.14029760423168,76.45299,-1,-1,-1,-1,30,23.66668615034241,-9999,10939.59139679167,-0.6724090576171875,0.5778961181640625,-0.4583892822265625,10939.58635879167,-0.8200982120394867,-0.9693897363737967,-0.6151094327500397,0.03633730113506317,0.02778080478310585,-0.009839792735874653,4.041194915771484e-05,0.004449307918548584,0.005050480365753174,XArbitraryZVertical,0.4226870292000456,0.3004782636558003,0.2068247188799184,-0.8296215840152152,-0.6734107732772827,0.5770478844642639,-0.4620969891548157,0,0,0,-1,-1,10924.176335875,unknown,2,2025-04-30T11:41:15.341+03:00,2025-04-28T22:17:59.397+03:00,6793,0.81875,0,0,5699.223,11,14,2025-04-30T11:38:30.206+03:00,767695332.2086744,0,-14.62,100.9719,1,0.85,2025-04-30T11:34:04.903+03:00,97,1.616666666666667,2025-04-22T14:20:19.516+03:00,0.02197104130929222,0
2025-04-30T11:42:13.195+03:00,1746002532.057295,40.95224677673531,29.14029760423168,76.45299,-1,-1,-1,-1,30,23.66668615034241,-9999,10939.60147179167,-0.6739501953125,0.5771026611328125,-0.4609527587890625,10939.59643379167,-0.8197575592251178,-0.9689068324452732,-0.6148022685961418,0.04708874970674515,0.03258488327264786,-0.01030957419425249,0.0009093284606933594,0.002380788326263428,0.0040569007396698,XArbitraryZVertical,0.42247576685451,0.300421391879037,0.2068643585713978,-0.8297398588462545,-0.6733335852622986,0.5767970085144043,-0.4625224173069,0,0,0,-1,-1,10924.176335875,unknown,2,2025-04-30T11:41:15.341+03:00,2025-04-28T22:17:59.397+03:00,6793,0.81875,0,0,5699.223,11,14,2025-04-30T11:38:30.206+03:00,767695332.2086744,0,-14.62,100.9719,1,0.85,2025-04-30T11:34:04.903+03:00,97,1.616666666666667,2025-04-22T14:20:19.516+03:00,0.02197104130929222,0
2025-04-30T11:42:13.205+03:00,1746002532.057295,40.95224677673531,29.14029760423168,76.45299,-1,-1,-1,-1,30,23.66668615034241,-9999,10939.611549375,-0.67364501953125,0.5799407958984375,-0.4586334228515625,10939.606511375,-0.819236147259394,-0.9682874903941551,-0.6144041241231872,0.06790768355131149,0.03625651448965073,-0.004553318489342928,-0.0005155801773071289,-4.041194915771484e-05,0.003276467323303223,XArbitraryZVertical,0.4221905153692589,0.3003671444205203,0.2068810730819762,-0.8299005461909493,-0.6732361912727356,0.576471745967865,-0.4630694985389709,0,0,0,-1,-1,10924.176335875,unknown,2,2025-04-30T11:41:15.341+03:00,2025-04-28T22:17:59.397+03:00,6793,0.81875,0,0,5699.223,11,14,2025-04-30T11:38:30.206+03:00,767695332.2086744,0,-14.62,100.9719,1,0.85,2025-04-30T11:34:04.903+03:00,97,1.616666666666667,2025-04-22T14:20:19.516+03:00,0.02197104130929222,0
2025-04-30T11:42:13.215+03:00,1746002532.057295,40.95224677673531,29.14029760423168,76.45299,-1,-1,-1,-1,30,23.66668615034241,-9999,10939.621624375,-0.6714630126953125,0.5842742919921875,-0.4552154541015625,10939.616587375,-0.8185455085530783,-0.9675445897648962,-0.6139036217743876,0.08516496419906616,0.03735107183456421,-0.01350633334368467,-0.001003742218017578,0.002581179141998291,0.002917766571044922,XArbitraryZVertical,0.4218302535225827,0.3003209196817849,0.2068796939009341,-0.8301008250365064,-0.6731294989585876,0.5760626792907715,-0.4637331664562225,0,0,0,-1,-1,10924.176335875,unknown,2,2025-04-30T11:41:15.341+03:00,2025-04-28T22:17:59.397+03:00,6793,0.81875,0,0,5699.223,11,14,2025-04-30T11:38:30.206+03:00,767695332.2086744,0,-14.62,100.9719,1,0.85,2025-04-30T11:34:04.903+03:00,97,1.616666666666667,2025-04-22T14:20:19.516+03:00,0.02197104130929222,0
2025-04-30T11:42:13.225+03:00,1746002532.057295,40.95224677673531,29.14029760423168,76.45299,-1,-1,-1,-1,30,23.66668615034241,-9999,10939.631700375,-0.6739044189453125,0.5878143310546875,-0.458343505859375,10939.626662375,-0.8177905321617059,-0.9666961879941595,-0.6133051639585885,0.08777665346860886,0.04458761960268021,-0.0155656561255455,0.0009613633155822754,0.006702005863189697,0.006949782371520996,XArbitraryZVertical,0.4214141399119167,0.300266904300822,0.2068986553611751,-0.830326949719736,-0.6730194687843323,0.5755733847618103,-0.464499831199646,0,0,0,-1,-1,10924.176335875,unknown,2,2025-04-30T11:41:15.341+03:00,2025-04-28T22:17:59.397+03:00,6793,0.81875,0,0,5699.223,11,14,2025-04-30T11:38:30.206+03:00,767695332.2086744,0,-14.62,100.9719,1,0.85,2025-04-30T11:34:04.903+03:00,97,1.616666666666667,2025-04-22T14:20:19.516+03:00,0.02197104130929222,0
2025-04-30T11:42:13.235+03:00,1746002532.057295,40.95224677673531,29.14029760423168,76.45299,-1,-1,-1,-1,30,23.66668615034241,-9999,10939.641776375,-0.674407958984375,0.583160400390625,-0.4622344970703125,10939.636738375,-0.8170589705460124,-0.9657678214044516,-0.6126606728910311,0.0902472659945488,0.05344076454639435,-0.02292157337069511,-0.0002180933952331543,0.01052498817443848,0.01037931442260742,XArbitraryZVertical,0.4209766046986191,0.3001850506925912,0.2069555706986185,-0.8305641860277172,-0.6728928089141846,0.5750462412834167,-0.4653352797031403,0,0,0,-1,-1,10924.176335875,unknown,2,2025-04-30T11:41:15.341+03:00,2025-04-28T22:17:59.397+03:00,6793,0.81875,0,0,5699.223,11,14,2025-04-30T11:38:30.206+03:00,767695332.2086744,0,-14.62,100.9719,1,0.85,2025-04-30T11:34:04.903+03:00,97,1.616666666666667,2025-04-22T14:20:19.516+03:00,0.02197104130929222,0
