loggingTime(txt),locationTimestamp_since1970(s),locationLatitude(WGS84),locationLongitude(WGS84),locationAltitude(m),locationSpeed(m/s),locationSpeedAccuracy(m/s),locationCourse(°),locationCourseAccuracy(°),locationVerticalAccuracy(m),locationHorizontalAccuracy(m),locationFloor(Z),accelerometerTimestamp_sinceReboot(s),accelerometerAccelerationX(G),accelerometerAccelerationY(G),accelerometerAccelerationZ(G),motionTimestamp_sinceReboot(s),motionYaw(rad),motionRoll(rad),motionPitch(rad),motionRotationRateX(rad/s),motionRotationRateY(rad/s),motionRotationRateZ(rad/s),motionUserAccelerationX(G),motionUserAccelerationY(G),motionUserAccelerationZ(G),motionAttitudeReferenceFrame(txt),motionQuaternionX(R),motionQuaternionY(R),motionQuaternionZ(R),motionQuaternionW(R),motionGravityX(G),motionGravityY(G),motionGravityZ(G),motionMagneticFieldX(µT),motionMagneticFieldY(µT),motionMagneticFieldZ(µT),motionHeading(°),motionMagneticFieldCalibrationAccuracy(Z),activityTimestamp_sinceReboot(s),activity(txt),activityActivityConfidence(Z),activityActivityStartDate(txt),pedometerStartDate(txt),pedometerNumberofSteps(N),pedometerAverageActivePace(s/m),pedometerCurrentPace(s/m),pedometerCurrentCadence(steps/s),pedometerDistance(m),pedometerFloorAscended(N),pedometerFloorDescended(N),pedometerEndDate(txt),altimeterTimestamp_sinceReboot(s),altimeterReset(bool),altimeterRelativeAltitude(m),altimeterPressure(kPa),batteryState(N),batteryLevel(R),heartRateBPMTimestamp(txt),heartRateBPM(N),heartRateBPS(R),heartRateVariabilityTimestamp(txt),heartRateVariability(ms),label
2025-04-21T11:14:26.750+03:00,1745223264.941439,40.95357315239047,29.14096675058997,92.88309,-1,-1,-1,-1,30,28.58624055947184,-9999,13423.378258875,-0.79132080078125,0.586334228515625,-0.242889404296875,13423.368183875,-2.355394678847286,-1.270870532570429,-0.6493088288355779,0.02505665272474289,0.04319509491324425,0.007788265123963356,0.02818721532821655,0.02130997180938721,0.01251715421676636,XArbitraryZVertical,-0.6179544737594969,0.02166355963411114,-0.6320702801300979,0.4670653512181769,-0.7609447240829468,0.604636013507843,-0.2353259176015854,0,0,0,-1,-1,13417.69023541667,unknown,2,2025-04-21T11:14:16.935+03:00,2025-04-20T21:57:49.637+03:00,1567,1.115866,1.28579,1.378413,1172.329,1,4,2025-04-21T11:14:24.673+03:00,766916064.7796655,0,-46.29,100.2877,1,0.65,2025-04-21T11:14:06.322+03:00,123,2.05,2025-04-21T09:28:58.093+03:00,0.01174319131481236,0
2025-04-21T11:14:26.754+03:00,1745223264.941439,40.95357315239047,29.14096675058997,92.88309,-1,-1,-1,-1,30,28.58624055947184,-9999,13423.388334875,-0.751708984375,0.6062469482421875,-0.2364654541015625,13423.378258875,-2.355114899303214,-1.270437215606383,-0.6493442483435405,0.02090345323085785,0.01129255350679159,0.005456667393445969,0.01189041137695312,-0.01555293798446655,0.009453058242797852,XArbitraryZVertical,-0.6178226334552559,0.02169208497639962,-0.6321308026121768,0.4671565437676565,-0.7608222365379333,0.6046642661094666,-0.2356492877006531,0,0,0,-1,-1,13417.69023541667,unknown,2,2025-04-21T11:14:16.935+03:00,2025-04-20T21:57:49.637+03:00,1567,1.115866,1.28579,1.378413,1172.329,1,4,2025-04-21T11:14:24.673+03:00,766916064.7796655,0,-46.29,100.2877,1,0.65,2025-04-21T11:14:06.322+03:00,123,2.05,2025-04-21T09:28:58.093+03:00,0.01174319131481236,0
2025-04-21T11:14:26.757+03:00,1745223264.941439,40.95357315239047,29.14096675058997,92.88309,-1,-1,-1,-1,30,28.58624055947184,-9999,13423.398410875,-0.746978759765625,0.6050872802734375,-0.2326202392578125,13423.388334875,-2.354932497151026,-1.2703704611847,-0.6492819345673996,0.01326104626059532,0.001876481575891376,0.006512111984193325,-0.03047823905944824,-0.01828044652938843,-0.007178127765655518,XArbitraryZVertical,-0.6177998423411337,0.02162710370393116,-0.6321229539254194,0.4672003718563363,-0.7608425617218018,0.6046146154403687,-0.2357112467288971,0,0,0,-1,-1,13417.69023541667,unknown,2,2025-04-21T11:14:16.935+03:00,2025-04-20T21:57:49.637+03:00,1567,1.115866,1.28579,1.378413,1172.329,1,4,2025-04-21T11:14:24.673+03:00,766916064.7796655,0,-46.29,100.2877,1,0.65,2025-04-21T11:14:06.322+03:00,123,2.05,2025-04-21T09:28:58.093+03:00,0.01174319131481236,0
2025-04-21T11:14:26.758+03:00,1745223264.941439,40.95357315239047,29.14096675058997,92.88309,-1,-1,-1,-1,30,28.58624055947184,-9999,13423.408485875,-0.7731781005859375,0.6078948974609375,-0.2400360107421875,13423.398410875,-2.354667402256698,-1.269966003785458,-0.6492915363268577,0.02041855826973915,0.04363138228654861,0.01802415773272514,0.009032607078552246,0.001624643802642822,-0.0004481673240661621,XArbitraryZVertical,-0.6176754437636187,0.02164346688838588,-0.6321837223612712,0.4672817807127118,-0.7607415318489075,0.6046222448348999,-0.2360172122716904,0,0,0,-1,-1,13417.69023541667,unknown,2,2025-04-21T11:14:16.935+03:00,2025-04-20T21:57:49.637+03:00,1567,1.115866,1.28579,1.378413,1172.329,1,4,2025-04-21T11:14:24.673+03:00,766916064.7796655,0,-46.29,100.2877,1,0.65,2025-04-21T11:14:06.322+03:00,123,2.05,2025-04-21T09:28:58.093+03:00,0.01174319131481236,0
2025-04-21T11:14:26.765+03:00,1745223264.941439,40.95357315239047,29.14096675058997,92.88309,-1,-1,-1,-1,30,28.58624055947184,-9999,13423.418561875,-0.76220703125,0.6080322265625,-0.237152099609375,13423.408485875,-2.354282957982664,-1.269268216902102,-0.6495088144874108,0.02828666940331459,0.04292890802025795,0.01907893642783165,0.01347243785858154,0.0002919435501098633,0.003888756036758423,XArbitraryZVertical,-0.617471837379135,0.02177223418182975,-0.6322602306633178,0.4674414583481138,-0.7604512572288513,0.6047953367233276,-0.2365089952945709,0,0,0,-1,-1,13417.69023541667,unknown,2,2025-04-21T11:14:16.935+03:00,2025-04-20T21:57:49.637+03:00,1567,1.115866,1.28579,1.378413,1172.329,1,4,2025-04-21T11:14:24.673+03:00,766916064.7796655,0,-46.29,100.2877,1,0.65,2025-04-21T11:14:06.322+03:00,123,2.05,2025-04-21T09:28:58.093+03:00,0.01174319131481236,0
2025-04-21T11:14:26.774+03:00,1745223264.941439,40.95357315239047,29.14096675058997,92.88309,-1,-1,-1,-1,30,28.58624055947184,-9999,13423.428636875,-0.7521514892578125,0.6093597412109375,-0.2363433837890625,13423.418561875,-2.353802683312861,-1.268594755989718,-0.6496474006364591,0.0339173898100853,0.02838405594229698,0.01630765199661255,-0.0129663348197937,0.002989232540130615,-0.00303986668586731,XArbitraryZVertical,-0.6172723467070083,0.02183527306546304,-0.6323244880930947,0.4676150785253766,-0.7602118253707886,0.6049056649208069,-0.2369961440563202,0,0,0,-1,-1,13417.69023541667,unknown,2,2025-04-21T11:14:16.935+03:00,2025-04-20T21:57:49.637+03:00,1567,1.115866,1.28579,1.378413,1172.329,1,4,2025-04-21T11:14:24.673+03:00,766916064.7796655,0,-46.29,100.2877,1,0.65,2025-04-21T11:14:06.322+03:00,123,2.05,2025-04-21T09:28:58.093+03:00,0.01174319131481236,0
2025-04-21T11:14:26.784+03:00,1745223264.941439,40.95357315239047,29.14096675058997,92.88309,-1,-1,-1,-1,30,28.58624055947184,-9999,13423.438712875,-0.760040283203125,0.60589599609375,-0.24102783203125,13423.428636875,-2.353313043029469,-1.267959952050585,-0.649682153391888,0.03078338131308556,0.03351863101124763,0.01639380306005478,-0.002165913581848145,0.003098905086517334,0.0003203451633453369,XArbitraryZVertical,-0.6170790368444833,0.02184612533388111,-0.6323980285283686,0.4677702652184477,-0.7600411772727966,0.6049333214759827,-0.2374724149703979,0,0,0,-1,-1,13417.69023541667,unknown,2,2025-04-21T11:14:16.935+03:00,2025-04-20T21:57:49.637+03:00,1567,1.115866,1.28579,1.378413,1172.329,1,4,2025-04-21T11:14:24.673+03:00,766916064.7796655,0,-46.29,100.2877,1,0.65,2025-04-21T11:14:06.322+03:00,123,2.05,2025-04-21T09:28:58.093+03:00,0.01174319131481236,0
2025-04-21T11:14:26.794+03:00,1745223264.941439,40.95357315239047,29.14096675058997,92.88309,-1,-1,-1,-1,30,28.58624055947184,-9999,13423.448788875,-0.7604522705078125,0.601470947265625,-0.240814208984375,13423.438712875,-2.352934583191817,-1.267403391978969,-0.6497426904192052,0.02400537021458149,0.03106079809367657,0.01499378029257059,0.007722318172454834,0.004378080368041992,0.001541033387184143,XArbitraryZVertical,-0.6169108051669112,0.02188317475471882,-0.6324673070604462,0.4678964573698508,-0.7598736882209778,0.604981541633606,-0.2378843724727631,0,0,0,-1,-1,13417.69023541667,unknown,2,2025-04-21T11:14:16.935+03:00,2025-04-20T21:57:49.637+03:00,1567,1.115866,1.28579,1.378413,1172.329,1,4,2025-04-21T11:14:24.673+03:00,766916064.7796655,0,-46.29,100.2877,1,0.65,2025-04-21T11:14:06.322+03:00,123,2.05,2025-04-21T09:28:58.093+03:00,0.01174319131481236,0
2025-04-21T11:14:26.804+03:00,1745223264.941439,40.95357315239047,29.14096675058997,92.88309,-1,-1,-1,-1,30,28.58624055947184,-9999,13423.458863875,-0.7578582763671875,0.5994110107421875,-0.238037109375,13423.448788875,-2.352661837847573,-1.266954114667781,-0.6499394764746284,0.01779701001942158,0.02930923737585545,0.01688209548592567,-0.0003870129585266113,0.0007576942443847656,-0.002837657928466797,XArbitraryZVertical,-0.6167834173602563,0.02198068408622411,-0.632497508086484,0.4680190410107131,-0.7596532106399536,0.6051382422447205,-0.2381901293992996,0,0,0,-1,-1,13417.69023541667,unknown,2,2025-04-21T11:14:16.935+03:00,2025-04-20T21:57:49.637+03:00,1567,1.115866,1.28579,1.378413,1172.329,1,4,2025-04-21T11:14:24.673+03:00,766916064.7796655,0,-46.29,100.2877,1,0.65,2025-04-21T11:14:06.322+03:00,123,2.05,2025-04-21T09:28:58.093+03:00,0.01174319131481236,0
2025-04-21T11:14:26.814+03:00,1745223264.941439,40.95357315239047,29.14096675058997,92.88309,-1,-1,-1,-1,30,28.58624055947184,-9999,13423.468939875,-0.7577972412109375,0.6035003662109375,-0.2361602783203125,13423.458863875,-2.352454601095324,-1.266541164558541,-0.650041127060022,0.009666912257671356,0.0309622623026371,0.01699954085052013,-0.000956118106842041,-0.003748297691345215,-0.002328798174858093,XArbitraryZVertical,-0.6166611564540242,0.0220529656573789,-0.6325532887171859,0.4681013129033832,-0.7594960331916809,0.6052191257476807,-0.2384853661060333,0,0,0,-1,-1,13417.69023541667,unknown,2,2025-04-21T11:14:16.935+03:00,2025-04-20T21:57:49.637+03:00,1567,1.115866,1.28579,1.378413,1172.329,1,4,2025-04-21T11:14:24.673+03:00,766916064.7796655,0,-46.29,100.2877,1,0.65,2025-04-21T11:14:06.322+03:00,123,2.05,2025-04-21T09:28:58.093+03:00,0.01174319131481236,0
2025-04-21T11:14:26.824+03:00,1745223264.941439,40.95357315239047,29.14096675058997,92.88309,-1,-1,-1,-1,30,28.58624055947184,-9999,13423.479014875,-0.7550811767578125,0.6040191650390625,-0.2384185791015625,13423.468939875,-2.352285988024641,-1.266171463009596,-0.6500415071421993,0.009559386409819126,0.02287537418305874,0.01217139605432749,0.001549422740936279,-0.005808532238006592,0.0007290393114089966,XArbitraryZVertical,-0.6165461029670568,0.02208765805767949,-0.6326277282243037,0.4681506506345829,-0.759407639503479,0.6052194237709045,-0.238766074180603,0,0,0,-1,-1,13417.69023541667,unknown,2,2025-04-21T11:14:16.935+03:00,2025-04-20T21:57:49.637+03:00,1567,1.115866,1.28579,1.378413,1172.329,1,4,2025-04-21T11:14:24.673+03:00,766916064.7796655,0,-46.29,100.2877,1,0.65,2025-04-21T11:14:06.322+03:00,123,2.05,2025-04-21T09:28:58.093+03:00,0.01174319131481236,0
2025-04-21T11:14:26.834+03:00,1745223264.941439,40.95357315239047,29.14096675058997,92.88309,-1,-1,-1,-1,30,28.58624055947184,-9999,13423.489090875,-0.7540283203125,0.6021728515625,-0.2400054931640625,13423.479014875,-2.352103408885373,-1.265841715486332,-0.6501672953870132,0.01222813967615366,0.02172169275581837,0.01492829993367195,0.001459062099456787,-0.001819372177124023,0.002833381295204163,XArbitraryZVertical,-0.6164513254991961,0.02215749758724658,-0.6326581262521621,0.4682310773962916,-0.7592562437057495,0.6053195595741272,-0.2389936149120331,0,0,0,-1,-1,13417.69023541667,unknown,2,2025-04-21T11:14:16.935+03:00,2025-04-20T21:57:49.637+03:00,1567,1.115866,1.28579,1.378413,1172.329,1,4,2025-04-21T11:14:24.673+03:00,766916064.7796655,0,-46.29,100.2877,1,0.65,2025-04-21T11:14:06.322+03:00,123,2.05,2025-04-21T09:28:58.093+03:00,0.01174319131481236,0
2025-04-21T11:14:26.844+03:00,1745223264.941439,40.95357315239047,29.14096675058997,92.88309,-1,-1,-1,-1,30,28.58624055947184,-9999,13423.499166875,-0.7538604736328125,0.602508544921875,-0.241241455078125,13423.489090875,-2.35192044720885,-1.265516204756098,-0.6503033636383493,0.0107610709965229,0.02158833481371403,0.01447479613125324,0.004018783569335938,-0.001408755779266357,0.0007975101470947266,XArbitraryZVertical,-0.6163585068506064,0.02223022981844675,-0.6326848229968415,0.4683138273506412,-0.7590999007225037,0.6054278612136841,-0.2392160147428513,0,0,0,-1,-1,13417.69023541667,unknown,2,2025-04-21T11:14:16.935+03:00,2025-04-20T21:57:49.637+03:00,1567,1.115866,1.28579,1.378413,1172.329,1,4,2025-04-21T11:14:24.673+03:00,766916064.7796655,0,-46.29,100.2877,1,0.65,2025-04-21T11:14:06.322+03:00,123,2.05,2025-04-21T09:28:58.093+03:00,0.01174319131481236,0
2025-04-21T11:14:26.854+03:00,1745223264.941439,40.95357315239047,29.14096675058997,92.88309,-1,-1,-1,-1,30,28.58624055947184,-9999,13423.509241875,-0.7526092529296875,0.6059722900390625,-0.2399139404296875,13423.499166875,-2.351746366468624,-1.265228936457669,-0.6503866406093264,0.009151723235845566,0.01872037537395954,0.0142431017011404,0.004954814910888672,-0.003321349620819092,-0.0005865693092346191,XArbitraryZVertical,-0.6162745466151961,0.02227625221947044,-0.6327137058601774,0.4683831109042425,-0.7589830756187439,0.6054941415786743,-0.2394189089536667,0,0,0,-1,-1,13417.69023541667,unknown,2,2025-04-21T11:14:16.935+03:00,2025-04-20T21:57:49.637+03:00,1567,1.115866,1.28579,1.378413,1172.329,1,4,2025-04-21T11:14:24.673+03:00,766916064.7796655,0,-46.29,100.2877,1,0.65,2025-04-21T11:14:06.322+03:00,123,2.05,2025-04-21T09:28:58.093+03:00,0.01174319131481236,0
2025-04-21T11:14:26.864+03:00,1745223264.941439,40.95357315239047,29.14096675058997,92.88309,-1,-1,-1,-1,30,28.58624055947184,-9999,13423.519317875,-0.756866455078125,0.6051483154296875,-0.23590087890625,13423.509241875,-2.351593548366416,-1.264968746636665,-0.6504761107389362,0.01014887727797031,0.02135590650141239,0.01247333083301783,0.005008697509765625,-0.003056883811950684,-0.001641333103179932,XArbitraryZVertical,-0.616199288583434,0.02232490547343985,-0.6327378170397212,0.4684472604572865,-0.7588691115379333,0.6055653691291809,-0.2396000772714615,0,0,0,-1,-1,13417.69023541667,unknown,2,2025-04-21T11:14:16.935+03:00,2025-04-20T21:57:49.637+03:00,1567,1.115866,1.28579,1.378413,1172.329,1,4,2025-04-21T11:14:24.673+03:00,766916064.7796655,0,-46.29,100.2877,1,0.65,2025-04-21T11:14:06.322+03:00,123,2.05,2025-04-21T09:28:58.093+03:00,0.01174319131481236,0
2025-04-21T11:14:26.874+03:00,1745223264.941439,40.95357315239047,29.14096675058997,92.88309,-1,-1,-1,-1,30,28.58624055947184,-9999,13423.529393875,-0.757843017578125,0.604095458984375,-0.234710693359375,13423.519317875,-2.351411081992409,-1.264627810381366,-0.6505723067911126,0.01717615872621536,0.02526915445923805,0.01010711304843426,0.006122589111328125,0.0003303289413452148,-7.265806198120117e-05,XArbitraryZVertical,-0.6160992324836839,0.02238599856919885,-0.6327782582920797,0.468521249465513,-0.7587317824363708,0.6056419014930725,-0.2398412078619003,0,0,0,-1,-1,13417.69023541667,unknown,2,2025-04-21T11:14:16.935+03:00,2025-04-20T21:57:49.637+03:00,1567,1.115866,1.28579,1.378413,1172.329,1,4,2025-04-21T11:14:24.673+03:00,766916064.7796655,0,-46.29,100.2877,1,0.65,2025-04-21T11:14:06.322+03:00,123,2.05,2025-04-21T09:28:58.093+03:00,0.01174319131481236,0
2025-04-21T11:14:26.885+03:00,1745223264.941439,40.95357315239047,29.14096675058997,92.88309,-1,-1,-1,-1,30,28.58624055947184,-9999,13423.539468875,-0.755035400390625,0.6091461181640625,-0.23431396484375,13423.529393875,-2.351201785301789,-1.264247634248947,-0.6506168067421285,0.01073417346924543,0.02243708446621895,0.007180132437497377,0.001748502254486084,-0.0005290508270263672,0.004220724105834961,XArbitraryZVertical,-0.6159839493253217,0.02242789273322365,-0.6328362834323157,0.4685925278610539,-0.7586148977279663,0.6056773066520691,-0.240121528506279,0,0,0,-1,-1,13417.69023541667,unknown,2,2025-04-21T11:14:16.935+03:00,2025-04-20T21:57:49.637+03:00,1567,1.115866,1.28579,1.378413,1172.329,1,4,2025-04-21T11:14:24.673+03:00,766916064.7796655,0,-46.29,100.2877,1,0.65,2025-04-21T11:14:06.322+03:00,123,2.05,2025-04-21T09:28:58.093+03:00,0.01174319131481236,0
2025-04-21T11:14:26.895+03:00,1745223264.941439,40.95357315239047,29.14096675058997,92.88309,-1,-1,-1,-1,30,28.58624055947184,-9999,13423.549544875,-0.7488250732421875,0.5987091064453125,-0.2348785400390625,13423.539468875,-2.351137869859681,-1.263984111718732,-0.6506821520082207,-0.009232344105839729,0.01851238310337067,0.009866196662187576,0.0006708502769470215,-0.001633942127227783,0.005598843097686768,XArbitraryZVertical,-0.6159052057102604,0.02249538784097287,-0.6328876313536291,0.4686234214646027,-0.758513867855072,0.605729341506958,-0.240309476852417,0,0,0,-1,-1,13417.69023541667,unknown,2,2025-04-21T11:14:16.935+03:00,2025-04-20T21:57:49.637+03:00,1567,1.115866,1.28579,1.378413,1172.329,1,4,2025-04-21T11:14:24.673+03:00,766916064.7796655,0,-46.29,100.2877,1,0.65,2025-04-21T11:14:06.322+03:00,123,2.05,2025-04-21T09:28:58.093+03:00,0.01174319131481236,0
2025-04-21T11:14:26.905+03:00,1745223264.941439,40.95357315239047,29.14096675058997,92.88309,-1,-1,-1,-1,30,28.58624055947184,-9999,13423.559619875,-0.751007080078125,0.588104248046875,-0.245086669921875,13423.549544875,-2.351338799527939,-1.263909392056485,-0.6508270094524637,-0.0281828660517931,0.02584326639771461,0.01232549268752337,0.003376901149749756,0.003301501274108887,0.006025746464729309,XArbitraryZVertical,-0.6158879891540259,0.02263114601558498,-0.6329248620058509,0.46858921407551,-0.75841224193573,0.6058445572853088,-0.2403396368026733,0,0,0,-1,-1,13417.69023541667,unknown,2,2025-04-21T11:14:16.935+03:00,2025-04-20T21:57:49.637+03:00,1567,1.115866,1.28579,1.378413,1172.329,1,4,2025-04-21T11:14:24.673+03:00,766916064.7796655,0,-46.29,100.2877,1,0.65,2025-04-21T11:14:06.322+03:00,123,2.05,2025-04-21T09:28:58.093+03:00,0.01174319131481236,0
2025-04-21T11:14:26.915+03:00,1745223264.941439,40.95357315239047,29.14096675058997,92.88309,-1,-1,-1,-1,30,28.58624055947184,-9999,13423.569695875,-0.756195068359375,0.604644775390625,-0.251739501953125,13423.559619875,-2.351662175779895,-1.263831492550677,-0.651032750051007,-0.02291193790733814,0.02837619930505753,0.01095929183065891,0.009449660778045654,-0.007299184799194336,0.00548255443572998,XArbitraryZVertical,-0.6158719886581204,0.02282902843983346,-0.6329779921240604,0.4685289344992609,-0.7582747340202332,0.6060082316398621,-0.2403610646724701,0,0,0,-1,-1,13417.69023541667,unknown,2,2025-04-21T11:14:16.935+03:00,2025-04-20T21:57:49.637+03:00,1567,1.115866,1.28579,1.378413,1172.329,1,4,2025-04-21T11:14:24.673+03:00,766916064.7796655,0,-46.29,100.2877,1,0.65,2025-04-21T11:14:06.322+03:00,123,2.05,2025-04-21T09:28:58.093+03:00,0.01174319131481236,0
2025-04-21T11:14:26.925+03:00,1745223264.941439,40.95357315239047,29.14096675058997,92.88309,-1,-1,-1,-1,30,28.58624055947184,-9999,13423.579771875,-0.7560272216796875,0.62176513671875,-0.2381744384765625,13423.569695875,-2.351778905730919,-1.263696587013516,-0.6511844732659449,-0.01522964891046286,0.01433188561350107,0.01343689672648907,0.007147610187530518,-0.018024742603302,-0.004651069641113281,XArbitraryZVertical,-0.615837042429741,0.02295562507956,-0.6330124706696002,0.4685220986298801,-0.7581546306610107,0.6061289310455322,-0.2404355555772781,0,0,0,-1,-1,13417.69023541667,unknown,2,2025-04-21T11:14:16.935+03:00,2025-04-20T21:57:49.637+03:00,1567,1.115866,1.28579,1.378413,1172.329,1,4,2025-04-21T11:14:24.673+03:00,766916064.7796655,0,-46.29,100.2877,1,0.65,2025-04-21T11:14:06.322+03:00,123,2.05,2025-04-21T09:28:58.093+03:00,0.01174319131481236,0
2025-04-21T11:14:26.936+03:00,1745223264.941439,40.95357315239047,29.14096675058997,92.88309,-1,-1,-1,-1,30,28.58624055947184,-9999,13423.589846875,-0.7616119384765625,0.59619140625,-0.22845458984375,13423.579771875,-2.352091063577232,-1.263760599313018,-0.6513722286390526,-0.04235181212425232,0.01533776149153709,0.009573981165885925,0.001866519451141357,-0.001633524894714355,-0.01138681173324585,XArbitraryZVertical,-0.6158649410507712,0.02310982532794171,-0.633023302426224,0.4684632053536092,-0.7580615282058716,0.6062782406806946,-0.2403526157140732,0,0,0,-1,-1,13417.69023541667,unknown,2,2025-04-21T11:14:16.935+03:00,2025-04-20T21:57:49.637+03:00,1567,1.115866,1.28579,1.378413,1172.329,1,4,2025-04-21T11:14:24.673+03:00,766916064.7796655,0,-46.29,100.2877,1,0.65,2025-04-21T11:14:06.322+03:00,123,2.05,2025-04-21T09:28:58.093+03:00,0.01174319131481236,0
2025-04-21T11:14:26.945+03:00,1745223264.941439,40.95357315239047,29.14096675058997,92.88309,-1,-1,-1,-1,30,28.58624055947184,-9999,13423.599922875,-0.7570648193359375,0.5826416015625,-0.2339935302734375,13423.589846875,-2.352596827853159,-1.263848684997308,-0.6516165049807987,-0.04784385487437248,0.02477513812482357,0.0165928415954113,0.001914322376251221,0.01529258489608765,0.002066686749458313,XArbitraryZVertical,-0.6159015384814823,0.02334002542433453,-0.6330592055029343,0.4683550989479495,-0.7579414248466492,0.6064724922180176,-0.2402410805225372,0,0,0,-1,-1,13417.69023541667,unknown,2,2025-04-21T11:14:16.935+03:00,2025-04-20T21:57:49.637+03:00,1567,1.115866,1.28579,1.378413,1172.329,1,4,2025-04-21T11:14:24.673+03:00,766916064.7796655,0,-46.29,100.2877,1,0.65,2025-04-21T11:14:06.322+03:00,123,2.05,2025-04-21T09:28:58.093+03:00,0.01174319131481236,0
2025-04-21T11:14:26.955+03:00,1745223264.941439,40.95357315239047,29.14096675058997,92.88309,-1,-1,-1,-1,30,28.58624055947184,-9999,13423.609997875,-0.75018310546875,0.60565185546875,-0.2368316650390625,13423.599922875,-2.353032725352486,-1.263830161780988,-0.6519627979185116,-0.03711158037185669,0.0369388610124588,0.02271837927401066,-0.003875136375427246,-0.01055645942687988,0.01173710823059082,XArbitraryZVertical,-0.6159111819560749,0.02361336878000994,-0.6330884732565516,0.4682891822014577,-0.7577367424964905,0.6067478060722351,-0.2401916533708572,0,0,0,-1,-1,13417.69023541667,unknown,2,2025-04-21T11:14:16.935+03:00,2025-04-20T21:57:49.637+03:00,1567,1.115866,1.28579,1.378413,1172.329,1,4,2025-04-21T11:14:24.673+03:00,766916064.7796655,0,-46.29,100.2877,1,0.65,2025-04-21T11:14:06.322+03:00,123,2.05,2025-04-21T09:28:58.093+03:00,0.01174319131481236,0
2025-04-21T11:14:26.965+03:00,1745223264.941439,40.95357315239047,29.14096675058997,92.88309,-1,-1,-1,-1,30,28.58624055947184,-9999,13423.620073875,-0.749847412109375,0.6214599609375,-0.2404327392578125,13423.609997875,-2.35332927677402,-1.263689487111238,-0.6522640711295972,-0.02563581801950932,0.02460143342614174,0.01880602911114693,0.0004639625549316406,-0.02434569597244263,0.006249487400054932,XArbitraryZVertical,-0.6158810348633088,0.02385486921668892,-0.6331329548686405,0.46825653261213,-0.7575287818908691,0.6069872379302979,-0.24024298787117,0,0,0,-1,-1,13417.69023541667,unknown,2,2025-04-21T11:14:16.935+03:00,2025-04-20T21:57:49.637+03:00,1567,1.115866,1.28579,1.378413,1172.329,1,4,2025-04-21T11:14:24.673+03:00,766916064.7796655,0,-46.29,100.2877,1,0.65,2025-04-21T11:14:06.322+03:00,123,2.05,2025-04-21T09:28:58.093+03:00,0.01174319131481236,0
2025-04-21T11:14:26.975+03:00,1745223264.941439,40.95357315239047,29.14096675058997,92.88309,-1,-1,-1,-1,30,28.58624055947184,-9999,13423.630149875,-0.7557525634765625,0.613067626953125,-0.2427978515625,13423.620073875,-2.35361267200436,-1.263707969291315,-0.6525083024520726,-0.02772426977753639,0.01154129207134247,0.01377798151224852,0.007208764553070068,-0.001529514789581299,0.003352522850036621,XArbitraryZVertical,-0.6158979968889311,0.02403289169436904,-0.63313818562379,0.4682179831931728,-0.7573918104171753,0.6071813106536865,-0.2401841580867767,0,0,0,-1,-1,13417.69023541667,unknown,2,2025-04-21T11:14:16.935+03:00,2025-04-20T21:57:49.637+03:00,1567,1.115866,1.28579,1.378413,1172.329,1,4,2025-04-21T11:14:24.673+03:00,766916064.7796655,0,-46.29,100.2877,1,0.65,2025-04-21T11:14:06.322+03:00,123,2.05,2025-04-21T09:28:58.093+03:00,0.01174319131481236,0
2025-04-21T11:14:26.986+03:00,1745223264.941439,40.95357315239047,29.14096675058997,92.88309,-1,-1,-1,-1,30,28.58624055947184,-9999,13423.640224875,-0.758575439453125,0.599639892578125,-0.2474517822265625,13423.630149875,-2.353974186762396,-1.26383089925984,-0.6527128685977833,-0.0311079490929842,0.005623083095997572,0.005526641849428415,0.007455527782440186,0.01411610841751099,-0.0003791749477386475,XArbitraryZVertical,-0.615944667176181,0.02419504932601121,-0.6331386137507148,0.4681477392351323,-0.75730299949646,0.607343852519989,-0.2400535345077515,0,0,0,-1,-1,13417.69023541667,unknown,2,2025-04-21T11:14:16.935+03:00,2025-04-20T21:57:49.637+03:00,1567,1.115866,1.28579,1.378413,1172.329,1,4,2025-04-21T11:14:24.673+03:00,766916064.7796655,0,-46.29,100.2877,1,0.65,2025-04-21T11:14:06.322+03:00,123,2.05,2025-04-21T09:28:58.093+03:00,0.01174319131481236,0
2025-04-21T11:14:26.996+03:00,1745223264.941439,40.95357315239047,29.14096675058997,92.88309,-1,-1,-1,-1,30,28.58624055947184,-9999,13423.650300875,-0.748626708984375,0.6104583740234375,-0.241668701171875,13423.640224875,-2.354228111880611,-1.264023420216043,-0.6527975191590031,-0.009076150134205818,-0.01130769774317741,-0.001040979288518429,0.001547574996948242,0.005656540393829346,-0.002905607223510742,XArbitraryZVertical,-0.6160075563736205,0.02426117490176933,-0.6331194795469265,0.4680873177299226,-0.757300078868866,0.6074110865592957,-0.2398921698331833,0,0,0,-1,-1,13417.69023541667,unknown,2,2025-04-21T11:14:16.935+03:00,2025-04-20T21:57:49.637+03:00,1567,1.115866,1.28579,1.378413,1172.329,1,4,2025-04-21T11:14:24.673+03:00,766916064.7796655,0,-46.29,100.2877,1,0.65,2025-04-21T11:14:06.322+03:00,123,2.05,2025-04-21T09:28:58.093+03:00,0.01174319131481236,0
2025-04-21T11:14:27.007+03:00,1745223264.941439,40.95357315239047,29.14096675058997,92.88309,-1,-1,-1,-1,30,28.58624055947184,-9999,13423.660376875,-0.7506103515625,0.6104736328125,-0.237823486328125,13423.650300875,-2.35424323263178,-1.264127305185866,-0.6527565384274666,0.004918761551380157,-0.009533765725791454,-0.00185870286077261,-0.001226663589477539,-0.007738709449768066,-0.007630735635757446,XArbitraryZVertical,-0.616037849201866,0.02422560319840026,-0.6331002336704953,0.4680751920849163,-0.7573485970497131,0.6073785424232483,-0.2398209720849991,0,0,0,-1,-1,13417.69023541667,unknown,2,2025-04-21T11:14:16.935+03:00,2025-04-20T21:57:49.637+03:00,1567,1.115866,1.28579,1.378413,1172.329,1,4,2025-04-21T11:14:24.673+03:00,766916064.7796655,0,-46.29,100.2877,1,0.65,2025-04-21T11:14:06.322+03:00,123,2.05,2025-04-21T09:28:58.093+03:00,0.01174319131481236,0
2025-04-21T11:14:27.016+03:00,1745223264.941439,40.95357315239047,29.14096675058997,92.88309,-1,-1,-1,-1,30,28.58624055947184,-9999,13423.670451875,-0.75177001953125,0.6119842529296875,-0.23992919921875,13423.660376875,-2.354186322138235,-1.26416058467834,-0.6526790421510529,0.002188755199313164,-0.01214286498725414,-0.009089184924960136,0.008774995803833008,0.003141403198242188,-0.00185859203338623,XArbitraryZVertical,-0.6160444670137434,0.0241700592340911,-0.6330943858087065,0.4680775063447245,-0.7574016451835632,0.6073169708251953,-0.239810049533844,0,0,0,-1,-1,13417.69023541667,unknown,2,2025-04-21T11:14:16.935+03:00,2025-04-20T21:57:49.637+03:00,1567,1.115866,1.28579,1.378413,1172.329,1,4,2025-04-21T11:14:24.673+03:00,766916064.7796655,0,-46.29,100.2877,1,0.65,2025-04-21T11:14:06.322+03:00,123,2.05,2025-04-21T09:28:58.093+03:00,0.01174319131481236,0
2025-04-21T11:14:27.036+03:00,1745223264.941439,40.95357315239047,29.14096675058997,92.88309,-1,-1,-1,-1,30,28.58624055947184,-9999,13423.680527875,-0.754364013671875,0.6119537353515625,-0.2408294677734375,13423.670451875,-2.3542036332327,-1.264282695344836,-0.6526146893932652,-0.002171771600842476,-0.006836915388703346,-0.01204176526516676,0.006857812404632568,0.003207743167877197,0.001905918121337891,XArbitraryZVertical,-0.6160791139834424,0.02412178667708793,-0.6330753715323721,0.4680600391292178,-0.7574681639671326,0.607265830039978,-0.2397293299436569,0,0,0,-1,-1,13417.69023541667,unknown,2,2025-04-21T11:14:16.935+03:00,2025-04-20T21:57:49.637+03:00,1567,1.115866,1.28579,1.378413,1172.329,1,4,2025-04-21T11:14:24.673+03:00,766916064.7796655,0,-46.29,100.2877,1,0.65,2025-04-21T11:14:06.322+03:00,123,2.05,2025-04-21T09:28:58.093+03:00,0.01174319131481236,0
2025-04-21T11:14:27.038+03:00,1745223264.941439,40.95357315239047,29.14096675058997,92.88309,-1,-1,-1,-1,30,28.58624055947184,-9999,13423.690602875,-0.758392333984375,0.6054840087890625,-0.238372802734375,13423.680527875,-2.354307175367759,-1.264367118835465,-0.652494044464376,-0.007166264113038778,0.009291454218327999,-0.007677110843360424,0.005788207054138184,0.004814207553863525,-0.000241696834564209,XArbitraryZVertical,-0.6160974643192798,0.02408698753105167,-0.6331009154048786,0.4680030640838084,-0.7575581669807434,0.6071699857711792,-0.2396874576807022,0,0,0,-1,-1,13417.69023541667,unknown,2,2025-04-21T11:14:16.935+03:00,2025-04-20T21:57:49.637+03:00,1567,1.115866,1.28579,1.378413,1172.329,1,4,2025-04-21T11:14:24.673+03:00,766916064.7796655,0,-46.29,100.2877,1,0.65,2025-04-21T11:14:06.322+03:00,123,2.05,2025-04-21T09:28:58.093+03:00,0.01174319131481236,0
2025-04-21T11:14:27.046+03:00,1745223264.941439,40.95357315239047,29.14096675058997,92.88309,-1,-1,-1,-1,30,28.58624055947184,-9999,13423.700678875,-0.7596588134765625,0.6067047119140625,-0.2375030517578125,13423.690602875,-2.354386802736771,-1.264295095119659,-0.6523804830150071,-0.001081406837329268,0.01620668545365334,-0.005715658888220787,0.003242671489715576,0.004873871803283691,-0.001066595315933228,XArbitraryZVertical,-0.6160670040097666,0.02408420203908523,-0.6331674088488723,0.4679532306161355,-0.757606565952301,0.6070797443389893,-0.2397627979516983,0,0,0,-1,-1,13417.69023541667,unknown,2,2025-04-21T11:14:16.935+03:00,2025-04-20T21:57:49.637+03:00,1567,1.115866,1.28579,1.378413,1172.329,1,4,2025-04-21T11:14:24.673+03:00,766916064.7796655,0,-46.29,100.2877,1,0.65,2025-04-21T11:14:06.322+03:00,123,2.05,2025-04-21T09:28:58.093+03:00,0.01174319131481236,0
2025-04-21T11:14:27.056+03:00,1745223264.941439,40.95357315239047,29.14096675058997,92.88309,-1,-1,-1,-1,30,28.58624055947184,-9999,13423.710754875,-0.7577972412109375,0.6082000732421875,-0.23663330078125,13423.700678875,-2.354360120323658,-1.264075314766104,-0.6523297030073396,0.009782958775758743,0.02360095083713531,-0.00517903221771121,-0.0008089542388916016,-0.001555442810058594,0.001565873622894287,XArbitraryZVertical,-0.6159947269509176,0.02410760899967036,-0.6332404516121527,0.4679484652265949,-0.7575833201408386,0.6070393919944763,-0.2399386465549469,0,0,0,-1,-1,13417.69023541667,unknown,2,2025-04-21T11:14:16.935+03:00,2025-04-20T21:57:49.637+03:00,1567,1.115866,1.28579,1.378413,1172.329,1,4,2025-04-21T11:14:24.673+03:00,766916064.7796655,0,-46.29,100.2877,1,0.65,2025-04-21T11:14:06.322+03:00,123,2.05,2025-04-21T09:28:58.093+03:00,0.01174319131481236,0
2025-04-21T11:14:27.066+03:00,1745223264.941439,40.95357315239047,29.14096675058997,92.88309,-1,-1,-1,-1,30,28.58624055947184,-9999,13423.720829875,-0.75506591796875,0.6064910888671875,-0.2399139404296875,13423.710754875,-2.354215767830427,-1.263733760756616,-0.6523006331462436,0.0158329289406538,0.02241085097193718,-0.005484463647007942,-0.002140581607818604,-0.0003116726875305176,0.002699747681617737,XArbitraryZVertical,-0.6158865999145714,0.02413176153577941,-0.6333184400248278,0.4679839764608734,-0.7575181126594543,0.6070163249969482,-0.2402027100324631,0,0,0,-1,-1,13417.69023541667,unknown,2,2025-04-21T11:14:16.935+03:00,2025-04-20T21:57:49.637+03:00,1567,1.115866,1.28579,1.378413,1172.329,1,4,2025-04-21T11:14:24.673+03:00,766916064.7796655,0,-46.29,100.2877,1,0.65,2025-04-21T11:14:06.322+03:00,123,2.05,2025-04-21T09:28:58.093+03:00,0.01174319131481236,0
2025-04-21T11:14:27.076+03:00,1745223264.941439,40.95357315239047,29.14096675058997,92.88309,-1,-1,-1,-1,30,28.58624055947184,-9999,13423.730905875,-0.7509002685546875,0.602386474609375,-0.2440185546875,13423.720829875,-2.354076002444695,-1.263460270829192,-0.6522356023842935,0.008168350905179977,0.01268392242491245,-0.00590497674420476,-0.0003071427345275879,0.001235485076904297,0.003788560628890991,XArbitraryZVertical,-0.6157978084639636,0.0241273639570589,-0.6333847905517414,0.4680114155172492,-0.7574901580810547,0.606964647769928,-0.240421861410141,0,0,0,-1,-1,13417.69023541667,unknown,2,2025-04-21T11:14:16.935+03:00,2025-04-20T21:57:49.637+03:00,1567,1.115866,1.28579,1.378413,1172.329,1,4,2025-04-21T11:14:24.673+03:00,766916064.7796655,0,-46.29,100.2877,1,0.65,2025-04-21T11:14:06.322+03:00,123,2.05,2025-04-21T09:28:58.093+03:00,0.01174319131481236,0
2025-04-21T11:14:27.086+03:00,1745223264.941439,40.95357315239047,29.14096675058997,92.88309,-1,-1,-1,-1,30,28.58624055947184,-9999,13423.740981875,-0.75341796875,0.598846435546875,-0.2415313720703125,13423.730905875,-2.353982781307934,-1.263271799856859,-0.65213874575926,0.003692575730383396,0.01003827154636383,-0.00255981320515275,0.002434849739074707,-0.0003966093063354492,0.0006684958934783936,XArbitraryZVertical,-0.6157335250357252,0.02410513514242322,-0.6334427872239069,0.4680183632515915,-0.7575006484985352,0.6068876385688782,-0.2405823320150375,0,0,0,-1,-1,13417.69023541667,unknown,2,2025-04-21T11:14:16.935+03:00,2025-04-20T21:57:49.637+03:00,1567,1.115866,1.28579,1.378413,1172.329,1,4,2025-04-21T11:14:24.673+03:00,766916064.7796655,0,-46.29,100.2877,1,0.65,2025-04-21T11:14:06.322+03:00,123,2.05,2025-04-21T09:28:58.093+03:00,0.01174319131481236,0
2025-04-21T11:14:27.096+03:00,1745223264.941439,40.95357315239047,29.14096675058997,92.88309,-1,-1,-1,-1,30,28.58624055947184,-9999,13423.751056875,-0.754913330078125,0.601593017578125,-0.2406463623046875,13423.740981875,-2.353925830347051,-1.26312120996539,-0.6521192386783203,0.005127220880240202,0.01042070053517818,-0.002918274607509375,0.006575524806976318,-0.004485726356506348,-0.003318488597869873,XArbitraryZVertical,-0.6156853511263113,0.02411523252547581,-0.6334802782944142,0.468030535057757,-0.757475733757019,0.6068721413612366,-0.2407000064849854,0,0,0,-1,-1,13417.69023541667,unknown,2,2025-04-21T11:14:16.935+03:00,2025-04-20T21:57:49.637+03:00,1567,1.115866,1.28579,1.378413,1172.329,1,4,2025-04-21T11:14:24.673+03:00,766916064.7796655,0,-46.29,100.2877,1,0.65,2025-04-21T11:14:06.322+03:00,123,2.05,2025-04-21T09:28:58.093+03:00,0.01174319131481236,0
2025-04-21T11:14:27.106+03:00,1745223264.941439,40.95357315239047,29.14096675058997,92.88309,-1,-1,-1,-1,30,28.58624055947184,-9999,13423.761132875,-0.7535552978515625,0.603973388671875,-0.2416534423828125,13423.751056875,-2.353921702865699,-1.263015842039904,-0.6521093983841626,0.002802547300234437,0.01037835702300072,-0.002768338657915592,0.004038155078887939,-0.008017957210540771,-0.0007497072219848633,XArbitraryZVertical,-0.6156514418136074,0.02413478971146193,-0.6335139762797268,0.4680285171356412,-0.7574560642242432,0.606864333152771,-0.2407816350460052,0,0,0,-1,-1,13417.69023541667,unknown,2,2025-04-21T11:14:16.935+03:00,2025-04-20T21:57:49.637+03:00,1567,1.115866,1.28579,1.378413,1172.329,1,4,2025-04-21T11:14:24.673+03:00,766916064.7796655,0,-46.29,100.2877,1,0.65,2025-04-21T11:14:06.322+03:00,123,2.05,2025-04-21T09:28:58.093+03:00,0.01174319131481236,0
2025-04-21T11:14:27.117+03:00,1745223264.941439,40.95357315239047,29.14096675058997,92.88309,-1,-1,-1,-1,30,28.58624055947184,-9999,13423.771207875,-0.75091552734375,0.60394287109375,-0.24127197265625,13423.761132875,-2.353895726604945,-1.262943006348841,-0.6521122573010469,0.001475494122132659,0.0009981710463762283,-0.002349157352000475,0.002523660659790039,-0.005273580551147461,0.0001899600028991699,XArbitraryZVertical,-0.6156288444696127,0.02414492740930876,-0.6335297257392301,0.4680364922309191,-0.7574369311332703,0.6068665981292725,-0.2408362925052643,0,0,0,-1,-1,13417.69023541667,unknown,2,2025-04-21T11:14:16.935+03:00,2025-04-20T21:57:49.637+03:00,1567,1.115866,1.28579,1.378413,1172.329,1,4,2025-04-21T11:14:24.673+03:00,766916064.7796655,0,-46.29,100.2877,1,0.65,2025-04-21T11:14:06.322+03:00,123,2.05,2025-04-21T09:28:58.093+03:00,0.01174319131481236,0
2025-04-21T11:14:27.127+03:00,1745223264.941439,40.95357315239047,29.14096675058997,92.88309,-1,-1,-1,-1,30,28.58624055947184,-9999,13423.781283875,-0.752777099609375,0.605499267578125,-0.2439117431640625,13423.771207875,-2.353940114893597,-1.262951141174652,-0.6521105681406123,-0.008679937571287155,0.001257563009858131,-0.005007258616387844,0.003884613513946533,-0.002891898155212402,-0.0008229613304138184,XArbitraryZVertical,-0.6156307881164241,0.02415603770302774,-0.6335379729548745,0.4680221672570594,-0.7574398517608643,0.6068652272224426,-0.2408304363489151,0,0,0,-1,-1,13417.69023541667,unknown,2,2025-04-21T11:14:16.935+03:00,2025-04-20T21:57:49.637+03:00,1567,1.115866,1.28579,1.378413,1172.329,1,4,2025-04-21T11:14:24.673+03:00,766916064.7796655,0,-46.29,100.2877,1,0.65,2025-04-21T11:14:06.322+03:00,123,2.05,2025-04-21T09:28:58.093+03:00,0.01174319131481236,0
2025-04-21T11:14:27.137+03:00,1745223264.941439,40.95357315239047,29.14096675058997,92.88309,-1,-1,-1,-1,30,28.58624055947184,-9999,13423.791359875,-0.75537109375,0.6087493896484375,-0.242431640625,13423.781283875,-2.354128770997593,-1.263085720405723,-0.6520852015249722,-0.01310504600405693,-0.006259741727262735,-0.007408098317682743,0.006571531295776367,-0.00290226936340332,-0.0005387663841247559,XArbitraryZVertical,-0.6156696249518432,0.02417272175354754,-0.6335464923123215,0.4679587675623327,-0.7574869990348816,0.6068450808525085,-0.2407331913709641,0,0,0,-1,-1,13417.69023541667,unknown,2,2025-04-21T11:14:16.935+03:00,2025-04-20T21:57:49.637+03:00,1567,1.115866,1.28579,1.378413,1172.329,1,4,2025-04-21T11:14:24.673+03:00,766916064.7796655,0,-46.29,100.2877,1,0.65,2025-04-21T11:14:06.322+03:00,123,2.05,2025-04-21T09:28:58.093+03:00,0.01174319131481236,0
2025-04-21T11:14:27.147+03:00,1745223264.941439,40.95357315239047,29.14096675058997,92.88309,-1,-1,-1,-1,30,28.58624055947184,-9999,13423.801434875,-0.759735107421875,0.6097869873046875,-0.2422027587890625,13423.791359875,-2.354231268196406,-1.263154056620891,-0.6520630639140681,-0.004115213174372911,0.01196460239589214,-0.002448193728923798,0.004739224910736084,-0.00132828950881958,-0.003226220607757568,XArbitraryZVertical,-0.6156887186752762,0.0241796647937655,-0.6335544600993507,0.4679225085639519,-0.7575162649154663,0.6068274974822998,-0.2406854927539825,0,0,0,-1,-1,13417.69023541667,unknown,2,2025-04-21T11:14:16.935+03:00,2025-04-20T21:57:49.637+03:00,1567,1.115866,1.28579,1.378413,1172.329,1,4,2025-04-21T11:14:24.673+03:00,766916064.7796655,0,-46.29,100.2877,1,0.65,2025-04-21T11:14:06.322+03:00,123,2.05,2025-04-21T09:28:58.093+03:00,0.01174319131481236,0
2025-04-21T11:14:27.157+03:00,1745223264.941439,40.95357315239047,29.14096675058997,92.88309,-1,-1,-1,-1,30,28.58624055947184,-9999,13423.811510875,-0.7581329345703125,0.60552978515625,-0.23748779296875,13423.801434875,-2.354317358035826,-1.263061479767624,-0.6520460488922124,-0.006482496857643127,0.01687520369887352,-0.007585430983453989,0.002132713794708252,0.001935482025146484,-0.001672834157943726,XArbitraryZVertical,-0.6156573316056649,0.02422117837111576,-0.6336070078971214,0.467890592653123,-0.757503867149353,0.6068139672279358,-0.2407587617635727,0,0,0,-1,-1,13417.69023541667,unknown,2,2025-04-21T11:14:16.935+03:00,2025-04-20T21:57:49.637+03:00,1567,1.115866,1.28579,1.378413,1172.329,1,4,2025-04-21T11:14:24.673+03:00,766916064.7796655,0,-46.29,100.2877,1,0.65,2025-04-21T11:14:06.322+03:00,123,2.05,2025-04-21T09:28:58.093+03:00,0.01174319131481236,0
2025-04-21T11:14:27.167+03:00,1745223264.941439,40.95357315239047,29.14096675058997,92.88309,-1,-1,-1,-1,30,28.58624055947184,-9999,13423.821586875,-0.7505645751953125,0.6085357666015625,-0.2301177978515625,13423.811510875,-2.354389149180458,-1.262992464031863,-0.6519997571721869,-0.004704237915575504,0.009105498902499676,-0.003823816310614347,-0.002221167087554932,0.00300973653793335,-0.001383170485496521,XArbitraryZVertical,-0.6156318715258341,0.02424145488353213,-0.6336554089442822,0.4678572841260433,-0.7575138211250305,0.6067771911621094,-0.2408194988965988,0,0,0,-1,-1,13417.69023541667,unknown,2,2025-04-21T11:14:16.935+03:00,2025-04-20T21:57:49.637+03:00,1567,1.115866,1.28579,1.378413,1172.329,1,4,2025-04-21T11:14:24.673+03:00,766916064.7796655,0,-46.29,100.2877,1,0.65,2025-04-21T11:14:06.322+03:00,123,2.05,2025-04-21T09:28:58.093+03:00,0.01174319131481236,0
2025-04-21T11:14:27.177+03:00,1745223264.941439,40.95357315239047,29.14096675058997,92.88309,-1,-1,-1,-1,30,28.58624055947184,-9999,13423.831661875,-0.756011962890625,0.6036834716796875,-0.238372802734375,13423.821586875,-2.354455498710055,-1.262902619642178,-0.6519749523947784,-0.006292813457548618,0.01567365229129791,-0.003980409819632769,-0.0006262660026550293,-0.001227736473083496,0.003404393792152405,XArbitraryZVertical,-0.6156011314427012,0.02427324311547929,-0.6337041904522929,0.4678299883618359,-0.7575065493583679,0.6067574620246887,-0.2408921122550964,0,0,0,-1,-1,13417.69023541667,unknown,2,2025-04-21T11:14:16.935+03:00,2025-04-20T21:57:49.637+03:00,1567,1.115866,1.28579,1.378413,1172.329,1,4,2025-04-21T11:14:24.673+03:00,766916064.7796655,0,-46.29,100.2877,1,0.65,2025-04-21T11:14:06.322+03:00,123,2.05,2025-04-21T09:28:58.093+03:00,0.01174319131481236,0
2025-04-21T11:14:27.187+03:00,1745223264.941439,40.95357315239047,29.14096675058997,92.88309,-1,-1,-1,-1,30,28.58624055947184,-9999,13423.841737875,-0.7507476806640625,0.5992279052734375,-0.24627685546875,13423.831661875,-2.35460879046363,-1.262823526346058,-0.6519703895189349,-0.01619584485888481,0.01743979379534721,-0.00168200209736824,0.006925642490386963,0.001781880855560303,0.01083517074584961,XArbitraryZVertical,-0.6155739263091744,0.02433712397557975,-0.63376548215213,0.4677795324500734,-0.7574902176856995,0.6067538261413574,-0.2409528940916061,0,0,0,-1,-1,13417.69023541667,unknown,2,2025-04-21T11:14:16.935+03:00,2025-04-20T21:57:49.637+03:00,1567,1.115866,1.28579,1.378413,1172.329,1,4,2025-04-21T11:14:24.673+03:00,766916064.7796655,0,-46.29,100.2877,1,0.65,2025-04-21T11:14:06.322+03:00,123,2.05,2025-04-21T09:28:58.093+03:00,0.01174319131481236,0
2025-04-21T11:14:27.197+03:00,1745223264.941439,40.95357315239047,29.14096675058997,92.88309,-1,-1,-1,-1,30,28.58624055947184,-9999,13423.851813875,-0.7454986572265625,0.6002197265625,-0.243621826171875,13423.841737875,-2.354888235792644,-1.262898181645598,-0.6520141897149794,-0.02661972306668758,0.004027317278087139,-0.00244952505454421,0.001470983028411865,-0.003105223178863525,0.002515554428100586,XArbitraryZVertical,-0.6155967673957269,0.02442271395331967,-0.6337979708233852,0.4677010490063059,-0.7574828863143921,0.6067886352539062,-0.2408882975578308,0,0,0,-1,-1,13417.69023541667,unknown,2,2025-04-21T11:14:16.935+03:00,2025-04-20T21:57:49.637+03:00,1567,1.115866,1.28579,1.378413,1172.329,1,4,2025-04-21T11:14:24.673+03:00,766916064.7796655,0,-46.29,100.2877,1,0.65,2025-04-21T11:14:06.322+03:00,123,2.05,2025-04-21T09:28:58.093+03:00,0.01174319131481236,0
2025-04-21T11:14:27.207+03:00,1745223264.941439,40.95357315239047,29.14096675058997,92.88309,-1,-1,-1,-1,30,28.58624055947184,-9999,13423.861888875,-0.7501068115234375,0.6018829345703125,-0.2465057373046875,13423.851813875,-2.355228145108193,-1.263046205047023,-0.6520737475450878,-0.02733751200139523,0.005230999086052179,-0.002206012373790145,0.006736397743225098,-0.00760805606842041,-0.005511611700057983,XArbitraryZVertical,-0.6156430389411476,0.02451590832266296,-0.6338184200447169,0.4676075867988603,-0.7574841380119324,0.6068359613418579,-0.240765243768692,0,0,0,-1,-1,13417.69023541667,unknown,2,2025-04-21T11:14:16.935+03:00,2025-04-20T21:57:49.637+03:00,1567,1.115866,1.28579,1.378413,1172.329,1,4,2025-04-21T11:14:24.673+03:00,766916064.7796655,0,-46.29,100.2877,1,0.65,2025-04-21T11:14:06.322+03:00,123,2.05,2025-04-21T09:28:58.093+03:00,0.01174319131481236,0
2025-04-21T11:14:27.217+03:00,1745223264.941439,40.95357315239047,29.14096675058997,92.88309,-1,-1,-1,-1,30,28.58624055947184,-9999,13423.871964875,-0.75262451171875,0.610107421875,-0.248077392578125,13423.861888875,-2.355546172964081,-1.263139179216162,-0.6521454666734726,-0.02480963990092278,0.01094481162726879,-0.0002126363397110254,0.01196640729904175,-0.006673336029052734,-0.002940177917480469,XArbitraryZVertical,-0.6156728362877789,0.02461999608951904,-0.6338479007546736,0.4675229141469239,-0.7574650645256042,0.606893002986908,-0.2406816333532333,0,0,0,-1,-1,13417.69023541667,unknown,2,2025-04-21T11:14:16.935+03:00,2025-04-20T21:57:49.637+03:00,1567,1.115866,1.28579,1.378413,1172.329,1,4,2025-04-21T11:14:24.673+03:00,766916064.7796655,0,-46.29,100.2877,1,0.65,2025-04-21T11:14:06.322+03:00,123,2.05,2025-04-21T09:28:58.093+03:00,0.01174319131481236,0
2025-04-21T11:14:27.227+03:00,1745223264.941439,40.95357315239047,29.14096675058997,92.88309,-1,-1,-1,-1,30,28.58624055947184,-9999,13423.882039875,-0.7522125244140625,0.6165618896484375,-0.248748779296875,13423.871964875,-2.355745894363387,-1.263155004655236,-0.6521999104995317,-0.01463150419294834,0.009040984325110912,-0.0006919719744473696,0.007330477237701416,-0.005053341388702393,-0.0058460533618927,XArbitraryZVertical,-0.6156786029166463,0.0246989757699901,-0.6338773841935714,0.4674711821764087,-0.7574373483657837,0.6069362759590149,-0.2406596392393112,0,0,0,-1,-1,13417.69023541667,unknown,2,2025-04-21T11:14:16.935+03:00,2025-04-20T21:57:49.637+03:00,1567,1.115866,1.28579,1.378413,1172.329,1,4,2025-04-21T11:14:24.673+03:00,766916064.7796655,0,-46.29,100.2877,1,0.65,2025-04-21T11:14:06.322+03:00,123,2.05,2025-04-21T09:28:58.093+03:00,0.01174319131481236,0
2025-04-21T11:14:27.237+03:00,1745223264.941439,40.95357315239047,29.14096675058997,92.88309,-1,-1,-1,-1,30,28.58624055947184,-9999,13423.892115875,-0.75469970703125,0.61468505859375,-0.247833251953125,13423.882039875,-2.355898027914232,-1.263152639283765,-0.6522430066920063,-0.01177286729216576,0.009365357458591461,-0.001135122030973434,0.0047873854637146,0.003136873245239258,-0.007423877716064453,XArbitraryZVertical,-0.6156785184709272,0.02476315232823452,-0.633903882948512,0.4674319219032427,-0.7574118375778198,0.606970489025116,-0.2406534999608994,0,0,0,-1,-1,13417.69023541667,unknown,2,2025-04-21T11:14:16.935+03:00,2025-04-20T21:57:49.637+03:00,1567,1.115866,1.28579,1.378413,1172.329,1,4,2025-04-21T11:14:24.673+03:00,766916064.7796655,0,-46.29,100.2877,1,0.65,2025-04-21T11:14:06.322+03:00,123,2.05,2025-04-21T09:28:58.093+03:00,0.01174319131481236,0
2025-04-21T11:14:27.247+03:00,1745223264.941439,40.95357315239047,29.14096675058997,92.88309,-1,-1,-1,-1,30,28.58624055947184,-9999,13423.902191875,-0.7574310302734375,0.6120452880859375,-0.244537353515625,13423.892115875,-2.356057652923631,-1.263123789646711,-0.6522442641173016,-0.01154343597590923,0.01629024185240269,-0.005556035786867142,0.005191683769226074,0.009590327739715576,-0.008073627948760986,XArbitraryZVertical,-0.6156674692043215,0.02481952137069713,-0.6339497868646835,0.4673812331195359,-0.7574041485786438,0.6069715023040771,-0.2406751215457916,0,0,0,-1,-1,13417.69023541667,unknown,2,2025-04-21T11:14:16.935+03:00,2025-04-20T21:57:49.637+03:00,1567,1.115866,1.28579,1.378413,1172.329,1,4,2025-04-21T11:14:24.673+03:00,766916064.7796655,0,-46.29,100.2877,1,0.65,2025-04-21T11:14:06.322+03:00,123,2.05,2025-04-21T09:28:58.093+03:00,0.01174319131481236,0
2025-04-21T11:14:27.258+03:00,1745223264.941439,40.95357315239047,29.14096675058997,92.88309,-1,-1,-1,-1,30,28.58624055947184,-9999,13423.912266875,-0.75433349609375,0.6119842529296875,-0.242919921875,13423.902191875,-2.356177385952678,-1.263065394847502,-0.6522191663932424,-0.004703638609498739,0.01340151112526655,-0.002951996866613626,0.002704918384552002,0.007733464241027832,-0.007109284400939941,XArbitraryZVertical,-0.6156459974469775,0.02486026482520844,-0.6340013949775194,0.46733729590287,-0.7574045658111572,0.6069515347480774,-0.2407239526510239,0,0,0,-1,-1,13417.69023541667,unknown,2,2025-04-21T11:14:16.935+03:00,2025-04-20T21:57:49.637+03:00,1567,1.115866,1.28579,1.378413,1172.329,1,4,2025-04-21T11:14:24.673+03:00,766916064.7796655,0,-46.29,100.2877,1,0.65,2025-04-21T11:14:06.322+03:00,123,2.05,2025-04-21T09:28:58.093+03:00,0.01174319131481236,0
2025-04-21T11:14:27.268+03:00,1745223264.941439,40.95357315239047,29.14096675058997,92.88309,-1,-1,-1,-1,30,28.58624055947184,-9999,13423.922342875,-0.7574005126953125,0.6109619140625,-0.2422332763671875,13423.912266875,-2.35625641048051,-1.262981022851451,-0.6522310347716553,-0.005380614195019007,0.01972838304936886,-0.002257577842101455,-5.358457565307617e-05,0.00508415699005127,-0.003751620650291443,XArbitraryZVertical,-0.6156189724688198,0.02490894093165887,-0.6340431082321268,0.4673136548787791,-0.7573773860931396,0.6069610118865967,-0.2407856434583664,0,0,0,-1,-1,13417.69023541667,unknown,2,2025-04-21T11:14:16.935+03:00,2025-04-20T21:57:49.637+03:00,1567,1.115866,1.28579,1.378413,1172.329,1,4,2025-04-21T11:14:24.673+03:00,766916064.7796655,0,-46.29,100.2877,1,0.65,2025-04-21T11:14:06.322+03:00,123,2.05,2025-04-21T09:28:58.093+03:00,0.01174319131481236,0
2025-04-21T11:14:27.278+03:00,1745223264.941439,40.95357315239047,29.14096675058997,92.88309,-1,-1,-1,-1,30,28.58624055947184,-9999,13423.932418875,-0.7564544677734375,0.607330322265625,-0.2466583251953125,13423.922342875,-2.356306000830256,-1.262793392119449,-0.6522606441849623,-0.003070588456466794,0.02362991496920586,0.00502749951556325,0.002981662750244141,0.004999697208404541,-0.001997530460357666,XArbitraryZVertical,-0.6155606052877887,0.02497955541168754,-0.6341057883806106,0.4673018007569802,-0.7573150992393494,0.6069844961166382,-0.2409223318099976,0,0,0,-1,-1,13417.69023541667,unknown,2,2025-04-21T11:14:16.935+03:00,2025-04-20T21:57:49.637+03:00,1567,1.115866,1.28579,1.378413,1172.329,1,4,2025-04-21T11:14:24.673+03:00,766916064.7796655,0,-46.29,100.2877,1,0.65,2025-04-21T11:14:06.322+03:00,123,2.05,2025-04-21T09:28:58.093+03:00,0.01174319131481236,0
2025-04-21T11:14:27.288+03:00,1745223264.941439,40.95357315239047,29.14096675058997,92.88309,-1,-1,-1,-1,30,28.58624055947184,-9999,13423.942493875,-0.747467041015625,0.6049041748046875,-0.250396728515625,13423.932418875,-2.356286626874598,-1.262564932072388,-0.6522887361463543,-0.0003248693537898362,0.01479940395802259,0.001015180721879005,-0.000156700611114502,0.00395500659942627,-0.001143038272857666,XArbitraryZVertical,-0.6154900666438139,0.02503791446130114,-0.6341652083437362,0.4673109506774002,-0.757243812084198,0.607006847858429,-0.2410901635885239,0,0,0,-1,-1,13417.69023541667,unknown,2,2025-04-21T11:14:16.935+03:00,2025-04-20T21:57:49.637+03:00,1567,1.115866,1.28579,1.378413,1172.329,1,4,2025-04-21T11:14:24.673+03:00,766916064.7796655,0,-46.29,100.2877,1,0.65,2025-04-21T11:14:06.322+03:00,123,2.05,2025-04-21T09:28:58.093+03:00,0.01174319131481236,0
2025-04-21T11:14:27.298+03:00,1745223264.941439,40.95357315239047,29.14096675058997,92.88309,-1,-1,-1,-1,30,28.58624055947184,-9999,13423.952569875,-0.746307373046875,0.6051025390625,-0.2496185302734375,13423.942493875,-2.356286517207864,-1.2624084672975,-0.6523226781426814,-0.003736911341547966,0.01540740393102169,0.00337207829579711,0.0007320642471313477,0.000296473503112793,-0.005455851554870605,XArbitraryZVertical,-0.6154424476088259,0.02508763768052485,-0.6342056943682611,0.4673161356981692,-0.7571864724159241,0.6070337891578674,-0.2412024140357971,0,0,0,-1,-1,13417.69023541667,unknown,2,2025-04-21T11:14:16.935+03:00,2025-04-20T21:57:49.637+03:00,1567,1.115866,1.28579,1.378413,1172.329,1,4,2025-04-21T11:14:24.673+03:00,766916064.7796655,0,-46.29,100.2877,1,0.65,2025-04-21T11:14:06.322+03:00,123,2.05,2025-04-21T09:28:58.093+03:00,0.01174319131481236,0
2025-04-21T11:14:27.308+03:00,1745223264.941439,40.95357315239047,29.14096675058997,92.88309,-1,-1,-1,-1,30,28.58624055947184,-9999,13423.962645875,-0.74749755859375,0.605072021484375,-0.248199462890625,13423.952569875,-2.356274655193794,-1.262241717385259,-0.6523596014823286,-0.00199866620823741,0.01269524078816175,0.006220595445483923,0.009657859802246094,-0.002159059047698975,-0.009074851870536804,XArbitraryZVertical,-0.6153919071335127,0.02513736085514594,-0.6342458014758745,0.4673254733434045,-0.7571247816085815,0.6070631742477417,-0.2413218319416046,0,0,0,-1,-1,13417.69023541667,unknown,2,2025-04-21T11:14:16.935+03:00,2025-04-20T21:57:49.637+03:00,1567,1.115866,1.28579,1.378413,1172.329,1,4,2025-04-21T11:14:24.673+03:00,766916064.7796655,0,-46.29,100.2877,1,0.65,2025-04-21T11:14:06.322+03:00,123,2.05,2025-04-21T09:28:58.093+03:00,0.01174319131481236,0
2025-04-21T11:14:27.318+03:00,1745223264.941439,40.95357315239047,29.14096675058997,92.88309,-1,-1,-1,-1,30,28.58624055947184,-9999,13423.972720875,-0.7443084716796875,0.604156494140625,-0.246978759765625,13423.962645875,-2.356299134657341,-1.262140635353874,-0.6524195919376389,-0.003103079041466117,0.00498272618278861,0.003673814702779055,0.01075845956802368,-0.002008318901062012,-0.008231163024902344,XArbitraryZVertical,-0.6153630752539,0.02519186047118669,-0.634269076900822,0.4673289780009811,-0.7570657730102539,0.607110857963562,-0.2413873076438904,0,0,0,-1,-1,13417.69023541667,unknown,2,2025-04-21T11:14:16.935+03:00,2025-04-20T21:57:49.637+03:00,1567,1.115866,1.28579,1.378413,1172.329,1,4,2025-04-21T11:14:24.673+03:00,766916064.7796655,0,-46.29,100.2877,1,0.65,2025-04-21T11:14:06.322+03:00,123,2.05,2025-04-21T09:28:58.093+03:00,0.01174319131481236,0
2025-04-21T11:14:27.328+03:00,1745223264.941439,40.95357315239047,29.14096675058997,92.88309,-1,-1,-1,-1,30,28.58624055947184,-9999,13423.982796875,-0.744140625,0.602935791015625,-0.248077392578125,13423.972720875,-2.356329211641203,-1.262131562508745,-0.652501875965507,-0.007901296019554138,-0.001758000813424587,0.002894040895625949,0.009518444538116455,-0.002104222774505615,-0.006820440292358398,XArbitraryZVertical,-0.6153646731755859,0.02523528757118741,-0.6342602514681471,0.467336489991218,-0.7570159435272217,0.6071761846542358,-0.2413789927959442,0,0,0,-1,-1,13417.69023541667,unknown,2,2025-04-21T11:14:16.935+03:00,2025-04-20T21:57:49.637+03:00,1567,1.115866,1.28579,1.378413,1172.329,1,4,2025-04-21T11:14:24.673+03:00,766916064.7796655,0,-46.29,100.2877,1,0.65,2025-04-21T11:14:06.322+03:00,123,2.05,2025-04-21T09:28:58.093+03:00,0.01174319131481236,0
2025-04-21T11:14:27.338+03:00,1745223264.941439,40.95357315239047,29.14096675058997,92.88309,-1,-1,-1,-1,30,28.58624055947184,-9999,13423.992871875,-0.7491912841796875,0.6073455810546875,-0.2451629638671875,13423.982796875,-2.356396704194293,-1.262172512265087,-0.6525753795942364,-0.009137269109487534,-0.001315383706241846,0.003206962486729026,0.01267486810684204,-0.003078162670135498,-0.005644261837005615,XArbitraryZVertical,-0.6153811420771325,0.02527511869520568,-0.634246765158954,0.4673309357375808,-0.7569832801818848,0.6072345972061157,-0.2413344383239746,0,0,0,-1,-1,13417.69023541667,unknown,2,2025-04-21T11:14:16.935+03:00,2025-04-20T21:57:49.637+03:00,1567,1.115866,1.28579,1.378413,1172.329,1,4,2025-04-21T11:14:24.673+03:00,766916064.7796655,0,-46.29,100.2877,1,0.65,2025-04-21T11:14:06.322+03:00,123,2.05,2025-04-21T09:28:58.093+03:00,0.01174319131481236,0
2025-04-21T11:14:27.348+03:00,1745223264.941439,40.95357315239047,29.14096675058997,92.88309,-1,-1,-1,-1,30,28.58624055947184,-9999,13424.002947875,-0.75164794921875,0.610107421875,-0.24188232421875,13423.992871875,-2.356493922414682,-1.262281016102976,-0.652633716407516,-0.01018735393881798,-0.008596998639404774,0.0006077171419747174,0.01283514499664307,-0.004345238208770752,-0.006835818290710449,XArbitraryZVertical,-0.6154177610044694,0.02530240767883412,-0.6342228660736607,0.4673136434809659,-0.7569757103919983,0.607280969619751,-0.241241529583931,0,0,0,-1,-1,13417.69023541667,unknown,2,2025-04-21T11:14:16.935+03:00,2025-04-20T21:57:49.637+03:00,1567,1.115866,1.28579,1.378413,1172.329,1,4,2025-04-21T11:14:24.673+03:00,766916064.7796655,0,-46.29,100.2877,1,0.65,2025-04-21T11:14:06.322+03:00,123,2.05,2025-04-21T09:28:58.093+03:00,0.01174319131481236,0
2025-04-21T11:14:27.359+03:00,1745223264.941439,40.95357315239047,29.14096675058997,92.88309,-1,-1,-1,-1,30,28.58624055947184,-9999,13424.013023875,-0.7583770751953125,0.6103973388671875,-0.2407073974609375,13424.002947875,-2.356603280099827,-1.262381966542833,-0.6526849561102055,-0.005793670658022165,0.001688129501417279,0.001608533086255193,0.007779240608215332,2.384185791015625e-05,-0.004007220268249512,XArbitraryZVertical,-0.6154513946704006,0.02533239949302267,-0.6342058156750736,0.467290972651278,-0.7569705247879028,0.6073216795921326,-0.2411556988954544,0,0,0,-1,-1,13417.69023541667,unknown,2,2025-04-21T11:14:16.935+03:00,2025-04-20T21:57:49.637+03:00,1567,1.115866,1.28579,1.378413,1172.329,1,4,2025-04-21T11:14:24.673+03:00,766916064.7796655,0,-46.29,100.2877,1,0.65,2025-04-21T11:14:06.322+03:00,123,2.05,2025-04-21T09:28:58.093+03:00,0.01174319131481236,0
2025-04-21T11:14:27.369+03:00,1745223264.941439,40.95357315239047,29.14096675058997,92.88309,-1,-1,-1,-1,30,28.58624055947184,-9999,13424.023098875,-0.7603607177734375,0.6116485595703125,-0.241424560546875,13424.013023875,-2.356610198717309,-1.262339650929083,-0.6527206991907578,0.002100271638482809,0.008112006820738316,0.002708452055230737,0.005291581153869629,0.002757370471954346,-0.0007011592388153076,XArbitraryZVertical,-0.6154399908780424,0.02535833283353396,-0.6342123665589928,0.4672957069119655,-0.7569396495819092,0.6073500514030457,-0.2411811500787735,0,0,0,-1,-1,13417.69023541667,unknown,2,2025-04-21T11:14:16.935+03:00,2025-04-20T21:57:49.637+03:00,1567,1.115866,0,0,1172.329,1,4,2025-04-21T11:14:27.253+03:00,766916067.3515623,0,-46.27,100.2868,1,0.65,2025-04-21T11:14:06.322+03:00,123,2.05,2025-04-21T09:28:58.093+03:00,0.01174319131481236,0
2025-04-21T11:14:27.379+03:00,1745223264.941439,40.95357315239047,29.14096675058997,92.88309,-1,-1,-1,-1,30,28.58624055947184,-9999,13424.033174875,-0.756805419921875,0.612152099609375,-0.23931884765625,13424.023098875,-2.356484669478031,-1.262164237424184,-0.6527427820031859,0.01171588059514761,0.008383914828300476,0.00558013841509819,-0.001492559909820557,0.003029704093933105,0.0006024837493896484,XArbitraryZVertical,-0.6153872648867931,0.02536931393707868,-0.6342319640405429,0.4673378733696473,-0.7568844556808472,0.6073676347732544,-0.2413098216056824,0,0,0,-1,-1,13417.69023541667,unknown,2,2025-04-21T11:14:16.935+03:00,2025-04-20T21:57:49.637+03:00,1567,1.115866,0,0,1172.329,1,4,2025-04-21T11:14:27.253+03:00,766916067.3515623,0,-46.27,100.2868,1,0.65,2025-04-21T11:14:06.322+03:00,123,2.05,2025-04-21T09:28:58.093+03:00,0.01174319131481236,0
2025-04-21T11:14:27.388+03:00,1745223264.941439,40.95357315239047,29.14096675058997,92.88309,-1,-1,-1,-1,30,28.58624055947184,-9999,13424.043250875,-0.753509521484375,0.6143951416015625,-0.2453460693359375,13424.033174875,-2.35626678120888,-1.261934751871293,-0.6527590615499577,0.01340985111892223,0.003273243084549904,0.004544002003967762,-0.003541111946105957,0.004267990589141846,5.59389591217041e-05,XArbitraryZVertical,-0.6153182116617871,0.02536223926913014,-0.6342479758860536,0.4674074608396043,-0.7568196654319763,0.6073805689811707,-0.2414805144071579,0,0,0,-1,-1,13417.69023541667,unknown,2,2025-04-21T11:14:16.935+03:00,2025-04-20T21:57:49.637+03:00,1567,1.115866,0,0,1172.329,1,4,2025-04-21T11:14:27.253+03:00,766916067.3515623,0,-46.27,100.2868,1,0.65,2025-04-21T11:14:06.322+03:00,123,2.05,2025-04-21T09:28:58.093+03:00,0.01174319131481236,0
