loggingTime(txt),locationTimestamp_since1970(s),locationLatitude(WGS84),locationLongitude(WGS84),locationAltitude(m),locationSpeed(m/s),locationSpeedAccuracy(m/s),locationCourse(°),locationCourseAccuracy(°),locationVerticalAccuracy(m),locationHorizontalAccuracy(m),locationFloor(Z),accelerometerTimestamp_sinceReboot(s),accelerometerAccelerationX(G),accelerometerAccelerationY(G),accelerometerAccelerationZ(G),motionTimestamp_sinceReboot(s),motionYaw(rad),motionRoll(rad),motionPitch(rad),motionRotationRateX(rad/s),motionRotationRateY(rad/s),motionRotationRateZ(rad/s),motionUserAccelerationX(G),motionUserAccelerationY(G),motionUserAccelerationZ(G),motionAttitudeReferenceFrame(txt),motionQuaternionX(R),motionQuaternionY(R),motionQuaternionZ(R),motionQuaternionW(R),motionGravityX(G),motionGravityY(G),motionGravityZ(G),motionMagneticFieldX(µT),motionMagneticFieldY(µT),motionMagneticFieldZ(µT),motionHeading(°),motionMagneticFieldCalibrationAccuracy(Z),activityTimestamp_sinceReboot(s),activity(txt),activityActivityConfidence(Z),activityActivityStartDate(txt),pedometerStartDate(txt),pedometerNumberofSteps(N),pedometerAverageActivePace(s/m),pedometerCurrentPace(s/m),pedometerCurrentCadence(steps/s),pedometerDistance(m),pedometerFloorAscended(N),pedometerFloorDescended(N),pedometerEndDate(txt),altimeterTimestamp_sinceReboot(s),altimeterReset(bool),altimeterRelativeAltitude(m),altimeterPressure(kPa),batteryState(N),batteryLevel(R),heartRateBPMTimestamp(txt),heartRateBPM(N),heartRateBPS(R),heartRateVariabilityTimestamp(txt),heartRateVariability(ms),label
2025-04-21T11:31:32.204+03:00,1745224288.775065,40.95361853999372,29.1409886722274,92.00693,-1,-1,-1,-1,30,37.99608032153802,-9999,13954.46005125,-0.7613372802734375,0.5656585693359375,-0.3165740966796875,13954.44997625,-2.356612391401648,-1.180317513123827,-0.5997566246802747,0.02230892330408096,0.06219589710235596,-0.01844418607652187,-0.006468772888183594,0.02689749002456665,0.002463757991790771,XArbitraryZVertical,0.5851077809056903,-0.02341984015655793,0.6705367775863291,-0.4555005756632737,-0.7633370757102966,0.5644415616989136,-0.3142007887363434,0,0,0,-1,-1,13940.65235591667,unknown,2,2025-04-21T11:31:18.370+03:00,2025-04-20T21:57:49.637+03:00,1587,1.127823,0,0,1187.381,1,4,2025-04-21T11:21:17.391+03:00,766917091.3589115,0,-45.7,100.2813,1,0.65,2025-04-21T11:22:28.578+03:00,87,1.45,2025-04-21T09:28:58.093+03:00,0.01174319131481236,0
2025-04-21T11:31:32.206+03:00,1745224288.775065,40.95361853999372,29.1409886722274,92.00693,-1,-1,-1,-1,30,37.99608032153802,-9999,13954.47012625,-0.7445831298828125,0.5518341064453125,-0.3145599365234375,13954.46005125,-2.356462714221883,-1.179710566825715,-0.5996069014455593,0.009819762781262398,0.04244882240891457,0.01851036958396435,-0.01250189542770386,0.01188433170318604,-0.003388404846191406,XArbitraryZVertical,0.584894647234424,-0.02345466904303572,0.6707124389604145,-0.4555139267404192,-0.7632243633270264,0.5643180012702942,-0.3146962523460388,0,0,0,-1,-1,13940.65235591667,unknown,2,2025-04-21T11:31:18.370+03:00,2025-04-20T21:57:49.637+03:00,1587,1.127823,0,0,1187.381,1,4,2025-04-21T11:21:17.391+03:00,766917091.3589115,0,-45.7,100.2813,1,0.65,2025-04-21T11:22:28.578+03:00,87,1.45,2025-04-21T09:28:58.093+03:00,0.01174319131481236,0
2025-04-21T11:31:32.207+03:00,1745224288.775065,40.95361853999372,29.1409886722274,92.00693,-1,-1,-1,-1,30,37.99608032153802,-9999,13954.48020125,-0.750335693359375,0.5350189208984375,-0.31512451171875,13954.47012625,-2.356374969036162,-1.179414414560786,-0.5998951117868677,-0.01932893507182598,0.01277761347591877,0.02662655152380466,0.01429301500320435,-0.006542026996612549,-0.000996708869934082,XArbitraryZVertical,0.5848182715276902,-0.02361125695939934,0.670717025029696,-0.45559704972049,-0.7629806995391846,0.5645558834075928,-0.3148601949214935,0,0,0,-1,-1,13940.65235591667,unknown,2,2025-04-21T11:31:18.370+03:00,2025-04-20T21:57:49.637+03:00,1587,1.127823,0,0,1187.381,1,4,2025-04-21T11:21:17.391+03:00,766917091.3589115,0,-45.7,100.2813,1,0.65,2025-04-21T11:22:28.578+03:00,87,1.45,2025-04-21T09:28:58.093+03:00,0.01174319131481236,0
2025-04-21T11:31:32.214+03:00,1745224288.775065,40.95361853999372,29.1409886722274,92.00693,-1,-1,-1,-1,30,37.99608032153802,-9999,13954.49027625,-0.7689971923828125,0.5712738037109375,-0.3195953369140625,13954.48020125,-2.3565423263158,-1.179272889365149,-0.6001423239624327,-0.01883039064705372,0.03034941665828228,0.01367133855819702,0.01779681444168091,-0.02444630861282349,0.0004771053791046143,XArbitraryZVertical,0.5847876173190862,-0.02379090886605267,0.6707432893641432,-0.455588261439416,-0.7628070116043091,0.5647599101066589,-0.314914882183075,0,0,0,-1,-1,13940.65235591667,unknown,2,2025-04-21T11:31:18.370+03:00,2025-04-20T21:57:49.637+03:00,1587,1.127823,0,0,1187.381,1,4,2025-04-21T11:21:17.391+03:00,766917091.3589115,0,-45.7,100.2813,1,0.65,2025-04-21T11:22:28.578+03:00,87,1.45,2025-04-21T09:28:58.093+03:00,0.01174319131481236,0
2025-04-21T11:31:32.223+03:00,1745224288.775065,40.95361853999372,29.1409886722274,92.00693,-1,-1,-1,-1,30,37.99608032153802,-9999,13954.50035125,-0.7557830810546875,0.565643310546875,-0.320098876953125,13954.49027625,-2.356611896479818,-1.179065501176341,-0.6003694296132299,-0.009947883896529675,0.0197980385273695,0.02442042343318462,0.001545369625091553,-0.01570725440979004,-0.001733005046844482,XArbitraryZVertical,0.5847344605422924,-0.02394890953866845,0.6707709917486177,-0.4556075506266125,-0.7626231908798218,0.5649473667144775,-0.3150241076946259,0,0,0,-1,-1,13940.65235591667,unknown,2,2025-04-21T11:31:18.370+03:00,2025-04-20T21:57:49.637+03:00,1587,1.127823,0,0,1187.381,1,4,2025-04-21T11:21:17.391+03:00,766917091.3589115,0,-45.7,100.2813,1,0.65,2025-04-21T11:22:28.578+03:00,87,1.45,2025-04-21T09:28:58.093+03:00,0.01174319131481236,0
2025-04-21T11:31:32.236+03:00,1745224288.775065,40.95361853999372,29.1409886722274,92.00693,-1,-1,-1,-1,30,37.99608032153802,-9999,13954.51042725,-0.7497100830078125,0.5374908447265625,-0.3148956298828125,13954.50035125,-2.356606928982361,-1.17897139570344,-0.6008514066514207,-0.03960670903325081,-0.00481116771697998,0.07054956257343292,-0.003161072731018066,0.01097947359085083,-0.006251394748687744,XArbitraryZVertical,0.5847395319885154,-0.02416085616310079,0.67069366691896,-0.4557036674477607,-0.7623417973518372,0.5653449892997742,-0.3149918615818024,0,0,0,-1,-1,13940.65235591667,unknown,2,2025-04-21T11:31:18.370+03:00,2025-04-20T21:57:49.637+03:00,1587,1.127823,0,0,1187.381,1,4,2025-04-21T11:21:17.391+03:00,766917091.3589115,0,-45.7,100.2813,1,0.65,2025-04-21T11:22:28.578+03:00,87,1.45,2025-04-21T09:28:58.093+03:00,0.01174319131481236,0
2025-04-21T11:31:32.243+03:00,1745224288.775065,40.95361853999372,29.1409886722274,92.00693,-1,-1,-1,-1,30,37.99608032153802,-9999,13954.52050225,-0.7589874267578125,0.5561676025390625,-0.313568115234375,13954.51042725,-2.356850188258973,-1.179071669081112,-0.6013157093746913,-0.02526485361158848,0.003479985054582357,0.01799231767654419,0.01275640726089478,-0.01401591300964355,-0.002323418855667114,XArbitraryZVertical,0.5848053922085195,-0.02439405755498642,0.6706198339702281,-0.4557153675482799,-0.7621306777000427,0.5657278895378113,-0.3148151636123657,0,0,0,-1,-1,13940.65235591667,unknown,2,2025-04-21T11:31:18.370+03:00,2025-04-20T21:57:49.637+03:00,1587,1.127823,0,0,1187.381,1,4,2025-04-21T11:21:17.391+03:00,766917091.3589115,0,-45.7,100.2813,1,0.65,2025-04-21T11:22:28.578+03:00,87,1.45,2025-04-21T09:28:58.093+03:00,0.01174319131481236,0
2025-04-21T11:31:32.256+03:00,1745224288.775065,40.95361853999372,29.1409886722274,92.00693,-1,-1,-1,-1,30,37.99608032153802,-9999,13954.53057725,-0.75,0.59442138671875,-0.3031463623046875,13954.52050225,-2.356942062428741,-1.179110550443299,-0.6014768995048699,-0.001573640154674649,0.005563642363995314,0.005782256368547678,0.006016194820404053,-0.03151333332061768,0.0003129243850708008,XArbitraryZVertical,0.5848295058269198,-0.02447625495369977,0.6705947124449037,-0.4557170040919692,-0.7620586752891541,0.5658608078956604,-0.3147507309913635,0,0,0,-1,-1,13940.65235591667,unknown,2,2025-04-21T11:31:18.370+03:00,2025-04-20T21:57:49.637+03:00,1587,1.127823,0,0,1187.381,1,4,2025-04-21T11:21:17.391+03:00,766917091.3589115,0,-45.7,100.2813,1,0.65,2025-04-21T11:22:28.578+03:00,87,1.45,2025-04-21T09:28:58.093+03:00,0.01174319131481236,0
2025-04-21T11:31:32.263+03:00,1745224288.775065,40.95361853999372,29.1409886722274,92.00693,-1,-1,-1,-1,30,37.99608032153802,-9999,13954.54065225,-0.75799560546875,0.5542449951171875,-0.306549072265625,13954.53057725,-2.356981503324249,-1.179090445511227,-0.6016079335755206,-0.01096820738166571,-0.0001456420868635178,0.006707571912556887,0.008092880249023438,0.02189123630523682,0.005762577056884766,XArbitraryZVertical,0.5848321862597381,-0.02454453707286383,0.6705814148129087,-0.4557295404333635,-0.7619838714599609,0.5659688115119934,-0.3147377669811249,0,0,0,-1,-1,13940.65235591667,unknown,2,2025-04-21T11:31:18.370+03:00,2025-04-20T21:57:49.637+03:00,1587,1.127823,0,0,1187.381,1,4,2025-04-21T11:21:17.391+03:00,766917091.3589115,0,-45.7,100.2813,1,0.65,2025-04-21T11:22:28.578+03:00,87,1.45,2025-04-21T09:28:58.093+03:00,0.01174319131481236,0
2025-04-21T11:31:32.274+03:00,1745224288.775065,40.95361853999372,29.1409886722274,92.00693,-1,-1,-1,-1,30,37.99608032153802,-9999,13954.55072725,-0.755401611328125,0.556732177734375,-0.3112335205078125,13954.54065225,-2.357093914293879,-1.179160963541378,-0.6017129336620546,-0.01225185114890337,-0.003775264602154493,0.005125121679157019,0.008151650428771973,0.009246706962585449,0.01268994808197021,XArbitraryZVertical,0.5848624007854604,-0.02460318187249215,0.670563745949259,-0.455713502165094,-0.7619510293006897,0.5660554170608521,-0.3146613240242004,0,0,0,-1,-1,13940.65235591667,unknown,2,2025-04-21T11:31:18.370+03:00,2025-04-20T21:57:49.637+03:00,1587,1.127823,0,0,1187.381,1,4,2025-04-21T11:21:17.391+03:00,766917091.3589115,0,-45.7,100.2813,1,0.65,2025-04-21T11:22:28.578+03:00,87,1.45,2025-04-21T09:28:58.093+03:00,0.01174319131481236,0
2025-04-21T11:31:32.283+03:00,1745224288.775065,40.95361853999372,29.1409886722274,92.00693,-1,-1,-1,-1,30,37.99608032153802,-9999,13954.56080225,-0.7570343017578125,0.567138671875,-0.308990478515625,13954.55072725,-2.357186139604844,-1.179212170277833,-0.6017824085590353,-0.009947750717401505,0.000673479400575161,0.006483034230768681,0.004606664180755615,-0.01711678504943848,0.004365652799606323,XArbitraryZVertical,0.5848836844997587,-0.02464615246326382,0.6705548301947551,-0.4556969889213372,-0.7619308233261108,0.5661126375198364,-0.3146072924137115,0,0,0,-1,-1,13940.65235591667,unknown,2,2025-04-21T11:31:18.370+03:00,2025-04-20T21:57:49.637+03:00,1587,1.127823,0,0,1187.381,1,4,2025-04-21T11:21:17.391+03:00,766917091.3589115,0,-45.7,100.2813,1,0.65,2025-04-21T11:22:28.578+03:00,87,1.45,2025-04-21T09:28:58.093+03:00,0.01174319131481236,0
2025-04-21T11:31:32.294+03:00,1745224288.775065,40.95361853999372,29.1409886722274,92.00693,-1,-1,-1,-1,30,37.99608032153802,-9999,13954.57087725,-0.75811767578125,0.5607757568359375,-0.30926513671875,13954.56080225,-2.357267923191921,-1.179256571463043,-0.6018684006688347,-0.014152348972857,-0.001901264768093824,0.01011931430548429,0.006833910942077637,-0.002157747745513916,0.003611296415328979,XArbitraryZVertical,0.5849040725887906,-0.02469422840315156,0.6705418980493028,-0.4556871288516595,-0.7618997097015381,0.5661835670471191,-0.3145548403263092,0,0,0,-1,-1,13940.65235591667,unknown,2,2025-04-21T11:31:18.370+03:00,2025-04-20T21:57:49.637+03:00,1587,1.127823,0,0,1187.381,1,4,2025-04-21T11:21:17.391+03:00,766917091.3589115,0,-45.7,100.2813,1,0.65,2025-04-21T11:22:28.578+03:00,87,1.45,2025-04-21T09:28:58.093+03:00,0.01174319131481236,0
2025-04-21T11:31:32.304+03:00,1745224288.775065,40.95361853999372,29.1409886722274,92.00693,-1,-1,-1,-1,30,37.99608032153802,-9999,13954.58095225,-0.759185791015625,0.5572357177734375,-0.3111724853515625,13954.57087725,-2.357381480254121,-1.179347649917024,-0.6019979492606985,-0.01607228815555573,-0.005900600459426641,0.01173555292189121,0.003392040729522705,-0.001501560211181641,0.005299240350723267,XArbitraryZVertical,0.5849429834692838,-0.02475827677253336,0.6705132527440787,-0.4556758809771506,-0.7618605494499207,0.5662903189659119,-0.3144574761390686,0,0,0,-1,-1,13940.65235591667,unknown,2,2025-04-21T11:31:18.370+03:00,2025-04-20T21:57:49.637+03:00,1587,1.127823,0,0,1187.381,1,4,2025-04-21T11:21:17.391+03:00,766917091.3589115,0,-45.7,100.2813,1,0.65,2025-04-21T11:22:28.578+03:00,87,1.45,2025-04-21T09:28:58.093+03:00,0.01174319131481236,0
2025-04-21T11:31:32.314+03:00,1745224288.775065,40.95361853999372,29.1409886722274,92.00693,-1,-1,-1,-1,30,37.99608032153802,-9999,13954.59102825,-0.76068115234375,0.5641326904296875,-0.31390380859375,13954.58095225,-2.357459421330588,-1.17942519366297,-0.6021486680451485,-0.00936485081911087,-0.004804443102329969,0.008057195693254471,0.003444373607635498,-0.009011030197143555,0.004566729068756104,XArbitraryZVertical,0.5849793652271469,-0.02482338518638023,0.6704759832072523,-0.4556806661839004,-0.7618061304092407,0.5664145350456238,-0.3143658936023712,0,0,0,-1,-1,13940.65235591667,unknown,2,2025-04-21T11:31:18.370+03:00,2025-04-20T21:57:49.637+03:00,1587,1.127823,0,0,1187.381,1,4,2025-04-21T11:21:17.391+03:00,766917091.3589115,0,-45.7,100.2813,1,0.65,2025-04-21T11:22:28.578+03:00,87,1.45,2025-04-21T09:28:58.093+03:00,0.01174319131481236,0
2025-04-21T11:31:32.324+03:00,1745224288.775065,40.95361853999372,29.1409886722274,92.00693,-1,-1,-1,-1,30,37.99608032153802,-9999,13954.60110325,-0.7585906982421875,0.569305419921875,-0.3162841796875,13954.59102825,-2.357453187520885,-1.17947702767118,-0.6022335193041299,0.0003205998218618333,-0.006830509752035141,0.005887418054044247,0.001310527324676514,-0.006608963012695312,0.001853883266448975,XArbitraryZVertical,0.5850032149186547,-0.02484353484862304,0.6704411495960493,-0.455700239568239,-0.7617780566215515,0.5664844512939453,-0.3143080770969391,0,0,0,-1,-1,13940.65235591667,unknown,2,2025-04-21T11:31:18.370+03:00,2025-04-20T21:57:49.637+03:00,1587,1.127823,0,0,1187.381,1,4,2025-04-21T11:21:17.391+03:00,766917091.3589115,0,-45.7,100.2813,1,0.65,2025-04-21T11:22:28.578+03:00,87,1.45,2025-04-21T09:28:58.093+03:00,0.01174319131481236,0
2025-04-21T11:31:32.334+03:00,1745224288.775065,40.95361853999372,29.1409886722274,92.00693,-1,-1,-1,-1,30,37.99608032153802,-9999,13954.61117825,-0.760284423828125,0.56951904296875,-0.3125457763671875,13954.60110325,-2.35737182848547,-1.179492128739583,-0.6022208481486734,0.007001405581831932,-0.006512261927127838,0.003412542631849647,0.002161204814910889,0.0005120038986206055,-0.001633882522583008,XArbitraryZVertical,0.5850083296648328,-0.02481124681127823,0.6704209309487831,-0.4557251915036755,-0.7617894411087036,0.5664740204811096,-0.3142993152141571,0,0,0,-1,-1,13940.65235591667,unknown,2,2025-04-21T11:31:18.370+03:00,2025-04-20T21:57:49.637+03:00,1587,1.127823,0,0,1187.381,1,4,2025-04-21T11:21:17.391+03:00,766917091.3589115,0,-45.7,100.2813,1,0.65,2025-04-21T11:22:28.578+03:00,87,1.45,2025-04-21T09:28:58.093+03:00,0.01174319131481236,0
2025-04-21T11:31:32.344+03:00,1745224288.775065,40.95361853999372,29.1409886722274,92.00693,-1,-1,-1,-1,30,37.99608032153802,-9999,13954.62125325,-0.76190185546875,0.567779541015625,-0.3116912841796875,13954.61117825,-2.357290157275494,-1.179534119735389,-0.6022643706767474,0.002848006319254637,-0.008469618856906891,0.004582236520946026,0.002532958984375,0.00337529182434082,3.36766242980957e-05,XArbitraryZVertical,0.5850267153655366,-0.02479515001855958,0.6703805941946018,-0.4557616782153048,-0.76177978515625,0.5665099024772644,-0.3142578899860382,0,0,0,-1,-1,13940.65235591667,unknown,2,2025-04-21T11:31:18.370+03:00,2025-04-20T21:57:49.637+03:00,1587,1.127823,0,0,1187.381,1,4,2025-04-21T11:21:17.391+03:00,766917091.3589115,0,-45.7,100.2813,1,0.65,2025-04-21T11:22:28.578+03:00,87,1.45,2025-04-21T09:28:58.093+03:00,0.01174319131481236,0
2025-04-21T11:31:32.354+03:00,1745224288.775065,40.95361853999372,29.1409886722274,92.00693,-1,-1,-1,-1,30,37.99608032153802,-9999,13954.63132825,-0.76104736328125,0.5648651123046875,-0.3149566650390625,13954.62125325,-2.357278416615021,-1.179594315065492,-0.6023133479059705,-0.003287384286522865,-0.004742525052279234,0.002225871197879314,0.0004510283470153809,0.002083659172058105,0.003654628992080688,XArbitraryZVertical,0.5850507461258303,-0.02479753123220587,0.6703496915660879,-0.4557760313530498,-0.7617729306221008,0.5665502548217773,-0.3142014145851135,0,0,0,-1,-1,13940.65235591667,unknown,2,2025-04-21T11:31:18.370+03:00,2025-04-20T21:57:49.637+03:00,1587,1.127823,0,0,1187.381,1,4,2025-04-21T11:21:17.391+03:00,766917091.3589115,0,-45.7,100.2813,1,0.65,2025-04-21T11:22:28.578+03:00,87,1.45,2025-04-21T09:28:58.093+03:00,0.01174319131481236,0
2025-04-21T11:31:32.364+03:00,1745224288.775065,40.95361853999372,29.1409886722274,92.00693,-1,-1,-1,-1,30,37.99608032153802,-9999,13954.64140325,-0.7603302001953125,0.5639495849609375,-0.3142547607421875,13954.63132825,-2.357330343252032,-1.179661398681706,-0.602337811974831,-0.007155692204833031,-0.001692738849669695,0.004098839126527309,-2.896785736083984e-05,-0.0002558231353759766,0.001126319169998169,XArbitraryZVertical,0.5850744267525441,-0.02480716585899021,0.6703366562136868,-0.4557643254632245,-0.7617812156677246,0.5665704011917114,-0.314145028591156,0,0,0,-1,-1,13940.65235591667,unknown,2,2025-04-21T11:31:18.370+03:00,2025-04-20T21:57:49.637+03:00,1587,1.127823,0,0,1187.381,1,4,2025-04-21T11:21:17.391+03:00,766917091.3589115,0,-45.7,100.2813,1,0.65,2025-04-21T11:22:28.578+03:00,87,1.45,2025-04-21T09:28:58.093+03:00,0.01174319131481236,0
2025-04-21T11:31:32.374+03:00,1745224288.775065,40.95361853999372,29.1409886722274,92.00693,-1,-1,-1,-1,30,37.99608032153802,-9999,13954.65147825,-0.760833740234375,0.563995361328125,-0.318389892578125,13954.64140325,-2.357370862729164,-1.179688158895578,-0.6023959223487761,-0.003239247482270002,0.0008889292366802692,0.005637613590806723,0.001673221588134766,-0.002165257930755615,-0.0007682144641876221,XArbitraryZVertical,0.5850872782882132,-0.02483606981613041,0.670325525705172,-0.4557625909660319,-0.7617591619491577,0.5666182637214661,-0.3141120970249176,0,0,0,-1,-1,13940.65235591667,unknown,2,2025-04-21T11:31:18.370+03:00,2025-04-20T21:57:49.637+03:00,1587,1.127823,0,0,1187.381,1,4,2025-04-21T11:21:17.391+03:00,766917091.3589115,0,-45.7,100.2813,1,0.65,2025-04-21T11:22:28.578+03:00,87,1.45,2025-04-21T09:28:58.093+03:00,0.01174319131481236,0
2025-04-21T11:31:32.384+03:00,1745224288.775065,40.95361853999372,29.1409886722274,92.00693,-1,-1,-1,-1,30,37.99608032153802,-9999,13954.66155425,-0.7585296630859375,0.5666961669921875,-0.31854248046875,13954.65147825,-2.357333840624979,-1.179614436134516,-0.6024293038557189,0.006650933530181646,0.008857106789946556,0.004502308089286089,0.0005034804344177246,-0.00287938117980957,-0.001756817102432251,XArbitraryZVertical,0.5850655389816318,-0.0248553190849796,0.6703314986426445,-0.4557807238459553,-0.7617185711860657,0.5666458010673523,-0.3141610622406006,0,0,0,-1,-1,13940.65235591667,unknown,2,2025-04-21T11:31:18.370+03:00,2025-04-20T21:57:49.637+03:00,1587,1.127823,0,0,1187.381,1,4,2025-04-21T11:21:17.391+03:00,766917091.3589115,0,-45.7,100.2813,1,0.65,2025-04-21T11:22:28.578+03:00,87,1.45,2025-04-21T09:28:58.093+03:00,0.01174319131481236,0
2025-04-21T11:31:32.395+03:00,1745224288.775065,40.95361853999372,29.1409886722274,92.00693,-1,-1,-1,-1,30,37.99608032153802,-9999,13954.67162925,-0.7589569091796875,0.563934326171875,-0.305419921875,13954.66155425,-2.357263339128083,-1.179525164922469,-0.6024149364888042,-0.004431278444826603,0.003171790856868029,-0.0002463745477143675,0.00205463171005249,-0.0006855130195617676,-0.006156563758850098,XArbitraryZVertical,0.585035393882025,-0.02484928423033513,0.670344723238368,-0.4558004443262425,-0.7616981267929077,0.566633939743042,-0.31423220038414,0,0,0,-1,-1,13940.65235591667,unknown,2,2025-04-21T11:31:18.370+03:00,2025-04-20T21:57:49.637+03:00,1587,1.127823,0,0,1187.381,1,4,2025-04-21T11:21:17.391+03:00,766917091.3589115,0,-45.7,100.2813,1,0.65,2025-04-21T11:22:28.578+03:00,87,1.45,2025-04-21T09:28:58.093+03:00,0.01174319131481236,0
2025-04-21T11:31:32.405+03:00,1745224288.775065,40.95361853999372,29.1409886722274,92.00693,-1,-1,-1,-1,30,37.99608032153802,-9999,13954.68170425,-0.75677490234375,0.5532989501953125,-0.2930908203125,13954.67162925,-2.357535221568634,-1.179638415698572,-0.6025222799565906,-0.03766053915023804,0.005865112412720919,0.002992861438542604,0.00317835807800293,1.949071884155273e-05,0.001042962074279785,XArbitraryZVertical,0.5850780698858616,-0.02494577720878336,0.6703503805462214,-0.4557319847789064,-0.7616774439811707,0.5667223930358887,-0.3141227066516876,0,0,0,-1,-1,13940.65235591667,unknown,2,2025-04-21T11:31:18.370+03:00,2025-04-20T21:57:49.637+03:00,1587,1.127823,0,0,1187.381,1,4,2025-04-21T11:21:17.391+03:00,766917091.3589115,0,-45.7,100.2813,1,0.65,2025-04-21T11:22:28.578+03:00,87,1.45,2025-04-21T09:28:58.093+03:00,0.01174319131481236,0
2025-04-21T11:31:32.415+03:00,1745224288.775065,40.95361853999372,29.1409886722274,92.00693,-1,-1,-1,-1,30,37.99608032153802,-9999,13954.69177925,-0.7528076171875,0.5566558837890625,-0.3026275634765625,13954.68170425,-2.357904740381964,-1.179731756585709,-0.6027041387591322,-0.02839273773133755,0.01473290659487247,0.005458682309836149,0.002440989017486572,-0.008171737194061279,0.01741203665733337,XArbitraryZVertical,0.5851184289543633,-0.02510504417041543,0.6703680696523608,-0.4556453547534888,-0.7616114020347595,0.566872239112854,-0.3140123188495636,0,0,0,-1,-1,13940.65235591667,unknown,2,2025-04-21T11:31:18.370+03:00,2025-04-20T21:57:49.637+03:00,1587,1.127823,0,0,1187.381,1,4,2025-04-21T11:21:17.391+03:00,766917091.3589115,0,-45.7,100.2813,1,0.65,2025-04-21T11:22:28.578+03:00,87,1.45,2025-04-21T09:28:58.093+03:00,0.01174319131481236,0
2025-04-21T11:31:32.425+03:00,1745224288.775065,40.95361853999372,29.1409886722274,92.00693,-1,-1,-1,-1,30,37.99608032153802,-9999,13954.70185425,-0.7559356689453125,0.568634033203125,-0.3082122802734375,13954.69177925,-2.358079481974246,-1.179664822358832,-0.6028477119945281,-0.01278628036379814,0.01627068221569061,0.01065148040652275,0.007990419864654541,-0.01570582389831543,0.01805761456489563,XArbitraryZVertical,0.5851046006436985,-0.02522860782380282,0.6703964934445855,-0.4556143959990697,-0.7615151405334473,0.5669904947280884,-0.314032256603241,0,0,0,-1,-1,13940.65235591667,unknown,2,2025-04-21T11:31:18.370+03:00,2025-04-20T21:57:49.637+03:00,1587,1.127823,0,0,1187.381,1,4,2025-04-21T11:21:17.391+03:00,766917091.3589115,0,-45.7,100.2813,1,0.65,2025-04-21T11:22:28.578+03:00,87,1.45,2025-04-21T09:28:58.093+03:00,0.01174319131481236,0
2025-04-21T11:31:32.436+03:00,1745224288.775065,40.95361853999372,29.1409886722274,92.00693,-1,-1,-1,-1,30,37.99608032153802,-9999,13954.71192925,-0.75439453125,0.5703125,-0.313140869140625,13954.70185425,-2.358143365175531,-1.17957894664993,-0.6029749300669071,-0.005687091965228319,0.005429219454526901,0.007826399058103561,0.005516409873962402,-0.002626955509185791,0.006453037261962891,XArbitraryZVertical,0.5850845558682454,-0.02531749280861544,0.6704088410447018,-0.4556171749348496,-0.7614215612411499,0.5670952796936035,-0.3140701651573181,0,0,0,-1,-1,13940.65235591667,unknown,2,2025-04-21T11:31:18.370+03:00,2025-04-20T21:57:49.637+03:00,1587,1.127823,0,0,1187.381,1,4,2025-04-21T11:21:17.391+03:00,766917091.3589115,0,-45.7,100.2813,1,0.65,2025-04-21T11:22:28.578+03:00,87,1.45,2025-04-21T09:28:58.093+03:00,0.01174319131481236,0
2025-04-21T11:31:32.468+03:00,1745224288.775065,40.95361853999372,29.1409886722274,92.00693,-1,-1,-1,-1,30,37.99608032153802,-9999,13954.72200425,-0.761932373046875,0.568634033203125,-0.318695068359375,13954.71192925,-2.358160637340359,-1.179572938443683,-0.60304454427954,-0.001701072324067354,-0.001501058228313923,0.01077934540808201,0.007507443428039551,0.003525972366333008,0.00456574559211731,XArbitraryZVertical,0.585087564890254,-0.02535165883318841,0.6703994884648793,-0.4556250869108147,-0.7613831162452698,0.5671526193618774,-0.3140596747398376,0,0,0,-1,-1,13940.65235591667,unknown,2,2025-04-21T11:31:18.370+03:00,2025-04-20T21:57:49.637+03:00,1587,1.127823,0,0,1187.381,1,4,2025-04-21T11:21:17.391+03:00,766917091.3589115,0,-45.7,100.2813,1,0.65,2025-04-21T11:22:28.578+03:00,87,1.45,2025-04-21T09:28:58.093+03:00,0.01174319131481236,0
2025-04-21T11:31:32.470+03:00,1745224288.775065,40.95361853999372,29.1409886722274,92.00693,-1,-1,-1,-1,30,37.99608032153802,-9999,13954.73207925,-0.75897216796875,0.564300537109375,-0.3197174072265625,13954.72200425,-2.358063312387029,-1.179629756710364,-0.6030163975659927,0.01557059213519096,-0.02251153439283371,-0.003023552242666483,0.003298044204711914,0.002358973026275635,-0.002780407667160034,XArbitraryZVertical,0.5851057393384247,-0.02529905859581313,0.6703666955441553,-0.4556528100363058,-0.7614156007766724,0.5671294331550598,-0.3140224516391754,0,0,0,-1,-1,13940.65235591667,unknown,2,2025-04-21T11:31:18.370+03:00,2025-04-20T21:57:49.637+03:00,1587,1.127823,0,0,1187.381,1,4,2025-04-21T11:21:17.391+03:00,766917091.3589115,0,-45.7,100.2813,1,0.65,2025-04-21T11:22:28.578+03:00,87,1.45,2025-04-21T09:28:58.093+03:00,0.01174319131481236,0
2025-04-21T11:31:32.488+03:00,1745224288.775065,40.95361853999372,29.1409886722274,92.00693,-1,-1,-1,-1,30,37.99608032153802,-9999,13954.74215525,-0.754791259765625,0.5653076171875,-0.3132781982421875,13954.73207925,-2.357880014558102,-1.17979410556346,-0.6028864992707155,0.0219027902930975,-0.02817128412425518,-0.01122781913727522,-0.0004426836967468262,0.0005128979682922363,-0.006631135940551758,XArbitraryZVertical,0.5851533510586588,-0.02515621984793636,0.670304926086582,-0.4556906077154441,-0.7615354657173157,0.567022442817688,-0.3139254450798035,0,0,0,-1,-1,13940.65235591667,unknown,2,2025-04-21T11:31:18.370+03:00,2025-04-20T21:57:49.637+03:00,1587,1.127823,0,0,1187.381,1,4,2025-04-21T11:21:17.391+03:00,766917091.3589115,0,-45.7,100.2813,1,0.65,2025-04-21T11:22:28.578+03:00,87,1.45,2025-04-21T09:28:58.093+03:00,0.01174319131481236,0
2025-04-21T11:31:32.489+03:00,1745224288.775065,40.95361853999372,29.1409886722274,92.00693,-1,-1,-1,-1,30,37.99608032153802,-9999,13954.75223025,-0.7637786865234375,0.570953369140625,-0.307586669921875,13954.74215525,-2.357661155543964,-1.179914310161145,-0.6027016667159546,0.01987985335290432,-0.02241992205381393,-0.01449178997427225,0.006329536437988281,-0.003698825836181641,-0.003157973289489746,XArbitraryZVertical,0.5851824678439276,-0.02499117890703923,0.6702597410968768,-0.4557288186860582,-0.7616701126098633,0.5668702125549316,-0.313873827457428,0,0,0,-1,-1,13940.65235591667,unknown,2,2025-04-21T11:31:18.370+03:00,2025-04-20T21:57:49.637+03:00,1587,1.127823,0,0,1187.381,1,4,2025-04-21T11:21:17.391+03:00,766917091.3589115,0,-45.7,100.2813,1,0.65,2025-04-21T11:22:28.578+03:00,87,1.45,2025-04-21T09:28:58.093+03:00,0.01174319131481236,0
2025-04-21T11:31:32.490+03:00,1745224288.775065,40.95361853999372,29.1409886722274,92.00693,-1,-1,-1,-1,30,37.99608032153802,-9999,13954.76230525,-0.7617950439453125,0.5676727294921875,-0.3070831298828125,13954.75223025,-2.357555268690717,-1.180063938773316,-0.6025183127012355,0.008621472865343094,-0.01985782757401466,-0.01227903552353382,0.002749443054199219,0.001869082450866699,0.004458069801330566,XArbitraryZVertical,0.5852201298339145,-0.02485309291072395,0.6702313246332083,-0.4557297877757372,-0.7618131637573242,0.566719114780426,-0.3137994408607483,0,0,0,-1,-1,13940.65235591667,unknown,2,2025-04-21T11:31:18.370+03:00,2025-04-20T21:57:49.637+03:00,1587,1.127823,0,0,1187.381,1,4,2025-04-21T11:21:17.391+03:00,766917091.3589115,0,-45.7,100.2813,1,0.65,2025-04-21T11:22:28.578+03:00,87,1.45,2025-04-21T09:28:58.093+03:00,0.01174319131481236,0
2025-04-21T11:31:32.495+03:00,1745224288.775065,40.95361853999372,29.1409886722274,92.00693,-1,-1,-1,-1,30,37.99608032153802,-9999,13954.77238025,-0.75909423828125,0.5633697509765625,-0.312164306640625,13954.76230525,-2.357616535987527,-1.180295333211298,-0.6023591875952443,0.001283665420487523,-0.0170548502355814,-0.01882082596421242,-0.002557218074798584,0.003693938255310059,0.007306814193725586,XArbitraryZVertical,0.5852849306762038,-0.02475493347150643,0.6702118583572537,-0.4556805531051645,-0.7619690895080566,0.5665880441665649,-0.3136574923992157,0,0,0,-1,-1,13940.65235591667,unknown,2,2025-04-21T11:31:18.370+03:00,2025-04-20T21:57:49.637+03:00,1587,1.127823,0,0,1187.381,1,4,2025-04-21T11:21:17.391+03:00,766917091.3589115,0,-45.7,100.2813,1,0.65,2025-04-21T11:22:28.578+03:00,87,1.45,2025-04-21T09:28:58.093+03:00,0.01174319131481236,0
2025-04-21T11:31:32.505+03:00,1745224288.775065,40.95361853999372,29.1409886722274,92.00693,-1,-1,-1,-1,30,37.99608032153802,-9999,13954.78245525,-0.7585296630859375,0.564788818359375,-0.3148345947265625,13954.77238025,-2.357651454656094,-1.180488133716121,-0.6022210610815215,0.005334266927093267,-0.006903479807078838,-0.003945238888263702,0.002946674823760986,-0.001319169998168945,0.004626214504241943,XArbitraryZVertical,0.5853387164346401,-0.02466624524830384,0.6701931039670597,-0.4556437922783075,-0.7621018886566162,0.5664741992950439,-0.3135403394699097,0,0,0,-1,-1,13940.65235591667,unknown,2,2025-04-21T11:31:18.370+03:00,2025-04-20T21:57:49.637+03:00,1587,1.127823,0,0,1187.381,1,4,2025-04-21T11:21:17.391+03:00,766917091.3589115,0,-45.7,100.2813,1,0.65,2025-04-21T11:22:28.578+03:00,87,1.45,2025-04-21T09:28:58.093+03:00,0.01174319131481236,0
2025-04-21T11:31:32.515+03:00,1745224288.775065,40.95361853999372,29.1409886722274,92.00693,-1,-1,-1,-1,30,37.99608032153802,-9999,13954.79253025,-0.7626190185546875,0.564971923828125,-0.3083343505859375,13954.78245525,-2.357627004270035,-1.180519074451136,-0.6021383906423941,0.003312394954264164,-0.002239752095192671,-0.006506134755909443,0.003411710262298584,-0.003463625907897949,-0.001193135976791382,XArbitraryZVertical,0.5853431675844152,-0.02461913590477764,0.6701962572800928,-0.4556359372497295,-0.7621548771858215,0.5664060711860657,-0.3135345578193665,0,0,0,-1,-1,13940.65235591667,unknown,2,2025-04-21T11:31:18.370+03:00,2025-04-20T21:57:49.637+03:00,1587,1.127823,0,0,1187.381,1,4,2025-04-21T11:21:17.391+03:00,766917091.3589115,0,-45.7,100.2813,1,0.65,2025-04-21T11:22:28.578+03:00,87,1.45,2025-04-21T09:28:58.093+03:00,0.01174319131481236,0
2025-04-21T11:31:32.525+03:00,1745224288.775065,40.95361853999372,29.1409886722274,92.00693,-1,-1,-1,-1,30,37.99608032153802,-9999,13954.80260525,-0.762481689453125,0.558868408203125,-0.3049468994140625,13954.79253025,-2.357662144722454,-1.180540348306395,-0.6021381943507378,-0.004925228655338287,0.004482931923121214,0.0007018772303126752,0.002380847930908203,0.000229179859161377,0.0019187331199646,XArbitraryZVertical,0.5853498383638319,-0.02462447394467149,0.6701981315996884,-0.4556244159005367,-0.7621617317199707,0.5664058923721313,-0.3135184049606323,0,0,0,-1,-1,13940.65235591667,unknown,2,2025-04-21T11:31:18.370+03:00,2025-04-20T21:57:49.637+03:00,1587,1.127823,0,0,1187.381,1,4,2025-04-21T11:21:17.391+03:00,766917091.3589115,0,-45.7,100.2813,1,0.65,2025-04-21T11:22:28.578+03:00,87,1.45,2025-04-21T09:28:58.093+03:00,0.01174319131481236,0
2025-04-21T11:31:32.535+03:00,1745224288.775065,40.95361853999372,29.1409886722274,92.00693,-1,-1,-1,-1,30,37.99608032153802,-9999,13954.81268125,-0.764984130859375,0.56103515625,-0.305389404296875,13954.80260525,-2.357697960079613,-1.180491762954283,-0.6021840695644267,-0.003129725344479084,0.006560729816555977,0.004443085752427578,-0.0006185173988342285,-0.005561172962188721,0.006905019283294678,XArbitraryZVertical,0.5853365572074489,-0.02466426495560095,0.6702106896932685,-0.45562095944711,-0.7621225118637085,0.5664437413215637,-0.3135455846786499,0,0,0,-1,-1,13940.65235591667,unknown,2,2025-04-21T11:31:18.370+03:00,2025-04-20T21:57:49.637+03:00,1587,1.127823,0,0,1187.381,1,4,2025-04-21T11:21:17.391+03:00,766917091.3589115,0,-45.7,100.2813,1,0.65,2025-04-21T11:22:28.578+03:00,87,1.45,2025-04-21T09:28:58.093+03:00,0.01174319131481236,0
2025-04-21T11:31:32.545+03:00,1745224288.775065,40.95361853999372,29.1409886722274,92.00693,-1,-1,-1,-1,30,37.99608032153802,-9999,13954.82275625,-0.76226806640625,0.56427001953125,-0.31329345703125,13954.81268125,-2.35763460890564,-1.180354444354452,-0.6022169288510498,0.01025086175650358,0.01210949290543795,0.002638561185449362,-0.002143740653991699,-0.006320595741271973,0.008543699979782104,XArbitraryZVertical,0.585293795183782,-0.02469009040124496,0.6702293702863393,-0.4556470200038841,-0.7620622515678406,0.5664708018302917,-0.3136431574821472,0,0,0,-1,-1,13940.65235591667,unknown,2,2025-04-21T11:31:18.370+03:00,2025-04-20T21:57:49.637+03:00,1587,1.127823,0,0,1187.381,1,4,2025-04-21T11:21:17.391+03:00,766917091.3589115,0,-45.7,100.2813,1,0.65,2025-04-21T11:22:28.578+03:00,87,1.45,2025-04-21T09:28:58.093+03:00,0.01174319131481236,0
2025-04-21T11:31:32.556+03:00,1745224288.775065,40.95361853999372,29.1409886722274,92.00693,-1,-1,-1,-1,30,37.99608032153802,-9999,13954.83283125,-0.762969970703125,0.5692901611328125,-0.3163299560546875,13954.82275625,-2.357493449985722,-1.180141808911597,-0.6021829709056373,0.0132469180971384,0.01390899065881968,0.00100284768268466,-0.00191795825958252,-0.004492223262786865,0.005249291658401489,XArbitraryZVertical,0.5852217434524912,-0.02468375447412315,0.670266633546347,-0.4556848939520479,-0.7620131969451904,0.5664427876472473,-0.3138124346733093,0,0,0,-1,-1,13940.65235591667,unknown,2,2025-04-21T11:31:18.370+03:00,2025-04-20T21:57:49.637+03:00,1587,1.127823,0,0,1187.381,1,4,2025-04-21T11:21:17.391+03:00,766917091.3589115,0,-45.7,100.2813,1,0.65,2025-04-21T11:22:28.578+03:00,87,1.45,2025-04-21T09:28:58.093+03:00,0.01174319131481236,0
2025-04-21T11:31:32.566+03:00,1745224288.775065,40.95361853999372,29.1409886722274,92.00693,-1,-1,-1,-1,30,37.99608032153802,-9999,13954.84290625,-0.761505126953125,0.565521240234375,-0.313232421875,13954.83283125,-2.357298059541824,-1.179919816788509,-0.6021170067977236,0.01883862353861332,0.008620618842542171,-0.0008823373937048018,-0.00054931640625,0.001314759254455566,-0.001388013362884521,XArbitraryZVertical,0.5851447734938154,-0.02465088367981538,0.6703013137610302,-0.4557345742806996,-0.7619780898094177,0.5663884282112122,-0.3139958679676056,0,0,0,-1,-1,13940.65235591667,unknown,2,2025-04-21T11:31:18.370+03:00,2025-04-20T21:57:49.637+03:00,1587,1.127823,0,0,1187.381,1,4,2025-04-21T11:21:17.391+03:00,766917091.3589115,0,-45.7,100.2813,1,0.65,2025-04-21T11:22:28.578+03:00,87,1.45,2025-04-21T09:28:58.093+03:00,0.01174319131481236,0
2025-04-21T11:31:32.576+03:00,1745224288.775065,40.95361853999372,29.1409886722274,92.00693,-1,-1,-1,-1,30,37.99608032153802,-9999,13954.85298125,-0.7610931396484375,0.5671234130859375,-0.3092041015625,13954.84290625,-2.357098024444042,-1.179729438255073,-0.6020138431763497,0.02456734888255596,0.008427806198596954,-0.009849200956523418,-0.001211285591125488,0.001277744770050049,-0.001373261213302612,XArbitraryZVertical,0.5850756293515802,-0.02459463423272069,0.6703337200638368,-0.4557788529576291,-0.7619724273681641,0.5663034319877625,-0.3141632378101349,0,0,0,-1,-1,13940.65235591667,unknown,2,2025-04-21T11:31:18.370+03:00,2025-04-20T21:57:49.637+03:00,1587,1.127823,0,0,1187.381,1,4,2025-04-21T11:21:17.391+03:00,766917091.3589115,0,-45.7,100.2813,1,0.65,2025-04-21T11:22:28.578+03:00,87,1.45,2025-04-21T09:28:58.093+03:00,0.01174319131481236,0
2025-04-21T11:31:32.586+03:00,1745224288.775065,40.95361853999372,29.1409886722274,92.00693,-1,-1,-1,-1,30,37.99608032153802,-9999,13954.86305625,-0.7580718994140625,0.5622711181640625,-0.308807373046875,13954.85298125,-2.356871245142694,-1.179546739377776,-0.6018482585006751,0.0258488617837429,0.002166714053601027,-0.006650078576058149,0.001030623912811279,0.0003308653831481934,0.003470897674560547,XArbitraryZVertical,0.5850046736199456,-0.02450400668739443,0.6703711146661898,-0.4558197644927559,-0.762001633644104,0.5661669373512268,-0.3143381774425507,0,0,0,-1,-1,13940.65235591667,unknown,2,2025-04-21T11:31:18.370+03:00,2025-04-20T21:57:49.637+03:00,1587,1.127823,0,0,1187.381,1,4,2025-04-21T11:21:17.391+03:00,766917091.3589115,0,-45.7,100.2813,1,0.65,2025-04-21T11:22:28.578+03:00,87,1.45,2025-04-21T09:28:58.093+03:00,0.01174319131481236,0
2025-04-21T11:31:32.596+03:00,1745224288.775065,40.95361853999372,29.1409886722274,92.00693,-1,-1,-1,-1,30,37.99608032153802,-9999,13954.87313125,-0.758514404296875,0.5587158203125,-0.31353759765625,13954.86305625,-2.356636939019697,-1.179403823292375,-0.6017090920994207,0.01856964454054832,-0.0004378575831651688,-0.001433478551916778,0.001134753227233887,-0.001110851764678955,0.006539523601531982,XArbitraryZVertical,0.5849491175198527,-0.02441264442851295,0.6703894466514602,-0.4558689365238913,-0.7620294690132141,0.5660521984100342,-0.3144771158695221,0,0,0,-1,-1,13940.65235591667,unknown,2,2025-04-21T11:31:18.370+03:00,2025-04-20T21:57:49.637+03:00,1587,1.127823,0,0,1187.381,1,4,2025-04-21T11:21:17.391+03:00,766917091.3589115,0,-45.7,100.2813,1,0.65,2025-04-21T11:22:28.578+03:00,87,1.45,2025-04-21T09:28:58.093+03:00,0.01174319131481236,0
2025-04-21T11:31:32.606+03:00,1745224288.775065,40.95361853999372,29.1409886722274,92.00693,-1,-1,-1,-1,30,37.99608032153802,-9999,13954.88320725,-0.760406494140625,0.5560760498046875,-0.312591552734375,13954.87313125,-2.356497554975258,-1.179363810489203,-0.6016158944719927,0.005988539196550846,-0.006769057363271713,-0.004788295831531286,0.004695713520050049,-0.005413293838500977,0.003034830093383789,XArbitraryZVertical,0.584930350583414,-0.02434388651971094,0.6703894461446909,-0.455896690234495,-0.7620656490325928,0.5659753680229187,-0.3145277202129364,0,0,0,-1,-1,13940.65235591667,unknown,2,2025-04-21T11:31:18.370+03:00,2025-04-20T21:57:49.637+03:00,1587,1.127823,0,0,1187.381,1,4,2025-04-21T11:21:17.391+03:00,766917091.3589115,0,-45.7,100.2813,1,0.65,2025-04-21T11:22:28.578+03:00,87,1.45,2025-04-21T09:28:58.093+03:00,0.01174319131481236,0
2025-04-21T11:31:32.616+03:00,1745224288.775065,40.95361853999372,29.1409886722274,92.00693,-1,-1,-1,-1,30,37.99608032153802,-9999,13954.89328225,-0.7602996826171875,0.55816650390625,-0.3125762939453125,13954.88320725,-2.356527114944355,-1.17953522071418,-0.6015601551725709,-0.001073365332558751,-0.02020150981843472,-0.002885733498260379,0.002520501613616943,-0.00916677713394165,0.001466691493988037,XArbitraryZVertical,0.5849832251609868,-0.02429126254771933,0.6703580570446864,-0.455877816010684,-0.7621487379074097,0.5659294128417969,-0.3144091069698334,0,0,0,-1,-1,13940.65235591667,unknown,2,2025-04-21T11:31:18.370+03:00,2025-04-20T21:57:49.637+03:00,1587,1.127823,0,0,1187.381,1,4,2025-04-21T11:21:17.391+03:00,766917091.3589115,0,-45.7,100.2813,1,0.65,2025-04-21T11:22:28.578+03:00,87,1.45,2025-04-21T09:28:58.093+03:00,0.01174319131481236,0
2025-04-21T11:31:32.626+03:00,1745224288.775065,40.95361853999372,29.1409886722274,92.00693,-1,-1,-1,-1,30,37.99608032153802,-9999,13954.90335725,-0.7640533447265625,0.560028076171875,-0.3089752197265625,13954.89328225,-2.35655340523346,-1.179746863172062,-0.6015437772720541,-0.0007280198624357581,-0.01829874515533447,0.0008687575464136899,0.00206148624420166,-0.009565293788909912,0.002666950225830078,XArbitraryZVertical,0.5850526029387043,-0.02424419201507995,0.6703056642488773,-0.4558683212984387,-0.7622238397598267,0.5659159421920776,-0.3142513334751129,0,0,0,-1,-1,13940.65235591667,unknown,2,2025-04-21T11:31:18.370+03:00,2025-04-20T21:57:49.637+03:00,1587,1.127823,0,0,1187.381,1,4,2025-04-21T11:21:17.391+03:00,766917091.3589115,0,-45.7,100.2813,1,0.65,2025-04-21T11:22:28.578+03:00,87,1.45,2025-04-21T09:28:58.093+03:00,0.01174319131481236,0
2025-04-21T11:31:32.636+03:00,1745224288.775065,40.95361853999372,29.1409886722274,92.00693,-1,-1,-1,-1,30,37.99608032153802,-9999,13954.91343225,-0.7597808837890625,0.5626983642578125,-0.30255126953125,13954.90335725,-2.356561854577541,-1.179936156293949,-0.6015316183822162,0.001399579574353993,-0.0188383013010025,-0.002077763900160789,-0.0009244084358215332,-0.007266461849212646,0.002021700143814087,XArbitraryZVertical,0.5851150275917287,-0.02419869097781632,0.6702547967493464,-0.4558653489087438,-0.7622896432876587,0.5659059286117554,-0.3141096532344818,0,0,0,-1,-1,13940.65235591667,unknown,2,2025-04-21T11:31:18.370+03:00,2025-04-20T21:57:49.637+03:00,1587,1.127823,0,0,1187.381,1,4,2025-04-21T11:21:17.391+03:00,766917091.3589115,0,-45.7,100.2813,1,0.65,2025-04-21T11:22:28.578+03:00,87,1.45,2025-04-21T09:28:58.093+03:00,0.01174319131481236,0
2025-04-21T11:31:32.647+03:00,1745224288.775065,40.95361853999372,29.1409886722274,92.00693,-1,-1,-1,-1,30,37.99608032153802,-9999,13954.92350725,-0.762725830078125,0.564178466796875,-0.3037567138671875,13954.91343225,-2.356577845442335,-1.180114373267508,-0.601517357650858,-0.005150332115590572,-0.01642081886529922,-0.002979310462251306,0.0003444552421569824,-0.00395888090133667,0.009747177362442017,XArbitraryZVertical,0.5851734849509737,-0.02415708250316515,0.6702093417021805,-0.4558592974664479,-0.7623530030250549,0.5658941268920898,-0.3139768540859222,0,0,0,-1,-1,13940.65235591667,unknown,2,2025-04-21T11:31:18.370+03:00,2025-04-20T21:57:49.637+03:00,1587,1.127823,0,0,1187.381,1,4,2025-04-21T11:21:17.391+03:00,766917091.3589115,0,-45.7,100.2813,1,0.65,2025-04-21T11:22:28.578+03:00,87,1.45,2025-04-21T09:28:58.093+03:00,0.01174319131481236,0
2025-04-21T11:31:32.656+03:00,1745224288.775065,40.95361853999372,29.1409886722274,92.00693,-1,-1,-1,-1,30,37.99608032153802,-9999,13954.93358204167,-0.7623748779296875,0.563385009765625,-0.3118896484375,13954.92350725,-2.356664658099552,-1.180334071930518,-0.6015417261716783,-0.00952963437885046,-0.01853829808533192,0.00110624497756362,0.002216458320617676,-0.002315640449523926,0.01061207056045532,XArbitraryZVertical,0.5852478885222197,-0.02414209135959149,0.6701596447964173,-0.4558377254132572,-0.7624092698097229,0.5659142136573792,-0.3138041496276855,0,0,0,-1,-1,13940.65235591667,unknown,2,2025-04-21T11:31:18.370+03:00,2025-04-20T21:57:49.637+03:00,1587,1.127823,0,0,1187.381,1,4,2025-04-21T11:21:17.391+03:00,766917091.3589115,0,-45.7,100.2813,1,0.65,2025-04-21T11:22:28.578+03:00,87,1.45,2025-04-21T09:28:58.093+03:00,0.01174319131481236,0
2025-04-21T11:31:32.667+03:00,1745224288.775065,40.95361853999372,29.1409886722274,92.00693,-1,-1,-1,-1,30,37.99608032153802,-9999,13954.94365704167,-0.7598419189453125,0.566253662109375,-0.3182525634765625,13954.93358204167,-2.356713054348189,-1.180549808322466,-0.6015783213746236,-0.002813208382576704,-0.01449861563742161,0.006036654580384493,-0.001015722751617432,-0.001704990863800049,0.006762325763702393,XArbitraryZVertical,0.5853223608291845,-0.02412166419537583,0.6700996347921122,-0.4558313618113701,-0.7624577879905701,0.5659444332122803,-0.3136317729949951,0,0,0,-1,-1,13940.65235591667,unknown,2,2025-04-21T11:31:18.370+03:00,2025-04-20T21:57:49.637+03:00,1587,1.127823,0,0,1187.381,1,4,2025-04-21T11:21:17.391+03:00,766917091.3589115,0,-45.7,100.2813,1,0.65,2025-04-21T11:22:28.578+03:00,87,1.45,2025-04-21T09:28:58.093+03:00,0.01174319131481236,0
2025-04-21T11:31:32.677+03:00,1745224288.775065,40.95361853999372,29.1409886722274,92.00693,-1,-1,-1,-1,30,37.99608032153802,-9999,13954.95373304167,-0.762115478515625,0.5665435791015625,-0.3158111572265625,13954.94365704167,-2.356700444197009,-1.180681979025618,-0.6016225737705622,0.003145081922411919,-0.01116780005395412,0.007223359309136868,0.002451121807098389,-0.001756727695465088,-0.001999706029891968,XArbitraryZVertical,0.5853701419836125,-0.02410547524071511,0.6700485261905358,-0.4558459535734698,-0.7624760270118713,0.5659809112548828,-0.3135214447975159,0,0,0,-1,-1,13940.65235591667,unknown,2,2025-04-21T11:31:18.370+03:00,2025-04-20T21:57:49.637+03:00,1587,1.127823,0,0,1187.381,1,4,2025-04-21T11:21:17.391+03:00,766917091.3589115,0,-45.7,100.2813,1,0.65,2025-04-21T11:22:28.578+03:00,87,1.45,2025-04-21T09:28:58.093+03:00,0.01174319131481236,0
2025-04-21T11:31:32.687+03:00,1745224288.775065,40.95361853999372,29.1409886722274,92.00693,-1,-1,-1,-1,30,37.99608032153802,-9999,13954.96380804167,-0.7610931396484375,0.565277099609375,-0.314544677734375,13954.95373304167,-2.356667308894039,-1.180773075356828,-0.6016593412347597,0.000215271778870374,-0.0117356525734067,0.003696102648973465,0.00221627950668335,0.001402020454406738,-0.004243820905685425,XArbitraryZVertical,0.5854038435887539,-0.02408966463267337,0.6700063569179088,-0.4558654318753854,-0.7624853253364563,0.5660111904144287,-0.313444048166275,0,0,0,-1,-1,13940.65235591667,unknown,2,2025-04-21T11:31:18.370+03:00,2025-04-20T21:57:49.637+03:00,1587,1.127823,0,0,1187.381,1,4,2025-04-21T11:21:17.391+03:00,766917091.3589115,0,-45.7,100.2813,1,0.65,2025-04-21T11:22:28.578+03:00,87,1.45,2025-04-21T09:28:58.093+03:00,0.01174319131481236,0
2025-04-21T11:31:32.697+03:00,1745224288.775065,40.95361853999372,29.1409886722274,92.00693,-1,-1,-1,-1,30,37.99608032153802,-9999,13954.97388304167,-0.7635345458984375,0.5691070556640625,-0.31573486328125,13954.96380804167,-2.356635469663019,-1.180872204721797,-0.6016941498036724,7.332529639825225e-05,-0.009221894666552544,0.003946705721318722,0.000428617000579834,-0.0005797147750854492,-0.001885473728179932,XArbitraryZVertical,0.5854400436821735,-0.02407156636434042,0.6699626817636327,-0.4558842600902007,-0.7624982595443726,0.5660399198532104,-0.3133610188961029,0,0,0,-1,-1,13940.65235591667,unknown,2,2025-04-21T11:31:18.370+03:00,2025-04-20T21:57:49.637+03:00,1587,1.127823,0,0,1187.381,1,4,2025-04-21T11:21:17.391+03:00,766917091.3589115,0,-45.7,100.2813,1,0.65,2025-04-21T11:22:28.578+03:00,87,1.45,2025-04-21T09:28:58.093+03:00,0.01174319131481236,0
2025-04-21T11:31:32.707+03:00,1745224288.775065,40.95361853999372,29.1409886722274,92.00693,-1,-1,-1,-1,30,37.99608032153802,-9999,13954.98395804167,-0.7620391845703125,0.575958251953125,-0.3121337890625,13954.97388304167,-2.356595111494126,-1.18093196032924,-0.6016907398513427,0.004052753560245037,-0.007211874704807997,0.001804392668418586,0.0003728270530700684,4.869699478149414e-05,-0.001197934150695801,XArbitraryZVertical,0.585460291543444,-0.02404478078221626,0.6699367087603288,-0.4558978111853769,-0.7625187635421753,0.566037118434906,-0.3133161962032318,0,0,0,-1,-1,13940.65235591667,unknown,2,2025-04-21T11:31:18.370+03:00,2025-04-20T21:57:49.637+03:00,1587,1.127823,0,0,1187.381,1,4,2025-04-21T11:21:17.391+03:00,766917091.3589115,0,-45.7,100.2813,1,0.65,2025-04-21T11:22:28.578+03:00,87,1.45,2025-04-21T09:28:58.093+03:00,0.01174319131481236,0
2025-04-21T11:31:32.717+03:00,1745224288.775065,40.95361853999372,29.1409886722274,92.00693,-1,-1,-1,-1,30,37.99608032153802,-9999,13954.99403304167,-0.7624359130859375,0.5681610107421875,-0.3061981201171875,13954.98395804167,-2.356475472730474,-1.180921717274886,-0.6016641617487659,0.009138592518866062,-0.0009092371910810471,0.006378371734172106,-0.001584887504577637,0.008432328701019287,-0.002176195383071899,XArbitraryZVertical,0.5854563042966894,-0.02400154320564316,0.6699180899805187,-0.4559324436098254,-0.7625293731689453,0.5660151839256287,-0.3133296966552734,0,0,0,-1,-1,13940.65235591667,unknown,2,2025-04-21T11:31:18.370+03:00,2025-04-20T21:57:49.637+03:00,1587,1.127823,0,0,1187.381,1,4,2025-04-21T11:21:17.391+03:00,766917091.3589115,0,-45.7,100.2813,1,0.65,2025-04-21T11:22:28.578+03:00,87,1.45,2025-04-21T09:28:58.093+03:00,0.01174319131481236,0
2025-04-21T11:31:32.727+03:00,1745224288.775065,40.95361853999372,29.1409886722274,92.00693,-1,-1,-1,-1,30,37.99608032153802,-9999,13955.00410804167,-0.764007568359375,0.56256103515625,-0.302490234375,13954.99403304167,-2.356361482062947,-1.180883887705049,-0.6016519706493543,0.009663834236562252,-0.003938516136258841,0.0004388900706544518,0.0009425878524780273,0.006977617740631104,0.004050314426422119,XArbitraryZVertical,0.58544406596521,-0.02397191964355346,0.6699058675227929,-0.4559677895102774,-0.7625240087509155,0.5660051107406616,-0.3133611977100372,0,0,0,-1,-1,13940.65235591667,unknown,2,2025-04-21T11:31:18.370+03:00,2025-04-20T21:57:49.637+03:00,1587,1.127823,0,0,1187.381,1,4,2025-04-21T11:21:17.391+03:00,766917091.3589115,0,-45.7,100.2813,1,0.65,2025-04-21T11:22:28.578+03:00,87,1.45,2025-04-21T09:28:58.093+03:00,0.01174319131481236,0
2025-04-21T11:31:32.738+03:00,1745224288.775065,40.95361853999372,29.1409886722274,92.00693,-1,-1,-1,-1,30,37.99608032153802,-9999,13955.01418304167,-0.76190185546875,0.5586700439453125,-0.305908203125,13955.00410804167,-2.356230963587524,-1.180845146062387,-0.6016456556393567,0.01158370729535818,-0.001815443858504295,0.004720986820757389,-0.00126349925994873,-0.001317977905273438,0.008597791194915771,XArbitraryZVertical,0.5854321789963061,-0.02394004063391855,0.6698887937378161,-0.4560097784892659,-0.762515127658844,0.5659999251365662,-0.3133920729160309,0,0,0,-1,-1,13940.65235591667,unknown,2,2025-04-21T11:31:18.370+03:00,2025-04-20T21:57:49.637+03:00,1587,1.127823,0,0,1187.381,1,4,2025-04-21T11:21:17.391+03:00,766917091.3589115,0,-45.7,100.2813,1,0.65,2025-04-21T11:22:28.578+03:00,87,1.45,2025-04-21T09:28:58.093+03:00,0.01174319131481236,0
2025-04-21T11:31:32.747+03:00,1745224288.775065,40.95361853999372,29.1409886722274,92.00693,-1,-1,-1,-1,30,37.99608032153802,-9999,13955.02425904167,-0.7611846923828125,0.5593414306640625,-0.3113555908203125,13955.01418304167,-2.356078692841803,-1.180820493376867,-0.6016649368262906,0.008440111763775349,-0.008554307743906975,0.007847405038774014,-0.0003810524940490723,-0.005728363990783691,0.01053512096405029,XArbitraryZVertical,0.5854271941919901,-0.02390875033443886,0.6698571709694133,-0.4560643333601908,-0.7624973654747009,0.5660158395767212,-0.3134067356586456,0,0,0,-1,-1,13940.65235591667,unknown,2,2025-04-21T11:31:18.370+03:00,2025-04-20T21:57:49.637+03:00,1587,1.127823,0,0,1187.381,1,4,2025-04-21T11:21:17.391+03:00,766917091.3589115,0,-45.7,100.2813,1,0.65,2025-04-21T11:22:28.578+03:00,87,1.45,2025-04-21T09:28:58.093+03:00,0.01174319131481236,0
2025-04-21T11:31:32.757+03:00,1745224288.775065,40.95361853999372,29.1409886722274,92.00693,-1,-1,-1,-1,30,37.99608032153802,-9999,13955.03433404167,-0.7596588134765625,0.5561065673828125,-0.3112030029296875,13955.02425904167,-2.355985799853603,-1.180839466224856,-0.6017528458850376,0.0009542324114590883,-0.009376691654324532,0.01308451127260923,0.00125730037689209,-0.007479250431060791,0.004230350255966187,XArbitraryZVertical,0.5854413022752266,-0.0239122135787741,0.6698115206746628,-0.4561131380826182,-0.7624573111534119,0.5660883188247681,-0.3133733868598938,0,0,0,-1,-1,13940.65235591667,unknown,2,2025-04-21T11:31:18.370+03:00,2025-04-20T21:57:49.637+03:00,1587,1.127823,0,0,1187.381,1,4,2025-04-21T11:21:17.391+03:00,766917091.3589115,0,-45.7,100.2813,1,0.65,2025-04-21T11:22:28.578+03:00,87,1.45,2025-04-21T09:28:58.093+03:00,0.01174319131481236,0
2025-04-21T11:31:32.767+03:00,1745224288.775065,40.95361853999372,29.1409886722274,92.00693,-1,-1,-1,-1,30,37.99608032153802,-9999,13955.04440904167,-0.7598876953125,0.558349609375,-0.3122406005859375,13955.03433404167,-2.355925637396032,-1.180919971576945,-0.6019118616555542,-0.004660443402826786,-0.01406698487699032,0.01752869412302971,0.002572596073150635,-0.008815884590148926,0.001952707767486572,XArbitraryZVertical,0.5854810200882009,-0.02393956269742756,0.6697399063877116,-0.4561657754200306,-0.7623991966247559,0.5662193894386292,-0.3132777512073517,0,0,0,-1,-1,13940.65235591667,unknown,2,2025-04-21T11:31:18.370+03:00,2025-04-20T21:57:49.637+03:00,1587,1.127823,0,0,1187.381,1,4,2025-04-21T11:21:17.391+03:00,766917091.3589115,0,-45.7,100.2813,1,0.65,2025-04-21T11:22:28.578+03:00,87,1.45,2025-04-21T09:28:58.093+03:00,0.01174319131481236,0
2025-04-21T11:31:32.778+03:00,1745224288.775065,40.95361853999372,29.1409886722274,92.00693,-1,-1,-1,-1,30,37.99608032153802,-9999,13955.05448404167,-0.761749267578125,0.5687408447265625,-0.3109283447265625,13955.04440904167,-2.355928973014576,-1.181058182284679,-0.6020932080887375,-0.006719865836203098,-0.01446139812469482,0.0157486367970705,0.002108931541442871,-0.01079642772674561,0.001365870237350464,XArbitraryZVertical,0.5855409698727984,-0.02398119931208226,0.6696611149507662,-0.456202305622157,-0.7623474597930908,0.5663688182830811,-0.3131333589553833,0,0,0,-1,-1,13940.65235591667,unknown,2,2025-04-21T11:31:18.370+03:00,2025-04-20T21:57:49.637+03:00,1587,1.127823,0,0,1187.381,1,4,2025-04-21T11:21:17.391+03:00,766917091.3589115,0,-45.7,100.2813,1,0.65,2025-04-21T11:22:28.578+03:00,87,1.45,2025-04-21T09:28:58.093+03:00,0.01174319131481236,0
2025-04-21T11:31:32.788+03:00,1745224288.775065,40.95361853999372,29.1409886722274,92.00693,-1,-1,-1,-1,30,37.99608032153802,-9999,13955.06455904167,-0.7638397216796875,0.5713653564453125,-0.3115997314453125,13955.05448404167,-2.355914384644718,-1.181191710763754,-0.6022307897875691,-0.003012212924659252,-0.01162726245820522,0.01065387763082981,0.002444803714752197,-0.002975165843963623,0.00186002254486084,XArbitraryZVertical,0.585596242989737,-0.02400122085790295,0.6695890560475568,-0.4562361131410144,-0.7623172402381897,0.5664822459220886,-0.313001960515976,0,0,0,-1,-1,13940.65235591667,unknown,2,2025-04-21T11:31:18.370+03:00,2025-04-20T21:57:49.637+03:00,1587,1.127823,0,0,1187.381,1,4,2025-04-21T11:21:17.391+03:00,766917091.3589115,0,-45.7,100.2813,1,0.65,2025-04-21T11:22:28.578+03:00,87,1.45,2025-04-21T09:28:58.093+03:00,0.01174319131481236,0
2025-04-21T11:31:32.798+03:00,1745224288.775065,40.95361853999372,29.1409886722274,92.00693,-1,-1,-1,-1,30,37.99608032153802,-9999,13955.07463404167,-0.7609405517578125,0.5692138671875,-0.3124847412109375,13955.06455904167,-2.355855008127999,-1.181281918957227,-0.6023189742542741,0.001195847755298018,-0.01160169579088688,0.005912384949624538,-0.001342058181762695,0.0050392746925354,0.00107043981552124,XArbitraryZVertical,0.5856338126342828,-0.02399834623897911,0.6695301048208884,-0.4562745895342515,-0.7622992396354675,0.5665549039840698,-0.3129142224788666,0,0,0,-1,-1,13940.65235591667,unknown,2,2025-04-21T11:31:18.370+03:00,2025-04-20T21:57:49.637+03:00,1587,1.127823,0,0,1187.381,1,4,2025-04-21T11:21:17.391+03:00,766917091.3589115,0,-45.7,100.2813,1,0.65,2025-04-21T11:22:28.578+03:00,87,1.45,2025-04-21T09:28:58.093+03:00,0.01174319131481236,0
2025-04-21T11:31:32.808+03:00,1745224288.775065,40.95361853999372,29.1409886722274,92.00693,-1,-1,-1,-1,30,37.99608032153802,-9999,13955.08470904167,-0.7608795166015625,0.5667877197265625,-0.31121826171875,13955.07463404167,-2.355777360882013,-1.181367670578592,-0.6023727498804575,0.002553127706050873,-0.01058423519134521,0.006356134079396725,-0.0002753138542175293,0.003728508949279785,0.0003678798675537109,XArbitraryZVertical,0.5856675149450608,-0.0239774557317093,0.669475666103621,-0.4563122737334189,-0.7622978687286377,0.5665991902351379,-0.3128372728824615,0,0,0,-1,-1,13940.65235591667,unknown,2,2025-04-21T11:31:18.370+03:00,2025-04-20T21:57:49.637+03:00,1587,1.127823,0,0,1187.381,1,4,2025-04-21T11:21:17.391+03:00,766917091.3589115,0,-45.7,100.2813,1,0.65,2025-04-21T11:22:28.578+03:00,87,1.45,2025-04-21T09:28:58.093+03:00,0.01174319131481236,0
2025-04-21T11:31:32.818+03:00,1745224288.775065,40.95361853999372,29.1409886722274,92.00693,-1,-1,-1,-1,30,37.99608032153802,-9999,13955.09478504167,-0.761566162109375,0.5635833740234375,-0.311492919921875,13955.08470904167,-2.355763169585842,-1.181487138580425,-0.6024447928041216,-0.004166293889284134,-0.01108624041080475,0.01096500083804131,0.001921534538269043,0.001441299915313721,0.0006732642650604248,XArbitraryZVertical,0.5857131295891869,-0.02397474498826071,0.6694218337570637,-0.4563327130705662,-0.7622973918914795,0.5666585564613342,-0.3127306699752808,0,0,0,-1,-1,13940.65235591667,unknown,2,2025-04-21T11:31:18.370+03:00,2025-04-20T21:57:49.637+03:00,1587,1.127823,0,0,1187.381,1,4,2025-04-21T11:21:17.391+03:00,766917091.3589115,0,-45.7,100.2813,1,0.65,2025-04-21T11:22:28.578+03:00,87,1.45,2025-04-21T09:28:58.093+03:00,0.01174319131481236,0
2025-04-21T11:31:32.828+03:00,1745224288.775065,40.95361853999372,29.1409886722274,92.00693,-1,-1,-1,-1,30,37.99608032153802,-9999,13955.10486004167,-0.7603759765625,0.56036376953125,-0.310455322265625,13955.09478504167,-2.355797256812334,-1.181617428358223,-0.602570131587417,-0.003097168169915676,-0.006713995710015297,0.009215503931045532,-0.0006669163703918457,-0.001881539821624756,0.00163036584854126,XArbitraryZVertical,0.5857657795314858,-0.02400485977005682,0.6693644761520794,-0.4563477803003363,-0.7622724771499634,0.56676185131073,-0.3126044273376465,0,0,0,-1,-1,13940.65235591667,unknown,2,2025-04-21T11:31:18.370+03:00,2025-04-20T21:57:49.637+03:00,1587,1.127823,0,0,1187.381,1,4,2025-04-21T11:21:17.391+03:00,766917091.3589115,0,-45.7,100.2813,1,0.65,2025-04-21T11:22:28.578+03:00,87,1.45,2025-04-21T09:28:58.093+03:00,0.01174319131481236,0
2025-04-21T11:31:32.838+03:00,1745224288.775065,40.95361853999372,29.1409886722274,92.00693,-1,-1,-1,-1,30,37.99608032153802,-9999,13955.11493504167,-0.764862060546875,0.5620880126953125,-0.3080902099609375,13955.10486004167,-2.355785680969082,-1.181671479693237,-0.6026870994189178,-0.003445509355515242,-0.006382166408002377,0.01473037805408239,0.003301680088043213,-0.005289018154144287,0.00093841552734375,XArbitraryZVertical,0.5857928351447627,-0.02403568653671087,0.6693207729959748,-0.4563755225519098,-0.7622280120849609,0.566858172416687,-0.3125380873680115,0,0,0,-1,-1,13940.65235591667,unknown,2,2025-04-21T11:31:18.370+03:00,2025-04-20T21:57:49.637+03:00,1587,1.127823,0,0,1187.381,1,4,2025-04-21T11:21:17.391+03:00,766917091.3589115,0,-45.7,100.2813,1,0.65,2025-04-21T11:22:28.578+03:00,87,1.45,2025-04-21T09:28:58.093+03:00,0.01174319131481236,0
2025-04-21T11:31:32.848+03:00,1745224288.775065,40.95361853999372,29.1409886722274,92.00693,-1,-1,-1,-1,30,37.99608032153802,-9999,13955.12501004167,-0.7628173828125,0.56512451171875,-0.31195068359375,13955.11493504167,-2.355736840368022,-1.181679021414264,-0.602803909955945,-0.0002419929951429367,-0.003868142608553171,0.01138851046562195,-0.002189338207244873,-0.006438076496124268,0.004096627235412598,XArbitraryZVertical,0.5858047557941501,-0.02406613916409188,0.6692822395718523,-0.4564151564178423,-0.7621691226959229,0.5669544339179993,-0.3125072121620178,0,0,0,-1,-1,13940.65235591667,unknown,2,2025-04-21T11:31:18.370+03:00,2025-04-20T21:57:49.637+03:00,1587,1.127823,0,0,1187.381,1,4,2025-04-21T11:21:17.391+03:00,766917091.3589115,0,-45.7,100.2813,1,0.65,2025-04-21T11:22:28.578+03:00,87,1.45,2025-04-21T09:28:58.093+03:00,0.01174319131481236,0
2025-04-21T11:31:32.858+03:00,1745224288.775065,40.95361853999372,29.1409886722274,92.00693,-1,-1,-1,-1,30,37.99608032153802,-9999,13955.13508504167,-0.7636566162109375,0.566986083984375,-0.311859130859375,13955.12501004167,-2.355691238600756,-1.181684966253454,-0.6028920191220433,-0.0005264185601845384,-0.001128016039729118,0.009489144198596478,-0.001043498516082764,-0.002619683742523193,0.002440452575683594,XArbitraryZVertical,0.5858139342551326,-0.02408647527044455,0.6692511176495359,-0.4564479973224827,-0.7621248364448547,0.5670269727706909,-0.3124837577342987,0,0,0,-1,-1,13940.65235591667,unknown,2,2025-04-21T11:31:18.370+03:00,2025-04-20T21:57:49.637+03:00,1587,1.127823,0,0,1187.381,1,4,2025-04-21T11:21:17.391+03:00,766917091.3589115,0,-45.7,100.2813,1,0.65,2025-04-21T11:22:28.578+03:00,87,1.45,2025-04-21T09:28:58.093+03:00,0.01174319131481236,0
