loggingTime(txt),locationTimestamp_since1970(s),locationLatitude(WGS84),locationLongitude(WGS84),locationAltitude(m),locationSpeed(m/s),locationSpeedAccuracy(m/s),locationCourse(°),locationCourseAccuracy(°),locationVerticalAccuracy(m),locationHorizontalAccuracy(m),locationFloor(Z),accelerometerTimestamp_sinceReboot(s),accelerometerAccelerationX(G),accelerometerAccelerationY(G),accelerometerAccelerationZ(G),motionTimestamp_sinceReboot(s),motionYaw(rad),motionRoll(rad),motionPitch(rad),motionRotationRateX(rad/s),motionRotationRateY(rad/s),motionRotationRateZ(rad/s),motionUserAccelerationX(G),motionUserAccelerationY(G),motionUserAccelerationZ(G),motionAttitudeReferenceFrame(txt),motionQuaternionX(R),motionQuaternionY(R),motionQuaternionZ(R),motionQuaternionW(R),motionGravityX(G),motionGravityY(G),motionGravityZ(G),motionMagneticFieldX(µT),motionMagneticFieldY(µT),motionMagneticFieldZ(µT),motionHeading(°),motionMagneticFieldCalibrationAccuracy(Z),activityTimestamp_sinceReboot(s),activity(txt),activityActivityConfidence(Z),activityActivityStartDate(txt),pedometerStartDate(txt),pedometerNumberofSteps(N),pedometerAverageActivePace(s/m),pedometerCurrentPace(s/m),pedometerCurrentCadence(steps/s),pedometerDistance(m),pedometerFloorAscended(N),pedometerFloorDescended(N),pedometerEndDate(txt),altimeterTimestamp_sinceReboot(s),altimeterReset(bool),altimeterRelativeAltitude(m),altimeterPressure(kPa),batteryState(N),batteryLevel(R),heartRateBPMTimestamp(txt),heartRateBPM(N),heartRateBPS(R),heartRateVariabilityTimestamp(txt),heartRateVariability(ms),label
2025-04-22T15:53:07.947+03:00,1745326387.629975,40.9522137686932,29.14028088868508,76.16171,-1,-1,-1,-1,30,19.36516156965402,-9999,36431.0730975,-0.6967926025390625,0.4053955078125,-0.4587554931640625,36431.06302150001,-2.688820341959216,-0.9561317549743942,-0.4714384423982511,-0.002800705377012491,-0.06663808971643448,0.04346507415175438,0.003483712673187256,-0.0251828134059906,0.01174783706665039,XArbitraryZVertical,-0.4824693927736478,0.1016592772912393,-0.8171876917920754,0.298484080049903,-0.7278487682342529,0.454168289899826,-0.5137773752212524,0,0,0,-1,-1,36426.358702625,unknown,2,2025-04-22T15:53:03.194+03:00,2025-04-21T17:08:51.449+03:00,8293,1.047924,0,0,6896.382,7,22,2025-04-22T15:52:55.455+03:00,767019185.8753557,0,-14.37,100.3758,1,0.5,2025-04-22T15:50:57.745+03:00,80,1.333333333333333,2025-04-22T14:20:19.516+03:00,0.02197104130929222,0
2025-04-22T15:53:07.951+03:00,1745326387.629975,40.9522137686932,29.14028088868508,76.16171,-1,-1,-1,-1,30,19.36516156965402,-9999,36431.0831735,-0.761322021484375,0.4349212646484375,-0.4864959716796875,36431.0730975,-2.688572535429519,-0.9561159626230007,-0.4718892898561996,-0.01185838226228952,0.03609494864940643,0.06092795357108116,0.01539319753646851,-0.05204316973686218,0.03993099927902222,XArbitraryZVertical,-0.482495622431705,0.1017969331510985,-0.8170863102158187,0.2986722911375023,-0.7276732921600342,0.4545699059963226,-0.5136707425117493,0,0,0,-1,-1,36426.358702625,unknown,2,2025-04-22T15:53:03.194+03:00,2025-04-21T17:08:51.449+03:00,8293,1.047924,0,0,6896.382,7,22,2025-04-22T15:52:55.455+03:00,767019185.8753557,0,-14.37,100.3758,1,0.5,2025-04-22T15:50:57.745+03:00,80,1.333333333333333,2025-04-22T14:20:19.516+03:00,0.02197104130929222,0
2025-04-22T15:53:07.953+03:00,1745326387.629975,40.9522137686932,29.14028088868508,76.16171,-1,-1,-1,-1,30,19.36516156965402,-9999,36431.0932495,-0.713714599609375,0.448699951171875,-0.5006866455078125,36431.0831735,-2.688425246738892,-0.9558380943117942,-0.4724611310524435,-0.03477541357278824,-0.003206119406968355,0.05124390125274658,0.02504777908325195,-0.04657098650932312,0.05324304103851318,XArbitraryZVertical,-0.4824150580777892,0.1020503253271922,-0.8170448354734263,0.2988295976655647,-0.7273181676864624,0.4550791680812836,-0.5137228965759277,0,0,0,-1,-1,36426.358702625,unknown,2,2025-04-22T15:53:03.194+03:00,2025-04-21T17:08:51.449+03:00,8293,1.047924,0,0,6896.382,7,22,2025-04-22T15:52:55.455+03:00,767019185.8753557,0,-14.37,100.3758,1,0.5,2025-04-22T15:50:57.745+03:00,80,1.333333333333333,2025-04-22T14:20:19.516+03:00,0.02197104130929222,0
2025-04-22T15:53:07.955+03:00,1745326387.629975,40.9522137686932,29.14028088868508,76.16171,-1,-1,-1,-1,30,19.36516156965402,-9999,36431.1033265,-0.68853759765625,0.4644317626953125,-0.5069427490234375,36431.0932495,-2.688494850730948,-0.9560680105130824,-0.4730993248879991,-0.0394262932240963,-0.02950503490865231,0.04181487858295441,-0.03628981113433838,-0.01804065704345703,0.02335184812545776,XArbitraryZVertical,-0.4825338191777259,0.1023089172453002,-0.8169029644993543,0.2989370262977594,-0.7271987795829773,0.4556473791599274,-0.5133879780769348,0,0,0,-1,-1,36426.358702625,unknown,2,2025-04-22T15:53:03.194+03:00,2025-04-21T17:08:51.449+03:00,8293,1.047924,0,0,6896.382,7,22,2025-04-22T15:52:55.455+03:00,767019185.8753557,0,-14.37,100.3758,1,0.5,2025-04-22T15:50:57.745+03:00,80,1.333333333333333,2025-04-22T14:20:19.516+03:00,0.02197104130929222,0
2025-04-22T15:53:07.957+03:00,1745326387.629975,40.9522137686932,29.14028088868508,76.16171,-1,-1,-1,-1,30,19.36516156965402,-9999,36431.1134025,-0.734527587890625,0.4690093994140625,-0.5130767822265625,36431.1033265,-2.68853380829734,-0.9561984022104142,-0.4736524947417131,-0.02855127677321434,-0.0001737778075039387,0.03499718755483627,0.02340078353881836,-0.005486756563186646,0.01137763261795044,XArbitraryZVertical,-0.4826096208748644,0.1025381517092779,-0.8167934476260521,0.2990354028722331,-0.7270596623420715,0.4561397135257721,-0.51314777135849,0,0,0,-1,-1,36426.358702625,unknown,2,2025-04-22T15:53:03.194+03:00,2025-04-21T17:08:51.449+03:00,8293,1.047924,0,0,6896.382,7,22,2025-04-22T15:52:55.455+03:00,767019185.8753557,0,-14.37,100.3758,1,0.5,2025-04-22T15:50:57.745+03:00,80,1.333333333333333,2025-04-22T14:20:19.516+03:00,0.02197104130929222,0
2025-04-22T15:53:07.964+03:00,1745326387.629975,40.9522137686932,29.14028088868508,76.16171,-1,-1,-1,-1,30,19.36516156965402,-9999,36431.12347850001,-0.727813720703125,0.4681396484375,-0.50738525390625,36431.1134025,-2.688578778749956,-0.956201454578491,-0.4740814752671147,-0.03108946606516838,-0.002805979456752539,0.02254055067896843,0.03300803899765015,0.009481906890869141,0.00464022159576416,XArbitraryZVertical,-0.4826275469258717,0.1027341211281294,-0.8167344095396476,0.2991006577737507,-0.7269013524055481,0.4565214216709137,-0.5130326747894287,0,0,0,-1,-1,36426.358702625,unknown,2,2025-04-22T15:53:03.194+03:00,2025-04-21T17:08:51.449+03:00,8293,1.047924,0,0,6896.382,7,22,2025-04-22T15:52:55.455+03:00,767019185.8753557,0,-14.37,100.3758,1,0.5,2025-04-22T15:50:57.745+03:00,80,1.333333333333333,2025-04-22T14:20:19.516+03:00,0.02197104130929222,0
2025-04-22T15:53:07.973+03:00,1745326387.629975,40.9522137686932,29.14028088868508,76.16171,-1,-1,-1,-1,30,19.36516156965402,-9999,36431.1335555,-0.723419189453125,0.466156005859375,-0.503173828125,36431.12347850001,-2.688806315680556,-0.9563104285220085,-0.4744620269565695,-0.04317329451441765,0.002393043134361506,0.01402056589722633,-0.01038247346878052,0.01202726364135742,0.0001730918884277344,XArbitraryZVertical,-0.4826771646019418,0.1029373597084967,-0.8166844037511648,0.2990873757963898,-0.7268152832984924,0.4568599760532379,-0.5128533244132996,0,0,0,-1,-1,36426.358702625,unknown,2,2025-04-22T15:53:03.194+03:00,2025-04-21T17:08:51.449+03:00,8293,1.047924,0,0,6896.382,7,22,2025-04-22T15:52:55.455+03:00,767019185.8753557,0,-14.37,100.3758,1,0.5,2025-04-22T15:50:57.745+03:00,80,1.333333333333333,2025-04-22T14:20:19.516+03:00,0.02197104130929222,0
2025-04-22T15:53:07.989+03:00,1745326387.629975,40.9522137686932,29.14028088868508,76.16171,-1,-1,-1,-1,30,19.36516156965402,-9999,36431.1436315,-0.7378082275390625,0.4654388427734375,-0.5043487548828125,36431.1335555,-2.689093421168208,-0.9563263916849003,-0.4748121011045464,-0.04198279604315758,0.0157318189740181,0.01057873014360666,0.001106917858123779,0.01110553741455078,0.006813645362854004,XArbitraryZVertical,-0.4826843374720082,0.103155715244669,-0.8166702886845894,0.2990390448566185,-0.7266927361488342,0.4571713507175446,-0.5127494335174561,0,0,0,-1,-1,36426.358702625,unknown,2,2025-04-22T15:53:03.194+03:00,2025-04-21T17:08:51.449+03:00,8293,1.047924,0,0,6896.382,7,22,2025-04-22T15:52:55.455+03:00,767019185.8753557,0,-14.37,100.3758,1,0.5,2025-04-22T15:50:57.745+03:00,80,1.333333333333333,2025-04-22T14:20:19.516+03:00,0.02197104130929222,0
2025-04-22T15:53:07.993+03:00,1745326387.629975,40.9522137686932,29.14028088868508,76.16171,-1,-1,-1,-1,30,19.36516156965402,-9999,36431.1537075,-0.731231689453125,0.4659881591796875,-0.50531005859375,36431.1436315,-2.689420532719595,-0.9563313996687615,-0.4751024888819418,-0.03942402824759483,0.0115192299708724,0.00364918471314013,0.0007110238075256348,0.008848398923873901,0.01005983352661133,XArbitraryZVertical,-0.4826822789573269,0.103359544365798,-0.8166738376018009,0.2989622039958449,-0.7265867590904236,0.4574295878410339,-0.5126692652702332,0,0,0,-1,-1,36426.358702625,unknown,2,2025-04-22T15:53:03.194+03:00,2025-04-21T17:08:51.449+03:00,8293,1.047924,0,0,6896.382,7,22,2025-04-22T15:52:55.455+03:00,767019185.8753557,0,-14.37,100.3758,1,0.5,2025-04-22T15:50:57.745+03:00,80,1.333333333333333,2025-04-22T14:20:19.516+03:00,0.02197104130929222,0
2025-04-22T15:53:08.003+03:00,1745326387.629975,40.9522137686932,29.14028088868508,76.16171,-1,-1,-1,-1,30,19.36516156965402,-9999,36431.1637835,-0.731842041015625,0.46673583984375,-0.50738525390625,36431.1537075,-2.689788594883123,-0.9563822288582593,-0.4752938757662263,-0.03548095747828484,0.01353311259299517,-0.005153761245310307,-0.01141941547393799,0.007259160280227661,0.008019328117370605,XArbitraryZVertical,-0.4826923926085754,0.1035235646595748,-0.8166875350823287,0.2988517777936428,-0.7265413403511047,0.4575997591018677,-0.5125818252563477,0,0,0,-1,-1,36426.358702625,unknown,2,2025-04-22T15:53:03.194+03:00,2025-04-21T17:08:51.449+03:00,8293,1.047924,0,0,6896.382,7,22,2025-04-22T15:52:55.455+03:00,767019185.8753557,0,-14.37,100.3758,1,0.5,2025-04-22T15:50:57.745+03:00,80,1.333333333333333,2025-04-22T14:20:19.516+03:00,0.02197104130929222,0
2025-04-22T15:53:08.021+03:00,1745326387.629975,40.9522137686932,29.14028088868508,76.16171,-1,-1,-1,-1,30,19.36516156965402,-9999,36431.1738605,-0.7365264892578125,0.4640350341796875,-0.510345458984375,36431.1637835,-2.690201206556092,-0.9564143263356475,-0.4754278678122539,-0.0361747108399868,0.01985439285635948,-0.01159648038446903,-0.004571318626403809,0.008910030126571655,0.006923079490661621,XArbitraryZVertical,-0.4826899995659572,0.1036763241357622,-0.816721045186476,0.2987110088014375,-0.7265076637268066,0.4577189087867737,-0.5125231742858887,0,0,0,-1,-1,36426.358702625,unknown,2,2025-04-22T15:53:03.194+03:00,2025-04-21T17:08:51.449+03:00,8293,1.047924,0,0,6896.382,7,22,2025-04-22T15:52:55.455+03:00,767019185.8753557,0,-14.37,100.3758,1,0.5,2025-04-22T15:50:57.745+03:00,80,1.333333333333333,2025-04-22T14:20:19.516+03:00,0.02197104130929222,0
2025-04-22T15:53:08.024+03:00,1745326387.629975,40.9522137686932,29.14028088868508,76.16171,-1,-1,-1,-1,30,19.36516156965402,-9999,36431.18393650001,-0.7352447509765625,0.462860107421875,-0.5058135986328125,36431.1738605,-2.690638449446145,-0.9564310667089138,-0.4755084541692777,-0.03731467574834824,0.02121619880199432,-0.01588436961174011,-0.005859375,0.008792608976364136,0.005226433277130127,XArbitraryZVertical,-0.482677668138397,0.1038142039798895,-0.8167700849688587,0.298549010289761,-0.7264860868453979,0.4577905535697937,-0.5124897360801697,0,0,0,-1,-1,36426.358702625,unknown,2,2025-04-22T15:53:03.194+03:00,2025-04-21T17:08:51.449+03:00,8293,1.047924,0,0,6896.382,7,22,2025-04-22T15:52:55.455+03:00,767019185.8753557,0,-14.37,100.3758,1,0.5,2025-04-22T15:50:57.745+03:00,80,1.333333333333333,2025-04-22T14:20:19.516+03:00,0.02197104130929222,0
2025-04-22T15:53:08.034+03:00,1745326387.629975,40.9522137686932,29.14028088868508,76.16171,-1,-1,-1,-1,30,19.36516156965402,-9999,36431.1940125,-0.73150634765625,0.463165283203125,-0.503692626953125,36431.18393650001,-2.691165040341112,-0.9564154263415752,-0.4755994416807496,-0.04934949800372124,0.03016708418726921,-0.019969392567873,-0.01096737384796143,0.006636589765548706,0.002604484558105469,XArbitraryZVertical,-0.4826478800064555,0.1039829737042778,-0.8168386638226455,0.2983508572515708,-0.7264440655708313,0.4578714370727539,-0.5124771595001221,0,0,0,-1,-1,36426.358702625,unknown,2,2025-04-22T15:53:03.194+03:00,2025-04-21T17:08:51.449+03:00,8293,1.047924,0,0,6896.382,7,22,2025-04-22T15:52:55.455+03:00,767019185.8753557,0,-14.37,100.3758,1,0.5,2025-04-22T15:50:57.745+03:00,80,1.333333333333333,2025-04-22T14:20:19.516+03:00,0.02197104130929222,0
2025-04-22T15:53:08.044+03:00,1745326387.629975,40.9522137686932,29.14028088868508,76.16171,-1,-1,-1,-1,30,19.36516156965402,-9999,36431.2040885,-0.7315216064453125,0.462615966796875,-0.5057525634765625,36431.1940125,-2.691759078655313,-0.9563246828350963,-0.4757633593312554,-0.05437221750617027,0.03721753507852554,-0.02065955102443695,-0.007855594158172607,0.004720777273178101,0.007586240768432617,XArbitraryZVertical,-0.4825870266398186,0.1042107787119182,-0.8169242123859738,0.2981353944816982,-0.7263361811637878,0.4580171704292297,-0.5124997496604919,0,0,0,-1,-1,36426.358702625,unknown,2,2025-04-22T15:53:03.194+03:00,2025-04-21T17:08:51.449+03:00,8293,1.047924,0,0,6896.382,7,22,2025-04-22T15:52:55.455+03:00,767019185.8753557,0,-14.37,100.3758,1,0.5,2025-04-22T15:50:57.745+03:00,80,1.333333333333333,2025-04-22T14:20:19.516+03:00,0.02197104130929222,0
2025-04-22T15:53:08.055+03:00,1745326387.629975,40.9522137686932,29.14028088868508,76.16171,-1,-1,-1,-1,30,19.36516156965402,-9999,36431.2141655,-0.7278900146484375,0.4655303955078125,-0.502899169921875,36431.2040885,-2.692456781004035,-0.9562654352910996,-0.4759075003378349,-0.05687319487333298,0.04300005733966827,-0.02655285969376564,-0.00562053918838501,0.004867315292358398,0.00818634033203125,XArbitraryZVertical,-0.4825326654182064,0.1044503082224687,-0.8170205971820189,0.2978753630520668,-0.7262519001960754,0.4581452906131744,-0.5125046968460083,0,0,0,-1,-1,36426.358702625,unknown,2,2025-04-22T15:53:03.194+03:00,2025-04-21T17:08:51.449+03:00,8293,1.047924,0,0,6896.382,7,22,2025-04-22T15:52:55.455+03:00,767019185.8753557,0,-14.37,100.3758,1,0.5,2025-04-22T15:50:57.745+03:00,80,1.333333333333333,2025-04-22T14:20:19.516+03:00,0.02197104130929222,0
2025-04-22T15:53:08.064+03:00,1745326387.629975,40.9522137686932,29.14028088868508,76.16171,-1,-1,-1,-1,30,19.36516156965402,-9999,36431.2242415,-0.72454833984375,0.470550537109375,-0.5013427734375,36431.2141655,-2.693166718347746,-0.9561530765886185,-0.4760013429587594,-0.05469273403286934,0.04796379059553146,-0.0341622419655323,-0.005591213703155518,0.004921227693557739,0.006793498992919922,XArbitraryZVertical,-0.4824537099237672,0.1046789285832448,-0.8171390617093817,0.297597692668042,-0.7261591553688049,0.4582287073135376,-0.5125615000724792,0,0,0,-1,-1,36426.358702625,unknown,2,2025-04-22T15:53:03.194+03:00,2025-04-21T17:08:51.449+03:00,8293,1.047924,0,0,6896.382,7,22,2025-04-22T15:52:55.455+03:00,767019185.8753557,0,-14.37,100.3758,1,0.5,2025-04-22T15:50:57.745+03:00,80,1.333333333333333,2025-04-22T14:20:19.516+03:00,0.02197104130929222,0
2025-04-22T15:53:08.074+03:00,1745326387.629975,40.9522137686932,29.14028088868508,76.16171,-1,-1,-1,-1,30,19.36516156965402,-9999,36431.2343175,-0.7269134521484375,0.4683990478515625,-0.504547119140625,36431.2242415,-2.693915132091775,-0.9559935711194926,-0.4760304108735125,-0.0573686771094799,0.05441955849528313,-0.04127474874258041,-0.0008925795555114746,0.007718265056610107,0.009922921657562256,XArbitraryZVertical,-0.4823505584150406,0.1048957307407441,-0.8172844958327073,0.2972892093601325,-0.726066529750824,0.4582545459270477,-0.5126696228981018,0,0,0,-1,-1,36426.358702625,unknown,2,2025-04-22T15:53:03.194+03:00,2025-04-21T17:08:51.449+03:00,8293,1.047924,0,0,6896.382,7,22,2025-04-22T15:52:55.455+03:00,767019185.8753557,0,-14.37,100.3758,1,0.5,2025-04-22T15:50:57.745+03:00,80,1.333333333333333,2025-04-22T14:20:19.516+03:00,0.02197104130929222,0
2025-04-22T15:53:08.084+03:00,1745326387.629975,40.9522137686932,29.14028088868508,76.16171,-1,-1,-1,-1,30,19.36516156965402,-9999,36431.24439450001,-0.728973388671875,0.46319580078125,-0.50640869140625,36431.2343175,-2.694726128631256,-0.9558299537499749,-0.4759915913211193,-0.05161971226334572,0.05740070343017578,-0.04730973765254021,0.001265764236450195,0.01274240016937256,0.01113533973693848,XArbitraryZVertical,-0.4822394701952273,0.1050988291782693,-0.8174502314015002,0.2969415926902812,-0.7259970903396606,0.4582200348377228,-0.5127986669540405,0,0,0,-1,-1,36426.358702625,unknown,2,2025-04-22T15:53:03.194+03:00,2025-04-21T17:08:51.449+03:00,8293,1.047924,0,0,6896.382,7,22,2025-04-22T15:52:55.455+03:00,767019185.8753557,0,-14.37,100.3758,1,0.5,2025-04-22T15:50:57.745+03:00,80,1.333333333333333,2025-04-22T14:20:19.516+03:00,0.02197104130929222,0
2025-04-22T15:53:08.095+03:00,1745326387.629975,40.9522137686932,29.14028088868508,76.16171,-1,-1,-1,-1,30,19.36516156965402,-9999,36431.2544705,-0.7327117919921875,0.461456298828125,-0.5074615478515625,36431.24439450001,-2.695568456959601,-0.9556352106386491,-0.4758818538678559,-0.05626799166202545,0.06130942329764366,-0.05677168443799019,-0.00157010555267334,0.009498238563537598,0.008147120475769043,XArbitraryZVertical,-0.4821108628864469,0.1052832876825353,-0.8176388788844436,0.2965656852773765,-0.7259383797645569,0.4581224918365479,-0.5129690766334534,0,0,0,-1,-1,36426.358702625,unknown,2,2025-04-22T15:53:03.194+03:00,2025-04-21T17:08:51.449+03:00,8293,1.047924,0,0,6896.382,7,22,2025-04-22T15:52:55.455+03:00,767019185.8753557,0,-14.37,100.3758,1,0.5,2025-04-22T15:50:57.745+03:00,80,1.333333333333333,2025-04-22T14:20:19.516+03:00,0.02197104130929222,0
2025-04-22T15:53:08.104+03:00,1745326387.629975,40.9522137686932,29.14028088868508,76.16171,-1,-1,-1,-1,30,19.36516156965402,-9999,36431.2645465,-0.730438232421875,0.460479736328125,-0.509002685546875,36431.2544705,-2.696490016175802,-0.9554624146888898,-0.4757255474767634,-0.05465511232614517,0.06011080369353294,-0.06285284459590912,-0.003828048706054688,0.004983276128768921,0.007215261459350586,XArbitraryZVertical,-0.4819850176379969,0.1054633617491995,-0.8178407383815901,0.2961493335886702,-0.7259081602096558,0.4579835534095764,-0.5131358504295349,0,0,0,-1,-1,36426.358702625,unknown,2,2025-04-22T15:53:03.194+03:00,2025-04-21T17:08:51.449+03:00,8293,1.047924,0,0,6896.382,7,22,2025-04-22T15:52:55.455+03:00,767019185.8753557,0,-14.37,100.3758,1,0.5,2025-04-22T15:50:57.745+03:00,80,1.333333333333333,2025-04-22T14:20:19.516+03:00,0.02197104130929222,0
2025-04-22T15:53:08.114+03:00,1745326387.629975,40.9522137686932,29.14028088868508,76.16171,-1,-1,-1,-1,30,19.36516156965402,-9999,36431.2746225,-0.72576904296875,0.458282470703125,-0.505767822265625,36431.2645465,-2.697430443711383,-0.9553070210464959,-0.4755361582417771,-0.05643197521567345,0.0610695406794548,-0.06463396549224854,-0.007071852684020996,0.003091663122177124,0.005653917789459229,XArbitraryZVertical,-0.481863843958548,0.1056310130344154,-0.8180458684824736,0.295719588659662,-0.7258991599082947,0.4578151702880859,-0.5132986307144165,0,0,0,-1,-1,36426.358702625,unknown,2,2025-04-22T15:53:03.194+03:00,2025-04-21T17:08:51.449+03:00,8293,1.047924,0,0,6896.382,7,22,2025-04-22T15:52:55.455+03:00,767019185.8753557,0,-14.37,100.3758,1,0.5,2025-04-22T15:50:57.745+03:00,80,1.333333333333333,2025-04-22T14:20:19.516+03:00,0.02197104130929222,0
2025-04-22T15:53:08.124+03:00,1745326387.629975,40.9522137686932,29.14028088868508,76.16171,-1,-1,-1,-1,30,19.36516156965402,-9999,36431.2846995,-0.715606689453125,0.46075439453125,-0.50634765625,36431.2746225,-2.698399577967578,-0.9551685216726861,-0.4753529330259118,-0.05816029757261276,0.05802907422184944,-0.06509492546319962,-0.003458201885223389,0.001637130975723267,0.005222976207733154,XArbitraryZVertical,-0.4817482394068909,0.1058056312623538,-0.8182501001953079,0.2952801063135601,-0.7258964776992798,0.4576522707939148,-0.5134475827217102,0,0,0,-1,-1,36426.358702625,unknown,2,2025-04-22T15:53:03.194+03:00,2025-04-21T17:08:51.449+03:00,8293,1.047924,0,0,6896.382,7,22,2025-04-22T15:52:55.455+03:00,767019185.8753557,0,-14.37,100.3758,1,0.5,2025-04-22T15:50:57.745+03:00,80,1.333333333333333,2025-04-22T14:20:19.516+03:00,0.02197104130929222,0
2025-04-22T15:53:08.134+03:00,1745326387.629975,40.9522137686932,29.14028088868508,76.16171,-1,-1,-1,-1,30,19.36516156965402,-9999,36431.2947755,-0.7080535888671875,0.46240234375,-0.5114593505859375,36431.2846995,-2.69939437785409,-0.9550944813782132,-0.4751677204992253,-0.06087113171815872,0.04949098080396652,-0.06712371855974197,0.000982820987701416,0.0009320974349975586,0.008362174034118652,XArbitraryZVertical,-0.4816574742799862,0.1059759402640804,-0.8184427891830689,0.2948330714866246,-0.7259277701377869,0.4574875831604004,-0.513550341129303,0,0,0,-1,-1,36426.358702625,unknown,2,2025-04-22T15:53:03.194+03:00,2025-04-21T17:08:51.449+03:00,8293,1.047924,0,0,6896.382,7,22,2025-04-22T15:52:55.455+03:00,767019185.8753557,0,-14.37,100.3758,1,0.5,2025-04-22T15:50:57.745+03:00,80,1.333333333333333,2025-04-22T14:20:19.516+03:00,0.02197104130929222,0
2025-04-22T15:53:08.145+03:00,1745326387.629975,40.9522137686932,29.14028088868508,76.16171,-1,-1,-1,-1,30,19.36516156965402,-9999,36431.3048515,-0.7127838134765625,0.46075439453125,-0.5093536376953125,36431.2947755,-2.700416540440867,-0.9551091827126118,-0.4749664577932644,-0.06065807864069939,0.04297742247581482,-0.06919872760772705,0.01127362251281738,0.003399878740310669,0.006756782531738281,XArbitraryZVertical,-0.4816008992731331,0.1061328109598228,-0.8186200866128943,0.2943762321753524,-0.7260103821754456,0.4573086202144623,-0.5135927796363831,0,0,0,-1,-1,36426.358702625,unknown,2,2025-04-22T15:53:03.194+03:00,2025-04-21T17:08:51.449+03:00,8293,1.047924,0,0,6896.382,7,22,2025-04-22T15:52:55.455+03:00,767019185.8753557,0,-14.37,100.3758,1,0.5,2025-04-22T15:50:57.745+03:00,80,1.333333333333333,2025-04-22T14:20:19.516+03:00,0.02197104130929222,0
2025-04-22T15:53:08.155+03:00,1745326387.629975,40.9522137686932,29.14028088868508,76.16171,-1,-1,-1,-1,30,19.36516156965402,-9999,36431.3149275,-0.72039794921875,0.4584197998046875,-0.5078277587890625,36431.3048515,-2.701454389077107,-0.9551886083397759,-0.474746447287638,-0.0587318167090416,0.03818932175636292,-0.07170555740594864,0.01786631345748901,0.005533456802368164,0.002164304256439209,XArbitraryZVertical,-0.4815691286883799,0.1062757489271536,-0.8187868787536272,0.2939127069537001,-0.726133406162262,0.4571129381656647,-0.5135932564735413,0,0,0,-1,-1,36426.358702625,unknown,2,2025-04-22T15:53:03.194+03:00,2025-04-21T17:08:51.449+03:00,8293,1.047924,0,0,6896.382,7,22,2025-04-22T15:52:55.455+03:00,767019185.8753557,0,-14.37,100.3758,1,0.5,2025-04-22T15:50:57.745+03:00,80,1.333333333333333,2025-04-22T14:20:19.516+03:00,0.02197104130929222,0
2025-04-22T15:53:08.165+03:00,1745326387.629975,40.9522137686932,29.14028088868508,76.16171,-1,-1,-1,-1,30,19.36516156965402,-9999,36431.3250045,-0.718048095703125,0.458526611328125,-0.5069427490234375,36431.3149275,-2.702491075238075,-0.9553225062934939,-0.4745472775552451,-0.0633988082408905,0.03167969360947609,-0.07245900481939316,0.01213473081588745,0.002826660871505737,0.004652559757232666,XArbitraryZVertical,-0.4815606042113715,0.106419484199425,-0.8189367726927523,0.2934564592645845,-0.7262763977050781,0.4569357931613922,-0.5135485529899597,0,0,0,-1,-1,36426.358702625,unknown,2,2025-04-22T15:53:03.194+03:00,2025-04-21T17:08:51.449+03:00,8293,1.047924,0,0,6896.382,7,22,2025-04-22T15:52:55.455+03:00,767019185.8753557,0,-14.37,100.3758,1,0.5,2025-04-22T15:50:57.745+03:00,80,1.333333333333333,2025-04-22T14:20:19.516+03:00,0.02197104130929222,0
2025-04-22T15:53:08.175+03:00,1745326387.629975,40.9522137686932,29.14028088868508,76.16171,-1,-1,-1,-1,30,19.36516156965402,-9999,36431.3350805,-0.7158660888671875,0.4559326171875,-0.498626708984375,36431.3250045,-2.703569288148896,-0.9555432450259386,-0.4743456721096344,-0.06341478228569031,0.02768601477146149,-0.07256153225898743,0.006357073783874512,0.001556426286697388,0.004804790019989014,XArbitraryZVertical,-0.481585281852852,0.1065594337693861,-0.8190720770658787,0.2929873040386613,-0.7264649868011475,0.4567564725875854,-0.5134413838386536,0,0,0,-1,-1,36426.358702625,unknown,2,2025-04-22T15:53:03.194+03:00,2025-04-21T17:08:51.449+03:00,8293,1.047924,0,0,6896.382,7,22,2025-04-22T15:52:55.455+03:00,767019185.8753557,0,-14.37,100.3758,1,0.5,2025-04-22T15:50:57.745+03:00,80,1.333333333333333,2025-04-22T14:20:19.516+03:00,0.02197104130929222,0
2025-04-22T15:53:08.185+03:00,1745326387.629975,40.9522137686932,29.14028088868508,76.16171,-1,-1,-1,-1,30,19.36516156965402,-9999,36431.3451565,-0.71466064453125,0.4574432373046875,-0.4994354248046875,36431.3350805,-2.704616446172856,-0.9557595670871494,-0.4741061842698891,-0.05673724040389061,0.02819834277033806,-0.07384773343801498,0.009532928466796875,0.001906812191009521,0.007472574710845947,XArbitraryZVertical,-0.4816082719231112,0.1066762415624325,-0.819209181243749,0.2925230983201884,-0.7266653180122375,0.4565433859825134,-0.513347327709198,0,0,0,-1,-1,36426.358702625,unknown,2,2025-04-22T15:53:03.194+03:00,2025-04-21T17:08:51.449+03:00,8293,1.047924,0,0,6896.382,7,22,2025-04-22T15:52:55.455+03:00,767019185.8753557,0,-14.37,100.3758,1,0.5,2025-04-22T15:50:57.745+03:00,80,1.333333333333333,2025-04-22T14:20:19.516+03:00,0.02197104130929222,0
2025-04-22T15:53:08.195+03:00,1745326387.629975,40.9522137686932,29.14028088868508,76.16171,-1,-1,-1,-1,30,19.36516156965402,-9999,36431.3552335,-0.7100677490234375,0.4536895751953125,-0.5045166015625,36431.3451565,-2.705637023816803,-0.9559946855649814,-0.4738596039948435,-0.06108405068516731,0.01941603422164917,-0.07169909775257111,0.01044744253158569,-0.0005593299865722656,0.01514863967895508,XArbitraryZVertical,-0.4816400774609286,0.1067808689968903,-0.8193387633871428,0.2920693345486994,-0.7268779277801514,0.4563240110874176,-0.5132413506507874,0,0,0,-1,-1,36426.358702625,unknown,2,2025-04-22T15:53:03.194+03:00,2025-04-21T17:08:51.449+03:00,8293,1.047924,0,0,6896.382,7,22,2025-04-22T15:52:55.455+03:00,767019185.8753557,0,-14.37,100.3758,1,0.5,2025-04-22T15:50:57.745+03:00,80,1.333333333333333,2025-04-22T14:20:19.516+03:00,0.02197104130929222,0
2025-04-22T15:53:08.205+03:00,1745326387.629975,40.9522137686932,29.14028088868508,76.16171,-1,-1,-1,-1,30,19.36516156965402,-9999,36431.3653095,-0.714324951171875,0.4470367431640625,-0.5045013427734375,36431.3552335,-2.706705653812244,-0.9563064294770298,-0.4736810075955267,-0.0721728578209877,0.01585918478667736,-0.06807237863540649,0.01288646459579468,0.001735806465148926,0.01258862018585205,XArbitraryZVertical,-0.4817034778583592,0.1069154128906163,-0.8194463929690301,0.2916131950155059,-0.7271044850349426,0.456165075302124,-0.5130617022514343,0,0,0,-1,-1,36426.358702625,unknown,2,2025-04-22T15:53:03.194+03:00,2025-04-21T17:08:51.449+03:00,8293,1.047924,0,0,6896.382,7,22,2025-04-22T15:52:55.455+03:00,767019185.8753557,0,-14.37,100.3758,1,0.5,2025-04-22T15:50:57.745+03:00,80,1.333333333333333,2025-04-22T14:20:19.516+03:00,0.02197104130929222,0
2025-04-22T15:53:08.215+03:00,1745326387.629975,40.9522137686932,29.14028088868508,76.16171,-1,-1,-1,-1,30,19.36516156965402,-9999,36431.3753855,-0.7221221923828125,0.44915771484375,-0.504058837890625,36431.3653095,-2.707854560248613,-0.9567211778205488,-0.4735848218271618,-0.08205797523260117,0.01034377701580524,-0.0648113340139389,0.01667511463165283,-0.003641247749328613,0.007704079151153564,XArbitraryZVertical,-0.4818080810601325,0.107090087856207,-0.8195282794566047,0.2911457716473358,-0.727353036403656,0.4560794830322266,-0.5127853751182556,0,0,0,-1,-1,36426.358702625,unknown,2,2025-04-22T15:53:03.194+03:00,2025-04-21T17:08:51.449+03:00,8293,1.047924,0,0,6896.382,7,22,2025-04-22T15:52:55.455+03:00,767019185.8753557,0,-14.37,100.3758,1,0.5,2025-04-22T15:50:57.745+03:00,80,1.333333333333333,2025-04-22T14:20:19.516+03:00,0.02197104130929222,0
2025-04-22T15:53:08.225+03:00,1745326387.629975,40.9522137686932,29.14028088868508,76.16171,-1,-1,-1,-1,30,19.36516156965402,-9999,36431.3854615,-0.7223052978515625,0.4572601318359375,-0.5008697509765625,36431.3753855,-2.709106967348909,-0.9572158316933295,-0.4735934732782348,-0.09685023874044418,0.004551668651401997,-0.0664820671081543,0.01234781742095947,-0.009157359600067139,0.007967591285705566,XArbitraryZVertical,-0.4819439639853421,0.1073236055846155,-0.8195901073416054,0.2906608146673044,-0.7276034951210022,0.4560871720314026,-0.5124233365058899,0,0,0,-1,-1,36426.358702625,unknown,2,2025-04-22T15:53:03.194+03:00,2025-04-21T17:08:51.449+03:00,8293,1.047924,0,0,6896.382,7,22,2025-04-22T15:52:55.455+03:00,767019185.8753557,0,-14.37,100.3758,1,0.5,2025-04-22T15:50:57.745+03:00,80,1.333333333333333,2025-04-22T14:20:19.516+03:00,0.02197104130929222,0
2025-04-22T15:53:08.236+03:00,1745326387.629975,40.9522137686932,29.14028088868508,76.16171,-1,-1,-1,-1,30,19.36516156965402,-9999,36431.3955385,-0.72119140625,0.458343505859375,-0.49676513671875,36431.3854615,-2.710440430104164,-0.9578208984155551,-0.473679974227552,-0.1018937304615974,-0.005574202630668879,-0.0626809373497963,0.005163908004760742,-0.005663692951202393,0.008084356784820557,XArbitraryZVertical,-0.4821236999966524,0.1075945791495742,-0.8196249799980124,0.2901638627125481,-0.727881133556366,0.45616415143013,-0.5119602680206299,0,0,0,-1,-1,36426.358702625,unknown,2,2025-04-22T15:53:03.194+03:00,2025-04-21T17:08:51.449+03:00,8293,1.047924,0,0,6896.382,7,22,2025-04-22T15:52:55.455+03:00,767019185.8753557,0,-14.37,100.3758,1,0.5,2025-04-22T15:50:57.745+03:00,80,1.333333333333333,2025-04-22T14:20:19.516+03:00,0.02197104130929222,0
2025-04-22T15:53:08.246+03:00,1745326387.629975,40.9522137686932,29.14028088868508,76.16171,-1,-1,-1,-1,30,19.36516156965402,-9999,36431.4056145,-0.7280120849609375,0.4592132568359375,-0.4979095458984375,36431.3955385,-2.711781576580444,-0.9584626000851416,-0.473725388834137,-0.09299178421497345,-0.001668610144406557,-0.06647857278585434,0.006482481956481934,0.0009181499481201172,0.01096224784851074,XArbitraryZVertical,-0.4823162394404316,0.1078445929132464,-0.8196578426868539,0.2896577161990807,-0.7281925678253174,0.4562045633792877,-0.5114811658859253,0,0,0,-1,-1,36426.358702625,unknown,2,2025-04-22T15:53:03.194+03:00,2025-04-21T17:08:51.449+03:00,8293,1.047924,0,0,6896.382,7,22,2025-04-22T15:52:55.455+03:00,767019185.8753557,0,-14.37,100.3758,1,0.5,2025-04-22T15:50:57.745+03:00,80,1.333333333333333,2025-04-22T14:20:19.516+03:00,0.02197104130929222,0
2025-04-22T15:53:08.270+03:00,1745326387.629975,40.9522137686932,29.14028088868508,76.16171,-1,-1,-1,-1,30,19.36516156965402,-9999,36431.41569050001,-0.7303009033203125,0.4578857421875,-0.501800537109375,36431.4056145,-2.713071229032043,-0.9590543251887049,-0.4736866400946684,-0.08803271502256393,0.0004454068839550018,-0.07100594788789749,0.005914449691772461,0.002035975456237793,0.01498168706893921,XArbitraryZVertical,-0.4824876529954656,0.108053280672653,-0.8197074364194301,0.2891534472946857,-0.7285094857215881,0.4561700820922852,-0.5110602974891663,0,0,0,-1,-1,36426.358702625,unknown,2,2025-04-22T15:53:03.194+03:00,2025-04-21T17:08:51.449+03:00,8293,1.047924,0,0,6896.382,7,22,2025-04-22T15:52:55.455+03:00,767019185.8753557,0,-14.37,100.3758,1,0.5,2025-04-22T15:50:57.745+03:00,80,1.333333333333333,2025-04-22T14:20:19.516+03:00,0.02197104130929222,0
2025-04-22T15:53:08.271+03:00,1745326387.629975,40.9522137686932,29.14028088868508,76.16171,-1,-1,-1,-1,30,19.36516156965402,-9999,36431.4257675,-0.73309326171875,0.4544830322265625,-0.5095367431640625,36431.41569050001,-2.714336982989244,-0.9595675413200793,-0.4736172307972663,-0.08467745780944824,0.009878523647785187,-0.07298657298088074,0.0003584027290344238,0.003349006175994873,0.0118488073348999,XArbitraryZVertical,-0.482626873279006,0.1082544995326536,-0.8197768187951218,0.2886487270889443,-0.7287976145744324,0.4561083316802979,-0.510704517364502,0,0,0,-1,-1,36426.358702625,unknown,2,2025-04-22T15:53:03.194+03:00,2025-04-21T17:08:51.449+03:00,8293,1.047924,0,0,6896.382,7,22,2025-04-22T15:52:55.455+03:00,767019185.8753557,0,-14.37,100.3758,1,0.5,2025-04-22T15:50:57.745+03:00,80,1.333333333333333,2025-04-22T14:20:19.516+03:00,0.02197104130929222,0
2025-04-22T15:53:08.276+03:00,1745326387.629975,40.9522137686932,29.14028088868508,76.16171,-1,-1,-1,-1,30,19.36516156965402,-9999,36431.4358435,-0.733978271484375,0.457763671875,-0.512847900390625,36431.4257675,-2.715611517083593,-0.9600209864383121,-0.4735301697479276,-0.08725886046886444,0.01287005189806223,-0.0723295733332634,-0.001971542835235596,0.001351326704025269,0.007238090038299561,XArbitraryZVertical,-0.4827403343291612,0.1084590071632889,-0.8198642528361778,0.2881337012488346,-0.7290617227554321,0.4560308456420898,-0.5103968381881714,0,0,0,-1,-1,36426.358702625,unknown,2,2025-04-22T15:53:03.194+03:00,2025-04-21T17:08:51.449+03:00,8293,1.047924,0,0,6896.382,7,22,2025-04-22T15:52:55.455+03:00,767019185.8753557,0,-14.37,100.3758,1,0.5,2025-04-22T15:50:57.745+03:00,80,1.333333333333333,2025-04-22T14:20:19.516+03:00,0.02197104130929222,0
2025-04-22T15:53:08.286+03:00,1745326387.629975,40.9522137686932,29.14028088868508,76.16171,-1,-1,-1,-1,30,19.36516156965402,-9999,36431.4459195,-0.7369384765625,0.4647216796875,-0.5153656005859375,36431.4358435,-2.716885700034287,-0.9604720322651989,-0.4734298401522827,-0.08176995068788528,0.01331786252558231,-0.07795809209346771,-0.003504455089569092,-0.002038449048995972,-0.0005414485931396484,XArbitraryZVertical,-0.4828522756321337,0.1086582593648872,-0.8199536677997616,0.2876159952827577,-0.7293292880058289,0.4559415578842163,-0.5100941061973572,0,0,0,-1,-1,36426.358702625,unknown,2,2025-04-22T15:53:03.194+03:00,2025-04-21T17:08:51.449+03:00,8293,1.047924,0,0,6896.382,7,22,2025-04-22T15:52:55.455+03:00,767019185.8753557,0,-14.37,100.3758,1,0.5,2025-04-22T15:50:57.745+03:00,80,1.333333333333333,2025-04-22T14:20:19.516+03:00,0.02197104130929222,0
2025-04-22T15:53:08.296+03:00,1745326387.629975,40.9522137686932,29.14028088868508,76.16171,-1,-1,-1,-1,30,19.36516156965402,-9999,36431.4559955,-0.743865966796875,0.46319580078125,-0.514678955078125,36431.4459195,-2.718177529559072,-0.9608692278111428,-0.4732484954369706,-0.08477266877889633,0.01926203817129135,-0.08104443550109863,-0.004576921463012695,0.002364873886108398,-0.003057301044464111,XArbitraryZVertical,-0.4829380582926198,0.1088346357225236,-0.8200702798790934,0.287072059341129,-0.7295995354652405,0.4557801485061646,-0.5098516941070557,0,0,0,-1,-1,36426.358702625,unknown,2,2025-04-22T15:53:03.194+03:00,2025-04-21T17:08:51.449+03:00,8293,1.047924,0,0,6896.382,7,22,2025-04-22T15:52:55.455+03:00,767019185.8753557,0,-14.37,100.3758,1,0.5,2025-04-22T15:50:57.745+03:00,80,1.333333333333333,2025-04-22T14:20:19.516+03:00,0.02197104130929222,0
2025-04-22T15:53:08.306+03:00,1745326387.629975,40.9522137686932,29.14028088868508,76.16171,-1,-1,-1,-1,30,19.36516156965402,-9999,36431.4660725,-0.7438507080078125,0.456695556640625,-0.5085906982421875,36431.4559955,-2.719536580541013,-0.9613038898718633,-0.4730714198755409,-0.09099014848470688,0.01842574030160904,-0.08501403778791428,-0.008805811405181885,0.008915930986404419,-0.005601823329925537,XArbitraryZVertical,-0.4830356342323862,0.1090238611754901,-0.8201865791785184,0.2865034071498677,-0.7298872470855713,0.455622524023056,-0.5095807313919067,0,0,0,-1,-1,36426.358702625,unknown,2,2025-04-22T15:53:03.194+03:00,2025-04-21T17:08:51.449+03:00,8293,1.047924,0,0,6896.382,7,22,2025-04-22T15:52:55.455+03:00,767019185.8753557,0,-14.37,100.3758,1,0.5,2025-04-22T15:50:57.745+03:00,80,1.333333333333333,2025-04-22T14:20:19.516+03:00,0.02197104130929222,0
2025-04-22T15:53:08.316+03:00,1745326387.629975,40.9522137686932,29.14028088868508,76.16171,-1,-1,-1,-1,30,19.36516156965402,-9999,36431.47614850001,-0.745269775390625,0.4556427001953125,-0.5022125244140625,36431.4660725,-2.720965849146131,-0.9617361047836017,-0.4729393698621896,-0.09847230464220047,0.02686875872313976,-0.08210773020982742,-0.01381582021713257,0.007049828767776489,-0.004158675670623779,XArbitraryZVertical,-0.4831299954447049,0.1092500855168379,-0.8203063469890401,0.2859146602424945,-0.7301567792892456,0.455504983663559,-0.509299635887146,0,0,0,-1,-1,36426.358702625,unknown,2,2025-04-22T15:53:03.194+03:00,2025-04-21T17:08:51.449+03:00,8293,1.047924,0,0,6896.382,7,22,2025-04-22T15:52:55.455+03:00,767019185.8753557,0,-14.37,100.3758,1,0.5,2025-04-22T15:50:57.745+03:00,80,1.333333333333333,2025-04-22T14:20:19.516+03:00,0.02197104130929222,0
2025-04-22T15:53:08.327+03:00,1745326387.629975,40.9522137686932,29.14028088868508,76.16171,-1,-1,-1,-1,30,19.36516156965402,-9999,36431.4862245,-0.7386474609375,0.452606201171875,-0.496490478515625,36431.47614850001,-2.72241922311293,-0.9621056821130373,-0.4728952909111709,-0.1060694381594658,0.03248143568634987,-0.07451076060533524,-0.01402318477630615,0.001443326473236084,0.000450432300567627,XArbitraryZVertical,-0.4832004807468421,0.1095293453506734,-0.8204311382221139,0.2853299749957058,-0.7303614020347595,0.4554657340049744,-0.5090412497520447,0,0,0,-1,-1,36426.358702625,unknown,2,2025-04-22T15:53:03.194+03:00,2025-04-21T17:08:51.449+03:00,8293,1.047924,0,0,6896.382,7,22,2025-04-22T15:52:55.455+03:00,767019185.8753557,0,-14.37,100.3758,1,0.5,2025-04-22T15:50:57.745+03:00,80,1.333333333333333,2025-04-22T14:20:19.516+03:00,0.02197104130929222,0
2025-04-22T15:53:08.336+03:00,1745326387.629975,40.9522137686932,29.14028088868508,76.16171,-1,-1,-1,-1,30,19.36516156965402,-9999,36431.4963005,-0.7266387939453125,0.45233154296875,-0.4998321533203125,36431.4862245,-2.723879657702779,-0.9624528338337268,-0.4729338358753277,-0.1058121770620346,0.03328917175531387,-0.07076849043369293,-0.01483750343322754,5.155801773071289e-06,0.007892489433288574,XArbitraryZVertical,-0.4832642143432549,0.1098494223454314,-0.8205496518142316,0.2847575186496136,-0.7305236458778381,0.4555000364780426,-0.5087776184082031,0,0,0,-1,-1,36426.358702625,unknown,2,2025-04-22T15:53:03.194+03:00,2025-04-21T17:08:51.449+03:00,8293,1.047924,0,0,6896.382,7,22,2025-04-22T15:52:55.455+03:00,767019185.8753557,0,-14.37,100.3758,1,0.5,2025-04-22T15:50:57.745+03:00,80,1.333333333333333,2025-04-22T14:20:19.516+03:00,0.02197104130929222,0
2025-04-22T15:53:08.346+03:00,1745326387.629975,40.9522137686932,29.14028088868508,76.16171,-1,-1,-1,-1,30,19.36516156965402,-9999,36431.5063775,-0.7220611572265625,0.4558258056640625,-0.510711669921875,36431.4963005,-2.725272761709988,-0.9627537545771019,-0.4729920226979105,-0.1000544205307961,0.03553794696927071,-0.06434494256973267,-0.006146013736724854,-0.002518504858016968,0.01264715194702148,XArbitraryZVertical,-0.4833131549880915,0.1101684303112566,-0.8206664936779002,0.2842140392008321,-0.7306550145149231,0.4555518329143524,-0.5085425972938538,0,0,0,-1,-1,36426.358702625,unknown,2,2025-04-22T15:53:03.194+03:00,2025-04-21T17:08:51.449+03:00,8293,1.047924,0,0,6896.382,7,22,2025-04-22T15:52:55.455+03:00,767019185.8753557,0,-14.37,100.3758,1,0.5,2025-04-22T15:50:57.745+03:00,80,1.333333333333333,2025-04-22T14:20:19.516+03:00,0.02197104130929222,0
2025-04-22T15:53:08.356+03:00,1745326387.629975,40.9522137686932,29.14028088868508,76.16171,-1,-1,-1,-1,30,19.36516156965402,-9999,36431.5164535,-0.7283782958984375,0.4622802734375,-0.51116943359375,36431.5063775,-2.726594093395752,-0.9629421103783735,-0.4730720330816557,-0.09407375752925873,0.04791312292218208,-0.0562734343111515,0.005318164825439453,-0.00265076756477356,0.007193863391876221,XArbitraryZVertical,-0.4833204057431649,0.1104956046019213,-0.8207968146498016,0.2836981301411944,-0.7307208776473999,0.455623060464859,-0.5083842277526855,0,0,0,-1,-1,36426.358702625,unknown,2,2025-04-22T15:53:03.194+03:00,2025-04-21T17:08:51.449+03:00,8293,1.047924,0,0,6896.382,7,22,2025-04-22T15:52:55.455+03:00,767019185.8753557,0,-14.37,100.3758,1,0.5,2025-04-22T15:50:57.745+03:00,80,1.333333333333333,2025-04-22T14:20:19.516+03:00,0.02197104130929222,0
2025-04-22T15:53:08.367+03:00,1745326387.629975,40.9522137686932,29.14028088868508,76.16171,-1,-1,-1,-1,30,19.36516156965402,-9999,36431.5265295,-0.7437744140625,0.4622650146484375,-0.5018463134765625,36431.5164535,-2.727785273110914,-0.9629208961594931,-0.4731049017157248,-0.08225231617689133,0.06503532081842422,-0.05862331390380859,0.008240044116973877,0.0009363293647766113,-0.003083586692810059,XArbitraryZVertical,-0.4832469728203887,0.1108006827148709,-0.8209658656169787,0.2832145760225194,-0.7306978106498718,0.4556523263454437,-0.5083911418914795,0,0,0,-1,-1,36426.358702625,unknown,2,2025-04-22T15:53:03.194+03:00,2025-04-21T17:08:51.449+03:00,8293,1.047924,0,0,6896.382,7,22,2025-04-22T15:52:55.455+03:00,767019185.8753557,0,-14.37,100.3758,1,0.5,2025-04-22T15:50:57.745+03:00,80,1.333333333333333,2025-04-22T14:20:19.516+03:00,0.02197104130929222,0
2025-04-22T15:53:08.379+03:00,1745326387.629975,40.9522137686932,29.14028088868508,76.16171,-1,-1,-1,-1,30,19.36516156965402,-9999,36431.53660650001,-0.75738525390625,0.4626312255859375,-0.50347900390625,36431.5265295,-2.728897749323709,-0.9626045497756408,-0.4730556409425762,-0.07056370377540588,0.1003331243991852,-0.06236425414681435,0.001017510890960693,0.007220983505249023,-0.001390039920806885,XArbitraryZVertical,-0.4830536597429197,0.111092881336553,-0.8212069081464873,0.2827304904032772,-0.7305552959442139,0.4556084871292114,-0.5086350440979004,0,0,0,-1,-1,36426.358702625,unknown,2,2025-04-22T15:53:03.194+03:00,2025-04-21T17:08:51.449+03:00,8293,1.047924,0,0,6896.382,7,22,2025-04-22T15:52:55.455+03:00,767019185.8753557,0,-14.37,100.3758,1,0.5,2025-04-22T15:50:57.745+03:00,80,1.333333333333333,2025-04-22T14:20:19.516+03:00,0.02197104130929222,0
2025-04-22T15:53:08.389+03:00,1745326387.629975,40.9522137686932,29.14028088868508,76.16171,-1,-1,-1,-1,30,19.36516156965402,-9999,36431.5466825,-0.7520904541015625,0.4639434814453125,-0.50067138671875,36431.53660650001,-2.729846208048218,-0.9619086076353862,-0.472930388169611,-0.0504632331430912,0.1207899302244186,-0.05624404549598694,-0.01587611436843872,0.006569534540176392,0.007787406444549561,XArbitraryZVertical,-0.4827106983595619,0.1113659601123432,-0.821527418965841,0.282277355444119,-0.730247974395752,0.4554969668388367,-0.5091760158538818,0,0,0,-1,-1,36426.358702625,unknown,2,2025-04-22T15:53:03.194+03:00,2025-04-21T17:08:51.449+03:00,8293,1.047924,0,0,6896.382,7,22,2025-04-22T15:52:55.455+03:00,767019185.8753557,0,-14.37,100.3758,1,0.5,2025-04-22T15:50:57.745+03:00,80,1.333333333333333,2025-04-22T14:20:19.516+03:00,0.02197104130929222,0
2025-04-22T15:53:08.397+03:00,1745326387.629975,40.9522137686932,29.14028088868508,76.16171,-1,-1,-1,-1,30,19.36516156965402,-9999,36431.5567585,-0.7445831298828125,0.456146240234375,-0.5021514892578125,36431.5466825,-2.730638861461211,-0.9610062595310435,-0.4727153966880098,-0.04030194133520126,0.1328825354576111,-0.05949816107749939,-0.02769964933395386,0.007172942161560059,0.006518542766571045,XArbitraryZVertical,-0.4822882440035122,0.1115913501553644,-0.8218886844689464,0.2818586620723644,-0.7298685312271118,0.4553055763244629,-0.5098908543586731,0,0,0,-1,-1,36426.358702625,unknown,2,2025-04-22T15:53:03.194+03:00,2025-04-21T17:08:51.449+03:00,8293,1.047924,0,0,6896.382,7,22,2025-04-22T15:52:55.455+03:00,767019185.8753557,0,-14.37,100.3758,1,0.5,2025-04-22T15:50:57.745+03:00,80,1.333333333333333,2025-04-22T14:20:19.516+03:00,0.02197104130929222,0
2025-04-22T15:53:08.407+03:00,1745326387.629975,40.9522137686932,29.14028088868508,76.16171,-1,-1,-1,-1,30,19.36516156965402,-9999,36431.5668345,-0.74237060546875,0.4524078369140625,-0.5013275146484375,36431.5567585,-2.731290883383743,-0.9599452988680346,-0.4723867409523444,-0.01526716258376837,0.1399889141321182,-0.05979110673069954,-0.0219234824180603,0.008350610733032227,0.01000291109085083,XArbitraryZVertical,-0.481804238432426,0.1117555713822244,-0.8222847149236161,0.2814661204891445,-0.7294496893882751,0.4550129473209381,-0.5107507109642029,0,0,0,-1,-1,36426.358702625,unknown,2,2025-04-22T15:53:03.194+03:00,2025-04-21T17:08:51.449+03:00,8293,1.047924,0,0,6896.382,7,22,2025-04-22T15:52:55.455+03:00,767019185.8753557,0,-14.37,100.3758,1,0.5,2025-04-22T15:50:57.745+03:00,80,1.333333333333333,2025-04-22T14:20:19.516+03:00,0.02197104130929222,0
2025-04-22T15:53:08.416+03:00,1745326387.629975,40.9522137686932,29.14028088868508,76.16171,-1,-1,-1,-1,30,19.36516156965402,-9999,36431.5769115,-0.7357177734375,0.451446533203125,-0.4975128173828125,36431.5668345,-2.731845399277431,-0.9588375027032312,-0.4719343104990157,-0.0127906883135438,0.1384658515453339,-0.06703916937112808,-0.01510387659072876,0.0001476705074310303,0.009372472763061523,XArbitraryZVertical,-0.4813018343039202,0.1118488648059228,-0.8226961295775064,0.2810863488592094,-0.729051947593689,0.4546100199222565,-0.5116767287254333,0,0,0,-1,-1,36426.358702625,unknown,2,2025-04-22T15:53:03.194+03:00,2025-04-21T17:08:51.449+03:00,8293,1.047924,0,0,6896.382,7,22,2025-04-22T15:52:55.455+03:00,767019185.8753557,0,-14.37,100.3758,1,0.5,2025-04-22T15:50:57.745+03:00,80,1.333333333333333,2025-04-22T14:20:19.516+03:00,0.02197104130929222,0
2025-04-22T15:53:08.426+03:00,1745326387.629975,40.9522137686932,29.14028088868508,76.16171,-1,-1,-1,-1,30,19.36516156965402,-9999,36431.5869875,-0.7341461181640625,0.4479827880859375,-0.4931640625,36431.5769115,-2.732444957478541,-0.9577266425355839,-0.4714770065804944,-0.01795162819325924,0.1409923881292343,-0.06672517955303192,-0.01304614543914795,-0.001337140798568726,0.01127815246582031,XArbitraryZVertical,-0.4807952537392977,0.1119509352221878,-0.8231146768798607,0.28068676353348,-0.7286529541015625,0.4542026519775391,-0.5126058459281921,0,0,0,-1,-1,36426.358702625,unknown,2,2025-04-22T15:53:03.194+03:00,2025-04-21T17:08:51.449+03:00,8293,1.047924,0,0,6896.382,7,22,2025-04-22T15:52:55.455+03:00,767019185.8753557,0,-14.37,100.3758,1,0.5,2025-04-22T15:50:57.745+03:00,80,1.333333333333333,2025-04-22T14:20:19.516+03:00,0.02197104130929222,0
2025-04-22T15:53:08.437+03:00,1745326387.629975,40.9522137686932,29.14028088868508,76.16171,-1,-1,-1,-1,30,19.36516156965402,-9999,36431.5970635,-0.7306060791015625,0.4419403076171875,-0.4907684326171875,36431.5869875,-2.733120958170188,-0.9566594478166209,-0.4710556181884896,-0.03184214606881142,0.1337091773748398,-0.07049275189638138,-0.006586015224456787,-0.00274696946144104,0.01634663343429565,XArbitraryZVertical,-0.4803033408742761,0.1120803596945403,-0.8235277894939926,0.2802651823671832,-0.7282618284225464,0.4538272023200989,-0.5134933590888977,0,0,0,-1,-1,36426.358702625,unknown,2,2025-04-22T15:53:03.194+03:00,2025-04-21T17:08:51.449+03:00,8293,1.047924,0,0,6896.382,7,22,2025-04-22T15:52:55.455+03:00,767019185.8753557,0,-14.37,100.3758,1,0.5,2025-04-22T15:50:57.745+03:00,80,1.333333333333333,2025-04-22T14:20:19.516+03:00,0.02197104130929222,0
2025-04-22T15:53:08.447+03:00,1745326387.629975,40.9522137686932,29.14028088868508,76.16171,-1,-1,-1,-1,30,19.36516156965402,-9999,36431.6071405,-0.7256927490234375,0.425537109375,-0.4868316650390625,36431.5970635,-2.733976005674509,-0.9557259561632783,-0.4707218353084256,-0.05518821254372597,0.1252022534608841,-0.07280278205871582,-0.006133317947387695,-0.005180835723876953,0.02118766307830811,XArbitraryZVertical,-0.4798592575737555,0.1122715755685401,-0.8239205724240601,0.2797945511618034,-0.7279058694839478,0.4535297453403473,-0.5142603516578674,0,0,0,-1,-1,36426.358702625,unknown,2,2025-04-22T15:53:03.194+03:00,2025-04-21T17:08:51.449+03:00,8293,1.047924,0,0,6896.382,7,22,2025-04-22T15:52:55.455+03:00,767019185.8753557,0,-14.37,100.3758,1,0.5,2025-04-22T15:50:57.745+03:00,80,1.333333333333333,2025-04-22T14:20:19.516+03:00,0.02197104130929222,0
2025-04-22T15:53:08.457+03:00,1745326387.629975,40.9522137686932,29.14028088868508,76.16171,-1,-1,-1,-1,30,19.36516156965402,-9999,36431.6172165,-0.7243804931640625,0.429229736328125,-0.4999237060546875,36431.6071405,-2.735042290732813,-0.9550289559734947,-0.4704557892821608,-0.06695645302534103,0.1120819225907326,-0.07780420035123825,-0.0018463134765625,-0.01400738954544067,0.02528941631317139,XArbitraryZVertical,-0.4795028725964892,0.1125093334069325,-0.8242758016674629,0.2792633568226058,-0.7276457548141479,0.4532926082611084,-0.5148372650146484,0,0,0,-1,-1,36426.358702625,unknown,2,2025-04-22T15:53:03.194+03:00,2025-04-21T17:08:51.449+03:00,8293,1.047924,0,0,6896.382,7,22,2025-04-22T15:52:55.455+03:00,767019185.8753557,0,-14.37,100.3758,1,0.5,2025-04-22T15:50:57.745+03:00,80,1.333333333333333,2025-04-22T14:20:19.516+03:00,0.02197104130929222,0
2025-04-22T15:53:08.467+03:00,1745326387.629975,40.9522137686932,29.14028088868508,76.16171,-1,-1,-1,-1,30,19.36516156965402,-9999,36431.6272925,-0.72161865234375,0.4372100830078125,-0.5119476318359375,36431.6172165,-2.736272418605254,-0.9545342324960592,-0.4702464872636993,-0.08480329811573029,0.1046858578920364,-0.08131168037652969,0.001882553100585938,-0.0285302996635437,0.02813029289245605,XArbitraryZVertical,-0.4792224002104432,0.1127823770582858,-0.8245966401780297,0.2786869868170023,-0.7274683713912964,0.4531060457229614,-0.5152520537376404,0,0,0,-1,-1,36426.358702625,unknown,2,2025-04-22T15:53:03.194+03:00,2025-04-21T17:08:51.449+03:00,8293,1.047924,0,0,6896.382,7,22,2025-04-22T15:52:55.455+03:00,767019188.4532119,0,-14.34,100.375,1,0.5,2025-04-22T15:50:57.745+03:00,80,1.333333333333333,2025-04-22T14:20:19.516+03:00,0.02197104130929222,0
2025-04-22T15:53:08.477+03:00,1745326387.629975,40.9522137686932,29.14028088868508,76.16171,-1,-1,-1,-1,30,19.36516156965402,-9999,36431.6373685,-0.72265625,0.437957763671875,-0.50146484375,36431.6272925,-2.737683292716286,-0.9541625774612763,-0.4701382305247049,-0.09777635335922241,0.1018916741013527,-0.07818485796451569,0.002951741218566895,-0.02269649505615234,0.01355165243148804,XArbitraryZVertical,-0.4789857430107792,0.1131251241004086,-0.8248978361943976,0.2780627468685082,-0.7273168563842773,0.4530095160007477,-0.5155507326126099,0,0,0,-1,-1,36426.358702625,unknown,2,2025-04-22T15:53:03.194+03:00,2025-04-21T17:08:51.449+03:00,8293,1.047924,0,0,6896.382,7,22,2025-04-22T15:52:55.455+03:00,767019188.4532119,0,-14.34,100.375,1,0.5,2025-04-22T15:50:57.745+03:00,80,1.333333333333333,2025-04-22T14:20:19.516+03:00,0.02197104130929222,0
2025-04-22T15:53:08.487+03:00,1745326387.629975,40.9522137686932,29.14028088868508,76.16171,-1,-1,-1,-1,30,19.36516156965402,-9999,36431.6474455,-0.7216949462890625,0.4404144287109375,-0.4944915771484375,36431.6373685,-2.739197464194164,-0.953904032152941,-0.4701331258353296,-0.1184892952442169,0.09240902215242386,-0.07728081941604614,0.005246520042419434,-0.01588654518127441,0.004112720489501953,XArbitraryZVertical,-0.4787931119082515,0.1135213660708833,-0.8251707997625287,0.2774224739974082,-0.7271854281425476,0.4530049860477448,-0.5157400965690613,0,0,0,-1,-1,36426.358702625,unknown,2,2025-04-22T15:53:03.194+03:00,2025-04-21T17:08:51.449+03:00,8293,1.047924,0,0,6896.382,7,22,2025-04-22T15:52:55.455+03:00,767019188.4532119,0,-14.34,100.375,1,0.5,2025-04-22T15:50:57.745+03:00,80,1.333333333333333,2025-04-22T14:20:19.516+03:00,0.02197104130929222,0
2025-04-22T15:53:08.497+03:00,1745326387.629975,40.9522137686932,29.14028088868508,76.16171,-1,-1,-1,-1,30,19.36516156965402,-9999,36431.6575215,-0.71685791015625,0.4421539306640625,-0.493255615234375,36431.6474455,-2.740913285201571,-0.9538903927657234,-0.4702376871272816,-0.13834048807621,0.07176446169614792,-0.07991655170917511,0.004620909690856934,-0.01485058665275574,0.01601237058639526,XArbitraryZVertical,-0.4786934382957553,0.1139793646056674,-0.8253964536950502,0.2767343763397989,-0.7271397113800049,0.4530981779098511,-0.5157225728034973,0,0,0,-1,-1,36426.358702625,unknown,2,2025-04-22T15:53:03.194+03:00,2025-04-21T17:08:51.449+03:00,8293,1.047924,0,0,6896.382,7,22,2025-04-22T15:52:55.455+03:00,767019188.4532119,0,-14.34,100.375,1,0.5,2025-04-22T15:50:57.745+03:00,80,1.333333333333333,2025-04-22T14:20:19.516+03:00,0.02197104130929222,0
2025-04-22T15:53:08.508+03:00,1745326387.629975,40.9522137686932,29.14028088868508,76.16171,-1,-1,-1,-1,30,19.36516156965402,-9999,36431.6675975,-0.720794677734375,0.4426116943359375,-0.4972991943359375,36431.6575215,-2.742808640442344,-0.9541897621279255,-0.4704078042559615,-0.1525017768144608,0.04706530645489693,-0.08068816363811493,0.006451845169067383,-0.01205730438232422,0.02098381519317627,XArbitraryZVertical,-0.4787144453279855,0.1144655028933981,-0.8255618101302588,0.2760028865847035,-0.7272310853004456,0.4532498419284821,-0.5154602527618408,0,0,0,-1,-1,36426.358702625,unknown,2,2025-04-22T15:53:03.194+03:00,2025-04-21T17:08:51.449+03:00,8293,1.047924,0,0,6896.382,7,22,2025-04-22T15:52:55.455+03:00,767019188.4532119,0,-14.34,100.375,1,0.5,2025-04-22T15:50:57.745+03:00,80,1.333333333333333,2025-04-22T14:20:19.516+03:00,0.02197104130929222,0
2025-04-22T15:53:08.518+03:00,1745326387.629975,40.9522137686932,29.14028088868508,76.16171,-1,-1,-1,-1,30,19.36516156965402,-9999,36431.6776745,-0.7296600341796875,0.4546356201171875,-0.5147247314453125,36431.6675975,-2.744871091653217,-0.9547828728587304,-0.4706414867897357,-0.1671547591686249,0.03167250379920006,-0.08894689381122589,0.01088243722915649,-0.01234188675880432,0.02226120233535767,XArbitraryZVertical,-0.478848660782062,0.1149789108428549,-0.8256700090133776,0.2752318909087931,-0.7274502515792847,0.4534581303596497,-0.5149676203727722,0,0,0,-1,-1,36426.358702625,unknown,2,2025-04-22T15:53:03.194+03:00,2025-04-21T17:08:51.449+03:00,8293,1.047924,0,0,6896.382,7,22,2025-04-22T15:52:55.455+03:00,767019188.4532119,0,-14.34,100.375,1,0.5,2025-04-22T15:50:57.745+03:00,80,1.333333333333333,2025-04-22T14:20:19.516+03:00,0.02197104130929222,0
2025-04-22T15:53:08.528+03:00,1745326387.629975,40.9522137686932,29.14028088868508,76.16171,-1,-1,-1,-1,30,19.36516156965402,-9999,36431.6877505,-0.735443115234375,0.463470458984375,-0.5262603759765625,36431.6776745,-2.747028676809879,-0.9555148067554214,-0.4708495662811576,-0.1623741239309311,0.02541433833539486,-0.09633716940879822,0.005704164505004883,-0.01046738028526306,0.01572322845458984,XArbitraryZVertical,-0.4790332506725585,0.1154852928123787,-0.8257609873066221,0.2744246552940625,-0.7277499437332153,0.4536435604095459,-0.5143805742263794,0,0,0,-1,-1,36426.358702625,unknown,2,2025-04-22T15:53:03.194+03:00,2025-04-21T17:08:51.449+03:00,8293,1.047924,0,0,6896.382,7,22,2025-04-22T15:52:55.455+03:00,767019188.4532119,0,-14.34,100.375,1,0.5,2025-04-22T15:50:57.745+03:00,80,1.333333333333333,2025-04-22T14:20:19.516+03:00,0.02197104130929222,0
2025-04-22T15:53:08.538+03:00,1745326387.629975,40.9522137686932,29.14028088868508,76.16171,-1,-1,-1,-1,30,19.36516156965402,-9999,36431.6978265,-0.7351837158203125,0.477783203125,-0.52996826171875,36431.6877505,-2.749067157637301,-0.9561876826195406,-0.4708707325488863,-0.1334103792905807,0.03179873526096344,-0.105009488761425,-0.002762019634246826,0.002041220664978027,-0.002975821495056152,XArbitraryZVertical,-0.4791938305081798,0.1158905984048828,-0.8258760982082504,0.2736261028111625,-0.7280880808830261,0.4536624252796173,-0.5138852596282959,0,0,0,-1,-1,36426.358702625,unknown,2,2025-04-22T15:53:03.194+03:00,2025-04-21T17:08:51.449+03:00,8293,1.047924,0,0,6896.382,7,22,2025-04-22T15:52:55.455+03:00,767019188.4532119,0,-14.34,100.375,1,0.5,2025-04-22T15:50:57.745+03:00,80,1.333333333333333,2025-04-22T14:20:19.516+03:00,0.02197104130929222,0
2025-04-22T15:53:08.548+03:00,1745326387.629975,40.9522137686932,29.14028088868508,76.16171,-1,-1,-1,-1,30,19.36516156965402,-9999,36431.70790250001,-0.7285919189453125,0.48663330078125,-0.5253143310546875,36431.6978265,-2.750866547599593,-0.9566801122687737,-0.4706505800151015,-0.1043004989624023,0.04129150882363319,-0.1064151301980019,-0.007050871849060059,0.01093491911888123,-0.01267629861831665,XArbitraryZVertical,-0.4792858996317864,0.1161589703390666,-0.8260359045024367,0.2728676828864026,-0.7284226417541504,0.4534662365913391,-0.5135842561721802,0,0,0,-1,-1,36426.358702625,unknown,2,2025-04-22T15:53:03.194+03:00,2025-04-21T17:08:51.449+03:00,8293,1.047924,0,0,6896.382,7,22,2025-04-22T15:52:55.455+03:00,767019188.4532119,0,-14.34,100.375,1,0.5,2025-04-22T15:50:57.745+03:00,80,1.333333333333333,2025-04-22T14:20:19.516+03:00,0.02197104130929222,0
2025-04-22T15:53:08.558+03:00,1745326387.629975,40.9522137686932,29.14028088868508,76.16171,-1,-1,-1,-1,30,19.36516156965402,-9999,36431.7179795,-0.72283935546875,0.480133056640625,-0.5144805908203125,36431.70790250001,-2.752438628959137,-0.9569433412286136,-0.4703307028564334,-0.0872136577963829,0.04928258806467056,-0.09716677665710449,-0.005469620227813721,0.02609738707542419,-0.01675176620483398,XArbitraryZVertical,-0.4792933266027185,0.1163610567516801,-0.826233403525277,0.2721697824610764,-0.7286763787269592,0.453181117773056,-0.5134760141372681,0,0,0,-1,-1,36426.358702625,unknown,2,2025-04-22T15:53:03.194+03:00,2025-04-21T17:08:51.449+03:00,8293,1.047924,0,0,6896.382,7,22,2025-04-22T15:52:55.455+03:00,767019188.4532119,0,-14.34,100.375,1,0.5,2025-04-22T15:50:57.745+03:00,80,1.333333333333333,2025-04-22T14:20:19.516+03:00,0.02197104130929222,0
2025-04-22T15:53:08.568+03:00,1745326387.629975,40.9522137686932,29.14028088868508,76.16171,-1,-1,-1,-1,30,19.36516156965402,-9999,36431.7280555,-0.7238006591796875,0.4726409912109375,-0.5048065185546875,36431.7179795,-2.753726756196399,-0.9569475466554092,-0.4699883849841963,-0.06086414307355881,0.06450221687555313,-0.08607354015111923,0.001159548759460449,0.03304016590118408,-0.01002800464630127,XArbitraryZVertical,-0.4792095532686222,0.1165206272801753,-0.8264570304002665,0.2715694467991572,-0.7288053035736084,0.452875941991806,-0.5135623216629028,0,0,0,-1,-1,36426.358702625,unknown,2,2025-04-22T15:53:03.194+03:00,2025-04-21T17:08:51.449+03:00,8293,1.047924,0,0,6896.382,7,22,2025-04-22T15:52:55.455+03:00,767019188.4532119,0,-14.34,100.375,1,0.5,2025-04-22T15:50:57.745+03:00,80,1.333333333333333,2025-04-22T14:20:19.516+03:00,0.02197104130929222,0
2025-04-22T15:53:08.578+03:00,1745326387.629975,40.9522137686932,29.14028088868508,76.16171,-1,-1,-1,-1,30,19.36516156965402,-9999,36431.7381315,-0.722381591796875,0.4638671875,-0.4974212646484375,36431.7280555,-2.754651405174898,-0.9566989865700092,-0.4695523043012526,-0.02524303086102009,0.07156811654567719,-0.07356280833482742,0.006716907024383545,0.02653199434280396,0.001115918159484863,XArbitraryZVertical,-0.4790396358493827,0.1165866447205742,-0.8267049787512286,0.2710856785002807,-0.7288389801979065,0.4524870812892914,-0.5138571858406067,0,0,0,-1,-1,36426.358702625,unknown,2,2025-04-22T15:53:03.194+03:00,2025-04-21T17:08:51.449+03:00,8293,1.047924,0,0,6896.382,7,22,2025-04-22T15:52:55.455+03:00,767019188.4532119,0,-14.34,100.375,1,0.5,2025-04-22T15:50:57.745+03:00,80,1.333333333333333,2025-04-22T14:20:19.516+03:00,0.02197104130929222,0
