loggingTime(txt),locationTimestamp_since1970(s),locationLatitude(WGS84),locationLongitude(WGS84),locationAltitude(m),locationSpeed(m/s),locationSpeedAccuracy(m/s),locationCourse(°),locationCourseAccuracy(°),locationVerticalAccuracy(m),locationHorizontalAccuracy(m),locationFloor(Z),accelerometerTimestamp_sinceReboot(s),accelerometerAccelerationX(G),accelerometerAccelerationY(G),accelerometerAccelerationZ(G),motionTimestamp_sinceReboot(s),motionYaw(rad),motionRoll(rad),motionPitch(rad),motionRotationRateX(rad/s),motionRotationRateY(rad/s),motionRotationRateZ(rad/s),motionUserAccelerationX(G),motionUserAccelerationY(G),motionUserAccelerationZ(G),motionAttitudeReferenceFrame(txt),motionQuaternionX(R),motionQuaternionY(R),motionQuaternionZ(R),motionQuaternionW(R),motionGravityX(G),motionGravityY(G),motionGravityZ(G),motionMagneticFieldX(µT),motionMagneticFieldY(µT),motionMagneticFieldZ(µT),motionHeading(°),motionMagneticFieldCalibrationAccuracy(Z),activityTimestamp_sinceReboot(s),activity(txt),activityActivityConfidence(Z),activityActivityStartDate(txt),pedometerStartDate(txt),pedometerNumberofSteps(N),pedometerAverageActivePace(s/m),pedometerCurrentPace(s/m),pedometerCurrentCadence(steps/s),pedometerDistance(m),pedometerFloorAscended(N),pedometerFloorDescended(N),pedometerEndDate(txt),altimeterTimestamp_sinceReboot(s),altimeterReset(bool),altimeterRelativeAltitude(m),altimeterPressure(kPa),batteryState(N),batteryLevel(R),heartRateBPMTimestamp(txt),heartRateBPM(N),heartRateBPS(R),heartRateVariabilityTimestamp(txt),heartRateVariability(ms),label
2025-04-22T15:28:54.382+03:00,1745324932.270545,40.9522166684769,29.14027385676443,76.10294,-1,-1,-1,-1,30,22.0705896186086,-9999,35565.563944625,-0.6177520751953125,0.48895263671875,-0.584136962890625,35565.553867625,-2.004920795965923,-0.7982803495153156,-0.5324767125584136,-0.006559884175658226,-0.002646512817591429,0.006299471482634544,0.0003227591514587402,-0.01091897487640381,-0.0104442834854126,XArbitraryZVertical,-0.446472946863718,0.002512805841041387,-0.6941565508534951,0.5646256463030396,-0.6170066595077515,0.5076687335968018,-0.601311206817627,0,0,0,-1,-1,35552.595932,unknown,2,2025-04-22T15:28:25.138+03:00,2025-04-21T17:08:51.449+03:00,8236,1.039424,0,0,6852.579,7,22,2025-04-22T15:22:29.153+03:00,767017733.6036873,0,-15.74,100.3922,1,0.55,2025-04-22T15:28:23.900+03:00,113,1.883333333333333,2025-04-22T14:20:19.516+03:00,0.02197104130929222,0
2025-04-22T15:28:54.385+03:00,1745324932.270545,40.9522166684769,29.14027385676443,76.10294,-1,-1,-1,-1,30,22.0705896186086,-9999,35565.574020625,-0.6177825927734375,0.49420166015625,-0.6057891845703125,35565.563944625,-2.004945497189882,-0.7983075693283973,-0.5324841729235354,0.0007044201483950019,0.007034876849502325,-0.001494802068918943,-0.006331682205200195,-0.01914989948272705,0.01120376586914062,XArbitraryZVertical,-0.4464838082533302,0.002513611644665763,-0.694155968845835,0.5646178593028256,-0.6170203685760498,0.5076751708984375,-0.6012917757034302,0,0,0,-1,-1,35552.595932,unknown,2,2025-04-22T15:28:25.138+03:00,2025-04-21T17:08:51.449+03:00,8236,1.039424,0,0,6852.579,7,22,2025-04-22T15:22:29.153+03:00,767017733.6036873,0,-15.74,100.3922,1,0.55,2025-04-22T15:28:23.900+03:00,113,1.883333333333333,2025-04-22T14:20:19.516+03:00,0.02197104130929222,0
2025-04-22T15:28:54.387+03:00,1745324932.270545,40.9522166684769,29.14027385676443,76.10294,-1,-1,-1,-1,30,22.0705896186086,-9999,35565.584097625,-0.62091064453125,0.5068817138671875,-0.6147918701171875,35565.574020625,-2.004892087776698,-0.798182196430133,-0.5323792748705417,0.01865539140999317,0.007956529967486858,-0.005089437123388052,0.0008179545402526855,-0.01829659938812256,0.01580440998077393,XArbitraryZVertical,-0.4464197818584525,0.002494899058872502,-0.6941901816034702,0.5646265187782216,-0.6169831156730652,0.5075847506523132,-0.6014063358306885,0,0,0,-1,-1,35552.595932,unknown,2,2025-04-22T15:28:25.138+03:00,2025-04-21T17:08:51.449+03:00,8236,1.039424,0,0,6852.579,7,22,2025-04-22T15:22:29.153+03:00,767017733.6036873,0,-15.74,100.3922,1,0.55,2025-04-22T15:28:23.900+03:00,113,1.883333333333333,2025-04-22T14:20:19.516+03:00,0.02197104130929222,0
2025-04-22T15:28:54.388+03:00,1745324932.270545,40.9522166684769,29.14027385676443,76.10294,-1,-1,-1,-1,30,22.0705896186086,-9999,35565.594173625,-0.6093597412109375,0.5047607421875,-0.603668212890625,35565.584097625,-2.004787535542317,-0.7980834135330913,-0.5321984992515485,0.01390750706195831,-0.0008646580390632153,-0.005944311618804932,-0.002380073070526123,-0.01121330261230469,-0.007111430168151855,XArbitraryZVertical,-0.4463501591413169,0.002426763727081461,-0.6942194067723384,0.5646459123859083,-0.6169893741607666,0.5074290037155151,-0.6015312671661377,0,0,0,-1,-1,35552.595932,unknown,2,2025-04-22T15:28:25.138+03:00,2025-04-21T17:08:51.449+03:00,8236,1.039424,0,0,6852.579,7,22,2025-04-22T15:22:29.153+03:00,767017733.6036873,0,-15.74,100.3922,1,0.55,2025-04-22T15:28:23.900+03:00,113,1.883333333333333,2025-04-22T14:20:19.516+03:00,0.02197104130929222,0
2025-04-22T15:28:54.395+03:00,1745324932.270545,40.9522166684769,29.14027385676443,76.10294,-1,-1,-1,-1,30,22.0705896186086,-9999,35565.604250625,-0.613372802734375,0.4968719482421875,-0.599578857421875,35565.594173625,-2.00472382272413,-0.7980322919618612,-0.5320930223009966,0.003224169835448265,0.005438178312033415,-0.001554923015646636,-0.002250492572784424,0.0001080036163330078,-0.0118643045425415,XArbitraryZVertical,-0.4463118058437526,0.002384582070048904,-0.6942342125418501,0.5646581420325396,-0.6169968843460083,0.5073381066322327,-0.601600170135498,0,0,0,-1,-1,35552.595932,unknown,2,2025-04-22T15:28:25.138+03:00,2025-04-21T17:08:51.449+03:00,8236,1.039424,0,0,6852.579,7,22,2025-04-22T15:22:29.153+03:00,767017733.6036873,0,-15.74,100.3922,1,0.55,2025-04-22T15:28:23.900+03:00,113,1.883333333333333,2025-04-22T14:20:19.516+03:00,0.02197104130929222,0
2025-04-22T15:28:54.404+03:00,1745324932.270545,40.9522166684769,29.14027385676443,76.10294,-1,-1,-1,-1,30,22.0705896186086,-9999,35565.614326625,-0.613189697265625,0.4968719482421875,-0.59759521484375,35565.604250625,-2.004767066747279,-0.798016267269183,-0.532138205136077,-0.01006766688078642,0.001441839151084423,-0.0004747449129354209,0.00799262523651123,-0.003913462162017822,-0.001616477966308594,XArbitraryZVertical,-0.446315046839785,0.002416909989433493,-0.6942408486339967,0.5646473393227365,-0.6169708967208862,0.507377028465271,-0.601594090461731,0,0,0,-1,-1,35552.595932,unknown,2,2025-04-22T15:28:25.138+03:00,2025-04-21T17:08:51.449+03:00,8236,1.039424,0,0,6852.579,7,22,2025-04-22T15:22:29.153+03:00,767017733.6036873,0,-15.74,100.3922,1,0.55,2025-04-22T15:28:23.900+03:00,113,1.883333333333333,2025-04-22T14:20:19.516+03:00,0.02197104130929222,0
2025-04-22T15:28:54.414+03:00,1745324932.270545,40.9522166684769,29.14027385676443,76.10294,-1,-1,-1,-1,30,22.0705896186086,-9999,35565.624402625,-0.6131439208984375,0.5018157958984375,-0.5972900390625,35565.614326625,-2.004847880226357,-0.7980236829086399,-0.532245787233192,-0.01384556107223034,-0.001740305684506893,0.0007844309438951313,0.002373337745666504,-0.01067423820495605,0.001346826553344727,XArbitraryZVertical,-0.4463386124791754,0.002476085929372535,-0.6942402090927494,0.5646293362454105,-0.6169362664222717,0.5074697732925415,-0.6015514135360718,0,0,0,-1,-1,35552.595932,unknown,2,2025-04-22T15:28:25.138+03:00,2025-04-21T17:08:51.449+03:00,8236,1.039424,0,0,6852.579,7,22,2025-04-22T15:22:29.153+03:00,767017733.6036873,0,-15.74,100.3922,1,0.55,2025-04-22T15:28:23.900+03:00,113,1.883333333333333,2025-04-22T14:20:19.516+03:00,0.02197104130929222,0
2025-04-22T15:28:54.424+03:00,1745324932.270545,40.9522166684769,29.14027385676443,76.10294,-1,-1,-1,-1,30,22.0705896186086,-9999,35565.63447962501,-0.6142730712890625,0.501800537109375,-0.6023712158203125,35565.624402625,-2.004939364638577,-0.7980442742955235,-0.532318259193681,-0.01171876024454832,-0.002300102263689041,-0.003604991128668189,0.004312515258789062,-0.009439706802368164,0.004650115966796875,XArbitraryZVertical,-0.4463598994830832,0.002519878700175221,-0.6942466588001437,0.5646042097804466,-0.6169222593307495,0.5075321793556213,-0.6015129685401917,0,0,0,-1,-1,35552.595932,unknown,2,2025-04-22T15:28:25.138+03:00,2025-04-21T17:08:51.449+03:00,8236,1.039424,0,0,6852.579,7,22,2025-04-22T15:22:29.153+03:00,767017733.6036873,0,-15.74,100.3922,1,0.55,2025-04-22T15:28:23.900+03:00,113,1.883333333333333,2025-04-22T14:20:19.516+03:00,0.02197104130929222,0
2025-04-22T15:28:54.434+03:00,1745324932.270545,40.9522166684769,29.14027385676443,76.10294,-1,-1,-1,-1,30,22.0705896186086,-9999,35565.644555625,-0.6116180419921875,0.4981536865234375,-0.6072845458984375,35565.63447962501,-2.005076663894966,-0.7981321561503032,-0.5323323743831315,-0.01248914562165737,-0.006294510792940855,-0.008269217796623707,0.004268646240234375,-0.005286216735839844,0.003904223442077637,XArbitraryZVertical,-0.4463930107704591,0.002531402924029928,-0.6942629182308628,0.5645579376502206,-0.6169700026512146,0.5075443387031555,-0.6014537215232849,0,0,0,-1,-1,35552.595932,unknown,2,2025-04-22T15:28:25.138+03:00,2025-04-21T17:08:51.449+03:00,8236,1.039424,0,0,6852.579,7,22,2025-04-22T15:22:29.153+03:00,767017733.6036873,0,-15.74,100.3922,1,0.55,2025-04-22T15:28:23.900+03:00,113,1.883333333333333,2025-04-22T14:20:19.516+03:00,0.02197104130929222,0
2025-04-22T15:28:54.451+03:00,1745324932.270545,40.9522166684769,29.14027385676443,76.10294,-1,-1,-1,-1,30,22.0705896186086,-9999,35565.654632625,-0.6092376708984375,0.49932861328125,-0.609344482421875,35565.644555625,-2.005184841913377,-0.7982951002065199,-0.5322739666629992,0.003981706220656633,-0.009030641987919807,-0.00613709120079875,0.002663671970367432,-0.005678415298461914,-0.001775562763214111,XArbitraryZVertical,-0.4464379882086467,0.002486073720885839,-0.6942689308280598,0.5645151541945467,-0.6170892119407654,0.5074940323829651,-0.6013739109039307,0,0,0,-1,-1,35552.595932,unknown,2,2025-04-22T15:28:25.138+03:00,2025-04-21T17:08:51.449+03:00,8236,1.039424,0,0,6852.579,7,22,2025-04-22T15:22:29.153+03:00,767017733.6036873,0,-15.74,100.3922,1,0.55,2025-04-22T15:28:23.900+03:00,113,1.883333333333333,2025-04-22T14:20:19.516+03:00,0.02197104130929222,0
2025-04-22T15:28:54.454+03:00,1745324932.270545,40.9522166684769,29.14027385676443,76.10294,-1,-1,-1,-1,30,22.0705896186086,-9999,35565.664708625,-0.6118927001953125,0.50042724609375,-0.6035308837890625,35565.654632625,-2.005177411905236,-0.7983823992955169,-0.5321697736636275,0.0094218784943223,-0.006460026372224092,-0.002898754086345434,0.006797611713409424,-0.009311795234680176,-0.006568551063537598,XArbitraryZVertical,-0.4464478579605163,0.002417860610840175,-0.6942685199336334,0.5645082037993087,-0.6171795725822449,0.5074042677879333,-0.6013569235801697,0,0,0,-1,-1,35552.595932,unknown,2,2025-04-22T15:28:25.138+03:00,2025-04-21T17:08:51.449+03:00,8236,1.039424,0,0,6852.579,7,22,2025-04-22T15:22:29.153+03:00,767017733.6036873,0,-15.74,100.3922,1,0.55,2025-04-22T15:28:23.900+03:00,113,1.883333333333333,2025-04-22T14:20:19.516+03:00,0.02197104130929222,0
2025-04-22T15:28:54.464+03:00,1745324932.270545,40.9522166684769,29.14027385676443,76.10294,-1,-1,-1,-1,30,22.0705896186086,-9999,35565.674785625,-0.6087188720703125,0.4934234619140625,-0.59869384765625,35565.664708625,-2.005116596078491,-0.7984032498665593,-0.5320610850947343,0.004651890601962805,-0.005345226731151342,-0.002032694173976779,0.007688820362091064,-0.006822466850280762,-0.00771784782409668,XArbitraryZVertical,-0.4464338356405536,0.002354671225053391,-0.6942687963111532,0.564519302989665,-0.6172316670417786,0.5073105692863464,-0.6013825535774231,0,0,0,-1,-1,35552.595932,unknown,2,2025-04-22T15:28:25.138+03:00,2025-04-21T17:08:51.449+03:00,8236,1.039424,0,0,6852.579,7,22,2025-04-22T15:22:29.153+03:00,767017733.6036873,0,-15.74,100.3922,1,0.55,2025-04-22T15:28:23.900+03:00,113,1.883333333333333,2025-04-22T14:20:19.516+03:00,0.02197104130929222,0
2025-04-22T15:28:54.474+03:00,1745324932.270545,40.9522166684769,29.14027385676443,76.10294,-1,-1,-1,-1,30,22.0705896186086,-9999,35565.684861625,-0.6068115234375,0.4886932373046875,-0.5968017578125,35565.674785625,-2.005098670158692,-0.7984574603687435,-0.5320306081216517,-0.001585432328283787,-0.007780354470014572,-0.001684052986092865,0.005260646343231201,-0.007803261280059814,-0.0009656548500061035,XArbitraryZVertical,-0.4464467015127574,0.002323118401547684,-0.6942578137071131,0.5645227446890931,-0.6172752976417542,0.5072843432426453,-0.6013599038124084,0,0,0,-1,-1,35552.595932,unknown,2,2025-04-22T15:28:25.138+03:00,2025-04-21T17:08:51.449+03:00,8236,1.039424,0,0,6852.579,7,22,2025-04-22T15:22:29.153+03:00,767017733.6036873,0,-15.74,100.3922,1,0.55,2025-04-22T15:28:23.900+03:00,113,1.883333333333333,2025-04-22T14:20:19.516+03:00,0.02197104130929222,0
2025-04-22T15:28:54.484+03:00,1745324932.270545,40.9522166684769,29.14027385676443,76.10294,-1,-1,-1,-1,30,22.0705896186086,-9999,35565.69493862501,-0.6114044189453125,0.4883270263671875,-0.5997161865234375,35565.684861625,-2.005154221909874,-0.798537079267549,-0.5320669512853954,-0.0105725359171629,-0.005398423410952091,-0.001043829135596752,0.009079456329345703,-0.01387709379196167,0.002832770347595215,XArbitraryZVertical,-0.4464814022502102,0.002327660442533068,-0.6942483430312593,0.5645069300486618,-0.6173099875450134,0.5073156356811523,-0.6012978553771973,0,0,0,-1,-1,35552.595932,unknown,2,2025-04-22T15:28:25.138+03:00,2025-04-21T17:08:51.449+03:00,8236,1.039424,0,0,6852.579,7,22,2025-04-22T15:22:29.153+03:00,767017733.6036873,0,-15.74,100.3922,1,0.55,2025-04-22T15:28:23.900+03:00,113,1.883333333333333,2025-04-22T14:20:19.516+03:00,0.02197104130929222,0
2025-04-22T15:28:54.494+03:00,1745324932.270545,40.9522166684769,29.14027385676443,76.10294,-1,-1,-1,-1,30,22.0705896186086,-9999,35565.705014625,-0.6118316650390625,0.490264892578125,-0.604949951171875,35565.69493862501,-2.005244146469658,-0.7986482666013476,-0.5321487237973704,-0.01169585715979338,-0.004136085510253906,0.003976096399128437,0.01007789373397827,-0.01892191171646118,0.003940701484680176,XArbitraryZVertical,-0.4465359239046536,0.002349232400367249,-0.6942323070239079,0.5644834533917102,-0.6173471212387085,0.5073860883712769,-0.6012002825737,0,0,0,-1,-1,35552.595932,unknown,2,2025-04-22T15:28:25.138+03:00,2025-04-21T17:08:51.449+03:00,8236,1.039424,0,0,6852.579,7,22,2025-04-22T15:22:29.153+03:00,767017733.6036873,0,-15.74,100.3922,1,0.55,2025-04-22T15:28:23.900+03:00,113,1.883333333333333,2025-04-22T14:20:19.516+03:00,0.02197104130929222,0
2025-04-22T15:28:54.504+03:00,1745324932.270545,40.9522166684769,29.14027385676443,76.10294,-1,-1,-1,-1,30,22.0705896186086,-9999,35565.715091625,-0.61083984375,0.4912261962890625,-0.603363037109375,35565.705014625,-2.005269643569133,-0.7986890049938878,-0.5323007982120032,-0.0174458883702755,-0.00119515648111701,0.01361141353845596,0.005545735359191895,-0.01951068639755249,0.0006115436553955078,XArbitraryZVertical,-0.4465798551077337,0.002404587553707414,-0.6941995201416082,0.5644887622413088,-0.6173163056373596,0.5075171589851379,-0.6011213064193726,0,0,0,-1,-1,35552.595932,unknown,2,2025-04-22T15:28:25.138+03:00,2025-04-21T17:08:51.449+03:00,8236,1.039424,0,0,6852.579,7,22,2025-04-22T15:22:29.153+03:00,767017733.6036873,0,-15.74,100.3922,1,0.55,2025-04-22T15:28:23.900+03:00,113,1.883333333333333,2025-04-22T14:20:19.516+03:00,0.02197104130929222,0
2025-04-22T15:28:54.514+03:00,1745324932.270545,40.9522166684769,29.14027385676443,76.10294,-1,-1,-1,-1,30,22.0705896186086,-9999,35565.725167625,-0.6096954345703125,0.491729736328125,-0.5956268310546875,35565.715091625,-2.005365098191239,-0.7987795593633187,-0.5325979312046323,-0.03541756421327591,-0.006781269796192646,0.01640447042882442,0.005507409572601318,-0.01708120107650757,-0.004081428050994873,XArbitraryZVertical,-0.4466694162029786,0.002519839309933275,-0.6941458864352749,0.5644833243964297,-0.6172626614570618,0.5077731609344482,-0.6009601950645447,0,0,0,-1,-1,35552.595932,unknown,2,2025-04-22T15:28:25.138+03:00,2025-04-21T17:08:51.449+03:00,8236,1.039424,0,0,6852.579,7,22,2025-04-22T15:22:29.153+03:00,767017733.6036873,0,-15.74,100.3922,1,0.55,2025-04-22T15:28:23.900+03:00,113,1.883333333333333,2025-04-22T14:20:19.516+03:00,0.02197104130929222,0
2025-04-22T15:28:54.524+03:00,1745324932.270545,40.9522166684769,29.14027385676443,76.10294,-1,-1,-1,-1,30,22.0705896186086,-9999,35565.735243625,-0.6064300537109375,0.497650146484375,-0.6021881103515625,35565.725167625,-2.00555841210051,-0.7989572600607899,-0.5330080742893845,-0.04427790269255638,-0.01086496096104383,0.01764257252216339,0.007067084312438965,-0.01662576198577881,-0.001757681369781494,XArbitraryZVertical,-0.4468112021359226,0.002677806667228143,-0.6940774248944256,0.5644545449765677,-0.6172201633453369,0.508126437664032,-0.6007051467895508,0,0,0,-1,-1,35552.595932,unknown,2,2025-04-22T15:28:25.138+03:00,2025-04-21T17:08:51.449+03:00,8236,1.039424,0,0,6852.579,7,22,2025-04-22T15:22:29.153+03:00,767017733.6036873,0,-15.74,100.3922,1,0.55,2025-04-22T15:28:23.900+03:00,113,1.883333333333333,2025-04-22T14:20:19.516+03:00,0.02197104130929222,0
2025-04-22T15:28:54.534+03:00,1745324932.270545,40.9522166684769,29.14027385676443,76.10294,-1,-1,-1,-1,30,22.0705896186086,-9999,35565.745320625,-0.606170654296875,0.5065155029296875,-0.608062744140625,35565.735243625,-2.005802592808487,-0.7991881281629613,-0.5334260124981268,-0.0443851612508297,-0.01276878826320171,0.01370126102119684,0.007587432861328125,-0.01663470268249512,0.004741787910461426,XArbitraryZVertical,-0.4469728201991296,0.002835282791269578,-0.6940098191235911,0.5644089588587321,-0.6172065138816833,0.5084863305091858,-0.600414514541626,0,0,0,-1,-1,35552.595932,unknown,2,2025-04-22T15:28:25.138+03:00,2025-04-21T17:08:51.449+03:00,8236,1.039424,0,0,6852.579,7,22,2025-04-22T15:22:29.153+03:00,767017733.6036873,0,-15.74,100.3922,1,0.55,2025-04-22T15:28:23.900+03:00,113,1.883333333333333,2025-04-22T14:20:19.516+03:00,0.02197104130929222,0
2025-04-22T15:28:54.544+03:00,1745324932.270545,40.9522166684769,29.14027385676443,76.10294,-1,-1,-1,-1,30,22.0705896186086,-9999,35565.75539662501,-0.6120147705078125,0.504791259765625,-0.6012420654296875,35565.745320625,-2.006064274554095,-0.7994339402875003,-0.5337960010899013,-0.04369327053427696,-0.01206118613481522,0.01059681456536055,0.01172000169754028,-0.0101478099822998,-0.004055500030517578,XArbitraryZVertical,-0.4471301404052083,0.002973202419105166,-0.6939535002691047,0.5643528959397536,-0.6172192096710205,0.5088049173355103,-0.6001315712928772,0,0,0,-1,-1,35552.595932,unknown,2,2025-04-22T15:28:25.138+03:00,2025-04-21T17:08:51.449+03:00,8236,1.039424,0,0,6852.579,7,22,2025-04-22T15:22:29.153+03:00,767017733.6036873,0,-15.74,100.3922,1,0.55,2025-04-22T15:28:23.900+03:00,113,1.883333333333333,2025-04-22T14:20:19.516+03:00,0.02197104130929222,0
2025-04-22T15:28:54.555+03:00,1745324932.270545,40.9522166684769,29.14027385676443,76.10294,-1,-1,-1,-1,30,22.0705896186086,-9999,35565.765473625,-0.613311767578125,0.4959869384765625,-0.5986785888671875,35565.75539662501,-2.006335416297083,-0.7996943160850517,-0.5341548677534586,-0.04526806622743607,-0.01093979645520449,0.01360921561717987,0.01049405336380005,-0.00209498405456543,-0.007944583892822266,XArbitraryZVertical,-0.4472902587048412,0.003104692825223871,-0.6938987940758252,0.5642925613071292,-0.6172444224357605,0.5091137886047363,-0.5998435616493225,0,0,0,-1,-1,35552.595932,unknown,2,2025-04-22T15:28:25.138+03:00,2025-04-21T17:08:51.449+03:00,8236,1.039424,0,0,6852.579,7,22,2025-04-22T15:22:29.153+03:00,767017733.6036873,0,-15.74,100.3922,1,0.55,2025-04-22T15:28:23.900+03:00,113,1.883333333333333,2025-04-22T14:20:19.516+03:00,0.02197104130929222,0
2025-04-22T15:28:54.565+03:00,1745324932.270545,40.9522166684769,29.14027385676443,76.10294,-1,-1,-1,-1,30,22.0705896186086,-9999,35565.775549625,-0.61334228515625,0.487396240234375,-0.6055450439453125,35565.765473625,-2.006659620567956,-0.7999226149761749,-0.5346258233487358,-0.05031555518507957,-0.003424621187150478,0.01769876666367054,0.004736840724945068,-0.005201041698455811,-0.0009589791297912598,XArbitraryZVertical,-0.4474609881806152,0.003302212316398384,-0.6938433807939866,0.5642242433782064,-0.6172093152999878,0.509519100189209,-0.5995355248451233,0,0,0,-1,-1,35552.595932,unknown,2,2025-04-22T15:28:25.138+03:00,2025-04-21T17:08:51.449+03:00,8236,1.039424,0,0,6852.579,7,22,2025-04-22T15:22:29.153+03:00,767017733.6036873,0,-15.74,100.3922,1,0.55,2025-04-22T15:28:23.900+03:00,113,1.883333333333333,2025-04-22T14:20:19.516+03:00,0.02197104130929222,0
2025-04-22T15:28:54.575+03:00,1745324932.270545,40.9522166684769,29.14027385676443,76.10294,-1,-1,-1,-1,30,22.0705896186086,-9999,35565.785626625,-0.61175537109375,0.4868316650390625,-0.6106719970703125,35565.775549625,-2.006916181691246,-0.8001125645620204,-0.5351421169990335,-0.05839285254478455,-0.008360192179679871,0.02659482322633266,0.003944754600524902,-0.0151972770690918,3.74913215637207e-05,XArbitraryZVertical,-0.4476272898369678,0.003513703479474163,-0.6937681477202784,0.5641835444732626,-0.6171343922615051,0.5099632740020752,-0.599234938621521,0,0,0,-1,-1,35552.595932,unknown,2,2025-04-22T15:28:25.138+03:00,2025-04-21T17:08:51.449+03:00,8236,1.039424,0,0,6852.579,7,22,2025-04-22T15:22:29.153+03:00,767017733.6036873,0,-15.74,100.3922,1,0.55,2025-04-22T15:28:23.900+03:00,113,1.883333333333333,2025-04-22T14:20:19.516+03:00,0.02197104130929222,0
2025-04-22T15:28:54.585+03:00,1745324932.270545,40.9522166684769,29.14027385676443,76.10294,-1,-1,-1,-1,30,22.0705896186086,-9999,35565.795702625,-0.6089324951171875,0.494384765625,-0.6108245849609375,35565.785626625,-2.007178958303803,-0.8003006831936008,-0.5356985231988672,-0.05651159584522247,-0.005761478561908007,0.0253125112503767,0.003792703151702881,-0.02362555265426636,-0.007829487323760986,XArbitraryZVertical,-0.4478006701847336,0.003743269880298128,-0.6936868373694091,0.5641444420932653,-0.6170433759689331,0.5104418396949768,-0.5989211201667786,0,0,0,-1,-1,35552.595932,unknown,2,2025-04-22T15:28:25.138+03:00,2025-04-21T17:08:51.449+03:00,8236,1.039424,0,0,6852.579,7,22,2025-04-22T15:22:29.153+03:00,767017733.6036873,0,-15.74,100.3922,1,0.55,2025-04-22T15:28:23.900+03:00,113,1.883333333333333,2025-04-22T14:20:19.516+03:00,0.02197104130929222,0
2025-04-22T15:28:54.595+03:00,1745324932.270545,40.9522166684769,29.14027385676443,76.10294,-1,-1,-1,-1,30,22.0705896186086,-9999,35565.805779625,-0.612945556640625,0.5034332275390625,-0.6201019287109375,35565.795702625,-2.007512322916893,-0.8004572908927551,-0.5362538556037225,-0.06301077455282211,0.007943680509924889,0.01995636150240898,0.006002306938171387,-0.02259242534637451,-0.01251816749572754,XArbitraryZVertical,-0.4479626551581665,0.003997132048517075,-0.6936326433879693,0.5640807360351824,-0.6169336438179016,0.5109192728996277,-0.598626971244812,0,0,0,-1,-1,35552.595932,unknown,2,2025-04-22T15:28:25.138+03:00,2025-04-21T17:08:51.449+03:00,8236,1.039424,0,0,6852.579,7,22,2025-04-22T15:22:29.153+03:00,767017733.6036873,0,-15.74,100.3922,1,0.55,2025-04-22T15:28:23.900+03:00,113,1.883333333333333,2025-04-22T14:20:19.516+03:00,0.02197104130929222,0
2025-04-22T15:28:54.605+03:00,1745324932.270545,40.9522166684769,29.14027385676443,76.10294,-1,-1,-1,-1,30,22.0705896186086,-9999,35565.81585562501,-0.615234375,0.515655517578125,-0.638671875,35565.805779625,-2.007753759299955,-0.8004562325691195,-0.5367935523143851,-0.04443123191595078,0.01144786737859249,0.02561611123383045,0.007238030433654785,-0.0161745548248291,-0.01266384124755859,XArbitraryZVertical,-0.4480669743100608,0.004268603978955128,-0.6935909812546438,0.5640471780924944,-0.61673504114151,0.5113831758499146,-0.5984355211257935,0,0,0,-1,-1,35552.595932,unknown,2,2025-04-22T15:28:25.138+03:00,2025-04-21T17:08:51.449+03:00,8236,1.039424,0,0,6852.579,7,22,2025-04-22T15:22:29.153+03:00,767017733.6036873,0,-15.74,100.3922,1,0.55,2025-04-22T15:28:23.900+03:00,113,1.883333333333333,2025-04-22T14:20:19.516+03:00,0.02197104130929222,0
2025-04-22T15:28:54.615+03:00,1745324932.270545,40.9522166684769,29.14027385676443,76.10294,-1,-1,-1,-1,30,22.0705896186086,-9999,35565.825932625,-0.6154327392578125,0.512969970703125,-0.6478729248046875,35565.81585562501,-2.007890410972386,-0.8003831751205283,-0.5371499340725976,-0.03031395003199577,0.01442195288836956,0.009384344331920147,0.003340363502502441,-0.006349027156829834,-0.02418977022171021,XArbitraryZVertical,-0.4481107622227992,0.004463175704331142,-0.6935732441013146,0.5640327622708795,-0.6165605187416077,0.5116893649101257,-0.5983536243438721,0,0,0,-1,-1,35552.595932,unknown,2,2025-04-22T15:28:25.138+03:00,2025-04-21T17:08:51.449+03:00,8236,1.039424,0,0,6852.579,7,22,2025-04-22T15:22:29.153+03:00,767017733.6036873,0,-15.74,100.3922,1,0.55,2025-04-22T15:28:23.900+03:00,113,1.883333333333333,2025-04-22T14:20:19.516+03:00,0.02197104130929222,0
2025-04-22T15:28:54.625+03:00,1745324932.270545,40.9522166684769,29.14027385676443,76.10294,-1,-1,-1,-1,30,22.0705896186086,-9999,35565.836008625,-0.6137237548828125,0.514923095703125,-0.6461334228515625,35565.825932625,-2.007976134180567,-0.8001670395547429,-0.5373295161874126,0.002266364172101021,0.02897000312805176,0.002724310848861933,0.0007951855659484863,0.00426948070526123,-0.04293465614318848,XArbitraryZVertical,-0.4480705932077384,0.004615580282899826,-0.6936092225357012,0.564019212050159,-0.6163652539253235,0.5118436813354492,-0.5984228849411011,0,0,0,-1,-1,35552.595932,unknown,2,2025-04-22T15:28:25.138+03:00,2025-04-21T17:08:51.449+03:00,8236,1.039424,0,0,6852.579,7,22,2025-04-22T15:22:29.153+03:00,767017733.6036873,0,-15.74,100.3922,1,0.55,2025-04-22T15:28:23.900+03:00,113,1.883333333333333,2025-04-22T14:20:19.516+03:00,0.02197104130929222,0
2025-04-22T15:28:54.635+03:00,1745324932.270545,40.9522166684769,29.14027385676443,76.10294,-1,-1,-1,-1,30,22.0705896186086,-9999,35565.846085625,-0.6078948974609375,0.5237579345703125,-0.633026123046875,35565.836008625,-2.008115694016652,-0.7999366955426666,-0.5372647716686334,-0.02825326286256313,0.03810590878129005,-0.03155459836125374,0.0002844333648681641,0.0009681582450866699,-0.04916304349899292,XArbitraryZVertical,-0.4479777617310421,0.00468574404499989,-0.6937133905157806,0.5639642842059402,-0.6162511706352234,0.5117880702018738,-0.5985879302024841,0,0,0,-1,-1,35552.595932,unknown,2,2025-04-22T15:28:25.138+03:00,2025-04-21T17:08:51.449+03:00,8236,1.039424,0,0,6852.579,7,22,2025-04-22T15:22:29.153+03:00,767017733.6036873,0,-15.74,100.3922,1,0.55,2025-04-22T15:28:23.900+03:00,113,1.883333333333333,2025-04-22T14:20:19.516+03:00,0.02197104130929222,0
2025-04-22T15:28:54.645+03:00,1745324932.270545,40.9522166684769,29.14027385676443,76.10294,-1,-1,-1,-1,30,22.0705896186086,-9999,35565.856161625,-0.61334228515625,0.512786865234375,-0.5957183837890625,35565.846085625,-2.009216195715198,-0.7998361097165053,-0.537547618048441,-0.1582911461591721,0.09223705530166626,-0.0555342324078083,0.002683877944946289,0.003746390342712402,-0.04679107666015625,XArbitraryZVertical,-0.4479952442572243,0.005074423129406969,-0.6939884699101005,0.5636084786688843,-0.6160870790481567,0.5120310187339783,-0.5985490083694458,0,0,0,-1,-1,35552.595932,unknown,2,2025-04-22T15:28:25.138+03:00,2025-04-21T17:08:51.449+03:00,8236,1.039424,0,0,6852.579,7,22,2025-04-22T15:22:29.153+03:00,767017733.6036873,0,-15.74,100.3922,1,0.55,2025-04-22T15:28:23.900+03:00,113,1.883333333333333,2025-04-22T14:20:19.516+03:00,0.02197104130929222,0
2025-04-22T15:28:54.655+03:00,1745324932.270545,40.9522166684769,29.14027385676443,76.10294,-1,-1,-1,-1,30,22.0705896186086,-9999,35565.866237625,-0.6174774169921875,0.462493896484375,-0.580413818359375,35565.856161625,-2.011829066167696,-0.7998818701872143,-0.5387731212802891,-0.3291475772857666,0.177693098783493,-0.07086165994405746,0.00737231969833374,0.01250553131103516,-0.0323185920715332,XArbitraryZVertical,-0.4482418415604501,0.006140375439021122,-0.6944640329450464,0.5628153307850646,-0.6156638860702515,0.513083279132843,-0.5980830788612366,0,0,0,-1,-1,35552.595932,unknown,2,2025-04-22T15:28:25.138+03:00,2025-04-21T17:08:51.449+03:00,8236,1.039424,0,0,6852.579,7,22,2025-04-22T15:22:29.153+03:00,767017733.6036873,0,-15.74,100.3922,1,0.55,2025-04-22T15:28:23.900+03:00,113,1.883333333333333,2025-04-22T14:20:19.516+03:00,0.02197104130929222,0
2025-04-22T15:28:54.665+03:00,1745324932.270545,40.9522166684769,29.14027385676443,76.10294,-1,-1,-1,-1,30,22.0705896186086,-9999,35565.87631462501,-0.598541259765625,0.4943695068359375,-0.580474853515625,35565.866237625,-2.01608966706843,-0.7997740057352721,-0.5406626170444223,-0.4594163596630096,0.2702398002147675,-0.1734117418527603,0.0009351372718811035,-0.006785094738006592,0.006118357181549072,XArbitraryZVertical,-0.4485547629728158,0.007887222585842561,-0.6953002414503383,0.5615102961555656,-0.6149029731750488,0.5147042274475098,-0.5974728465080261,0,0,0,-1,-1,35552.595932,unknown,2,2025-04-22T15:28:25.138+03:00,2025-04-21T17:08:51.449+03:00,8236,1.039424,0,0,6852.579,7,22,2025-04-22T15:22:29.153+03:00,767017733.6036873,0,-15.74,100.3922,1,0.55,2025-04-22T15:28:23.900+03:00,113,1.883333333333333,2025-04-22T14:20:19.516+03:00,0.02197104130929222,0
2025-04-22T15:28:54.675+03:00,1745324932.270545,40.9522166684769,29.14027385676443,76.10294,-1,-1,-1,-1,30,22.0705896186086,-9999,35565.886390625,-0.57623291015625,0.6183319091796875,-0.5732879638671875,35565.87631462501,-2.022111804616708,-0.8002518119177433,-0.5421062608475151,-0.4301876723766327,0.2203675806522369,-0.3164313435554504,-0.002487063407897949,-0.05646896362304688,0.01528555154800415,XArbitraryZVertical,-0.448971916770215,0.009686943781707523,-0.6965861358386946,0.5595515085138514,-0.614654541015625,0.5159413814544678,-0.5966607332229614,0,0,0,-1,-1,35552.595932,unknown,2,2025-04-22T15:28:25.138+03:00,2025-04-21T17:08:51.449+03:00,8236,1.039424,0,0,6852.579,7,22,2025-04-22T15:22:29.153+03:00,767017733.6036873,0,-15.74,100.3922,1,0.55,2025-04-22T15:28:23.900+03:00,113,1.883333333333333,2025-04-22T14:20:19.516+03:00,0.02197104130929222,0
2025-04-22T15:28:54.686+03:00,1745324932.270545,40.9522166684769,29.14027385676443,76.10294,-1,-1,-1,-1,30,22.0705896186086,-9999,35565.896467625,-0.620391845703125,0.6851043701171875,-0.6410064697265625,35565.886390625,-2.027604820816844,-0.8008496868071086,-0.5418171227297702,-0.2112084329128265,0.212514728307724,-0.3710748851299286,0.02019345760345459,-0.008171260356903076,0.01839399337768555,XArbitraryZVertical,-0.4490972396064798,0.01063638818957816,-0.6980451330604208,0.5576123628982406,-0.6151183247566223,0.515693724155426,-0.5963971018791199,0,0,0,-1,-1,35552.595932,unknown,2,2025-04-22T15:28:25.138+03:00,2025-04-21T17:08:51.449+03:00,8236,1.039424,0,0,6852.579,7,22,2025-04-22T15:22:29.153+03:00,767017733.6036873,0,-15.74,100.3922,1,0.55,2025-04-22T15:28:23.900+03:00,113,1.883333333333333,2025-04-22T14:20:19.516+03:00,0.02197104130929222,0
2025-04-22T15:28:54.696+03:00,1745324932.270545,40.9522166684769,29.14027385676443,76.10294,-1,-1,-1,-1,30,22.0705896186086,-9999,35565.906543625,-0.6858673095703125,0.656524658203125,-0.6820068359375,35565.896467625,-2.032127225112693,-0.8010890039995283,-0.5399933044602555,-0.1142472699284554,0.2084637880325317,-0.4204379022121429,0.03919899463653564,0.1180412173271179,0.01905286312103271,XArbitraryZVertical,-0.4488102644034759,0.01084745724889033,-0.6996216228899557,0.5558607468490009,-0.6159353852272034,0.5141302347183228,-0.596903383731842,0,0,0,-1,-1,35552.595932,unknown,2,2025-04-22T15:28:25.138+03:00,2025-04-21T17:08:51.449+03:00,8236,1.039424,0,0,6852.579,7,22,2025-04-22T15:22:29.153+03:00,767017733.6036873,0,-15.74,100.3922,1,0.55,2025-04-22T15:28:23.900+03:00,113,1.883333333333333,2025-04-22T14:20:19.516+03:00,0.02197104130929222,0
2025-04-22T15:28:54.706+03:00,1745324932.270545,40.9522166684769,29.14027385676443,76.10294,-1,-1,-1,-1,30,22.0705896186086,-9999,35565.916620625,-0.679656982421875,0.5753021240234375,-0.6804351806640625,35565.906543625,-2.037144510338761,-0.8018627213069762,-0.5380505221619636,-0.2725029587745667,0.1464499533176422,-0.4588864743709564,-0.01328784227371216,0.1725649833679199,-0.05285871028900146,XArbitraryZVertical,-0.4486864980597496,0.01097206335575751,-0.7012346644260989,0.5539223394150795,-0.6171137094497681,0.5124629139900208,-0.5971201062202454,0,0,0,-1,-1,35552.595932,unknown,2,2025-04-22T15:28:25.138+03:00,2025-04-21T17:08:51.449+03:00,8236,1.039424,0,0,6852.579,7,22,2025-04-22T15:22:29.153+03:00,767017733.6036873,0,-15.74,100.3922,1,0.55,2025-04-22T15:28:23.900+03:00,113,1.883333333333333,2025-04-22T14:20:19.516+03:00,0.02197104130929222,0
2025-04-22T15:28:54.716+03:00,1745324932.270545,40.9522166684769,29.14027385676443,76.10294,-1,-1,-1,-1,30,22.0705896186086,-9999,35565.926696625,-0.649169921875,0.53436279296875,-0.723602294921875,35565.916620625,-2.04524928791022,-0.8051024049812727,-0.5377144282972012,-0.7167935371398926,0.006093183066695929,-0.5631112456321716,-0.07034498453140259,0.1362172961235046,-0.08622062206268311,XArbitraryZVertical,-0.4497145286812683,0.01176121275959068,-0.7028141060662954,0.5510633654389123,-0.6191690564155579,0.5121743083000183,-0.5952370166778564,0,0,0,-1,-1,35552.595932,unknown,2,2025-04-22T15:28:25.138+03:00,2025-04-21T17:08:51.449+03:00,8236,1.039424,0,0,6852.579,7,22,2025-04-22T15:22:29.153+03:00,767017733.6036873,0,-15.74,100.3922,1,0.55,2025-04-22T15:28:23.900+03:00,113,1.883333333333333,2025-04-22T14:20:19.516+03:00,0.02197104130929222,0
2025-04-22T15:28:54.726+03:00,1745324932.270545,40.9522166684769,29.14027385676443,76.10294,-1,-1,-1,-1,30,22.0705896186086,-9999,35565.936773625,-0.6531219482421875,0.647216796875,-0.7781219482421875,35565.926696625,-2.058392611918879,-0.8122863720576207,-0.5397425419615245,-1.157589793205261,-0.06861115247011185,-0.6801223158836365,-0.05315303802490234,0.0505836009979248,-0.09283411502838135,XArbitraryZVertical,-0.4525336513574024,0.01357789146542599,-0.704389142675513,0.5466852138837814,-0.6226739287376404,0.5139151215553284,-0.5900578498840332,0,0,0,-1,-1,35552.595932,unknown,2,2025-04-22T15:28:25.138+03:00,2025-04-21T17:08:51.449+03:00,8236,1.039424,0,0,6852.579,7,22,2025-04-22T15:22:29.153+03:00,767017733.6036873,0,-15.74,100.3922,1,0.55,2025-04-22T15:28:23.900+03:00,113,1.883333333333333,2025-04-22T14:20:19.516+03:00,0.02197104130929222,0
2025-04-22T15:28:54.736+03:00,1745324932.270545,40.9522166684769,29.14027385676443,76.10294,-1,-1,-1,-1,30,22.0705896186086,-9999,35565.946849625,-0.660400390625,0.713714599609375,-0.7879638671875,35565.936773625,-2.074919739401216,-0.8221554655494235,-0.5433992344013955,-1.358132123947144,-0.194094642996788,-0.7279238104820251,-0.02040553092956543,0.02440941333770752,-0.1479593515396118,XArbitraryZVertical,-0.4565512510751195,0.01613789754189029,-0.7058976365438657,0.5413030408943803,-0.6270859241485596,0.5170485973358154,-0.5826010704040527,0,0,0,-1,-1,35552.595932,unknown,2,2025-04-22T15:28:25.138+03:00,2025-04-21T17:08:51.449+03:00,8236,1.039424,0,0,6852.579,7,22,2025-04-22T15:22:29.153+03:00,767017733.6036873,0,-15.74,100.3922,1,0.55,2025-04-22T15:28:23.900+03:00,113,1.883333333333333,2025-04-22T14:20:19.516+03:00,0.02197104130929222,0
2025-04-22T15:28:54.746+03:00,1745324932.270545,40.9522166684769,29.14027385676443,76.10294,-1,-1,-1,-1,30,22.0705896186086,-9999,35565.956926625,-0.6969146728515625,0.6873016357421875,-0.6799468994140625,35565.946849625,-2.093816126099768,-0.8341336477604555,-0.5472065621101552,-1.450683116912842,-0.2452028393745422,-0.8795160055160522,-0.02181661128997803,0.1427820920944214,-0.2114502191543579,XArbitraryZVertical,-0.4612870243768678,0.01880378086554804,-0.7074570310176261,0.5351310120707419,-0.6325564980506897,0.5203037261962891,-0.5737214088439941,0,0,0,-1,-1,35552.595932,unknown,2,2025-04-22T15:28:25.138+03:00,2025-04-21T17:08:51.449+03:00,8236,1.039424,0,0,6852.579,7,22,2025-04-22T15:22:29.153+03:00,767017733.6036873,0,-15.74,100.3922,1,0.55,2025-04-22T15:28:23.900+03:00,113,1.883333333333333,2025-04-22T14:20:19.516+03:00,0.02197104130929222,0
2025-04-22T15:28:54.757+03:00,1745324932.270545,40.9522166684769,29.14027385676443,76.10294,-1,-1,-1,-1,30,22.0705896186086,-9999,35565.967002625,-0.734832763671875,0.6226654052734375,-0.642303466796875,35565.956926625,-2.111748592949628,-0.8461294257354566,-0.5483352280631391,-0.9628056883811951,-0.264051765203476,-0.9723345637321472,-0.02309530973434448,0.1920810341835022,-0.2140368223190308,XArbitraryZVertical,-0.4655528489422061,0.02022912233636235,-0.7092172396720088,0.5290200273633522,-0.6389529705047607,0.5212672352790833,-0.5657026767730713,0,0,0,-1,-1,35552.595932,unknown,2,2025-04-22T15:28:25.138+03:00,2025-04-21T17:08:51.449+03:00,8236,1.039424,0,0,6852.579,7,22,2025-04-22T15:22:29.153+03:00,767017733.6036873,0,-15.74,100.3922,1,0.55,2025-04-22T15:28:23.900+03:00,113,1.883333333333333,2025-04-22T14:20:19.516+03:00,0.02197104130929222,0
2025-04-22T15:28:54.767+03:00,1745324932.270545,40.9522166684769,29.14027385676443,76.10294,-1,-1,-1,-1,30,22.0705896186086,-9999,35565.977079625,-0.711090087890625,0.66748046875,-0.6783905029296875,35565.967002625,-2.125873374468092,-0.8564120980674814,-0.5455456991673002,-0.4352374672889709,-0.3292635083198547,-1.025193333625793,-0.0579032301902771,0.1616266965866089,-0.1071375012397766,XArbitraryZVertical,-0.4686002257064873,0.01967862235780052,-0.7111040579489928,0.5237914241031142,-0.6458320617675781,0.5188846588134766,-0.5600531697273254,0,0,0,-1,-1,35552.595932,unknown,2,2025-04-22T15:28:25.138+03:00,2025-04-21T17:08:51.449+03:00,8236,1.039424,0,0,6852.579,7,22,2025-04-22T15:22:29.153+03:00,767017733.6036873,0,-15.74,100.3922,1,0.55,2025-04-22T15:28:23.900+03:00,113,1.883333333333333,2025-04-22T14:20:19.516+03:00,0.02197104130929222,0
2025-04-22T15:28:54.777+03:00,1745324932.270545,40.9522166684769,29.14027385676443,76.10294,-1,-1,-1,-1,30,22.0705896186086,-9999,35565.987155625,-0.6448822021484375,0.7132720947265625,-0.7615814208984375,35565.977079625,-2.134539855750688,-0.8646271828305703,-0.5379527772350581,0.2990126013755798,-0.4001424014568329,-1.081615924835205,-0.08299911022186279,0.1074634194374084,-0.08852845430374146,XArbitraryZVertical,-0.4702068881078977,0.01645538417877786,-0.7129840605232037,0.51989257691188,-0.6533899903297424,0.512378990650177,-0.5572693943977356,0,0,0,-1,-1,35552.595932,unknown,2,2025-04-22T15:28:25.138+03:00,2025-04-21T17:08:51.449+03:00,8236,1.039424,0,0,6852.579,7,22,2025-04-22T15:22:29.153+03:00,767017733.6036873,0,-15.74,100.3922,1,0.55,2025-04-22T15:28:23.900+03:00,113,1.883333333333333,2025-04-22T14:20:19.516+03:00,0.02197104130929222,0
2025-04-22T15:28:54.806+03:00,1745324932.270545,40.9522166684769,29.14027385676443,76.10294,-1,-1,-1,-1,30,22.0705896186086,-9999,35565.997232625,-0.6222991943359375,0.6140289306640625,-0.7708892822265625,35565.987155625,-2.137431149138258,-0.8703437531089897,-0.5256559906880222,0.851373016834259,-0.4530839025974274,-1.098477244377136,-0.04131954908370972,0.1768538951873779,-0.1283230185508728,XArbitraryZVertical,-0.4702289747248816,0.01060874720265781,-0.7148758298690401,0.5174209730514175,-0.6613323092460632,0.5017805695533752,-0.5575443506240845,0,0,0,-1,-1,35552.595932,unknown,2,2025-04-22T15:28:25.138+03:00,2025-04-21T17:08:51.449+03:00,8236,1.039424,0,0,6852.579,7,22,2025-04-22T15:22:29.153+03:00,767017733.6036873,0,-15.74,100.3922,1,0.55,2025-04-22T15:28:23.900+03:00,113,1.883333333333333,2025-04-22T14:20:19.516+03:00,0.02197104130929222,0
2025-04-22T15:28:54.810+03:00,1745324932.270545,40.9522166684769,29.14027385676443,76.10294,-1,-1,-1,-1,30,22.0705896186086,-9999,35566.007308625,-0.6293487548828125,0.465850830078125,-0.67755126953125,35565.997232625,-2.136939423476697,-0.8751375679369503,-0.5108239188745124,1.076743245124817,-0.5531385540962219,-1.097504019737244,0.03070616722106934,0.2199507653713226,-0.2114163637161255,XArbitraryZVertical,-0.4695228938000813,0.00317380501290641,-0.7165905699511094,0.5157868984513865,-0.6696373224258423,0.4888961613178253,-0.5590763688087463,0,0,0,-1,-1,35552.595932,unknown,2,2025-04-22T15:28:25.138+03:00,2025-04-21T17:08:51.449+03:00,8236,1.039424,0,0,6852.579,7,22,2025-04-22T15:22:29.153+03:00,767017733.6036873,0,-15.74,100.3922,1,0.55,2025-04-22T15:28:23.900+03:00,113,1.883333333333333,2025-04-22T14:20:19.516+03:00,0.02197104130929222,0
2025-04-22T15:28:54.814+03:00,1745324932.270545,40.9522166684769,29.14027385676443,76.10294,-1,-1,-1,-1,30,22.0705896186086,-9999,35566.017384625,-0.63262939453125,0.4239044189453125,-0.646331787109375,35566.007308625,-2.135233586576792,-0.8803830319976919,-0.4954622063243826,1.055942416191101,-0.6352712512016296,-1.047434210777283,0.05580449104309082,0.1191507279872894,-0.2012776732444763,XArbitraryZVertical,-0.4688705794984214,-0.004869644280650431,-0.7179603198272489,0.5144604624843834,-0.6782714128494263,0.4754383265972137,-0.5602733492851257,0,0,0,-1,-1,35552.595932,unknown,2,2025-04-22T15:28:25.138+03:00,2025-04-21T17:08:51.449+03:00,8236,1.039424,0,0,6852.579,7,22,2025-04-22T15:22:29.153+03:00,767017733.6036873,0,-15.74,100.3922,1,0.55,2025-04-22T15:28:23.900+03:00,113,1.883333333333333,2025-04-22T14:20:19.516+03:00,0.02197104130929222,0
2025-04-22T15:28:54.819+03:00,1745324932.270545,40.9522166684769,29.14027385676443,76.10294,-1,-1,-1,-1,30,22.0705896186086,-9999,35566.027461625,-0.640625,0.4213714599609375,-0.6497039794921875,35566.017384625,-2.13372597290826,-0.8863376602448666,-0.4812005139130828,0.9432563185691833,-0.6957021355628967,-0.9727760553359985,0.05619478225708008,-0.009535759687423706,-0.108154833316803,XArbitraryZVertical,-0.4686300627495639,-0.01258714440209718,-0.718969565334718,0.5131374168815374,-0.6867793798446655,0.4628436863422394,-0.5604548454284668,0,0,0,-1,-1,35552.595932,unknown,2,2025-04-22T15:28:25.138+03:00,2025-04-21T17:08:51.449+03:00,8236,1.039424,0,0,6852.579,7,22,2025-04-22T15:22:29.153+03:00,767017733.6036873,0,-15.74,100.3922,1,0.55,2025-04-22T15:28:23.900+03:00,113,1.883333333333333,2025-04-22T14:20:19.516+03:00,0.02197104130929222,0
2025-04-22T15:28:54.830+03:00,1745324932.270545,40.9522166684769,29.14027385676443,76.10294,-1,-1,-1,-1,30,22.0705896186086,-9999,35566.037537625,-0.6483917236328125,0.3585968017578125,-0.6309051513671875,35566.027461625,-2.133005563473743,-0.8934211221311359,-0.4687377931968435,0.691633403301239,-0.7657057642936707,-0.8706390857696533,0.06249803304672241,-0.02576586604118347,-0.08765679597854614,XArbitraryZVertical,-0.4690834969824161,-0.01966240208547423,-0.7195422278895276,0.5116961496729516,-0.6951731443405151,0.4517605900764465,-0.5591481328010559,0,0,0,-1,-1,35552.595932,unknown,2,2025-04-22T15:28:25.138+03:00,2025-04-21T17:08:51.449+03:00,8236,1.039424,0,0,6852.579,7,22,2025-04-22T15:22:29.153+03:00,767017733.6036873,0,-15.74,100.3922,1,0.55,2025-04-22T15:28:23.900+03:00,113,1.883333333333333,2025-04-22T14:20:19.516+03:00,0.02197104130929222,0
2025-04-22T15:28:54.846+03:00,1745324932.270545,40.9522166684769,29.14027385676443,76.10294,-1,-1,-1,-1,30,22.0705896186086,-9999,35566.047614625,-0.656280517578125,0.290771484375,-0.6061859130859375,35566.037537625,-2.134153307694763,-0.9018947765842951,-0.4590972798472092,0.3284071087837219,-0.7987107038497925,-0.7495529055595398,0.0618213415145874,-0.02747452259063721,-0.09243351221084595,XArbitraryZVertical,-0.4705252552617387,-0.02549011813603283,-0.7197021211712905,0.5098872168470008,-0.7032701969146729,0.4431390464305878,-0.5559124946594238,0,0,0,-1,-1,35552.595932,unknown,2,2025-04-22T15:28:25.138+03:00,2025-04-21T17:08:51.449+03:00,8236,1.039424,0,0,6852.579,7,22,2025-04-22T15:22:29.153+03:00,767017733.6036873,0,-15.74,100.3922,1,0.55,2025-04-22T15:28:23.900+03:00,113,1.883333333333333,2025-04-22T14:20:19.516+03:00,0.02197104130929222,0
2025-04-22T15:28:54.848+03:00,1745324932.270545,40.9522166684769,29.14027385676443,76.10294,-1,-1,-1,-1,30,22.0705896186086,-9999,35566.057690625,-0.6700286865234375,0.232940673828125,-0.54339599609375,35566.047614625,-2.137910833337922,-0.9116956558406275,-0.4527679141541846,-0.07233310490846634,-0.8059462904930115,-0.6596360802650452,0.06180959939956665,-0.08761811256408691,-0.07797753810882568,XArbitraryZVertical,-0.4730426790932107,-0.02967599895893758,-0.7195600283990657,0.5075266688683951,-0.7108879089355469,0.4374562203884125,-0.5506998896598816,0,0,0,-1,-1,35552.595932,unknown,2,2025-04-22T15:28:25.138+03:00,2025-04-21T17:08:51.449+03:00,8236,1.039424,0,0,6852.579,7,22,2025-04-22T15:22:29.153+03:00,767017733.6036873,0,-15.74,100.3922,1,0.55,2025-04-22T15:28:23.900+03:00,113,1.883333333333333,2025-04-22T14:20:19.516+03:00,0.02197104130929222,0
2025-04-22T15:28:54.857+03:00,1745324932.270545,40.9522166684769,29.14027385676443,76.10294,-1,-1,-1,-1,30,22.0705896186086,-9999,35566.06776762501,-0.701629638671875,0.205078125,-0.461822509765625,35566.057690625,-2.144592827630728,-0.9225474140555419,-0.4497070676582078,-0.4889224171638489,-0.7685898542404175,-0.5394183993339539,0.06003391742706299,-0.1518802344799042,-0.0567963719367981,XArbitraryZVertical,-0.4765408344365544,-0.03208173626220588,-0.7192605611887002,0.5045233964040682,-0.7178860306739807,0.4347017407417297,-0.5437591671943665,0,0,0,-1,-1,35552.595932,unknown,2,2025-04-22T15:28:25.138+03:00,2025-04-21T17:08:51.449+03:00,8236,1.039424,0,0,6852.579,7,22,2025-04-22T15:22:29.153+03:00,767017733.6036873,0,-15.74,100.3922,1,0.55,2025-04-22T15:28:23.900+03:00,113,1.883333333333333,2025-04-22T14:20:19.516+03:00,0.02197104130929222,0
2025-04-22T15:28:54.867+03:00,1745324932.270545,40.9522166684769,29.14027385676443,76.10294,-1,-1,-1,-1,30,22.0705896186086,-9999,35566.077843625,-0.722503662109375,0.198638916015625,-0.414520263671875,35566.06776762501,-2.153188257766519,-0.9339598197664194,-0.4496025066938412,-0.6854847073554993,-0.7603465914726257,-0.3966591060161591,0.05089408159255981,-0.2071297168731689,0.002049744129180908,XArbitraryZVertical,-0.4807661795960795,-0.03293666009340199,-0.7187104341443658,0.5012326584799981,-0.7240812182426453,0.4346075654029846,-0.5355581045150757,0,0,0,-1,-1,35552.595932,unknown,2,2025-04-22T15:28:25.138+03:00,2025-04-21T17:08:51.449+03:00,8236,1.039424,0,0,6852.579,7,22,2025-04-22T15:22:29.153+03:00,767017733.6036873,0,-15.74,100.3922,1,0.55,2025-04-22T15:28:23.900+03:00,113,1.883333333333333,2025-04-22T14:20:19.516+03:00,0.02197104130929222,0
2025-04-22T15:28:54.877+03:00,1745324932.270545,40.9522166684769,29.14027385676443,76.10294,-1,-1,-1,-1,30,22.0705896186086,-9999,35566.087920625,-0.7101287841796875,0.2872314453125,-0.4461669921875,35566.077843625,-2.161139513587862,-0.9448397821803051,-0.4507942155202587,-0.5814918875694275,-0.7196935415267944,-0.2693696618080139,0.02407687902450562,-0.2326319813728333,0.07544040679931641,XArbitraryZVertical,-0.4849968814450919,-0.03325094360523962,-0.7178418671867276,0.4983726734105269,-0.7294448614120483,0.4356805384159088,-0.527344822883606,0,0,0,-1,-1,35552.595932,unknown,2,2025-04-22T15:28:25.138+03:00,2025-04-21T17:08:51.449+03:00,8236,1.039424,0,0,6852.579,7,22,2025-04-22T15:22:29.153+03:00,767017733.6036873,0,-15.74,100.3922,1,0.55,2025-04-22T15:28:23.900+03:00,113,1.883333333333333,2025-04-22T14:20:19.516+03:00,0.02197104130929222,0
2025-04-22T15:28:54.887+03:00,1745324932.270545,40.9522166684769,29.14027385676443,76.10294,-1,-1,-1,-1,30,22.0705896186086,-9999,35566.097996625,-0.67236328125,0.3662109375,-0.500030517578125,35566.087920625,-2.167114378891757,-0.9545164024933928,-0.4514203252821045,-0.3513138294219971,-0.6661829352378845,-0.2368471324443817,0.01126843690872192,-0.2331191599369049,0.1048206090927124,XArbitraryZVertical,-0.4886671682770217,-0.033947865421024,-0.7168514904943968,0.4961609967525175,-0.7342907786369324,0.436244010925293,-0.5201038718223572,0,0,0,-1,-1,35552.595932,unknown,2,2025-04-22T15:28:25.138+03:00,2025-04-21T17:08:51.449+03:00,8236,1.039424,0,0,6852.579,7,22,2025-04-22T15:22:29.153+03:00,767017733.6036873,0,-15.74,100.3922,1,0.55,2025-04-22T15:28:23.900+03:00,113,1.883333333333333,2025-04-22T14:20:19.516+03:00,0.02197104130929222,0
2025-04-22T15:28:54.897+03:00,1745324932.270545,40.9522166684769,29.14027385676443,76.10294,-1,-1,-1,-1,30,22.0705896186086,-9999,35566.108073625,-0.63885498046875,0.3662109375,-0.48846435546875,35566.097996625,-2.171032941805283,-0.9628377859517275,-0.4513241550224879,-0.2293723225593567,-0.642730712890625,-0.1905818432569504,0.0323290228843689,-0.1334385275840759,0.06093555688858032,XArbitraryZVertical,-0.4917001773952828,-0.03508766022331752,-0.7158011065285922,0.4945992277121435,-0.7386277318000793,0.4361574947834015,-0.5139995813369751,0,0,0,-1,-1,35552.595932,unknown,2,2025-04-22T15:28:25.138+03:00,2025-04-21T17:08:51.449+03:00,8236,1.039424,0,0,6852.579,7,22,2025-04-22T15:22:29.153+03:00,767017733.6036873,0,-15.74,100.3922,1,0.55,2025-04-22T15:28:23.900+03:00,113,1.883333333333333,2025-04-22T14:20:19.516+03:00,0.02197104130929222,0
2025-04-22T15:28:54.907+03:00,1745324932.270545,40.9522166684769,29.14027385676443,76.10294,-1,-1,-1,-1,30,22.0705896186086,-9999,35566.118149625,-0.6526641845703125,0.352142333984375,-0.442138671875,35566.108073625,-2.174347973642356,-0.9706102039718268,-0.4510393559243309,-0.2392302751541138,-0.612243115901947,-0.1819843649864197,0.07613807916641235,-0.06781357526779175,0.004193365573883057,XArbitraryZVertical,-0.4944949400729631,-0.0363054518939683,-0.7147585093272368,0.4932309775661482,-0.7427029013633728,0.4359011948108673,-0.5083133578300476,0,0,0,-1,-1,35552.595932,unknown,2,2025-04-22T15:28:25.138+03:00,2025-04-21T17:08:51.449+03:00,8236,1.039424,0,0,6852.579,7,22,2025-04-22T15:22:29.153+03:00,767017733.6036873,0,-15.74,100.3922,1,0.55,2025-04-22T15:28:23.900+03:00,113,1.883333333333333,2025-04-22T14:20:19.516+03:00,0.02197104130929222,0
2025-04-22T15:28:54.917+03:00,1745324932.270545,40.9522166684769,29.14027385676443,76.10294,-1,-1,-1,-1,30,22.0705896186086,-9999,35566.128226,-0.6736602783203125,0.383270263671875,-0.392913818359375,35566.118149625,-2.177960304623804,-0.9782026380360009,-0.4510402257793149,-0.3000043630599976,-0.5886253714561462,-0.1896130740642548,0.1082959175109863,-0.07159850001335144,0.02035969495773315,XArbitraryZVertical,-0.4972730180834191,-0.03727915922237465,-0.7137654440535206,0.4918013851398502,-0.7465404868125916,0.4359019696712494,-0.5026596188545227,0,0,0,-1,-1,35552.595932,unknown,2,2025-04-22T15:28:25.138+03:00,2025-04-21T17:08:51.449+03:00,8236,1.039424,0,0,6852.579,7,22,2025-04-22T15:22:29.153+03:00,767017733.6036873,0,-15.74,100.3922,1,0.55,2025-04-22T15:28:23.900+03:00,113,1.883333333333333,2025-04-22T14:20:19.516+03:00,0.02197104130929222,0
2025-04-22T15:28:54.928+03:00,1745324932.270545,40.9522166684769,29.14027385676443,76.10294,-1,-1,-1,-1,30,22.0705896186086,-9999,35566.138302,-0.701202392578125,0.4599151611328125,-0.363922119140625,35566.128226,-2.182039445530201,-0.9857269121754461,-0.4511280779539187,-0.2826637029647827,-0.5513554811477661,-0.1955921351909637,0.09472155570983887,-0.0838388204574585,0.05994951725006104,XArbitraryZVertical,-0.5000468167562895,-0.03807375306664405,-0.7128738839059495,0.4902186992090632,-0.7502695918083191,0.4359810352325439,-0.4970071315765381,0,0,0,-1,-1,35552.595932,unknown,2,2025-04-22T15:28:25.138+03:00,2025-04-21T17:08:51.449+03:00,8236,1.039424,0,0,6852.579,7,22,2025-04-22T15:22:29.153+03:00,767017733.6036873,0,-15.74,100.3922,1,0.55,2025-04-22T15:28:23.900+03:00,113,1.883333333333333,2025-04-22T14:20:19.516+03:00,0.02197104130929222,0
2025-04-22T15:28:54.938+03:00,1745324932.270545,40.9522166684769,29.14027385676443,76.10294,-1,-1,-1,-1,30,22.0705896186086,-9999,35566.14837900001,-0.70391845703125,0.519073486328125,-0.3846282958984375,35566.138302,-2.185405177081486,-0.9927942640065509,-0.4505752410043708,-0.1527445316314697,-0.5615143179893494,-0.2337318956851959,0.07734471559524536,-0.04443132877349854,0.1055476069450378,XArbitraryZVertical,-0.5025461500503756,-0.03918387802480871,-0.7120334666753211,0.488794811361111,-0.7539650797843933,0.4354834258556366,-0.4918239712715149,0,0,0,-1,-1,35552.595932,unknown,2,2025-04-22T15:28:25.138+03:00,2025-04-21T17:08:51.449+03:00,8236,1.039424,0,0,6852.579,7,22,2025-04-22T15:22:29.153+03:00,767017733.6036873,0,-15.74,100.3922,1,0.55,2025-04-22T15:28:23.900+03:00,113,1.883333333333333,2025-04-22T14:20:19.516+03:00,0.02197104130929222,0
2025-04-22T15:28:54.948+03:00,1745324932.270545,40.9522166684769,29.14027385676443,76.10294,-1,-1,-1,-1,30,22.0705896186086,-9999,35566.158455,-0.6848907470703125,0.551239013671875,-0.42352294921875,35566.14837900001,-2.187297936243556,-0.9993100650068557,-0.4487493362310131,0.07659226655960083,-0.5636669397354126,-0.248444527387619,0.05371975898742676,0.03457513451576233,0.1226144433021545,XArbitraryZVertical,-0.5046294589129604,-0.04103700036786685,-0.7112090939116016,0.4876952828095773,-0.7578212022781372,0.4338390231132507,-0.4873301386833191,0,0,0,-1,-1,35552.595932,unknown,2,2025-04-22T15:28:25.138+03:00,2025-04-21T17:08:51.449+03:00,8236,1.039424,0,0,6852.579,7,22,2025-04-22T15:22:29.153+03:00,767017733.6036873,0,-15.74,100.3922,1,0.55,2025-04-22T15:28:23.900+03:00,113,1.883333333333333,2025-04-22T14:20:19.516+03:00,0.02197104130929222,0
2025-04-22T15:28:54.958+03:00,1745324932.270545,40.9522166684769,29.14027385676443,76.10294,-1,-1,-1,-1,30,22.0705896186086,-9999,35566.168532,-0.6729888916015625,0.5301971435546875,-0.4517059326171875,35566.158455,-2.186729467853919,-1.004685482221158,-0.4453725324801556,0.3723499476909637,-0.5565975308418274,-0.2644181251525879,0.05940675735473633,0.09416913986206055,0.09537577629089355,XArbitraryZVertical,-0.5060240961390672,-0.04385605168314857,-0.7103672225556483,0.4872316449241502,-0.7616619467735291,0.4307940900325775,-0.4840325117111206,0,0,0,-1,-1,35552.595932,unknown,2,2025-04-22T15:28:25.138+03:00,2025-04-21T17:08:51.449+03:00,8236,1.039424,0,0,6852.579,7,22,2025-04-22T15:22:29.153+03:00,767017733.6036873,0,-15.74,100.3922,1,0.55,2025-04-22T15:28:23.900+03:00,113,1.883333333333333,2025-04-22T14:20:19.516+03:00,0.02197104130929222,0
2025-04-22T15:28:54.968+03:00,1745324932.270545,40.9522166684769,29.14027385676443,76.10294,-1,-1,-1,-1,30,22.0705896186086,-9999,35566.178608,-0.6816558837890625,0.472869873046875,-0.44580078125,35566.168532,-2.183657314585858,-1.008982343520371,-0.4403340402319218,0.620719850063324,-0.5507007241249084,-0.2833702564239502,0.08250230550765991,0.1261263787746429,0.05305707454681396,XArbitraryZVertical,-0.5067253008670424,-0.04771500334844095,-0.709506646515792,0.487394144258555,-0.7655619382858276,0.4262416660785675,-0.4819054901599884,0,0,0,-1,-1,35552.595932,unknown,2,2025-04-22T15:28:25.138+03:00,2025-04-21T17:08:51.449+03:00,8236,1.039424,0,0,6852.579,7,22,2025-04-22T15:22:29.153+03:00,767017733.6036873,0,-15.74,100.3922,1,0.55,2025-04-22T15:28:23.900+03:00,113,1.883333333333333,2025-04-22T14:20:19.516+03:00,0.02197104130929222,0
2025-04-22T15:28:54.978+03:00,1745324932.270545,40.9522166684769,29.14027385676443,76.10294,-1,-1,-1,-1,30,22.0705896186086,-9999,35566.188685,-0.71533203125,0.4311065673828125,-0.4033660888671875,35566.178608,-2.178437004564799,-1.011985518772199,-0.4341490788793559,0.8292653560638428,-0.4803812503814697,-0.2515551745891571,0.09692418575286865,0.1024325489997864,0.02808120846748352,XArbitraryZVertical,-0.506726993124389,-0.05226286292448106,-0.7086681531654186,0.4881451292616436,-0.7692263126373291,0.4206385612487793,-0.4809927046298981,0,0,0,-1,-1,35552.595932,unknown,2,2025-04-22T15:28:25.138+03:00,2025-04-21T17:08:51.449+03:00,8236,1.039424,0,0,6852.579,7,22,2025-04-22T15:22:29.153+03:00,767017733.6036873,0,-15.74,100.3922,1,0.55,2025-04-22T15:28:23.900+03:00,113,1.883333333333333,2025-04-22T14:20:19.516+03:00,0.02197104130929222,0
2025-04-22T15:28:54.988+03:00,1745324932.270545,40.9522166684769,29.14027385676443,76.10294,-1,-1,-1,-1,30,22.0705896186086,-9999,35566.198761,-0.748809814453125,0.392669677734375,-0.3687744140625,35566.188685,-2.17107202575176,-1.01336038940665,-0.4273014695982605,1.004206538200378,-0.3914740085601807,-0.1935003995895386,0.08765137195587158,0.05210563540458679,0.0390641987323761,XArbitraryZVertical,-0.5059668907753289,-0.05721833996809145,-0.7078403504473944,0.4895768127514923,-0.772313117980957,0.4144164025783539,-0.4814471304416656,0,0,0,-1,-1,35552.595932,unknown,2,2025-04-22T15:28:25.138+03:00,2025-04-21T17:08:51.449+03:00,8236,1.039424,0,0,6852.579,7,22,2025-04-22T15:22:29.153+03:00,767017733.6036873,0,-15.74,100.3922,1,0.55,2025-04-22T15:28:23.900+03:00,113,1.883333333333333,2025-04-22T14:20:19.516+03:00,0.02197104130929222,0
2025-04-22T15:28:54.998+03:00,1745324932.270545,40.9522166684769,29.14027385676443,76.10294,-1,-1,-1,-1,30,22.0705896186086,-9999,35566.20883700001,-0.7794647216796875,0.3258514404296875,-0.3404693603515625,35566.198761,-2.162329348155128,-1.013248590004251,-0.420299288553677,1.055131077766418,-0.2993620932102203,-0.1516740471124649,0.05477786064147949,0.01843401789665222,0.0851840078830719,XArbitraryZVertical,-0.5045802715228422,-0.06221122742793804,-0.7070710390529821,0.4915067574887679,-0.7747026681900024,0.408033698797226,-0.4830570220947266,0,0,0,-1,-1,35552.595932,unknown,2,2025-04-22T15:28:25.138+03:00,2025-04-21T17:08:51.449+03:00,8236,1.039424,0,0,6852.579,7,22,2025-04-22T15:22:29.153+03:00,767017733.6036873,0,-15.74,100.3922,1,0.55,2025-04-22T15:28:23.900+03:00,113,1.883333333333333,2025-04-22T14:20:19.516+03:00,0.02197104130929222,0
2025-04-22T15:28:55.008+03:00,1745324932.270545,40.9522166684769,29.14027385676443,76.10294,-1,-1,-1,-1,30,22.0705896186086,-9999,35566.218914,-0.802032470703125,0.249908447265625,-0.302703857421875,35566.20883700001,-2.153865174833499,-1.012426211611765,-0.4139461895369982,0.8951515555381775,-0.2163779586553574,-0.1055022999644279,0.02299392223358154,-0.01630020141601562,0.1194416582584381,XArbitraryZVertical,-0.5030149516579918,-0.06668710435718407,-0.7064126788165151,0.4934670211718594,-0.7764880657196045,0.4022253453731537,-0.4850575625896454,0,0,0,-1,-1,35552.595932,unknown,2,2025-04-22T15:28:25.138+03:00,2025-04-21T17:08:51.449+03:00,8236,1.039424,0,0,6852.579,7,22,2025-04-22T15:22:29.153+03:00,767017733.6036873,0,-15.74,100.3922,1,0.55,2025-04-22T15:28:23.900+03:00,113,1.883333333333333,2025-04-22T14:20:19.516+03:00,0.02197104130929222,0
2025-04-22T15:28:55.018+03:00,1745324932.270545,40.9522166684769,29.14027385676443,76.10294,-1,-1,-1,-1,30,22.0705896186086,-9999,35566.22899,-0.8272247314453125,0.1755523681640625,-0.249237060546875,35566.218914,-2.147349121835395,-1.011367358891906,-0.409443539615922,0.567602276802063,-0.08460442721843719,-0.01309017185121775,-0.004679501056671143,-0.08253201842308044,0.149814784526825,XArbitraryZVertical,-0.501698237826336,-0.06986406811179117,-0.7059303528986044,0.4950558123918046,-0.7775012254714966,0.3980989158153534,-0.486835777759552,0,0,0,-1,-1,35552.595932,unknown,2,2025-04-22T15:28:25.138+03:00,2025-04-21T17:08:51.449+03:00,8236,1.039424,0,0,6852.579,7,22,2025-04-22T15:22:29.153+03:00,767017733.6036873,0,-15.74,100.3922,1,0.55,2025-04-22T15:28:23.900+03:00,113,1.883333333333333,2025-04-22T14:20:19.516+03:00,0.02197104130929222,0
