loggingTime(txt),locationTimestamp_since1970(s),locationLatitude(WGS84),locationLongitude(WGS84),locationAltitude(m),locationSpeed(m/s),locationSpeedAccuracy(m/s),locationCourse(°),locationCourseAccuracy(°),locationVerticalAccuracy(m),locationHorizontalAccuracy(m),locationFloor(Z),accelerometerTimestamp_sinceReboot(s),accelerometerAccelerationX(G),accelerometerAccelerationY(G),accelerometerAccelerationZ(G),motionTimestamp_sinceReboot(s),motionYaw(rad),motionRoll(rad),motionPitch(rad),motionRotationRateX(rad/s),motionRotationRateY(rad/s),motionRotationRateZ(rad/s),motionUserAccelerationX(G),motionUserAccelerationY(G),motionUserAccelerationZ(G),motionAttitudeReferenceFrame(txt),motionQuaternionX(R),motionQuaternionY(R),motionQuaternionZ(R),motionQuaternionW(R),motionGravityX(G),motionGravityY(G),motionGravityZ(G),motionMagneticFieldX(µT),motionMagneticFieldY(µT),motionMagneticFieldZ(µT),motionHeading(°),motionMagneticFieldCalibrationAccuracy(Z),activityTimestamp_sinceReboot(s),activity(txt),activityActivityConfidence(Z),activityActivityStartDate(txt),pedometerStartDate(txt),pedometerNumberofSteps(N),pedometerAverageActivePace(s/m),pedometerCurrentPace(s/m),pedometerCurrentCadence(steps/s),pedometerDistance(m),pedometerFloorAscended(N),pedometerFloorDescended(N),pedometerEndDate(txt),altimeterTimestamp_sinceReboot(s),altimeterReset(bool),altimeterRelativeAltitude(m),altimeterPressure(kPa),batteryState(N),batteryLevel(R),heartRateBPMTimestamp(txt),heartRateBPM(N),heartRateBPS(R),heartRateVariabilityTimestamp(txt),heartRateVariability(ms),label
2025-04-30T12:37:09.326+03:00,1746005823.934455,40.95223000732172,29.1402646129218,76.18292,-1,-1,-1,-1,30,20.89625706053636,-9999,13179.105936625,-0.781158447265625,0.5753936767578125,-0.3495330810546875,13179.095860625,2.520104759246841,-1.106140803151587,-0.6051656773457091,-0.02403086610138416,0.01188408210873604,-0.02866736240684986,0.01896536350250244,-0.08159369230270386,0.02751454710960388,XArbitraryZVertical,-0.3998914278892439,0.3947407339036809,-0.8212192227983268,-0.09932573374861577,-0.7352128624916077,0.5688983201980591,-0.368533194065094,0,0,0,-1,-1,13173.68978425,unknown,2,2025-04-30T12:37:03.890+03:00,2025-04-30T12:00:08.093+03:00,179,1.435125,0,0,144.5252,0,0,2025-04-30T12:37:09.049+03:00,767698629.1509881,0,1.01,100.9538,1,0.75,2025-04-30T12:36:44.961+03:00,102,1.7,2025-04-22T14:20:19.516+03:00,0.02197104130929222,0
2025-04-30T12:37:09.328+03:00,1746005823.934455,40.95223000732172,29.1402646129218,76.18292,-1,-1,-1,-1,30,20.89625706053636,-9999,13179.116013625,-0.7334442138671875,0.5845947265625,-0.363525390625,13179.105936625,2.51989694162897,-1.10609540169617,-0.60504679175869,-0.004300571512430906,0.01919366046786308,-0.009829758666455746,-0.01176786422729492,-0.07594168186187744,0.03525343537330627,XArbitraryZVertical,-0.3998553743453387,0.3947369053411956,-0.8212232523404224,-0.09945306927595905,-0.7352566719055176,0.5688005685806274,-0.3685969114303589,0,0,0,-1,-1,13173.68978425,unknown,2,2025-04-30T12:37:03.890+03:00,2025-04-30T12:00:08.093+03:00,179,1.435125,0,0,144.5252,0,0,2025-04-30T12:37:09.049+03:00,767698629.1509881,0,1.01,100.9538,1,0.75,2025-04-30T12:36:44.961+03:00,102,1.7,2025-04-22T14:20:19.516+03:00,0.02197104130929222,0
2025-04-30T12:37:09.330+03:00,1746005823.934455,40.95223000732172,29.1402646129218,76.18292,-1,-1,-1,-1,30,20.89625706053636,-9999,13179.126089625,-0.7247161865234375,0.55938720703125,-0.3681793212890625,13179.116013625,2.519802063857389,-1.105940343759208,-0.6049828687714718,-0.006181029602885246,0.02118437364697456,-0.007588308304548264,-0.03320068120956421,0.03925377130508423,0.009031772613525391,XArbitraryZVertical,-0.3997856818436603,0.3947249702790849,-0.8212523432833428,-0.09954036812575927,-0.7352319955825806,0.5687479972839355,-0.3687272071838379,0,0,0,-1,-1,13173.68978425,unknown,2,2025-04-30T12:37:03.890+03:00,2025-04-30T12:00:08.093+03:00,179,1.435125,0,0,144.5252,0,0,2025-04-30T12:37:09.049+03:00,767698629.1509881,0,1.01,100.9538,1,0.75,2025-04-30T12:36:44.961+03:00,102,1.7,2025-04-22T14:20:19.516+03:00,0.02197104130929222,0
2025-04-30T12:37:09.340+03:00,1746005823.934455,40.95223000732172,29.1402646129218,76.18292,-1,-1,-1,-1,30,20.89625706053636,-9999,13179.136166625,-0.7330169677734375,0.57965087890625,-0.3663330078125,13179.126089625,2.519674838535735,-1.105790157899577,-0.6049438529179335,-0.006302736233919859,0.02363980747759342,-0.007380848750472069,0.01824694871902466,-0.009603321552276611,0.00190424919128418,XArbitraryZVertical,-0.3997066510475499,0.3947287677485389,-0.8212777523156216,-0.09963308819516745,-0.7351964712142944,0.5687158703804016,-0.3688475787639618,0,0,0,-1,-1,13173.68978425,unknown,2,2025-04-30T12:37:03.890+03:00,2025-04-30T12:00:08.093+03:00,179,1.435125,0,0,144.5252,0,0,2025-04-30T12:37:09.049+03:00,767698629.1509881,0,1.01,100.9538,1,0.75,2025-04-30T12:36:44.961+03:00,102,1.7,2025-04-22T14:20:19.516+03:00,0.02197104130929222,0
2025-04-30T12:37:09.350+03:00,1746005823.934455,40.95223000732172,29.1402646129218,76.18292,-1,-1,-1,-1,30,20.89625706053636,-9999,13179.146243625,-0.73040771484375,0.5684051513671875,-0.36761474609375,13179.136166625,2.519616479656585,-1.105546124805268,-0.604905642582495,0.001605387660674751,0.03036655485630035,-0.005041727796196938,0.00183415412902832,0.00522911548614502,0.002123892307281494,XArbitraryZVertical,-0.3996025263632491,0.3947144036343127,-0.821325260777884,-0.09971578153860342,-0.7351257801055908,0.568684458732605,-0.3690367341041565,0,0,0,-1,-1,13173.68978425,unknown,2,2025-04-30T12:37:03.890+03:00,2025-04-30T12:00:08.093+03:00,179,1.435125,0,0,144.5252,0,0,2025-04-30T12:37:09.049+03:00,767698629.1509881,0,1.01,100.9538,1,0.75,2025-04-30T12:36:44.961+03:00,102,1.7,2025-04-22T14:20:19.516+03:00,0.02197104130929222,0
2025-04-30T12:37:09.360+03:00,1746005823.934455,40.95223000732172,29.1402646129218,76.18292,-1,-1,-1,-1,30,20.89625706053636,-9999,13179.156319625,-0.732177734375,0.564208984375,-0.367584228515625,13179.146243625,2.519584837885919,-1.105219461344793,-0.6048932903639627,-0.00427673663944006,0.03795762732625008,-0.002972185146063566,0.004603743553161621,0.006475269794464111,0.002504527568817139,XArbitraryZVertical,-0.3994645726913819,0.3946999509179605,-0.8213895083201903,-0.09979670109225816,-0.7350115180015564,0.5686743259429932,-0.3692800104618073,0,0,0,-1,-1,13173.68978425,unknown,2,2025-04-30T12:37:03.890+03:00,2025-04-30T12:00:08.093+03:00,179,1.435125,0,0,144.5252,0,0,2025-04-30T12:37:09.049+03:00,767698629.1509881,0,1.01,100.9538,1,0.75,2025-04-30T12:36:44.961+03:00,102,1.7,2025-04-22T14:20:19.516+03:00,0.02197104130929222,0
2025-04-30T12:37:09.371+03:00,1746005823.934455,40.95223000732172,29.1402646129218,76.18292,-1,-1,-1,-1,30,20.89625706053636,-9999,13179.166396625,-0.73223876953125,0.5650787353515625,-0.3698272705078125,13179.156319625,2.519536142499818,-1.104841712607327,-0.6049088148427705,-0.002105660736560822,0.04074762016534805,0.0001906184479594231,0.00297623872756958,-0.004340767860412598,0.001938939094543457,XArbitraryZVertical,-0.3992967242442751,0.3946964516843122,-0.8214618435914883,-0.0998869649617644,-0.7348641157150269,0.5686870813369751,-0.3695536851882935,0,0,0,-1,-1,13173.68978425,unknown,2,2025-04-30T12:37:03.890+03:00,2025-04-30T12:00:08.093+03:00,179,1.435125,0,0,144.5252,0,0,2025-04-30T12:37:09.049+03:00,767698629.1509881,0,1.01,100.9538,1,0.75,2025-04-30T12:36:44.961+03:00,102,1.7,2025-04-22T14:20:19.516+03:00,0.02197104130929222,0
2025-04-30T12:37:09.380+03:00,1746005823.934455,40.95223000732172,29.1402646129218,76.18292,-1,-1,-1,-1,30,20.89625706053636,-9999,13179.176472625,-0.72930908203125,0.56439208984375,-0.37005615234375,13179.166396625,2.519523347434176,-1.104466475093548,-0.604935176423121,-0.004346444271504879,0.03511689975857735,0.00192939629778266,0.002274870872497559,-0.003996193408966064,0.0004989504814147949,XArbitraryZVertical,-0.3991348019225968,0.3946898293754514,-0.8215350168461654,-0.09995905309384119,-0.7347120642662048,0.5687087774276733,-0.3698227107524872,0,0,0,-1,-1,13173.68978425,unknown,2,2025-04-30T12:37:03.890+03:00,2025-04-30T12:00:08.093+03:00,179,1.435125,0,0,144.5252,0,0,2025-04-30T12:37:09.049+03:00,767698629.1509881,0,1.01,100.9538,1,0.75,2025-04-30T12:36:44.961+03:00,102,1.7,2025-04-22T14:20:19.516+03:00,0.02197104130929222,0
2025-04-30T12:37:09.390+03:00,1746005823.934455,40.95223000732172,29.1402646129218,76.18292,-1,-1,-1,-1,30,20.89625706053636,-9999,13179.186549625,-0.726654052734375,0.565948486328125,-0.3715667724609375,13179.176472625,2.519474232784073,-1.104150630056655,-0.6049837084601819,-0.003775396151468158,0.03383065760135651,0.001676961896009743,0.00289618968963623,-0.004478633403778076,-0.0002122819423675537,XArbitraryZVertical,-0.3989857932789828,0.3947014434224373,-0.8215932585514502,-0.1000278895885929,-0.7345703840255737,0.5687486529350281,-0.3700422048568726,0,0,0,-1,-1,13173.68978425,unknown,2,2025-04-30T12:37:03.890+03:00,2025-04-30T12:00:08.093+03:00,179,1.435125,0,0,144.5252,0,0,2025-04-30T12:37:09.049+03:00,767698629.1509881,0,1.01,100.9538,1,0.75,2025-04-30T12:36:44.961+03:00,102,1.7,2025-04-22T14:20:19.516+03:00,0.02197104130929222,0
2025-04-30T12:37:09.401+03:00,1746005823.934455,40.95223000732172,29.1402646129218,76.18292,-1,-1,-1,-1,30,20.89625706053636,-9999,13179.196626625,-0.729827880859375,0.5702667236328125,-0.3704071044921875,13179.186549625,2.519425903885403,-1.103862623114053,-0.6050007186286031,-0.004668619949370623,0.03090464510023594,-0.003221656661480665,0.0080299973487854,-0.003699183464050293,-0.001073151826858521,XArbitraryZVertical,-0.3988545516608077,0.3947028490808617,-0.8216475528369203,-0.1000998890765074,-0.7344551682472229,0.5687626600265503,-0.3702494204044342,0,0,0,-1,-1,13173.68978425,unknown,2,2025-04-30T12:37:03.890+03:00,2025-04-30T12:00:08.093+03:00,179,1.435125,0,0,144.5252,0,0,2025-04-30T12:37:09.049+03:00,767698629.1509881,0,1.01,100.9538,1,0.75,2025-04-30T12:36:44.961+03:00,102,1.7,2025-04-22T14:20:19.516+03:00,0.02197104130929222,0
2025-04-30T12:37:09.411+03:00,1746005823.934455,40.95223000732172,29.1402646129218,76.18292,-1,-1,-1,-1,30,20.89625706053636,-9999,13179.206702625,-0.7299957275390625,0.572265625,-0.3737030029296875,13179.196626625,2.51940585442677,-1.103568562559138,-0.6049559751560283,0.002516854554414749,0.02831205725669861,-0.005693336483091116,0.005868613719940186,-0.000992119312286377,-0.0004032552242279053,XArbitraryZVertical,-0.3987386722230835,0.3946758806031396,-0.8217071702057525,-0.1001785660406533,-0.7343689799308777,0.5687258839607239,-0.3704768419265747,0,0,0,-1,-1,13173.68978425,unknown,2,2025-04-30T12:37:03.890+03:00,2025-04-30T12:00:08.093+03:00,179,1.435125,0,0,144.5252,0,0,2025-04-30T12:37:09.049+03:00,767698629.1509881,0,1.01,100.9538,1,0.75,2025-04-30T12:36:44.961+03:00,102,1.7,2025-04-22T14:20:19.516+03:00,0.02197104130929222,0
2025-04-30T12:37:09.421+03:00,1746005823.934455,40.95223000732172,29.1402646129218,76.18292,-1,-1,-1,-1,30,20.89625706053636,-9999,13179.216779625,-0.7291717529296875,0.5670928955078125,-0.3709564208984375,13179.206702625,2.519409971625651,-1.103268693228806,-0.6048722203496683,0.008136124350130558,0.02791045233607292,-0.008822550997138023,0.004304647445678711,0.004936158657073975,-0.001412838697433472,XArbitraryZVertical,-0.3986329286468326,0.3946296231389744,-0.82177083850112,-0.1002592288279402,-0.7343003749847412,0.5686569809913635,-0.3707185089588165,0,0,0,-1,-1,13173.68978425,unknown,2,2025-04-30T12:37:03.890+03:00,2025-04-30T12:00:08.093+03:00,179,1.435125,0,0,144.5252,0,0,2025-04-30T12:37:09.049+03:00,767698629.1509881,0,1.01,100.9538,1,0.75,2025-04-30T12:36:44.961+03:00,102,1.7,2025-04-22T14:20:19.516+03:00,0.02197104130929222,0
2025-04-30T12:37:09.431+03:00,1746005823.934455,40.95223000732172,29.1402646129218,76.18292,-1,-1,-1,-1,30,20.89625706053636,-9999,13179.226855625,-0.726165771484375,0.5640411376953125,-0.3672637939453125,13179.216779625,2.519470301115714,-1.102970758054078,-0.60477064971274,0.007462610956281424,0.02445606701076031,-0.006402403116226196,0.00455087423324585,0.0004420280456542969,-0.002373427152633667,XArbitraryZVertical,-0.3985425936223275,0.3945657760919745,-0.8218377275895509,-0.1003213491937873,-0.7342414259910583,0.5685734152793884,-0.3709633052349091,0,0,0,-1,-1,13173.68978425,unknown,2,2025-04-30T12:37:03.890+03:00,2025-04-30T12:00:08.093+03:00,179,1.435125,0,0,144.5252,0,0,2025-04-30T12:37:09.049+03:00,767698629.1509881,0,1.01,100.9538,1,0.75,2025-04-30T12:36:44.961+03:00,102,1.7,2025-04-22T14:20:19.516+03:00,0.02197104130929222,0
2025-04-30T12:37:09.441+03:00,1746005823.934455,40.95223000732172,29.1402646129218,76.18292,-1,-1,-1,-1,30,20.89625706053636,-9999,13179.236932625,-0.7197265625,0.5606231689453125,-0.370330810546875,13179.226855625,2.519554837576688,-1.102771561082438,-0.6047105386917541,0.009922838769853115,0.00705150980502367,0.003883790457621217,0.006842076778411865,-0.002728044986724854,0.002854138612747192,XArbitraryZVertical,-0.3984893462608707,0.3945171088119387,-0.821884345559293,-0.1003425843435254,-0.7341980338096619,0.5685239434242249,-0.3711249828338623,0,0,0,-1,-1,13173.68978425,unknown,2,2025-04-30T12:37:03.890+03:00,2025-04-30T12:00:08.093+03:00,179,1.435125,0,0,144.5252,0,0,2025-04-30T12:37:09.049+03:00,767698629.1509881,0,1.01,100.9538,1,0.75,2025-04-30T12:36:44.961+03:00,102,1.7,2025-04-22T14:20:19.516+03:00,0.02197104130929222,0
2025-04-30T12:37:09.451+03:00,1746005823.934455,40.95223000732172,29.1402646129218,76.18292,-1,-1,-1,-1,30,20.89625706053636,-9999,13179.247009625,-0.7235565185546875,0.560272216796875,-0.3712615966796875,13179.236932625,2.519601580978833,-1.102641647883825,-0.6047030194595971,-0.001000914955511689,0.0149632291868329,0.0008324735099449754,0.0110853910446167,-0.005956768989562988,0.00348547101020813,XArbitraryZVertical,-0.3984466805370292,0.3944985456089122,-0.8219128869131099,-0.100351059315806,-0.7341536283493042,0.568517804145813,-0.3712222874164581,0,0,0,-1,-1,13173.68978425,unknown,2,2025-04-30T12:37:03.890+03:00,2025-04-30T12:00:08.093+03:00,179,1.435125,0,0,144.5252,0,0,2025-04-30T12:37:09.049+03:00,767698629.1509881,0,1.01,100.9538,1,0.75,2025-04-30T12:36:44.961+03:00,102,1.7,2025-04-22T14:20:19.516+03:00,0.02197104130929222,0
2025-04-30T12:37:09.461+03:00,1746005823.934455,40.95223000732172,29.1402646129218,76.18292,-1,-1,-1,-1,30,20.89625706053636,-9999,13179.257085625,-0.7303009033203125,0.565765380859375,-0.370025634765625,13179.247009625,2.5195896185436,-1.102483459839177,-0.6046952994844932,-0.002504269359633327,0.01820509508252144,-4.796753637492657e-05,0.01537936925888062,-0.008391797542572021,-0.0002110898494720459,XArbitraryZVertical,-0.398380846657984,0.3944901855232261,-0.8219441361944514,-0.1003893098503031,-0.7340987920761108,0.568511426448822,-0.3713403940200806,0,0,0,-1,-1,13173.68978425,unknown,2,2025-04-30T12:37:03.890+03:00,2025-04-30T12:00:08.093+03:00,179,1.435125,0,0,144.5252,0,0,2025-04-30T12:37:09.049+03:00,767698629.1509881,0,1.01,100.9538,1,0.75,2025-04-30T12:36:44.961+03:00,102,1.7,2025-04-22T14:20:19.516+03:00,0.02197104130929222,0
2025-04-30T12:37:09.471+03:00,1746005823.934455,40.95223000732172,29.1402646129218,76.18292,-1,-1,-1,-1,30,20.89625706053636,-9999,13179.267162625,-0.733428955078125,0.5727081298828125,-0.3696136474609375,13179.257085625,2.519645133887658,-1.10222147211073,-0.6046449545470202,0.01244858093559742,0.02891473099589348,-0.001307909144088626,0.00607597827911377,-0.0078163743019104,0.001336902379989624,XArbitraryZVertical,-0.3982941248252151,0.394447686390597,-0.8220013291814894,-0.1004320993430037,-0.7340270280838013,0.5684700012207031,-0.3715456128120422,0,0,0,-1,-1,13173.68978425,unknown,2,2025-04-30T12:37:03.890+03:00,2025-04-30T12:00:08.093+03:00,179,1.435125,0,0,144.5252,0,0,2025-04-30T12:37:09.049+03:00,767698629.1509881,0,1.01,100.9538,1,0.75,2025-04-30T12:36:44.961+03:00,102,1.7,2025-04-22T14:20:19.516+03:00,0.02197104130929222,0
2025-04-30T12:37:09.481+03:00,1746005823.934455,40.95223000732172,29.1402646129218,76.18292,-1,-1,-1,-1,30,20.89625706053636,-9999,13179.277238625,-0.735504150390625,0.5724334716796875,-0.37152099609375,13179.267162625,2.519701509020158,-1.101887943885892,-0.6045864933985136,5.103368312120438e-05,0.02995336428284645,-0.005281345453113317,0.002563774585723877,0.003096103668212891,0.002207100391387939,XArbitraryZVertical,-0.3981797215994743,0.3943984734881201,-0.8220732786740079,-0.1004910226109913,-0.7339328527450562,0.5684219002723694,-0.3718055188655853,0,0,0,-1,-1,13173.68978425,unknown,2,2025-04-30T12:37:03.890+03:00,2025-04-30T12:00:08.093+03:00,179,1.435125,0,0,144.5252,0,0,2025-04-30T12:37:09.049+03:00,767698629.1509881,0,1.01,100.9538,1,0.75,2025-04-30T12:36:44.961+03:00,102,1.7,2025-04-22T14:20:19.516+03:00,0.02197104130929222,0
2025-04-30T12:37:09.491+03:00,1746005823.934455,40.95223000732172,29.1402646129218,76.18292,-1,-1,-1,-1,30,20.89625706053636,-9999,13179.287315625,-0.7301483154296875,0.5728607177734375,-0.3740081787109375,13179.277238625,2.519699071325264,-1.101662376638083,-0.6045658558662379,0.002030361443758011,0.01558620855212212,0.002398578682914376,-0.001629531383514404,0.003387689590454102,0.002530574798583984,XArbitraryZVertical,-0.3980906179164516,0.3943801234628518,-0.8221189810455255,-0.1005422241571288,-0.7338594198226929,0.5684049129486084,-0.3719763457775116,0,0,0,-1,-1,13173.68978425,unknown,2,2025-04-30T12:37:03.890+03:00,2025-04-30T12:00:08.093+03:00,179,1.435125,0,0,144.5252,0,0,2025-04-30T12:37:09.049+03:00,767698629.1509881,0,1.01,100.9538,1,0.75,2025-04-30T12:36:44.961+03:00,102,1.7,2025-04-22T14:20:19.516+03:00,0.02197104130929222,0
2025-04-30T12:37:09.502+03:00,1746005823.934455,40.95223000732172,29.1402646129218,76.18292,-1,-1,-1,-1,30,20.89625706053636,-9999,13179.297392625,-0.7279205322265625,0.567535400390625,-0.3719940185546875,13179.287315625,2.519735190853914,-1.101535082536054,-0.6046348655196043,0.0001264677266590297,0.01131529733538628,0.00534909451380372,0.0004243850708007812,0.00526881217956543,-0.001864612102508545,XArbitraryZVertical,-0.3980317077807107,0.3943916133210386,-0.8221430736798302,-0.1005333876412674,-0.7337770462036133,0.5684617161750793,-0.3720520436763763,0,0,0,-1,-1,13173.68978425,unknown,2,2025-04-30T12:37:03.890+03:00,2025-04-30T12:00:08.093+03:00,179,1.435125,0,0,144.5252,0,0,2025-04-30T12:37:09.049+03:00,767698629.1509881,0,1.01,100.9538,1,0.75,2025-04-30T12:36:44.961+03:00,102,1.7,2025-04-22T14:20:19.516+03:00,0.02197104130929222,0
2025-04-30T12:37:09.512+03:00,1746005823.934455,40.95223000732172,29.1402646129218,76.18292,-1,-1,-1,-1,30,20.89625706053636,-9999,13179.307468625,-0.73583984375,0.5595703125,-0.37530517578125,13179.297392625,2.519743448428645,-1.101357908271876,-0.6046906961053887,-0.004162420053035021,0.02163225039839745,0.002716759918257594,0.006357312202453613,0.002522051334381104,-0.0002536177635192871,XArbitraryZVertical,-0.3979494370862383,0.3944013499427582,-0.8221762133786858,-0.1005494209594814,-0.7336827516555786,0.5685076713562012,-0.3721676468849182,0,0,0,-1,-1,13173.68978425,unknown,2,2025-04-30T12:37:03.890+03:00,2025-04-30T12:00:08.093+03:00,179,1.435125,0,0,144.5252,0,0,2025-04-30T12:37:09.049+03:00,767698629.1509881,0,1.01,100.9538,1,0.75,2025-04-30T12:36:44.961+03:00,102,1.7,2025-04-22T14:20:19.516+03:00,0.02197104130929222,0
2025-04-30T12:37:09.522+03:00,1746005823.934455,40.95223000732172,29.1402646129218,76.18292,-1,-1,-1,-1,30,20.89625706053636,-9999,13179.317545625,-0.7324371337890625,0.5658111572265625,-0.3771209716796875,13179.307468625,2.519729443841603,-1.101145593314575,-0.6047186624560951,0.000451772881206125,0.02312255650758743,0.001371863530948758,0.001305043697357178,-0.005664348602294922,-0.001615643501281738,XArbitraryZVertical,-0.3978538279638376,0.3944036252588295,-0.8222165346696079,-0.1005893438547087,-0.7335895895957947,0.5685306787490845,-0.3723162114620209,0,0,0,-1,-1,13173.68978425,unknown,2,2025-04-30T12:37:03.890+03:00,2025-04-30T12:00:08.093+03:00,179,1.435125,0,0,144.5252,0,0,2025-04-30T12:37:09.049+03:00,767698629.1509881,0,1.01,100.9538,1,0.75,2025-04-30T12:36:44.961+03:00,102,1.7,2025-04-22T14:20:19.516+03:00,0.02197104130929222,0
2025-04-30T12:37:09.532+03:00,1746005823.934455,40.95223000732172,29.1402646129218,76.18292,-1,-1,-1,-1,30,20.89625706053636,-9999,13179.327622625,-0.7326812744140625,0.5704345703125,-0.376922607421875,13179.317545625,2.519785272740291,-1.100874461688272,-0.6047081154522649,0.01127772219479084,0.02289824932813644,-0.001428750110790133,-0.0006674528121948242,-0.008188724517822266,-0.004084348678588867,XArbitraryZVertical,-0.3977554572038154,0.3943750493365723,-0.82227375584955,-0.1006227925119538,-0.733493983745575,0.5685219764709473,-0.3725178241729736,0,0,0,-1,-1,13173.68978425,unknown,2,2025-04-30T12:37:03.890+03:00,2025-04-30T12:00:08.093+03:00,179,1.435125,0,0,144.5252,0,0,2025-04-30T12:37:09.049+03:00,767698629.1509881,0,1.01,100.9538,1,0.75,2025-04-30T12:36:44.961+03:00,102,1.7,2025-04-22T14:20:19.516+03:00,0.02197104130929222,0
2025-04-30T12:37:09.544+03:00,1746005823.934455,40.95223000732172,29.1402646129218,76.18292,-1,-1,-1,-1,30,20.89625706053636,-9999,13179.337698625,-0.7304534912109375,0.5671234130859375,-0.3753662109375,13179.327622625,2.519927076000132,-1.100545715562129,-0.604659987252663,0.0106241824105382,0.02305351197719574,0.0002543677110224962,0.001309573650360107,0.001067161560058594,-0.004456490278244019,XArbitraryZVertical,-0.3976578504172581,0.394312808870951,-0.822348297103584,-0.1006424889246599,-0.7333957552909851,0.5684823989868164,-0.372771292924881,0,0,0,-1,-1,13173.68978425,unknown,2,2025-04-30T12:37:03.890+03:00,2025-04-30T12:00:08.093+03:00,179,1.435125,0,0,144.5252,0,0,2025-04-30T12:37:09.049+03:00,767698629.1509881,0,1.01,100.9538,1,0.75,2025-04-30T12:36:44.961+03:00,102,1.7,2025-04-22T14:20:19.516+03:00,0.02197104130929222,0
2025-04-30T12:37:09.552+03:00,1746005823.934455,40.95223000732172,29.1402646129218,76.18292,-1,-1,-1,-1,30,20.89625706053636,-9999,13179.347775625,-0.726531982421875,0.5664215087890625,-0.3739166259765625,13179.337698625,2.520073742327459,-1.100241271091335,-0.6046187929447846,0.01576288603246212,0.01928767003118992,0.009715713560581207,0.00118643045425415,-0.000180661678314209,-0.004115790128707886,XArbitraryZVertical,-0.397569755098943,0.3942533525024141,-0.8224180440165197,-0.1006535955759924,-0.7333031296730042,0.5684484839439392,-0.3730051815509796,0,0,0,-1,-1,13173.68978425,unknown,2,2025-04-30T12:37:03.890+03:00,2025-04-30T12:00:08.093+03:00,179,1.435125,0,0,144.5252,0,0,2025-04-30T12:37:09.049+03:00,767698629.1509881,0,1.01,100.9538,1,0.75,2025-04-30T12:36:44.961+03:00,102,1.7,2025-04-22T14:20:19.516+03:00,0.02197104130929222,0
2025-04-30T12:37:09.564+03:00,1746005823.934455,40.95223000732172,29.1402646129218,76.18292,-1,-1,-1,-1,30,20.89625706053636,-9999,13179.357851625,-0.7247772216796875,0.5709991455078125,-0.3725433349609375,13179.347775625,2.520321066575897,-1.099972904266848,-0.6046575606287614,0.01762496680021286,0.01556776650249958,0.006918595172464848,0.004469454288482666,-0.001951992511749268,-0.001167118549346924,XArbitraryZVertical,-0.3975004055271046,0.3942047939865794,-0.8224822186763178,-0.1005942135083007,-0.7331835031509399,0.568480372428894,-0.3731920123100281,0,0,0,-1,-1,13173.68978425,unknown,2,2025-04-30T12:37:03.890+03:00,2025-04-30T12:00:08.093+03:00,179,1.435125,0,0,144.5252,0,0,2025-04-30T12:37:09.049+03:00,767698629.1509881,0,1.01,100.9538,1,0.75,2025-04-30T12:36:44.961+03:00,102,1.7,2025-04-22T14:20:19.516+03:00,0.02197104130929222,0
2025-04-30T12:37:09.580+03:00,1746005823.934455,40.95223000732172,29.1402646129218,76.18292,-1,-1,-1,-1,30,20.89625706053636,-9999,13179.367928625,-0.7315673828125,0.5699005126953125,-0.3720703125,13179.357851625,2.520530571826571,-1.099645835270795,-0.6046664300649324,0.01483557280153036,0.02637594006955624,0.007874404080212116,0.008264243602752686,0.0002989768981933594,-0.0005634427070617676,XArbitraryZVertical,-0.3974054683449973,0.394149931564032,-0.8225572511237911,-0.1005699369951372,-0.7330567836761475,0.5684877038002014,-0.3734294474124908,0,0,0,-1,-1,13173.68978425,unknown,2,2025-04-30T12:37:03.890+03:00,2025-04-30T12:00:08.093+03:00,179,1.435125,0,0,144.5252,0,0,2025-04-30T12:37:09.049+03:00,767698629.1509881,0,1.01,100.9538,1,0.75,2025-04-30T12:36:44.961+03:00,102,1.7,2025-04-22T14:20:19.516+03:00,0.02197104130929222,0
2025-04-30T12:37:09.582+03:00,1746005823.934455,40.95223000732172,29.1402646129218,76.18292,-1,-1,-1,-1,30,20.89625706053636,-9999,13179.378005625,-0.728363037109375,0.5708160400390625,-0.375030517578125,13179.367928625,2.520724944333863,-1.099256127909468,-0.6047329661090842,0.01514023821800947,0.02652960456907749,0.01661276817321777,0.004590749740600586,0.002685606479644775,0.002207458019256592,XArbitraryZVertical,-0.3972702656520051,0.3941159277635357,-0.8226415212188114,-0.1005484673325521,-0.7328775525093079,0.5685424208641052,-0.3736979365348816,0,0,0,-1,-1,13173.68978425,unknown,2,2025-04-30T12:37:03.890+03:00,2025-04-30T12:00:08.093+03:00,179,1.435125,0,0,144.5252,0,0,2025-04-30T12:37:09.049+03:00,767698629.1509881,0,1.01,100.9538,1,0.75,2025-04-30T12:36:44.961+03:00,102,1.7,2025-04-22T14:20:19.516+03:00,0.02197104130929222,0
2025-04-30T12:37:09.592+03:00,1746005823.934455,40.95223000732172,29.1402646129218,76.18292,-1,-1,-1,-1,30,20.89625706053636,-9999,13179.388081625,-0.729278564453125,0.5721435546875,-0.37774658203125,13179.378005625,2.520970884578741,-1.098828779019127,-0.6048356678709041,0.01554870046675205,0.03129952400922775,0.01807041652500629,0.002181708812713623,0.0006175041198730469,0.0007088184356689453,XArbitraryZVertical,-0.3971225614633461,0.3940829725823796,-0.8227341712441771,-0.1005031675170694,-0.7326657772064209,0.568626880645752,-0.3739845752716064,0,0,0,-1,-1,13173.68978425,unknown,2,2025-04-30T12:37:03.890+03:00,2025-04-30T12:00:08.093+03:00,179,1.435125,0,0,144.5252,0,0,2025-04-30T12:37:09.049+03:00,767698629.1509881,0,1.01,100.9538,1,0.75,2025-04-30T12:36:44.961+03:00,102,1.7,2025-04-22T14:20:19.516+03:00,0.02197104130929222,0
2025-04-30T12:37:09.602+03:00,1746005823.934455,40.95223000732172,29.1402646129218,76.18292,-1,-1,-1,-1,30,20.89625706053636,-9999,13179.398158625,-0.7289886474609375,0.566741943359375,-0.3781890869140625,13179.388081625,2.521248299361325,-1.098346311972416,-0.6049131943962059,0.01627387851476669,0.03151630610227585,0.01739370822906494,0.003838837146759033,0.003376603126525879,-0.001673877239227295,XArbitraryZVertical,-0.3969633462043841,0.3940318753248654,-0.8228404475294924,-0.1004627425984283,-0.732446014881134,0.5686906576156616,-0.3743179738521576,0,0,0,-1,-1,13173.68978425,unknown,2,2025-04-30T12:37:03.890+03:00,2025-04-30T12:00:08.093+03:00,179,1.435125,0,0,144.5252,0,0,2025-04-30T12:37:09.049+03:00,767698629.1509881,0,1.01,100.9538,1,0.75,2025-04-30T12:36:44.961+03:00,102,1.7,2025-04-22T14:20:19.516+03:00,0.02197104130929222,0
2025-04-30T12:37:09.612+03:00,1746005823.934455,40.95223000732172,29.1402646129218,76.18292,-1,-1,-1,-1,30,20.89625706053636,-9999,13179.408234625,-0.7256927490234375,0.5629425048828125,-0.373565673828125,13179.398158625,2.521582450972394,-1.097837537785108,-0.6049466981744017,0.02101403847336769,0.03012107685208321,0.01909852959215641,0.002227485179901123,0.001273870468139648,-0.00411754846572876,XArbitraryZVertical,-0.3968131908676335,0.3939522108074676,-0.8229566966338848,-0.1004162504195007,-0.7322385311126709,0.5687182545661926,-0.3746818900108337,0,0,0,-1,-1,13173.68978425,unknown,2,2025-04-30T12:37:03.890+03:00,2025-04-30T12:00:08.093+03:00,179,1.435125,0,0,144.5252,0,0,2025-04-30T12:37:09.049+03:00,767698629.1509881,0,1.01,100.9538,1,0.75,2025-04-30T12:36:44.961+03:00,102,1.7,2025-04-22T14:20:19.516+03:00,0.02197104130929222,0
2025-04-30T12:37:09.622+03:00,1746005823.934455,40.95223000732172,29.1402646129218,76.18292,-1,-1,-1,-1,30,20.89625706053636,-9999,13179.418311625,-0.7207183837890625,0.5650177001953125,-0.3751220703125,13179.408234625,2.521932667747679,-1.097355996612595,-0.6050129313873588,0.0238479096442461,0.02358381450176239,0.01526171341538429,0.004683732986450195,-0.005463898181915283,-0.0006389021873474121,XArbitraryZVertical,-0.3966708715435636,0.3938826867588315,-0.8230668466615697,-0.1003487466523494,-0.7320245504379272,0.5687727332115173,-0.3750172853469849,0,0,0,-1,-1,13173.68978425,unknown,2,2025-04-30T12:37:03.890+03:00,2025-04-30T12:00:08.093+03:00,179,1.435125,0,0,144.5252,0,0,2025-04-30T12:37:09.049+03:00,767698629.1509881,0,1.01,100.9538,1,0.75,2025-04-30T12:36:44.961+03:00,102,1.7,2025-04-22T14:20:19.516+03:00,0.02197104130929222,0
2025-04-30T12:37:09.632+03:00,1746005823.934455,40.95223000732172,29.1402646129218,76.18292,-1,-1,-1,-1,30,20.89625706053636,-9999,13179.428388625,-0.7186737060546875,0.561859130859375,-0.3764801025390625,13179.418311625,2.522266738312034,-1.096954696115849,-0.6050523984388569,0.02118681184947491,0.01633781939744949,0.01632161810994148,0.009075582027435303,-0.005053997039794922,0.001582473516464233,XArbitraryZVertical,-0.3965637339623466,0.3938106769600684,-0.8231612670313371,-0.1002792382641719,-0.7318539023399353,0.5688051581382751,-0.3753007054328918,0,0,0,-1,-1,13173.68978425,unknown,2,2025-04-30T12:37:03.890+03:00,2025-04-30T12:00:08.093+03:00,179,1.435125,0,0,144.5252,0,0,2025-04-30T12:37:09.049+03:00,767698629.1509881,0,1.01,100.9538,1,0.75,2025-04-30T12:36:44.961+03:00,102,1.7,2025-04-22T14:20:19.516+03:00,0.02197104130929222,0
2025-04-30T12:37:09.642+03:00,1746005823.934455,40.95223000732172,29.1402646129218,76.18292,-1,-1,-1,-1,30,20.89625706053636,-9999,13179.438464625,-0.7194061279296875,0.561798095703125,-0.37451171875,13179.428388625,2.522560495857402,-1.096666687192245,-0.6050860683533281,0.01878836937248707,0.01028605177998543,0.01209891028702259,0.01226150989532471,-0.004776477813720703,-0.00143510103225708,XArbitraryZVertical,-0.3964963768446703,0.3937502627242657,-0.8232315244480554,-0.1002056981550061,-0.7317286729812622,0.5688328742980957,-0.3755027055740356,0,0,0,-1,-1,13173.68978425,unknown,2,2025-04-30T12:37:03.890+03:00,2025-04-30T12:00:08.093+03:00,179,1.435125,0,0,144.5252,0,0,2025-04-30T12:37:09.049+03:00,767698629.1509881,0,1.01,100.9538,1,0.75,2025-04-30T12:36:44.961+03:00,102,1.7,2025-04-22T14:20:19.516+03:00,0.02197104130929222,0
2025-04-30T12:37:09.652+03:00,1746005823.934455,40.95223000732172,29.1402646129218,76.18292,-1,-1,-1,-1,30,20.89625706053636,-9999,13179.448541625,-0.7230377197265625,0.5688323974609375,-0.3713836669921875,13179.438464625,2.522796580426951,-1.096442992921746,-0.6050983458402662,0.0126202218234539,0.005299016833305359,0.005478824023157358,0.01355987787246704,-0.00857079029083252,-0.0001912415027618408,XArbitraryZVertical,-0.3964483271804452,0.3936967326705769,-0.8232871758208713,-0.1001492170960894,-0.731638491153717,0.5688429474830627,-0.3756632208824158,0,0,0,-1,-1,13173.68978425,unknown,2,2025-04-30T12:37:03.890+03:00,2025-04-30T12:00:08.093+03:00,179,1.435125,0,0,144.5252,0,0,2025-04-30T12:37:09.049+03:00,767698629.1509881,0,1.01,100.9538,1,0.75,2025-04-30T12:36:44.961+03:00,102,1.7,2025-04-22T14:20:19.516+03:00,0.02197104130929222,0
2025-04-30T12:37:09.663+03:00,1746005823.934455,40.95223000732172,29.1402646129218,76.18292,-1,-1,-1,-1,30,20.89625706053636,-9999,13179.458617625,-0.726470947265625,0.562225341796875,-0.374481201171875,13179.448541625,2.522953169639811,-1.096308897121289,-0.6051230350804697,0.01020819693803787,0.006001292262226343,0.006990434136241674,0.0104299783706665,-0.003540456295013428,0.00369986891746521,XArbitraryZVertical,-0.3964190638186261,0.3936679767149173,-0.823320469691799,-0.1001043411648918,-0.731575608253479,0.5688632726669312,-0.3757548928260803,0,0,0,-1,-1,13173.68978425,unknown,2,2025-04-30T12:37:03.890+03:00,2025-04-30T12:00:08.093+03:00,179,1.435125,0,0,144.5252,0,0,2025-04-30T12:37:09.049+03:00,767698629.1509881,0,1.01,100.9538,1,0.75,2025-04-30T12:36:44.961+03:00,102,1.7,2025-04-22T14:20:19.516+03:00,0.02197104130929222,0
2025-04-30T12:37:09.673+03:00,1746005823.934455,40.95223000732172,29.1402646129218,76.18292,-1,-1,-1,-1,30,20.89625706053636,-9999,13179.468694625,-0.7270660400390625,0.563079833984375,-0.3730621337890625,13179.458617625,2.522993771854398,-1.096237936286009,-0.6051633570452566,-0.001817306969314814,0.008178426884114742,0.004504639655351639,0.006690263748168945,-0.001452505588531494,0.002749502658843994,XArbitraryZVertical,-0.3963898459966006,0.3936710729433687,-0.8233347745964349,-0.1000905280918558,-0.7315285801887512,0.5688964128494263,-0.3757963478565216,0,0,0,-1,-1,13173.68978425,unknown,2,2025-04-30T12:37:03.890+03:00,2025-04-30T12:00:08.093+03:00,179,1.435125,0,0,144.5252,0,0,2025-04-30T12:37:09.049+03:00,767698629.1509881,0,1.01,100.9538,1,0.75,2025-04-30T12:36:44.961+03:00,102,1.7,2025-04-22T14:20:19.516+03:00,0.02197104130929222,0
2025-04-30T12:37:09.683+03:00,1746005823.934455,40.95223000732172,29.1402646129218,76.18292,-1,-1,-1,-1,30,20.89625706053636,-9999,13179.478771625,-0.7279510498046875,0.5709381103515625,-0.374908447265625,13179.468694625,2.523064172961446,-1.096121721047855,-0.6052117003506285,0.007424926850944757,0.006907565984874964,0.004165352787822485,0.004806339740753174,-0.009350597858428955,0.001616477966308594,XArbitraryZVertical,-0.3963462930343053,0.3936689217769502,-0.8233591281878416,-0.1000710923213096,-0.7314604520797729,0.5689361691474915,-0.3758687973022461,0,0,0,-1,-1,13173.68978425,unknown,2,2025-04-30T12:37:03.890+03:00,2025-04-30T12:00:08.093+03:00,179,1.435125,0,0,144.5252,0,0,2025-04-30T12:37:09.049+03:00,767698629.1509881,0,1.01,100.9538,1,0.75,2025-04-30T12:36:44.961+03:00,102,1.7,2025-04-22T14:20:19.516+03:00,0.02197104130929222,0
2025-04-30T12:37:09.693+03:00,1746005823.934455,40.95223000732172,29.1402646129218,76.18292,-1,-1,-1,-1,30,20.89625706053636,-9999,13179.488847625,-0.7235870361328125,0.5732879638671875,-0.3747711181640625,13179.478771625,2.523300499432963,-1.095966742062438,-0.6052465568754981,0.01982746832072735,-0.004337964113801718,0.01097302511334419,0.004013299942016602,-0.000605463981628418,0.002529501914978027,XArbitraryZVertical,-0.3963220923657632,0.393627042939085,-0.8234001079411528,-0.09999473698217184,-0.7313845753669739,0.5689648389816284,-0.375973105430603,0,0,0,-1,-1,13173.68978425,unknown,2,2025-04-30T12:37:03.890+03:00,2025-04-30T12:00:08.093+03:00,179,1.435125,0,0,144.5252,0,0,2025-04-30T12:37:09.049+03:00,767698629.1509881,0,1.01,100.9538,1,0.75,2025-04-30T12:36:44.961+03:00,102,1.7,2025-04-22T14:20:19.516+03:00,0.02197104130929222,0
2025-04-30T12:37:09.703+03:00,1746005823.934455,40.95223000732172,29.1402646129218,76.18292,-1,-1,-1,-1,30,20.89625706053636,-9999,13179.498924625,-0.72515869140625,0.5689697265625,-0.372772216796875,13179.488847625,2.523540105290431,-1.095874013633037,-0.6052236119079792,0.01834169030189514,-0.004585371818393469,0.006649116985499859,0.005164980888366699,0.002068459987640381,-5.173683166503906e-05,XArbitraryZVertical,-0.3963356136999475,0.3935665635961467,-0.8234314931864348,-0.09992064833642088,-0.7313613295555115,0.5689460039138794,-0.376046895980835,0,0,0,-1,-1,13173.68978425,unknown,2,2025-04-30T12:37:03.890+03:00,2025-04-30T12:00:08.093+03:00,179,1.435125,0,0,144.5252,0,0,2025-04-30T12:37:09.049+03:00,767698629.1509881,0,1.01,100.9538,1,0.75,2025-04-30T12:36:44.961+03:00,102,1.7,2025-04-22T14:20:19.516+03:00,0.02197104130929222,0
2025-04-30T12:37:09.713+03:00,1746005823.934455,40.95223000732172,29.1402646129218,76.18292,-1,-1,-1,-1,30,20.89625706053636,-9999,13179.509000625,-0.7252197265625,0.5610198974609375,-0.3743133544921875,13179.498924625,2.523763263224946,-1.09580429182862,-0.6052146296136851,0.01527645904570818,-0.006732611916959286,0.007560217287391424,0.008362889289855957,0.004425644874572754,0.002702385187149048,XArbitraryZVertical,-0.3963526196878004,0.3935155807913651,-0.8234568038873521,-0.09984489124135677,-0.7313395738601685,0.5689386129379272,-0.3761001825332642,0,0,0,-1,-1,13173.68978425,unknown,2,2025-04-30T12:37:03.890+03:00,2025-04-30T12:00:08.093+03:00,179,1.435125,0,0,144.5252,0,0,2025-04-30T12:37:09.049+03:00,767698629.1509881,0,1.01,100.9538,1,0.75,2025-04-30T12:36:44.961+03:00,102,1.7,2025-04-22T14:20:19.516+03:00,0.02197104130929222,0
2025-04-30T12:37:09.724+03:00,1746005823.934455,40.95223000732172,29.1402646129218,76.18292,-1,-1,-1,-1,30,20.89625706053636,-9999,13179.519077625,-0.725982666015625,0.5645599365234375,-0.377197265625,13179.509000625,2.523946809689637,-1.095742252792699,-0.6052069497053086,0.011772271245718,-0.003652666695415974,0.001785685308277607,0.005047500133514404,-0.004814863204956055,0.003115952014923096,XArbitraryZVertical,-0.3963646896318255,0.3934733119430796,-0.8234786536491138,-0.09978369385033019,-0.7313201427459717,0.5689322948455811,-0.3761475682258606,0,0,0,-1,-1,13173.68978425,unknown,2,2025-04-30T12:37:03.890+03:00,2025-04-30T12:00:08.093+03:00,179,1.435125,0,0,144.5252,0,0,2025-04-30T12:37:09.049+03:00,767698629.1509881,0,1.01,100.9538,1,0.75,2025-04-30T12:36:44.961+03:00,102,1.7,2025-04-22T14:20:19.516+03:00,0.02197104130929222,0
2025-04-30T12:37:09.733+03:00,1746005823.934455,40.95223000732172,29.1402646129218,76.18292,-1,-1,-1,-1,30,20.89625706053636,-9999,13179.529154625,-0.7294769287109375,0.5699462890625,-0.3782958984375,13179.519077625,2.524106640014611,-1.095635763921092,-0.605173452151511,0.01384494360536337,0.001507940469309688,0.00418782327324152,0.007511615753173828,-0.007045567035675049,0.0001507997512817383,XArbitraryZVertical,-0.3963589046926338,0.3934241128074973,-0.8235092722016647,-0.09974807707403541,-0.7312970757484436,0.5689047574996948,-0.3762341737747192,0,0,0,-1,-1,13173.68978425,unknown,2,2025-04-30T12:37:03.890+03:00,2025-04-30T12:00:08.093+03:00,179,1.435125,0,0,144.5252,0,0,2025-04-30T12:37:09.049+03:00,767698629.1509881,0,1.01,100.9538,1,0.75,2025-04-30T12:36:44.961+03:00,102,1.7,2025-04-22T14:20:19.516+03:00,0.02197104130929222,0
2025-04-30T12:37:09.744+03:00,1746005823.934455,40.95223000732172,29.1402646129218,76.18292,-1,-1,-1,-1,30,20.89625706053636,-9999,13179.539230625,-0.7318572998046875,0.5672607421875,-0.3747406005859375,13179.529154625,2.524273862969922,-1.095499391994851,-0.6051623840734136,0.01083423942327499,0.006176728289574385,0.002917228965088725,0.003742754459381104,-4.792213439941406e-05,-0.001257240772247314,XArbitraryZVertical,-0.3963378286791833,0.3933801383974084,-0.823545152260225,-0.09970910701116698,-0.7312513589859009,0.5688956379890442,-0.3763367831707001,0,0,0,-1,-1,13173.68978425,unknown,2,2025-04-30T12:37:03.890+03:00,2025-04-30T12:00:08.093+03:00,179,1.435125,0,0,144.5252,0,0,2025-04-30T12:37:09.049+03:00,767698629.1509881,0,1.01,100.9538,1,0.75,2025-04-30T12:36:44.961+03:00,102,1.7,2025-04-22T14:20:19.516+03:00,0.02197104130929222,0
2025-04-30T12:37:09.754+03:00,1746005823.934455,40.95223000732172,29.1402646129218,76.18292,-1,-1,-1,-1,30,20.89625706053636,-9999,13179.549307625,-0.732696533203125,0.5658111572265625,-0.3734588623046875,13179.539230625,2.52441431181403,-1.095346343986884,-0.6051665016828405,0.01193812023848295,0.009266793727874756,0.006519554182887077,0.0006771087646484375,-0.0003412365913391113,-0.001405775547027588,XArbitraryZVertical,-0.3963016100108702,0.393346180237182,-0.8235823080557962,-0.09968025818687773,-0.7311916947364807,0.5688990354537964,-0.3764476180076599,0,0,0,-1,-1,13173.68978425,unknown,2,2025-04-30T12:37:03.890+03:00,2025-04-30T12:00:08.093+03:00,179,1.435125,0,0,144.5252,0,0,2025-04-30T12:37:09.049+03:00,767698629.1509881,0,1.01,100.9538,1,0.75,2025-04-30T12:36:44.961+03:00,102,1.7,2025-04-22T14:20:19.516+03:00,0.02197104130929222,0
2025-04-30T12:37:09.764+03:00,1746005823.934455,40.95223000732172,29.1402646129218,76.18292,-1,-1,-1,-1,30,20.89625706053636,-9999,13179.559383625,-0.7301788330078125,0.564361572265625,-0.3759002685546875,13179.549307625,2.524545839935377,-1.095165022308412,-0.6051616618856202,0.007317801471799612,0.009669464081525803,0.007364309392869473,-0.001250267028808594,-0.002458155155181885,0.002756357192993164,XArbitraryZVertical,-0.3962537519313501,0.3933093196415853,-0.8236250434809952,-0.09966312562520599,-0.7311258912086487,0.5688950419425964,-0.3765814900398254,0,0,0,-1,-1,13173.68978425,unknown,2,2025-04-30T12:37:03.890+03:00,2025-04-30T12:00:08.093+03:00,179,1.435125,0,0,144.5252,0,0,2025-04-30T12:37:09.049+03:00,767698629.1509881,0,1.01,100.9538,1,0.75,2025-04-30T12:36:44.961+03:00,102,1.7,2025-04-22T14:20:19.516+03:00,0.02197104130929222,0
2025-04-30T12:37:09.774+03:00,1746005823.934455,40.95223000732172,29.1402646129218,76.18292,-1,-1,-1,-1,30,20.89625706053636,-9999,13179.569460625,-0.7263641357421875,0.5662078857421875,-0.377288818359375,13179.559383625,2.524668723052731,-1.094997722042195,-0.605196202332497,0.01056765671819448,0.008277961984276772,0.007998940534889698,-0.001010358333587646,-0.003966808319091797,0.001328557729721069,XArbitraryZVertical,-0.3962022469069944,0.3932892301641517,-0.8236625938216821,-0.09963574582687053,-0.7310452461242676,0.5689234137535095,-0.3766947090625763,0,0,0,-1,-1,13173.68978425,unknown,2,2025-04-30T12:37:03.890+03:00,2025-04-30T12:00:08.093+03:00,179,1.435125,0,0,144.5252,0,0,2025-04-30T12:37:09.049+03:00,767698629.1509881,0,1.01,100.9538,1,0.75,2025-04-30T12:36:44.961+03:00,102,1.7,2025-04-22T14:20:19.516+03:00,0.02197104130929222,0
2025-04-30T12:37:09.784+03:00,1746005823.934455,40.95223000732172,29.1402646129218,76.18292,-1,-1,-1,-1,30,20.89625706053636,-9999,13179.579537625,-0.7265472412109375,0.5746002197265625,-0.3773193359375,13179.569460625,2.524817383001391,-1.09482317718062,-0.605210025632745,0.01124916039407253,0.005445690359920263,0.002667557913810015,0.002701103687286377,-0.004847884178161621,0.0003539621829986572,XArbitraryZVertical,-0.3961568391390839,0.3932561329385495,-0.8237039992589709,-0.09960510691150856,-0.7309725880622864,0.5689347982406616,-0.3768187463283539,0,0,0,-1,-1,13173.68978425,unknown,2,2025-04-30T12:37:03.890+03:00,2025-04-30T12:00:08.093+03:00,179,1.435125,0,0,144.5252,0,0,2025-04-30T12:37:09.049+03:00,767698629.1509881,0,1.01,100.9538,1,0.75,2025-04-30T12:36:44.961+03:00,102,1.7,2025-04-22T14:20:19.516+03:00,0.02197104130929222,0
2025-04-30T12:37:09.807+03:00,1746005823.934455,40.95223000732172,29.1402646129218,76.18292,-1,-1,-1,-1,30,20.89625706053636,-9999,13179.589613625,-0.7265777587890625,0.57147216796875,-0.3795166015625,13179.579537625,2.524957860331418,-1.094687048202711,-0.6052097422990504,0.01199624314904213,0.004476899281144142,0.002997290343046188,0.004297852516174316,0.00148475170135498,-0.0002942085266113281,XArbitraryZVertical,-0.3961284404704249,0.3932214276174156,-0.8237379932555455,-0.09957412052956034,-0.7309214472770691,0.5689345598220825,-0.3769183456897736,0,0,0,-1,-1,13173.68978425,unknown,2,2025-04-30T12:37:03.890+03:00,2025-04-30T12:00:08.093+03:00,179,1.435125,0,0,144.5252,0,0,2025-04-30T12:37:09.049+03:00,767698629.1509881,0,1.01,100.9538,1,0.75,2025-04-30T12:36:44.961+03:00,102,1.7,2025-04-22T14:20:19.516+03:00,0.02197104130929222,0
2025-04-30T12:37:09.809+03:00,1746005823.934455,40.95223000732172,29.1402646129218,76.18292,-1,-1,-1,-1,30,20.89625706053636,-9999,13179.599690625,-0.726348876953125,0.56646728515625,-0.37945556640625,13179.589613625,2.525090901767521,-1.09457616602722,-0.6051704959988371,0.01190116815268993,0.005421255715191364,0.0004206822486594319,0.003451943397521973,0.005591094493865967,-0.000813215970993042,XArbitraryZVertical,-0.3961166939972931,0.3931752377277309,-0.8237683418880595,-0.09955188356831743,-0.730899453163147,0.568902313709259,-0.3770096004009247,0,0,0,-1,-1,13173.68978425,unknown,2,2025-04-30T12:37:03.890+03:00,2025-04-30T12:00:08.093+03:00,179,1.435125,0,0,144.5252,0,0,2025-04-30T12:37:09.049+03:00,767698629.1509881,0,1.01,100.9538,1,0.75,2025-04-30T12:36:44.961+03:00,102,1.7,2025-04-22T14:20:19.516+03:00,0.02197104130929222,0
2025-04-30T12:37:09.814+03:00,1746005823.934455,40.95223000732172,29.1402646129218,76.18292,-1,-1,-1,-1,30,20.89625706053636,-9999,13179.609766625,-0.7291107177734375,0.5711822509765625,-0.3780975341796875,13179.599690625,2.525233887778004,-1.094412731977234,-0.6050992994317131,0.01264458894729614,0.01034557446837425,-0.00209873472340405,0.004280805587768555,-0.0008963346481323242,-0.0022316575050354,XArbitraryZVertical,-0.396091531660039,0.3931128091406572,-0.8238111300384682,-0.0995447533118005,-0.7308738827705383,0.5688437223434448,-0.3771476447582245,0,0,0,-1,-1,13173.68978425,unknown,2,2025-04-30T12:37:03.890+03:00,2025-04-30T12:00:08.093+03:00,179,1.435125,0,0,144.5252,0,0,2025-04-30T12:37:09.049+03:00,767698629.1509881,0,1.01,100.9538,1,0.75,2025-04-30T12:36:44.961+03:00,102,1.7,2025-04-22T14:20:19.516+03:00,0.02197104130929222,0
2025-04-30T12:37:09.824+03:00,1746005823.934455,40.95223000732172,29.1402646129218,76.18292,-1,-1,-1,-1,30,20.89625706053636,-9999,13179.619843625,-0.7297515869140625,0.569610595703125,-0.378692626953125,13179.609766625,2.525343296288178,-1.094210355724051,-0.6050349734504011,0.01011485233902931,0.01714169606566429,-0.002649210160598159,0.003001034259796143,0.0007435083389282227,-0.001365005970001221,XArbitraryZVertical,-0.3960423659158742,0.3930575975550026,-0.8238596315726431,-0.09955719407347925,-0.7308300733566284,0.5687908530235291,-0.3773123323917389,0,0,0,-1,-1,13173.68978425,unknown,2,2025-04-30T12:37:03.890+03:00,2025-04-30T12:00:08.093+03:00,179,1.435125,0,0,144.5252,0,0,2025-04-30T12:37:09.049+03:00,767698629.1509881,0,1.01,100.9538,1,0.75,2025-04-30T12:36:44.961+03:00,102,1.7,2025-04-22T14:20:19.516+03:00,0.02197104130929222,0
2025-04-30T12:37:09.834+03:00,1746005823.934455,40.95223000732172,29.1402646129218,76.18292,-1,-1,-1,-1,30,20.89625706053636,-9999,13179.629920625,-0.7262725830078125,0.56549072265625,-0.37945556640625,13179.619843625,2.525506864845058,-1.09394128783305,-0.6049700100774096,0.02179481275379658,0.01779616624116898,0.004735935013741255,0.0003383159637451172,0.002795815467834473,-0.0008615255355834961,XArbitraryZVertical,-0.3959764927101262,0.3929881075093107,-0.8239240390020081,-0.09956056718053596,-0.7307613492012024,0.5687373876571655,-0.3775259256362915,0,0,0,-1,-1,13173.68978425,unknown,2,2025-04-30T12:37:03.890+03:00,2025-04-30T12:00:08.093+03:00,179,1.435125,0,0,144.5252,0,0,2025-04-30T12:37:09.049+03:00,767698629.1509881,0,1.01,100.9538,1,0.75,2025-04-30T12:36:44.961+03:00,102,1.7,2025-04-22T14:20:19.516+03:00,0.02197104130929222,0
2025-04-30T12:37:09.844+03:00,1746005823.934455,40.95223000732172,29.1402646129218,76.18292,-1,-1,-1,-1,30,20.89625706053636,-9999,13179.639996625,-0.7222747802734375,0.5678863525390625,-0.3847198486328125,13179.629920625,2.525741982482918,-1.093636732687762,-0.6048861570925183,0.01993645913898945,0.01729682460427284,0.001632819883525372,0.002569735050201416,-0.002475738525390625,-0.001181721687316895,XArbitraryZVertical,-0.3959137569927109,0.3928957938473899,-0.8239999184261065,-0.09954663891435543,-0.7306886911392212,0.5686684250831604,-0.3777703940868378,0,0,0,-1,-1,13173.68978425,unknown,2,2025-04-30T12:37:03.890+03:00,2025-04-30T12:00:08.093+03:00,179,1.435125,0,0,144.5252,0,0,2025-04-30T12:37:09.049+03:00,767698629.1509881,0,1.01,100.9538,1,0.75,2025-04-30T12:36:44.961+03:00,102,1.7,2025-04-22T14:20:19.516+03:00,0.02197104130929222,0
2025-04-30T12:37:09.854+03:00,1746005823.934455,40.95223000732172,29.1402646129218,76.18292,-1,-1,-1,-1,30,20.89625706053636,-9999,13179.650073625,-0.7189788818359375,0.555572509765625,-0.387420654296875,13179.639996625,2.525939680310324,-1.093410409492692,-0.6048058059330272,0.01369101274758577,0.002733793575316668,0.001781390979886055,0.006751537322998047,-0.0008684992790222168,-0.004047036170959473,XArbitraryZVertical,-0.3958751908489205,0.3928160616405049,-0.824058274730427,-0.09953176328968695,-0.7306438088417053,0.5686023235321045,-0.377956748008728,0,0,0,-1,-1,13173.68978425,unknown,2,2025-04-30T12:37:03.890+03:00,2025-04-30T12:00:08.093+03:00,179,1.435125,0,0,144.5252,0,0,2025-04-30T12:37:09.049+03:00,767698629.1509881,0,1.01,100.9538,1,0.75,2025-04-30T12:36:44.961+03:00,102,1.7,2025-04-22T14:20:19.516+03:00,0.02197104130929222,0
2025-04-30T12:37:09.864+03:00,1746005823.934455,40.95223000732172,29.1402646129218,76.18292,-1,-1,-1,-1,30,20.89625706053636,-9999,13179.660149625,-0.7212677001953125,0.5593414306640625,-0.379730224609375,13179.650073625,2.526002658360357,-1.093376090609236,-0.6047921145307708,-0.00376787269487977,-0.0003930237144231796,0.0008751172572374344,0.009644627571105957,-0.006686091423034668,-0.00826030969619751,XArbitraryZVertical,-0.3958761243605575,0.3927968886480428,-0.8240688233823859,-0.09951630968459083,-0.7306377291679382,0.5685910582542419,-0.3779853880405426,0,0,0,-1,-1,13173.68978425,unknown,2,2025-04-30T12:37:03.890+03:00,2025-04-30T12:00:08.093+03:00,179,1.435125,0,0,144.5252,0,0,2025-04-30T12:37:09.049+03:00,767698629.1509881,0,1.01,100.9538,1,0.75,2025-04-30T12:36:44.961+03:00,102,1.7,2025-04-22T14:20:19.516+03:00,0.02197104130929222,0
2025-04-30T12:37:09.875+03:00,1746005823.934455,40.95223000732172,29.1402646129218,76.18292,-1,-1,-1,-1,30,20.89625706053636,-9999,13179.670226625,-0.7193145751953125,0.560455322265625,-0.370697021484375,13179.660149625,2.525942943679768,-1.093403080936212,-0.604851837054052,-0.01229391619563103,-0.001380723901093006,0.00369543838314712,0.0108758807182312,-0.01254886388778687,-0.007258057594299316,XArbitraryZVertical,-0.3958637492675567,0.3928318554292269,-0.8240577187367432,-0.09951913976379456,-0.7306177616119385,0.5686402320861816,-0.3779500424861908,0,0,0,-1,-1,13173.68978425,unknown,2,2025-04-30T12:37:03.890+03:00,2025-04-30T12:00:08.093+03:00,179,1.435125,0,0,144.5252,0,0,2025-04-30T12:37:09.049+03:00,767698629.1509881,0,1.01,100.9538,1,0.75,2025-04-30T12:36:44.961+03:00,102,1.7,2025-04-22T14:20:19.516+03:00,0.02197104130929222,0
2025-04-30T12:37:09.884+03:00,1746005823.934455,40.95223000732172,29.1402646129218,76.18292,-1,-1,-1,-1,30,20.89625706053636,-9999,13179.680303625,-0.7175140380859375,0.5638427734375,-0.369659423828125,13179.670226625,2.52579923768972,-1.093481435479665,-0.6050004549654873,-0.01862824521958828,0.0002555223181843758,0.006906411610543728,0.008526265621185303,-0.008047699928283691,0.004746019840240479,XArbitraryZVertical,-0.3958385026414258,0.3929184539948951,-0.8240281474267436,-0.09952200262950454,-0.7305722236633301,0.5687624216079712,-0.3778539299964905,0,0,0,-1,-1,13173.68978425,unknown,2,2025-04-30T12:37:03.890+03:00,2025-04-30T12:00:08.093+03:00,179,1.435125,0,0,144.5252,0,0,2025-04-30T12:37:09.049+03:00,767698629.1509881,0,1.01,100.9538,1,0.75,2025-04-30T12:36:44.961+03:00,102,1.7,2025-04-22T14:20:19.516+03:00,0.02197104130929222,0
2025-04-30T12:37:09.894+03:00,1746005823.934455,40.95223000732172,29.1402646129218,76.18292,-1,-1,-1,-1,30,20.89625706053636,-9999,13179.690379625,-0.721282958984375,0.5666046142578125,-0.3707733154296875,13179.680303625,2.525623995440421,-1.093561165611375,-0.6052076180473168,-0.02443746477365494,0.001539365854114294,0.01262485049664974,0.01345664262771606,-0.008050262928009033,0.007410794496536255,XArbitraryZVertical,-0.3957960226596433,0.3930327291115073,-0.8239941179912685,-0.09952157063594352,-0.7304976582527161,0.568932831287384,-0.3777415752410889,0,0,0,-1,-1,13173.68978425,unknown,2,2025-04-30T12:37:03.890+03:00,2025-04-30T12:00:08.093+03:00,179,1.435125,0,0,144.5252,0,0,2025-04-30T12:37:09.049+03:00,767698629.1509881,0,1.01,100.9538,1,0.75,2025-04-30T12:36:44.961+03:00,102,1.7,2025-04-22T14:20:19.516+03:00,0.02197104130929222,0
2025-04-30T12:37:09.904+03:00,1746005823.934455,40.95223000732172,29.1402646129218,76.18292,-1,-1,-1,-1,30,20.89625706053636,-9999,13179.700456625,-0.718994140625,0.566925048828125,-0.378936767578125,13179.690379625,2.525428394594889,-1.093661776946697,-0.6054171967747568,-0.0249935332685709,-0.003364579286426306,0.00906367227435112,0.009726583957672119,-0.002103805541992188,0.008198022842407227,XArbitraryZVertical,-0.3957576364505058,0.3931529405096523,-0.8239548498045581,-0.09952476574846759,-0.7304297685623169,0.5691051483154297,-0.3776133060455322,0,0,0,-1,-1,13173.68978425,unknown,2,2025-04-30T12:37:03.890+03:00,2025-04-30T12:00:08.093+03:00,179,1.435125,0,0,144.5252,0,0,2025-04-30T12:37:09.049+03:00,767698629.1509881,0,1.01,100.9538,1,0.75,2025-04-30T12:36:44.961+03:00,102,1.7,2025-04-22T14:20:19.516+03:00,0.02197104130929222,0
2025-04-30T12:37:09.915+03:00,1746005823.934455,40.95223000732172,29.1402646129218,76.18292,-1,-1,-1,-1,30,20.89625706053636,-9999,13179.710532625,-0.7211761474609375,0.574493408203125,-0.3824615478515625,13179.700456625,2.52512514775648,-1.093869974947667,-0.6056034288138321,-0.03273161500692368,-0.007678101304918528,0.0009434274397790432,0.01080965995788574,-0.003599703311920166,0.002061665058135986,XArbitraryZVertical,-0.3957469843034697,0.3932912724915816,-0.8238900235800986,-0.0995575715242093,-0.7304142117500305,0.5692582726478577,-0.3774125874042511,0,0,0,-1,-1,13173.68978425,unknown,2,2025-04-30T12:37:03.890+03:00,2025-04-30T12:00:08.093+03:00,179,1.435125,0,0,144.5252,0,0,2025-04-30T12:37:09.049+03:00,767698629.1509881,0,1.01,100.9538,1,0.75,2025-04-30T12:36:44.961+03:00,102,1.7,2025-04-22T14:20:19.516+03:00,0.02197104130929222,0
2025-04-30T12:37:09.925+03:00,1746005823.934455,40.95223000732172,29.1402646129218,76.18292,-1,-1,-1,-1,30,20.89625706053636,-9999,13179.720609625,-0.724212646484375,0.568328857421875,-0.385986328125,13179.710532625,2.524794560780965,-1.094167988776192,-0.6057296681829174,-0.0304037444293499,-0.01476344093680382,-0.003924298100173473,0.01093453168869019,0.001804947853088379,-0.004262030124664307,XArbitraryZVertical,-0.3957797844971487,0.3934175859712121,-0.8238087728744315,-0.09960038654417358,-0.7304627895355225,0.5693621039390564,-0.3771619200706482,0,0,0,-1,-1,13173.68978425,unknown,2,2025-04-30T12:37:03.890+03:00,2025-04-30T12:00:08.093+03:00,179,1.435125,0,0,144.5252,0,0,2025-04-30T12:37:09.049+03:00,767698629.1509881,0,1.01,100.9538,1,0.75,2025-04-30T12:36:44.961+03:00,102,1.7,2025-04-22T14:20:19.516+03:00,0.02197104130929222,0
2025-04-30T12:37:09.935+03:00,1746005823.934455,40.95223000732172,29.1402646129218,76.18292,-1,-1,-1,-1,30,20.89625706053636,-9999,13179.730686625,-0.725738525390625,0.568939208984375,-0.3814849853515625,13179.720609625,2.524481993670595,-1.094487594398442,-0.6058222775716608,-0.02936704270541668,-0.01601892150938511,-0.006780039519071579,0.007208764553070068,0.002323925495147705,-0.007998645305633545,XArbitraryZVertical,-0.3958316217079621,0.3935291449561982,-0.8237257048140934,-0.0996407706372546,-0.7305364608764648,0.5694382190704346,-0.3769042789936066,0,0,0,-1,-1,13173.68978425,unknown,2,2025-04-30T12:37:03.890+03:00,2025-04-30T12:00:08.093+03:00,179,1.435125,0,0,144.5252,0,0,2025-04-30T12:37:09.049+03:00,767698629.1509881,0,1.01,100.9538,1,0.75,2025-04-30T12:36:44.961+03:00,102,1.7,2025-04-22T14:20:19.516+03:00,0.02197104130929222,0
2025-04-30T12:37:09.945+03:00,1746005823.934455,40.95223000732172,29.1402646129218,76.18292,-1,-1,-1,-1,30,20.89625706053636,-9999,13179.740762625,-0.7264556884765625,0.5665130615234375,-0.376495361328125,13179.730686625,2.524205811325975,-1.094763490791397,-0.6058518398922683,-0.01990349963307381,-0.01271606981754303,-0.007924932055175304,0.005497217178344727,-0.001393020153045654,-0.007017791271209717,XArbitraryZVertical,-0.3958850639015544,0.3936083383333069,-0.8236559529114925,-0.09969205616535375,-0.7306254506111145,0.5694625377655029,-0.3766949772834778,0,0,0,-1,-1,13173.68978425,unknown,2,2025-04-30T12:37:03.890+03:00,2025-04-30T12:00:08.093+03:00,179,1.435125,0,0,144.5252,0,0,2025-04-30T12:37:09.049+03:00,767698629.1509881,0,1.01,100.9538,1,0.75,2025-04-30T12:36:44.961+03:00,102,1.7,2025-04-22T14:20:19.516+03:00,0.02197104130929222,0
2025-04-30T12:37:09.955+03:00,1746005823.934455,40.95223000732172,29.1402646129218,76.18292,-1,-1,-1,-1,30,20.89625706053636,-9999,13179.750839625,-0.7236328125,0.5686187744140625,-0.375091552734375,13179.740762625,2.524004589036218,-1.094988153379146,-0.6058307595535833,-0.01442378014326096,-0.01681414246559143,-0.008134788833558559,0.003532528877258301,-0.000979006290435791,-0.001576453447341919,XArbitraryZVertical,-0.395942179719745,0.3936516824204945,-0.8236023370046061,-0.09973641843815893,-0.7307206392288208,0.5694451928138733,-0.3765362799167633,0,0,0,-1,-1,13173.68978425,unknown,2,2025-04-30T12:37:03.890+03:00,2025-04-30T12:00:08.093+03:00,179,1.435125,0,0,144.5252,0,0,2025-04-30T12:37:09.049+03:00,767698629.1509881,0,1.01,100.9538,1,0.75,2025-04-30T12:36:44.961+03:00,102,1.7,2025-04-22T14:20:19.516+03:00,0.02197104130929222,0
2025-04-30T12:37:09.965+03:00,1746005823.934455,40.95223000732172,29.1402646129218,76.18292,-1,-1,-1,-1,30,20.89625706053636,-9999,13179.760915625,-0.7240753173828125,0.572540283203125,-0.375152587890625,13179.750839625,2.523804225151236,-1.095297820497656,-0.6058051435003226,-0.009752328507602215,-0.02173779346048832,-0.01083257142454386,0.005554139614105225,-0.003048360347747803,0.0007520914077758789,XArbitraryZVertical,-0.3960353206776883,0.3936974594163812,-0.8235322128935764,-0.09976503577855478,-0.7308501601219177,0.5694241523742676,-0.3763166666030884,0,0,0,-1,-1,13173.68978425,unknown,2,2025-04-30T12:37:03.890+03:00,2025-04-30T12:00:08.093+03:00,179,1.435125,0,0,144.5252,0,0,2025-04-30T12:37:09.049+03:00,767698629.1509881,0,1.01,100.9538,1,0.75,2025-04-30T12:36:44.961+03:00,102,1.7,2025-04-22T14:20:19.516+03:00,0.02197104130929222,0
2025-04-30T12:37:09.975+03:00,1746005823.934455,40.95223000732172,29.1402646129218,76.18292,-1,-1,-1,-1,30,20.89625706053636,-9999,13179.770992625,-0.723541259765625,0.5745391845703125,-0.3735504150390625,13179.760915625,2.523616270821095,-1.095621752174775,-0.6057545683172098,-0.01408935338258743,-0.02058950625360012,-0.01269322261214256,0.006800234317779541,0.002043843269348145,0.0007116198539733887,XArbitraryZVertical,-0.3961416977065734,0.3937324087481414,-0.8234610163127216,-0.09979261344992681,-0.7309976816177368,0.5693825483322144,-0.3760930895805359,0,0,0,-1,-1,13173.68978425,unknown,2,2025-04-30T12:37:03.890+03:00,2025-04-30T12:00:08.093+03:00,179,1.435125,0,0,144.5252,0,0,2025-04-30T12:37:09.049+03:00,767698629.1509881,0,1.01,100.9538,1,0.75,2025-04-30T12:36:44.961+03:00,102,1.7,2025-04-22T14:20:19.516+03:00,0.02197104130929222,0
2025-04-30T12:37:09.986+03:00,1746005823.934455,40.95223000732172,29.1402646129218,76.18292,-1,-1,-1,-1,30,20.89625706053636,-9999,13179.781069625,-0.7267303466796875,0.5716705322265625,-0.3761444091796875,13179.770992625,2.523403600971082,-1.095947691918094,-0.6057275658959727,-0.01317322533577681,-0.01947017945349216,-0.01136323995888233,0.008157193660736084,0.004232823848724365,0.000938117504119873,XArbitraryZVertical,-0.3962393543569445,0.393780963320594,-0.8233870953238344,-0.09982347304839269,-0.7311339378356934,0.5693603754043579,-0.3758618533611298,0,0,0,-1,-1,13173.68978425,unknown,2,2025-04-30T12:37:03.890+03:00,2025-04-30T12:00:08.093+03:00,179,1.435125,0,0,144.5252,0,0,2025-04-30T12:37:09.049+03:00,767698629.1509881,0,1.01,100.9538,1,0.75,2025-04-30T12:36:44.961+03:00,102,1.7,2025-04-22T14:20:19.516+03:00,0.02197104130929222,0
