loggingTime(txt),locationTimestamp_since1970(s),locationLatitude(WGS84),locationLongitude(WGS84),locationAltitude(m),locationSpeed(m/s),locationSpeedAccuracy(m/s),locationCourse(°),locationCourseAccuracy(°),locationVerticalAccuracy(m),locationHorizontalAccuracy(m),locationFloor(Z),accelerometerTimestamp_sinceReboot(s),accelerometerAccelerationX(G),accelerometerAccelerationY(G),accelerometerAccelerationZ(G),motionTimestamp_sinceReboot(s),motionYaw(rad),motionRoll(rad),motionPitch(rad),motionRotationRateX(rad/s),motionRotationRateY(rad/s),motionRotationRateZ(rad/s),motionUserAccelerationX(G),motionUserAccelerationY(G),motionUserAccelerationZ(G),motionAttitudeReferenceFrame(txt),motionQuaternionX(R),motionQuaternionY(R),motionQuaternionZ(R),motionQuaternionW(R),motionGravityX(G),motionGravityY(G),motionGravityZ(G),motionMagneticFieldX(µT),motionMagneticFieldY(µT),motionMagneticFieldZ(µT),motionHeading(°),motionMagneticFieldCalibrationAccuracy(Z),activityTimestamp_sinceReboot(s),activity(txt),activityActivityConfidence(Z),activityActivityStartDate(txt),pedometerStartDate(txt),pedometerNumberofSteps(N),pedometerAverageActivePace(s/m),pedometerCurrentPace(s/m),pedometerCurrentCadence(steps/s),pedometerDistance(m),pedometerFloorAscended(N),pedometerFloorDescended(N),pedometerEndDate(txt),altimeterTimestamp_sinceReboot(s),altimeterReset(bool),altimeterRelativeAltitude(m),altimeterPressure(kPa),batteryState(N),batteryLevel(R),heartRateBPMTimestamp(txt),heartRateBPM(N),heartRateBPS(R),heartRateVariabilityTimestamp(txt),heartRateVariability(ms),label
2025-04-30T12:16:33.283+03:00,1746004590.822486,40.95209689816259,29.14023898507819,76.36157,-1,-1,-1,-1,30,67.48781531964896,-9999,12195.870039875,-0.67864990234375,0.6600799560546875,-0.2966156005859375,12195.859963875,2.427301793571038,-1.151633547293155,-0.7278780605164565,0.03993562236428261,0.001770801842212677,0.01861128397285938,-0.00455242395401001,0.02105343341827393,-0.0004020929336547852,XArbitraryZVertical,0.3723689394321729,-0.457615869369586,0.8021138618534167,0.0924260018627291,-0.6819558143615723,0.6652868986129761,-0.3038581907749176,0,0,0,-1,-1,12173.33683954167,unknown,2,2025-04-30T12:15:54.596+03:00,2025-04-30T12:00:08.093+03:00,132,1.288074,0,0,109.9097,0,0,2025-04-30T12:15:54.596+03:00,767697390.8104054,0,1.97,100.9423,1,0.8,2025-04-30T12:16:28.395+03:00,94,1.566666666666667,2025-04-22T14:20:19.516+03:00,0.02197104130929222,0
2025-04-30T12:16:33.284+03:00,1746004590.822486,40.95209689816259,29.14023898507819,76.36157,-1,-1,-1,-1,30,67.48781531964896,-9999,12195.880116875,-0.6818695068359375,0.6636505126953125,-0.2949981689453125,12195.870039875,2.427841544758518,-1.151246446765171,-0.727880343407348,0.03727312758564949,0.01152289845049381,0.0192707497626543,-0.007753729820251465,-0.01123583316802979,0.02036911249160767,XArbitraryZVertical,0.3723366327828523,-0.4574982662636748,0.8022107647329413,0.09229745046117296,-0.6818367838859558,0.6652886271476746,-0.3041215240955353,0,0,0,-1,-1,12173.33683954167,unknown,2,2025-04-30T12:15:54.596+03:00,2025-04-30T12:00:08.093+03:00,132,1.288074,0,0,109.9097,0,0,2025-04-30T12:15:54.596+03:00,767697390.8104054,0,1.97,100.9423,1,0.8,2025-04-30T12:16:28.395+03:00,94,1.566666666666667,2025-04-22T14:20:19.516+03:00,0.02197104130929222,0
2025-04-30T12:16:33.285+03:00,1746004590.822486,40.95209689816259,29.14023898507819,76.36157,-1,-1,-1,-1,30,67.48781531964896,-9999,12195.890192875,-0.68304443359375,0.66546630859375,-0.30389404296875,12195.880116875,2.428303855328812,-1.150868406914782,-0.7279166473143642,0.03015210293233395,0.01398605573922396,0.01826753653585911,0.003049731254577637,-0.005235731601715088,0.007753849029541016,XArbitraryZVertical,0.3722824704778109,-0.457406874942607,0.8023006006855937,0.09218792003824092,-0.6816996932029724,0.6653157472610474,-0.3043694198131561,0,0,0,-1,-1,12173.33683954167,unknown,2,2025-04-30T12:15:54.596+03:00,2025-04-30T12:00:08.093+03:00,132,1.288074,0,0,109.9097,0,0,2025-04-30T12:15:54.596+03:00,767697390.8104054,0,1.97,100.9423,1,0.8,2025-04-30T12:16:28.395+03:00,94,1.566666666666667,2025-04-22T14:20:19.516+03:00,0.02197104130929222,0
2025-04-30T12:16:33.299+03:00,1746004590.822486,40.95209689816259,29.14023898507819,76.36157,-1,-1,-1,-1,30,67.48781531964896,-9999,12195.900269875,-0.6814727783203125,0.659576416015625,-0.3053741455078125,12195.890192875,2.428714050967604,-1.150531398772734,-0.7279774942591215,0.02592999488115311,0.01031974889338017,0.01673944853246212,-0.0003094077110290527,-0.00171053409576416,0.009584486484527588,XArbitraryZVertical,0.3722272155933286,-0.4573352991022209,0.8023791396873416,0.09208280885011691,-0.6815601587295532,0.6653611660003662,-0.3045826554298401,0,0,0,-1,-1,12173.33683954167,unknown,2,2025-04-30T12:15:54.596+03:00,2025-04-30T12:00:08.093+03:00,132,1.288074,0,0,109.9097,0,0,2025-04-30T12:15:54.596+03:00,767697390.8104054,0,1.97,100.9423,1,0.8,2025-04-30T12:16:28.395+03:00,94,1.566666666666667,2025-04-22T14:20:19.516+03:00,0.02197104130929222,0
2025-04-30T12:16:33.303+03:00,1746004590.822486,40.95209689816259,29.14023898507819,76.36157,-1,-1,-1,-1,30,67.48781531964896,-9999,12195.910345875,-0.6851806640625,0.661102294921875,-0.301361083984375,12195.900269875,2.429128286342936,-1.150148333447506,-0.7280382951433557,0.02892684936523438,0.01853666640818119,0.02041647396981716,-0.001638114452362061,5.972385406494141e-05,0.0009330809116363525,XArbitraryZVertical,0.3721544667526365,-0.4572608629647506,0.802466241992057,0.0919863634569857,-0.6814063191413879,0.6654065251350403,-0.3048271238803864,0,0,0,-1,-1,12173.33683954167,unknown,2,2025-04-30T12:15:54.596+03:00,2025-04-30T12:00:08.093+03:00,132,1.288074,0,0,109.9097,0,0,2025-04-30T12:15:54.596+03:00,767697390.8104054,0,1.97,100.9423,1,0.8,2025-04-30T12:16:28.395+03:00,94,1.566666666666667,2025-04-22T14:20:19.516+03:00,0.02197104130929222,0
2025-04-30T12:16:33.313+03:00,1746004590.822486,40.95209689816259,29.14023898507819,76.36157,-1,-1,-1,-1,30,67.48781531964896,-9999,12195.920422875,-0.6848602294921875,0.6683349609375,-0.3021697998046875,12195.910345875,2.429557842090325,-1.149691060780456,-0.7281199526026774,0.03384025022387505,0.02814122289419174,0.02151669375598431,-0.0002555251121520996,-0.005891084671020508,-0.000257641077041626,XArbitraryZVertical,0.372050615067171,-0.4571871755995804,0.8025668567275237,0.09189482836845893,-0.6812172532081604,0.6654675006866455,-0.3051164448261261,0,0,0,-1,-1,12173.33683954167,unknown,2,2025-04-30T12:15:54.596+03:00,2025-04-30T12:00:08.093+03:00,132,1.288074,0,0,109.9097,0,0,2025-04-30T12:15:54.596+03:00,767697390.8104054,0,1.97,100.9423,1,0.8,2025-04-30T12:16:28.395+03:00,94,1.566666666666667,2025-04-22T14:20:19.516+03:00,0.02197104130929222,0
2025-04-30T12:16:33.323+03:00,1746004590.822486,40.95209689816259,29.14023898507819,76.36157,-1,-1,-1,-1,30,67.48781531964896,-9999,12195.930498875,-0.682342529296875,0.6654205322265625,-0.3025970458984375,12195.920422875,2.429980383056225,-1.149246909991469,-0.7280762988390411,0.04116979986429214,0.02736757509410381,0.0182372760027647,-0.004072368144989014,-0.004332602024078369,0.00406983494758606,XArbitraryZVertical,0.3719788489004238,-0.4570736073997354,0.8026711896738937,0.09183952734737019,-0.6811082363128662,0.6654348969459534,-0.3054309189319611,0,0,0,-1,-1,12173.33683954167,unknown,2,2025-04-30T12:15:54.596+03:00,2025-04-30T12:00:08.093+03:00,132,1.288074,0,0,109.9097,0,0,2025-04-30T12:15:54.596+03:00,767697390.8104054,0,1.97,100.9423,1,0.8,2025-04-30T12:16:28.395+03:00,94,1.566666666666667,2025-04-22T14:20:19.516+03:00,0.02197104130929222,0
2025-04-30T12:16:33.333+03:00,1746004590.822486,40.95209689816259,29.14023898507819,76.36157,-1,-1,-1,-1,30,67.48781531964896,-9999,12195.94057404167,-0.6830902099609375,0.6606903076171875,-0.3001708984375,12195.930498875,2.430671261807174,-1.148408513836117,-0.7281461577721448,0.03310282155871391,0.02628899365663528,0.01550274342298508,-0.004050672054290771,0.002847969532012939,0.003813028335571289,XArbitraryZVertical,0.3717843038734756,-0.4569300046847604,0.8028552154582096,0.0917335938002429,-0.6808096170425415,0.6654870510101318,-0.3059827983379364,0,0,0,-1,-1,12173.33683954167,unknown,2,2025-04-30T12:15:54.596+03:00,2025-04-30T12:00:08.093+03:00,132,1.288074,0,0,109.9097,0,0,2025-04-30T12:15:54.596+03:00,767697390.8104054,0,1.97,100.9423,1,0.8,2025-04-30T12:16:28.395+03:00,94,1.566666666666667,2025-04-22T14:20:19.516+03:00,0.02197104130929222,0
2025-04-30T12:16:33.343+03:00,1746004590.822486,40.95209689816259,29.14023898507819,76.36157,-1,-1,-1,-1,30,67.48781531964896,-9999,12195.95065004167,-0.681640625,0.662933349609375,-0.3026885986328125,12195.94057404167,2.431118544346964,-1.147848172355751,-0.7282130006848276,0.03133954107761383,0.02635051310062408,0.01492297276854515,-0.001745045185089111,-0.0001163482666015625,0.003748953342437744,XArbitraryZVertical,0.3716463375504174,-0.4568435210971214,0.8029764157700855,0.09166268385601878,-0.6805974841117859,0.6655369400978088,-0.3063459992408752,0,0,0,-1,-1,12173.33683954167,unknown,2,2025-04-30T12:15:54.596+03:00,2025-04-30T12:00:08.093+03:00,132,1.288074,0,0,109.9097,0,0,2025-04-30T12:15:54.596+03:00,767697390.8104054,0,1.97,100.9423,1,0.8,2025-04-30T12:16:28.395+03:00,94,1.566666666666667,2025-04-22T14:20:19.516+03:00,0.02197104130929222,0
2025-04-30T12:16:33.354+03:00,1746004590.822486,40.95209689816259,29.14023898507819,76.36157,-1,-1,-1,-1,30,67.48781531964896,-9999,12195.96072704167,-0.6776123046875,0.6608734130859375,-0.3043670654296875,12195.95065004167,2.431412024649131,-1.14750789218484,-0.7281689969816355,0.02912805043160915,0.0241968147456646,0.01286967564374208,-0.002570390701293945,-0.004813730716705322,0.006418704986572266,XArbitraryZVertical,0.3715867548847762,-0.456758684781072,0.8030553387230168,0.09163526205604655,-0.6805198788642883,0.6655040979385376,-0.3065895736217499,0,0,0,-1,-1,12173.33683954167,unknown,2,2025-04-30T12:15:54.596+03:00,2025-04-30T12:00:08.093+03:00,132,1.288074,0,0,109.9097,0,0,2025-04-30T12:15:54.596+03:00,767697390.8104054,0,1.97,100.9423,1,0.8,2025-04-30T12:16:28.395+03:00,94,1.566666666666667,2025-04-22T14:20:19.516+03:00,0.02197104130929222,0
2025-04-30T12:16:33.364+03:00,1746004590.822486,40.95209689816259,29.14023898507819,76.36157,-1,-1,-1,-1,30,67.48781531964896,-9999,12195.97080404167,-0.6774749755859375,0.6579437255859375,-0.30450439453125,12195.96072704167,2.431776147985106,-1.147088089978058,-0.7281733443996229,0.02389121055603027,0.01805316843092442,0.01152424607425928,-0.001252174377441406,-0.002573966979980469,0.004185467958450317,XArbitraryZVertical,0.3715003521985905,-0.4566732649878314,0.803149765976451,0.09158363538440091,-0.6803884506225586,0.6655073165893555,-0.3068740367889404,0,0,0,-1,-1,12173.33683954167,unknown,2,2025-04-30T12:15:54.596+03:00,2025-04-30T12:00:08.093+03:00,132,1.288074,0,0,109.9097,0,0,2025-04-30T12:15:54.596+03:00,767697390.8104054,0,1.97,100.9423,1,0.8,2025-04-30T12:16:28.395+03:00,94,1.566666666666667,2025-04-22T14:20:19.516+03:00,0.02197104130929222,0
2025-04-30T12:16:33.374+03:00,1746004590.822486,40.95209689816259,29.14023898507819,76.36157,-1,-1,-1,-1,30,67.48781531964896,-9999,12195.98088004167,-0.67608642578125,0.658203125,-0.3052825927734375,12195.97080404167,2.432067468432133,-1.14679353709663,-0.7281577227719945,0.02377562969923019,0.01251539215445518,0.007094876375049353,0.002695202827453613,-0.004622220993041992,0.002711713314056396,XArbitraryZVertical,0.3714520930289271,-0.4566004493340816,0.8032186866935818,0.09153850727528795,-0.6803075671195984,0.6654956936836243,-0.3070787489414215,0,0,0,-1,-1,12173.33683954167,unknown,2,2025-04-30T12:15:54.596+03:00,2025-04-30T12:00:08.093+03:00,132,1.288074,0,0,109.9097,0,0,2025-04-30T12:15:54.596+03:00,767697390.8104054,0,1.97,100.9423,1,0.8,2025-04-30T12:16:28.395+03:00,94,1.566666666666667,2025-04-22T14:20:19.516+03:00,0.02197104130929222,0
2025-04-30T12:16:33.384+03:00,1746004590.822486,40.95209689816259,29.14023898507819,76.36157,-1,-1,-1,-1,30,67.48781531964896,-9999,12195.99095704167,-0.676513671875,0.6627349853515625,-0.3046417236328125,12195.98088004167,2.432443572282588,-1.146440051752873,-0.7280923795699397,0.03092115558683872,0.01179474033415318,0.005163818132132292,0.002763509750366211,-0.007503151893615723,0.002832710742950439,XArbitraryZVertical,0.3714108239526508,-0.4564925629768491,0.8033049107525068,0.09148699790378056,-0.6802385449409485,0.665446937084198,-0.3073370754718781,0,0,0,-1,-1,12173.33683954167,unknown,2,2025-04-30T12:15:54.596+03:00,2025-04-30T12:00:08.093+03:00,132,1.288074,0,0,109.9097,0,0,2025-04-30T12:15:54.596+03:00,767697390.8104054,0,1.97,100.9423,1,0.8,2025-04-30T12:16:28.395+03:00,94,1.566666666666667,2025-04-22T14:20:19.516+03:00,0.02197104130929222,0
2025-04-30T12:16:33.394+03:00,1746004590.822486,40.95209689816259,29.14023898507819,76.36157,-1,-1,-1,-1,30,67.48781531964896,-9999,12196.00103304167,-0.6791534423828125,0.66558837890625,-0.30419921875,12195.99095704167,2.432795419699489,-1.146064066870748,-0.727975524945654,0.02650057524442673,0.0161743089556694,0.0004857097519561648,0.004107356071472168,-0.007156550884246826,0.002342253923416138,XArbitraryZVertical,0.3713666180282086,-0.4563709210466977,0.8033968971187857,0.09146525030359071,-0.6801937222480774,0.6653596758842468,-0.3076248466968536,0,0,0,-1,-1,12173.33683954167,unknown,2,2025-04-30T12:15:54.596+03:00,2025-04-30T12:00:08.093+03:00,132,1.288074,0,0,109.9097,0,0,2025-04-30T12:15:54.596+03:00,767697393.3892071,0,2.27,100.9393,1,0.8,2025-04-30T12:16:28.395+03:00,94,1.566666666666667,2025-04-22T14:20:19.516+03:00,0.02197104130929222,0
2025-04-30T12:16:33.404+03:00,1746004590.822486,40.95209689816259,29.14023898507819,76.36157,-1,-1,-1,-1,30,67.48781531964896,-9999,12196.01111004167,-0.6782684326171875,0.6637115478515625,-0.3065948486328125,12196.00103304167,2.433062927250051,-1.145760221815949,-0.7278317559396391,0.02572499588131905,0.0150261539965868,-0.001572014996781945,0.003673732280731201,-0.002517342567443848,0.003229230642318726,XArbitraryZVertical,0.3713381936200923,-0.4562592263925099,0.8034730667509351,0.0914687098793534,-0.6801873445510864,0.6652523279190063,-0.3078709244728088,0,0,0,-1,-1,12173.33683954167,unknown,2,2025-04-30T12:15:54.596+03:00,2025-04-30T12:00:08.093+03:00,132,1.288074,0,0,109.9097,0,0,2025-04-30T12:15:54.596+03:00,767697393.3892071,0,2.27,100.9393,1,0.8,2025-04-30T12:16:28.395+03:00,94,1.566666666666667,2025-04-22T14:20:19.516+03:00,0.02197104130929222,0
2025-04-30T12:16:33.414+03:00,1746004590.822486,40.95209689816259,29.14023898507819,76.36157,-1,-1,-1,-1,30,67.48781531964896,-9999,12196.02118604167,-0.680816650390625,0.662078857421875,-0.301788330078125,12196.01111004167,2.433338218156402,-1.145450645292811,-0.7277074304453905,0.02378108911216259,0.01768285594880581,-0.002844373462721705,0.00101393461227417,0.0004288554191589355,0.003916412591934204,XArbitraryZVertical,0.3713047849461932,-0.4561523281187968,0.8035496692219853,0.09146473145740297,-0.6801673769950867,0.6651595234870911,-0.3081156313419342,0,0,0,-1,-1,12173.33683954167,unknown,2,2025-04-30T12:15:54.596+03:00,2025-04-30T12:00:08.093+03:00,132,1.288074,0,0,109.9097,0,0,2025-04-30T12:15:54.596+03:00,767697393.3892071,0,2.27,100.9393,1,0.8,2025-04-30T12:16:28.395+03:00,94,1.566666666666667,2025-04-22T14:20:19.516+03:00,0.02197104130929222,0
2025-04-30T12:16:33.424+03:00,1746004590.822486,40.95209689816259,29.14023898507819,76.36157,-1,-1,-1,-1,30,67.48781531964896,-9999,12196.03126304167,-0.6797637939453125,0.662322998046875,-0.3023529052734375,12196.02118604167,2.433598627057262,-1.145117320951708,-0.7275828408540435,0.02499948628246784,0.02196095883846283,-0.002761282958090305,0.001871645450592041,-0.001354873180389404,0.001781702041625977,XArbitraryZVertical,0.3712584633938632,-0.4560470121749879,0.8036300187058525,0.09147219667134203,-0.6801401376724243,0.6650664806365967,-0.3083765506744385,0,0,0,-1,-1,12173.33683954167,unknown,2,2025-04-30T12:15:54.596+03:00,2025-04-30T12:00:08.093+03:00,132,1.288074,0,0,109.9097,0,0,2025-04-30T12:15:54.596+03:00,767697393.3892071,0,2.27,100.9393,1,0.8,2025-04-30T12:16:28.395+03:00,94,1.566666666666667,2025-04-22T14:20:19.516+03:00,0.02197104130929222,0
2025-04-30T12:16:33.435+03:00,1746004590.822486,40.95209689816259,29.14023898507819,76.36157,-1,-1,-1,-1,30,67.48781531964896,-9999,12196.04133904167,-0.675872802734375,0.6618804931640625,-0.3064422607421875,12196.03126304167,2.433858928024462,-1.144785526789445,-0.727432990287451,0.02798615396022797,0.01820503547787666,-0.004072124138474464,-0.0006881356239318848,-0.002875626087188721,0.0068550705909729,XArbitraryZVertical,0.371218414399913,-0.4559333155904052,0.8037114151303567,0.0914866395712149,-0.6801285743713379,0.6649545431137085,-0.3086434006690979,0,0,0,-1,-1,12173.33683954167,unknown,2,2025-04-30T12:15:54.596+03:00,2025-04-30T12:00:08.093+03:00,132,1.288074,0,0,109.9097,0,0,2025-04-30T12:15:54.596+03:00,767697393.3892071,0,2.27,100.9393,1,0.8,2025-04-30T12:16:28.395+03:00,94,1.566666666666667,2025-04-22T14:20:19.516+03:00,0.02197104130929222,0
2025-04-30T12:16:33.445+03:00,1746004590.822486,40.95209689816259,29.14023898507819,76.36157,-1,-1,-1,-1,30,67.48781531964896,-9999,12196.05141604167,-0.67755126953125,0.6602325439453125,-0.3083343505859375,12196.04133904167,2.434121668742784,-1.144477386322068,-0.7272723293495894,0.02462923899292946,0.01430776529014111,-0.005841261707246304,0.0003668665885925293,-0.002511441707611084,0.006544202566146851,XArbitraryZVertical,0.3711908356766284,-0.4558166138111024,0.8037891072217462,0.09149780281989918,-0.6801307201385498,0.6648345589637756,-0.3088971674442291,0,0,0,-1,-1,12173.33683954167,unknown,2,2025-04-30T12:15:54.596+03:00,2025-04-30T12:00:08.093+03:00,132,1.288074,0,0,109.9097,0,0,2025-04-30T12:15:54.596+03:00,767697393.3892071,0,2.27,100.9393,1,0.8,2025-04-30T12:16:28.395+03:00,94,1.566666666666667,2025-04-22T14:20:19.516+03:00,0.02197104130929222,0
2025-04-30T12:16:33.455+03:00,1746004590.822486,40.95209689816259,29.14023898507819,76.36157,-1,-1,-1,-1,30,67.48781531964896,-9999,12196.06149204167,-0.6765289306640625,0.660675048828125,-0.3091888427734375,12196.05141604167,2.434372888086795,-1.144208434784927,-0.7271272253587747,0.02569856494665146,0.01051096338778734,-0.004484081640839577,0.004262626171112061,-0.002845585346221924,0.002677708864212036,XArbitraryZVertical,0.3711728241366691,-0.4557090458254501,0.8038581828972284,0.09150012952947981,-0.6801354885101318,0.664726197719574,-0.3091199994087219,0,0,0,-1,-1,12173.33683954167,unknown,2,2025-04-30T12:15:54.596+03:00,2025-04-30T12:00:08.093+03:00,132,1.288074,0,0,109.9097,0,0,2025-04-30T12:15:54.596+03:00,767697393.3892071,0,2.27,100.9393,1,0.8,2025-04-30T12:16:28.395+03:00,94,1.566666666666667,2025-04-22T14:20:19.516+03:00,0.02197104130929222,0
2025-04-30T12:16:33.465+03:00,1746004590.822486,40.95209689816259,29.14023898507819,76.36157,-1,-1,-1,-1,30,67.48781531964896,-9999,12196.07156904167,-0.676483154296875,0.6632537841796875,-0.3102569580078125,12196.06149204167,2.434638336338836,-1.143937875147024,-0.727002307288401,0.02363860979676247,0.009965548291802406,-0.001288821105845273,0.002575993537902832,-0.004400253295898438,0.00100398063659668,XArbitraryZVertical,0.3711528694604196,-0.4556055154880793,0.803927017454737,0.09149104562452809,-0.6801272630691528,0.6646328568458557,-0.3093383312225342,0,0,0,-1,-1,12173.33683954167,unknown,2,2025-04-30T12:15:54.596+03:00,2025-04-30T12:00:08.093+03:00,132,1.288074,0,0,109.9097,0,0,2025-04-30T12:15:54.596+03:00,767697393.3892071,0,2.27,100.9393,1,0.8,2025-04-30T12:16:28.395+03:00,94,1.566666666666667,2025-04-22T14:20:19.516+03:00,0.02197104130929222,0
2025-04-30T12:16:33.475+03:00,1746004590.822486,40.95209689816259,29.14023898507819,76.36157,-1,-1,-1,-1,30,67.48781531964896,-9999,12196.08164504167,-0.6751251220703125,0.6629486083984375,-0.312530517578125,12196.07156904167,2.434931658442755,-1.143684887200229,-0.7269078942500635,0.02322488650679588,0.006401306949555874,0.002382812555879354,0.003577172756195068,-0.00388723611831665,0.000347524881362915,XArbitraryZVertical,0.3711393572073642,-0.4555078462713822,0.8039923382066798,0.09145802359404356,-0.6801061034202576,0.6645622849464417,-0.3095363676548004,0,0,0,-1,-1,12173.33683954167,unknown,2,2025-04-30T12:15:54.596+03:00,2025-04-30T12:00:08.093+03:00,132,1.288074,0,0,109.9097,0,0,2025-04-30T12:15:54.596+03:00,767697393.3892071,0,2.27,100.9393,1,0.8,2025-04-30T12:16:28.395+03:00,94,1.566666666666667,2025-04-22T14:20:19.516+03:00,0.02197104130929222,0
2025-04-30T12:16:33.485+03:00,1746004590.822486,40.95209689816259,29.14023898507819,76.36157,-1,-1,-1,-1,30,67.48781531964896,-9999,12196.09172204167,-0.676300048828125,0.667083740234375,-0.3134918212890625,12196.08164504167,2.43525089832587,-1.143433802925525,-0.7268345718523566,0.02720897644758224,0.00227686925791204,0.002443266101181507,0.003589510917663574,-0.001253664493560791,-0.0005296468734741211,XArbitraryZVertical,0.3711277157483913,-0.4554125289369738,0.8040573699997402,0.09140801907629452,-0.6800726652145386,0.6645075082778931,-0.309727281332016,0,0,0,-1,-1,12173.33683954167,unknown,2,2025-04-30T12:15:54.596+03:00,2025-04-30T12:00:08.093+03:00,132,1.288074,0,0,109.9097,0,0,2025-04-30T12:15:54.596+03:00,767697393.3892071,0,2.27,100.9393,1,0.8,2025-04-30T12:16:28.395+03:00,94,1.566666666666667,2025-04-22T14:20:19.516+03:00,0.02197104130929222,0
2025-04-30T12:16:33.495+03:00,1746004590.822486,40.95209689816259,29.14023898507819,76.36157,-1,-1,-1,-1,30,67.48781531964896,-9999,12196.10179804167,-0.680450439453125,0.6662139892578125,-0.310455322265625,12196.09172204167,2.435540573351572,-1.143239189702275,-0.7267629889366787,0.01918620429933071,0.002008155919611454,0.001631667953915894,0.004930555820465088,-0.00150531530380249,-0.0026511549949646,XArbitraryZVertical,0.3711315943694311,-0.455325866921995,0.8041105435208816,0.09135661590633634,-0.6800557374954224,0.6644539833068848,-0.3098793923854828,0,0,0,-1,-1,12173.33683954167,unknown,2,2025-04-30T12:15:54.596+03:00,2025-04-30T12:00:08.093+03:00,132,1.288074,0,0,109.9097,0,0,2025-04-30T12:15:54.596+03:00,767697393.3892071,0,2.27,100.9393,1,0.8,2025-04-30T12:16:28.395+03:00,94,1.566666666666667,2025-04-22T14:20:19.516+03:00,0.02197104130929222,0
2025-04-30T12:16:33.505+03:00,1746004590.822486,40.95209689816259,29.14023898507819,76.36157,-1,-1,-1,-1,30,67.48781531964896,-9999,12196.11187504167,-0.6867828369140625,0.6604766845703125,-0.30145263671875,12196.10179804167,2.435680938844523,-1.143065490342137,-0.7267343052589559,0.008785228244960308,0.01654901541769505,0.00330333411693573,0.003719091415405273,0.002651214599609375,-0.003486394882202148,XArbitraryZVertical,0.3711002080712771,-0.4552822595168261,0.8041506757492183,0.09134797100240487,-0.680019199848175,0.6644325852394104,-0.310005396604538,0,0,0,-1,-1,12173.33683954167,unknown,2,2025-04-30T12:15:54.596+03:00,2025-04-30T12:00:08.093+03:00,132,1.288074,0,0,109.9097,0,0,2025-04-30T12:15:54.596+03:00,767697393.3892071,0,2.27,100.9393,1,0.8,2025-04-30T12:16:28.395+03:00,94,1.566666666666667,2025-04-22T14:20:19.516+03:00,0.02197104130929222,0
2025-04-30T12:16:33.515+03:00,1746004590.822486,40.95209689816259,29.14023898507819,76.36157,-1,-1,-1,-1,30,67.48781531964896,-9999,12196.12195104167,-0.6822662353515625,0.666015625,-0.301239013671875,12196.11187504167,2.435791524237683,-1.142790795949227,-0.7268172911816083,0.01024244353175163,0.03380756452679634,0.00824413076043129,-0.0005665421485900879,0.001719474792480469,-0.0002859830856323242,XArbitraryZVertical,0.370996138993113,-0.4552770541143197,0.8042023639166227,0.09134216086392462,-0.6798838973045349,0.6644945740699768,-0.3101693391799927,0,0,0,-1,-1,12173.33683954167,unknown,2,2025-04-30T12:15:54.596+03:00,2025-04-30T12:00:08.093+03:00,132,1.288074,0,0,109.9097,0,0,2025-04-30T12:15:54.596+03:00,767697393.3892071,0,2.27,100.9393,1,0.8,2025-04-30T12:16:28.395+03:00,94,1.566666666666667,2025-04-22T14:20:19.516+03:00,0.02197104130929222,0
2025-04-30T12:16:33.526+03:00,1746004590.822486,40.95209689816259,29.14023898507819,76.36157,-1,-1,-1,-1,30,67.48781531964896,-9999,12196.13202804167,-0.6779937744140625,0.662933349609375,-0.2957000732421875,12196.12195104167,2.435919915384997,-1.142414117993037,-0.7268916812769627,0.009030172601342201,0.03215667232871056,0.01681604608893394,-0.007060825824737549,-0.004073441028594971,0.00895226001739502,XArbitraryZVertical,0.3708570815718631,-0.4552610096607009,0.8042741444928871,0.09135478845929018,-0.6797220706939697,0.6645501852035522,-0.3104048669338226,0,0,0,-1,-1,12173.33683954167,unknown,2,2025-04-30T12:15:54.596+03:00,2025-04-30T12:00:08.093+03:00,132,1.288074,0,0,109.9097,0,0,2025-04-30T12:15:54.596+03:00,767697393.3892071,0,2.27,100.9393,1,0.8,2025-04-30T12:16:28.395+03:00,94,1.566666666666667,2025-04-22T14:20:19.516+03:00,0.02197104130929222,0
2025-04-30T12:16:33.535+03:00,1746004590.822486,40.95209689816259,29.14023898507819,76.36157,-1,-1,-1,-1,30,67.48781531964896,-9999,12196.14210504167,-0.6748809814453125,0.6608428955078125,-0.306610107421875,12196.13202804167,2.436184866928376,-1.141924977880608,-0.727053115026389,0.01563980616629124,0.02746251784265041,0.0220926683396101,-0.002793610095977783,0.001344919204711914,0.009453713893890381,XArbitraryZVertical,0.3706841752882893,-0.4552437591933119,0.8043683917624204,0.09131301800015555,-0.6794726252555847,0.6646708250045776,-0.3106927275657654,0,0,0,-1,-1,12173.33683954167,unknown,2,2025-04-30T12:15:54.596+03:00,2025-04-30T12:00:08.093+03:00,132,1.288074,0,0,109.9097,0,0,2025-04-30T12:15:54.596+03:00,767697393.3892071,0,2.27,100.9393,1,0.8,2025-04-30T12:16:28.395+03:00,94,1.566666666666667,2025-04-22T14:20:19.516+03:00,0.02197104130929222,0
2025-04-30T12:16:33.547+03:00,1746004590.822486,40.95209689816259,29.14023898507819,76.36157,-1,-1,-1,-1,30,67.48781531964896,-9999,12196.15218104167,-0.6721038818359375,0.668487548828125,-0.31817626953125,12196.14210504167,2.436487349293463,-1.141482294043067,-0.7271866003143965,0.01796554401516914,0.01994441263377666,0.02221384085714817,0.001260519027709961,-0.001837074756622314,0.01525649428367615,XArbitraryZVertical,0.3705447965949458,-0.4552123340593783,0.804457159550495,0.09125363247349462,-0.679254412651062,0.6647705435752869,-0.3109565675258636,0,0,0,-1,-1,12173.33683954167,unknown,2,2025-04-30T12:15:54.596+03:00,2025-04-30T12:00:08.093+03:00,132,1.288074,0,0,109.9097,0,0,2025-04-30T12:15:54.596+03:00,767697393.3892071,0,2.27,100.9393,1,0.8,2025-04-30T12:16:28.395+03:00,94,1.566666666666667,2025-04-22T14:20:19.516+03:00,0.02197104130929222,0
2025-04-30T12:16:33.563+03:00,1746004590.822486,40.95209689816259,29.14023898507819,76.36157,-1,-1,-1,-1,30,67.48781531964896,-9999,12196.16225804167,-0.6778411865234375,0.66705322265625,-0.3173370361328125,12196.15218104167,2.436831124683754,-1.141104270117413,-0.7272463422568295,0.02178085595369339,0.009417802095413208,0.01008983422070742,0.004219591617584229,-0.003972232341766357,0.004586637020111084,XArbitraryZVertical,0.3704574978118919,-0.4551514751087415,0.8045396469742155,0.09118409073146878,-0.6791006326675415,0.6648151278495789,-0.3111967444419861,0,0,0,-1,-1,12173.33683954167,unknown,2,2025-04-30T12:15:54.596+03:00,2025-04-30T12:00:08.093+03:00,132,1.288074,0,0,109.9097,0,0,2025-04-30T12:15:54.596+03:00,767697393.3892071,0,2.27,100.9393,1,0.8,2025-04-30T12:16:28.395+03:00,94,1.566666666666667,2025-04-22T14:20:19.516+03:00,0.02197104130929222,0
2025-04-30T12:16:33.565+03:00,1746004590.822486,40.95209689816259,29.14023898507819,76.36157,-1,-1,-1,-1,30,67.48781531964896,-9999,12196.17233404167,-0.6786346435546875,0.6689453125,-0.3168487548828125,12196.16225804167,2.437150347477451,-1.140830948295015,-0.727201877920547,0.0276001300662756,0.003650993341580033,0.002451621927320957,0.006938457489013672,0.003705680370330811,-0.006781578063964844,XArbitraryZVertical,0.3704302388317616,-0.4550649484591407,0.8046071704664259,0.09113065819741184,-0.6790423989295959,0.664781928062439,-0.3113946616649628,0,0,0,-1,-1,12173.33683954167,unknown,2,2025-04-30T12:15:54.596+03:00,2025-04-30T12:00:08.093+03:00,132,1.288074,0,0,109.9097,0,0,2025-04-30T12:15:54.596+03:00,767697393.3892071,0,2.27,100.9393,1,0.8,2025-04-30T12:16:28.395+03:00,94,1.566666666666667,2025-04-22T14:20:19.516+03:00,0.02197104130929222,0
2025-04-30T12:16:33.575+03:00,1746004590.822486,40.95209689816259,29.14023898507819,76.36157,-1,-1,-1,-1,30,67.48781531964896,-9999,12196.18241104167,-0.678863525390625,0.6681976318359375,-0.3096466064453125,12196.17233404167,2.437470923105987,-1.140513083236993,-0.7271180646247996,0.02608945034444332,0.01417540572583675,-0.005570950917899609,0.001152753829956055,0.002333998680114746,-0.00570330023765564,XArbitraryZVertical,0.3703941961173071,-0.4549629269699276,0.804685157699697,0.09109822161433526,-0.6789940595626831,0.6647193431854248,-0.3116337358951569,0,0,0,-1,-1,12173.33683954167,unknown,2,2025-04-30T12:15:54.596+03:00,2025-04-30T12:00:08.093+03:00,132,1.288074,0,0,109.9097,0,0,2025-04-30T12:15:54.596+03:00,767697393.3892071,0,2.27,100.9393,1,0.8,2025-04-30T12:16:28.395+03:00,94,1.566666666666667,2025-04-22T14:20:19.516+03:00,0.02197104130929222,0
2025-04-30T12:16:33.585+03:00,1746004590.822486,40.95209689816259,29.14023898507819,76.36157,-1,-1,-1,-1,30,67.48781531964896,-9999,12196.19248704167,-0.6751251220703125,0.6555633544921875,-0.3042755126953125,12196.18241104167,2.437776675506405,-1.140243478156476,-0.7269675882100335,0.02542898617684841,0.002050300361588597,-0.00607322296127677,0.0003662109375,0.004338443279266357,-0.004990220069885254,XArbitraryZVertical,0.3703892354055335,-0.4548434341387892,0.8047570444717993,0.09107988615950248,-0.6790008544921875,0.6646068692207336,-0.3118585348129272,0,0,0,-1,-1,12173.33683954167,unknown,2,2025-04-30T12:15:54.596+03:00,2025-04-30T12:00:08.093+03:00,132,1.288074,0,0,109.9097,0,0,2025-04-30T12:15:54.596+03:00,767697393.3892071,0,2.27,100.9393,1,0.8,2025-04-30T12:16:28.395+03:00,94,1.566666666666667,2025-04-22T14:20:19.516+03:00,0.02197104130929222,0
2025-04-30T12:16:33.595+03:00,1746004590.822486,40.95209689816259,29.14023898507819,76.36157,-1,-1,-1,-1,30,67.48781531964896,-9999,12196.20256404167,-0.6747589111328125,0.660308837890625,-0.3043365478515625,12196.19248704167,2.438001394840977,-1.140105478512473,-0.7267645404947153,0.02204776927828789,-0.002219079528003931,-0.01497673615813255,0.0002168416976928711,0.003742516040802002,0.002361953258514404,XArbitraryZVertical,0.370430622715351,-0.4547272517307147,0.8048037050358852,0.09107938526308468,-0.6790804266929626,0.6644551753997803,-0.3120085597038269,0,0,0,-1,-1,12173.33683954167,unknown,2,2025-04-30T12:15:54.596+03:00,2025-04-30T12:00:08.093+03:00,132,1.288074,0,0,109.9097,0,0,2025-04-30T12:15:54.596+03:00,767697393.3892071,0,2.27,100.9393,1,0.8,2025-04-30T12:16:28.395+03:00,94,1.566666666666667,2025-04-22T14:20:19.516+03:00,0.02197104130929222,0
2025-04-30T12:16:33.605+03:00,1746004590.822486,40.95209689816259,29.14023898507819,76.36157,-1,-1,-1,-1,30,67.48781531964896,-9999,12196.21264004167,-0.6760101318359375,0.6646881103515625,-0.3076629638671875,12196.20256404167,2.438135381468144,-1.14007686034232,-0.7265112534727594,0.01961204223334789,-0.0005655223503708839,-0.01490270160138607,0.004099190235137939,-0.008702456951141357,0.007822751998901367,XArbitraryZVertical,0.3705067181435173,-0.4546159406249253,0.8048286399040724,0.09110496209288133,-0.6792243719100952,0.6642658710479736,-0.3120982348918915,0,0,0,-1,-1,12173.33683954167,unknown,2,2025-04-30T12:15:54.596+03:00,2025-04-30T12:00:08.093+03:00,132,1.288074,0,0,109.9097,0,0,2025-04-30T12:15:54.596+03:00,767697393.3892071,0,2.27,100.9393,1,0.8,2025-04-30T12:16:28.395+03:00,94,1.566666666666667,2025-04-22T14:20:19.516+03:00,0.02197104130929222,0
2025-04-30T12:16:33.616+03:00,1746004590.822486,40.95209689816259,29.14023898507819,76.36157,-1,-1,-1,-1,30,67.48781531964896,-9999,12196.22271704167,-0.674560546875,0.6656494140625,-0.311920166015625,12196.21264004167,2.43820849807675,-1.140078229130757,-0.7263237760348601,0.01803491823375225,-0.002666490618139505,-0.01399536244571209,0.004578948020935059,-0.003816783428192139,0.007812768220901489,XArbitraryZVertical,0.3705661629878845,-0.4545393969330287,0.8048417696131431,0.09112931101298748,-0.6793379783630371,0.6641256809234619,-0.312149316072464,0,0,0,-1,-1,12173.33683954167,unknown,2,2025-04-30T12:15:54.596+03:00,2025-04-30T12:00:08.093+03:00,132,1.288074,0,0,109.9097,0,0,2025-04-30T12:15:54.596+03:00,767697393.3892071,0,2.27,100.9393,1,0.8,2025-04-30T12:16:28.395+03:00,94,1.566666666666667,2025-04-22T14:20:19.516+03:00,0.02197104130929222,0
2025-04-30T12:16:33.626+03:00,1746004590.822486,40.95209689816259,29.14023898507819,76.36157,-1,-1,-1,-1,30,67.48781531964896,-9999,12196.23279304167,-0.6762542724609375,0.664581298828125,-0.312469482421875,12196.22271704167,2.438307939075163,-1.140106607224629,-0.7261317672691446,0.02346856705844402,-0.004258261527866125,-0.01291678100824356,0.003452539443969727,0.0007060766220092773,0.004520326852798462,XArbitraryZVertical,0.3706434571849205,-0.4544576754119343,0.8048513636784107,0.09113828039324062,-0.6794627904891968,0.6639821529388428,-0.312183290719986,0,0,0,-1,-1,12173.33683954167,unknown,2,2025-04-30T12:15:54.596+03:00,2025-04-30T12:00:08.093+03:00,132,1.288074,0,0,109.9097,0,0,2025-04-30T12:15:54.596+03:00,767697393.3892071,0,2.27,100.9393,1,0.8,2025-04-30T12:16:28.395+03:00,94,1.566666666666667,2025-04-22T14:20:19.516+03:00,0.02197104130929222,0
2025-04-30T12:16:33.636+03:00,1746004590.822486,40.95209689816259,29.14023898507819,76.36157,-1,-1,-1,-1,30,67.48781531964896,-9999,12196.24287004167,-0.6788330078125,0.66290283203125,-0.3094635009765625,12196.23279304167,2.438505920529874,-1.140011258935498,-0.7259342734187149,0.02263998985290527,0.001455483492463827,-0.01197805069386959,0.004991471767425537,0.00181502103805542,0.0003826320171356201,XArbitraryZVertical,0.3706946042537247,-0.4543501923625154,0.8048886005890232,0.09113718405885991,-0.6795521378517151,0.6638344526290894,-0.312302827835083,0,0,0,-1,-1,12173.33683954167,unknown,2,2025-04-30T12:15:54.596+03:00,2025-04-30T12:00:08.093+03:00,132,1.288074,0,0,109.9097,0,0,2025-04-30T12:15:54.596+03:00,767697393.3892071,0,2.27,100.9393,1,0.8,2025-04-30T12:16:28.395+03:00,94,1.566666666666667,2025-04-22T14:20:19.516+03:00,0.02197104130929222,0
2025-04-30T12:16:33.646+03:00,1746004590.822486,40.95209689816259,29.14023898507819,76.36157,-1,-1,-1,-1,30,67.48781531964896,-9999,12196.25294604167,-0.6780853271484375,0.660797119140625,-0.3071746826171875,12196.24287004167,2.438799145654938,-1.139775118552432,-0.7257874847326935,0.02512685023248196,0.002820353489369154,-0.002424226608127356,0.003312468528747559,0.0008566379547119141,3.448128700256348e-05,XArbitraryZVertical,0.3706993085909566,-0.4542356830407762,0.8049534769862634,0.09111497438817773,-0.6795667409896851,0.6637246608734131,-0.3125039339065552,0,0,0,-1,-1,12173.33683954167,unknown,2,2025-04-30T12:15:54.596+03:00,2025-04-30T12:00:08.093+03:00,132,1.288074,0,0,109.9097,0,0,2025-04-30T12:15:54.596+03:00,767697393.3892071,0,2.27,100.9393,1,0.8,2025-04-30T12:16:28.395+03:00,94,1.566666666666667,2025-04-22T14:20:19.516+03:00,0.02197104130929222,0
2025-04-30T12:16:33.656+03:00,1746004590.822486,40.95209689816259,29.14023898507819,76.36157,-1,-1,-1,-1,30,67.48781531964896,-9999,12196.26302304167,-0.6793670654296875,0.663299560546875,-0.3075103759765625,12196.25294604167,2.439140387399976,-1.139465231461592,-0.7256780566491785,0.02697328664362431,0.01008019782602787,-0.0004961977829225361,0.0007028579711914062,-0.0007398724555969238,0.00328141450881958,XArbitraryZVertical,0.3706767081552231,-0.454121490095027,0.805032362310051,0.09107960551038469,-0.6795359253883362,0.6636428236961365,-0.3127448856830597,0,0,0,-1,-1,12173.33683954167,unknown,2,2025-04-30T12:15:54.596+03:00,2025-04-30T12:00:08.093+03:00,132,1.288074,0,0,109.9097,0,0,2025-04-30T12:15:54.596+03:00,767697393.3892071,0,2.27,100.9393,1,0.8,2025-04-30T12:16:28.395+03:00,94,1.566666666666667,2025-04-22T14:20:19.516+03:00,0.02197104130929222,0
2025-04-30T12:16:33.666+03:00,1746004590.822486,40.95209689816259,29.14023898507819,76.36157,-1,-1,-1,-1,30,67.48781531964896,-9999,12196.27309904167,-0.678070068359375,0.663238525390625,-0.31109619140625,12196.26302304167,2.439484545797223,-1.139131646904419,-0.7256063887082369,0.02170954830944538,0.006893725134432316,0.004675394855439663,0.001389384269714355,-0.002792060375213623,0.005816757678985596,XArbitraryZVertical,0.3706367093349154,-0.4540183896149343,0.8051136939342191,0.09103745195896305,-0.6794747114181519,0.6635891795158386,-0.3129914700984955,0,0,0,-1,-1,12173.33683954167,unknown,2,2025-04-30T12:15:54.596+03:00,2025-04-30T12:00:08.093+03:00,132,1.288074,0,0,109.9097,0,0,2025-04-30T12:15:54.596+03:00,767697393.3892071,0,2.27,100.9393,1,0.8,2025-04-30T12:16:28.395+03:00,94,1.566666666666667,2025-04-22T14:20:19.516+03:00,0.02197104130929222,0
2025-04-30T12:16:33.676+03:00,1746004590.822486,40.95209689816259,29.14023898507819,76.36157,-1,-1,-1,-1,30,67.48781531964896,-9999,12196.28317604167,-0.680908203125,0.660491943359375,-0.310699462890625,12196.27309904167,2.43980302799915,-1.138870841133727,-0.7255976124376068,0.0277705043554306,0.007362307980656624,0.008801363408565521,3.123283386230469e-05,-0.0002830028533935547,0.005660712718963623,XArbitraryZVertical,0.3706059989755234,-0.4539445470406128,0.8051769569887848,0.09097092526495562,-0.6793983578681946,0.6635826230049133,-0.3131710886955261,0,0,0,-1,-1,12173.33683954167,unknown,2,2025-04-30T12:15:54.596+03:00,2025-04-30T12:00:08.093+03:00,132,1.288074,0,0,109.9097,0,0,2025-04-30T12:15:54.596+03:00,767697393.3892071,0,2.27,100.9393,1,0.8,2025-04-30T12:16:28.395+03:00,94,1.566666666666667,2025-04-22T14:20:19.516+03:00,0.02197104130929222,0
2025-04-30T12:16:33.698+03:00,1746004590.822486,40.95209689816259,29.14023898507819,76.36157,-1,-1,-1,-1,30,67.48781531964896,-9999,12196.29325204167,-0.682891845703125,0.667877197265625,-0.30804443359375,12196.28317604167,2.440131655944296,-1.138606178924733,-0.7255561119384392,0.02685517631471157,0.006495182868093252,0.007242082618176937,0.001270294189453125,-0.0003129839897155762,0.002266228199005127,XArbitraryZVertical,0.3705833807069519,-0.4538576379859628,0.8052431489673986,0.09091060356691336,-0.6793404221534729,0.6635515689849854,-0.3133624196052551,0,0,0,-1,-1,12173.33683954167,unknown,2,2025-04-30T12:15:54.596+03:00,2025-04-30T12:00:08.093+03:00,132,1.288074,0,0,109.9097,0,0,2025-04-30T12:15:54.596+03:00,767697393.3892071,0,2.27,100.9393,1,0.8,2025-04-30T12:16:28.395+03:00,94,1.566666666666667,2025-04-22T14:20:19.516+03:00,0.02197104130929222,0
2025-04-30T12:16:33.701+03:00,1746004590.822486,40.95209689816259,29.14023898507819,76.36157,-1,-1,-1,-1,30,67.48781531964896,-9999,12196.30332904167,-0.6776123046875,0.6649627685546875,-0.3085174560546875,12196.29325204167,2.440492246471234,-1.13832564542989,-0.7255239969774576,0.03113780543208122,0.007269363850355148,0.006485745310783386,-0.001636385917663574,-0.003035604953765869,0.002862483263015747,XArbitraryZVertical,0.3705594797993131,-0.4537672577647782,0.8053132305347462,0.09083830417548484,-0.6792718172073364,0.6635275483131409,-0.313561886548996,0,0,0,-1,-1,12173.33683954167,unknown,2,2025-04-30T12:15:54.596+03:00,2025-04-30T12:00:08.093+03:00,132,1.288074,0,0,109.9097,0,0,2025-04-30T12:15:54.596+03:00,767697393.3892071,0,2.27,100.9393,1,0.8,2025-04-30T12:16:28.395+03:00,94,1.566666666666667,2025-04-22T14:20:19.516+03:00,0.02197104130929222,0
2025-04-30T12:16:33.707+03:00,1746004590.822486,40.95209689816259,29.14023898507819,76.36157,-1,-1,-1,-1,30,67.48781531964896,-9999,12196.31340604167,-0.6763458251953125,0.6654052734375,-0.3089141845703125,12196.30332904167,2.440876160273173,-1.138027978665997,-0.7254973969919762,0.0279217716306448,0.006780940108001232,0.008406416513025761,-0.003697454929351807,0.004369556903839111,0.005727082490921021,XArbitraryZVertical,0.3705327171983969,-0.4536736478828004,0.8053871989717599,0.09075883441807824,-0.6791943907737732,0.6635076403617859,-0.3137714564800262,0,0,0,-1,-1,12173.33683954167,unknown,2,2025-04-30T12:15:54.596+03:00,2025-04-30T12:00:08.093+03:00,132,1.288074,0,0,109.9097,0,0,2025-04-30T12:15:54.596+03:00,767697393.3892071,0,2.27,100.9393,1,0.8,2025-04-30T12:16:28.395+03:00,94,1.566666666666667,2025-04-22T14:20:19.516+03:00,0.02197104130929222,0
2025-04-30T12:16:33.717+03:00,1746004590.822486,40.95209689816259,29.14023898507819,76.36157,-1,-1,-1,-1,30,67.48781531964896,-9999,12196.32348204167,-0.674560546875,0.6641387939453125,-0.3108062744140625,12196.31340604167,2.441266598800623,-1.137713958166573,-0.725468394320862,0.02842511050403118,0.004055194556713104,0.005435260944068432,0.001501023769378662,0.001476764678955078,0.005475372076034546,XArbitraryZVertical,0.3705013250757684,-0.4535772958329575,0.8054646744970484,0.09068120754455522,-0.6791133284568787,0.6634859442710876,-0.3139927983283997,0,0,0,-1,-1,12173.33683954167,unknown,2,2025-04-30T12:15:54.596+03:00,2025-04-30T12:00:08.093+03:00,132,1.288074,0,0,109.9097,0,0,2025-04-30T12:15:54.596+03:00,767697393.3892071,0,2.27,100.9393,1,0.8,2025-04-30T12:16:28.395+03:00,94,1.566666666666667,2025-04-22T14:20:19.516+03:00,0.02197104130929222,0
2025-04-30T12:16:33.727+03:00,1746004590.822486,40.95209689816259,29.14023898507819,76.36157,-1,-1,-1,-1,30,67.48781531964896,-9999,12196.33355904167,-0.6775360107421875,0.6636505126953125,-0.313995361328125,12196.32348204167,2.441677011742314,-1.137389104959661,-0.7254100342640784,0.02820912748575211,0.006173206493258476,0.006258177570998669,0.002700626850128174,0.001963019371032715,0.005315542221069336,XArbitraryZVertical,0.3704766502968324,-0.4534668692400435,0.8055466638137181,0.09060645247196865,-0.6790465116500854,0.6634423136711121,-0.3142296969890594,0,0,0,-1,-1,12173.33683954167,unknown,2,2025-04-30T12:15:54.596+03:00,2025-04-30T12:00:08.093+03:00,132,1.288074,0,0,109.9097,0,0,2025-04-30T12:15:54.596+03:00,767697393.3892071,0,2.27,100.9393,1,0.8,2025-04-30T12:16:28.395+03:00,94,1.566666666666667,2025-04-22T14:20:19.516+03:00,0.02197104130929222,0
2025-04-30T12:16:33.737+03:00,1746004590.822486,40.95209689816259,29.14023898507819,76.36157,-1,-1,-1,-1,30,67.48781531964896,-9999,12196.34363504167,-0.6810760498046875,0.6654815673828125,-0.316009521484375,12196.33355904167,2.441973223313775,-1.137143945411594,-0.7253360990267081,0.02383342012763023,0.006278534885495901,0.0012557627633214,0.004453420639038086,0.0007518529891967773,0.003610521554946899,XArbitraryZVertical,0.3704616820464944,-0.4533759575430464,0.8056094794622417,0.09056397251684693,-0.6790139675140381,0.6633870005607605,-0.314416766166687,0,0,0,-1,-1,12173.33683954167,unknown,2,2025-04-30T12:15:54.596+03:00,2025-04-30T12:00:08.093+03:00,132,1.288074,0,0,109.9097,0,0,2025-04-30T12:15:54.596+03:00,767697393.3892071,0,2.27,100.9393,1,0.8,2025-04-30T12:16:28.395+03:00,94,1.566666666666667,2025-04-22T14:20:19.516+03:00,0.02197104130929222,0
2025-04-30T12:16:33.747+03:00,1746004590.822486,40.95209689816259,29.14023898507819,76.36157,-1,-1,-1,-1,30,67.48781531964896,-9999,12196.35371204167,-0.6835174560546875,0.6616973876953125,-0.315704345703125,12196.34363504167,2.442289639535641,-1.136885844776413,-0.7252387445995204,0.03327379375696182,0.006504903547465801,0.0007470990531146526,0.001455366611480713,0.0003364086151123047,0.000623852014541626,XArbitraryZVertical,0.3704513059652058,-0.4532728183914568,0.8056768924285703,0.09052302752155639,-0.6789913773536682,0.6633141040802002,-0.3146191537380219,0,0,0,-1,-1,12173.33683954167,unknown,2,2025-04-30T12:15:54.596+03:00,2025-04-30T12:00:08.093+03:00,132,1.288074,0,0,109.9097,0,0,2025-04-30T12:15:54.596+03:00,767697393.3892071,0,2.27,100.9393,1,0.8,2025-04-30T12:16:28.395+03:00,94,1.566666666666667,2025-04-22T14:20:19.516+03:00,0.02197104130929222,0
2025-04-30T12:16:33.757+03:00,1746004590.822486,40.95209689816259,29.14023898507819,76.36157,-1,-1,-1,-1,30,67.48781531964896,-9999,12196.36378804167,-0.6866607666015625,0.6597442626953125,-0.3107757568359375,12196.35371204167,2.442633938234598,-1.13658993030859,-0.7251121664287069,0.0295072179287672,0.01362506486475468,-0.0007914424641057849,-0.002101659774780273,0.0022621750831604,-0.001154094934463501,XArbitraryZVertical,0.3704385622929469,-0.4531529376060787,0.8057541171281301,0.09048773825809689,-0.6789743900299072,0.6632193922996521,-0.3148553669452667,0,0,0,-1,-1,12173.33683954167,unknown,2,2025-04-30T12:15:54.596+03:00,2025-04-30T12:00:08.093+03:00,132,1.288074,0,0,109.9097,0,0,2025-04-30T12:15:54.596+03:00,767697393.3892071,0,2.27,100.9393,1,0.8,2025-04-30T12:16:28.395+03:00,94,1.566666666666667,2025-04-22T14:20:19.516+03:00,0.02197104130929222,0
2025-04-30T12:16:33.767+03:00,1746004590.822486,40.95209689816259,29.14023898507819,76.36157,-1,-1,-1,-1,30,67.48781531964896,-9999,12196.37386504167,-0.686798095703125,0.6585693359375,-0.3052520751953125,12196.36378804167,2.443012243447205,-1.13615606142098,-0.7249794999784748,0.03482075780630112,0.02686816453933716,0.002131110522896051,-0.004599928855895996,-0.001422703266143799,-0.0005173087120056152,XArbitraryZVertical,0.3703792222028509,-0.4530184628914102,0.8058588431243426,0.09047182799691153,-0.6789175868034363,0.6631200909614563,-0.315187007188797,0,0,0,-1,-1,12173.33683954167,unknown,2,2025-04-30T12:15:54.596+03:00,2025-04-30T12:00:08.093+03:00,132,1.288074,0,0,109.9097,0,0,2025-04-30T12:15:54.596+03:00,767697393.3892071,0,2.27,100.9393,1,0.8,2025-04-30T12:16:28.395+03:00,94,1.566666666666667,2025-04-22T14:20:19.516+03:00,0.02197104130929222,0
2025-04-30T12:16:33.777+03:00,1746004590.822486,40.95209689816259,29.14023898507819,76.36157,-1,-1,-1,-1,30,67.48781531964896,-9999,12196.38394104167,-0.6823577880859375,0.6566009521484375,-0.3112640380859375,12196.37386504167,2.44341888418739,-1.135628385215444,-0.7248346528762435,0.03307931870222092,0.02673846855759621,0.001125101465731859,-0.007822513580322266,-0.003267347812652588,0.004809975624084473,XArbitraryZVertical,0.3702911803355161,-0.4528703820930161,0.8059828522927475,0.09046914528636317,-0.6788382530212402,0.6630116701126099,-0.315585732460022,0,0,0,-1,-1,12173.33683954167,unknown,2,2025-04-30T12:15:54.596+03:00,2025-04-30T12:00:08.093+03:00,132,1.288074,0,0,109.9097,0,0,2025-04-30T12:15:54.596+03:00,767697393.3892071,0,2.27,100.9393,1,0.8,2025-04-30T12:16:28.395+03:00,94,1.566666666666667,2025-04-22T14:20:19.516+03:00,0.02197104130929222,0
2025-04-30T12:16:33.788+03:00,1746004590.822486,40.95209689816259,29.14023898507819,76.36157,-1,-1,-1,-1,30,67.48781531964896,-9999,12196.39401804167,-0.68145751953125,0.6591796875,-0.314788818359375,12196.38394104167,2.443833428212138,-1.135095087243553,-0.7247005753832718,0.03851030021905899,0.03244748711585999,1.536228228360415e-05,-0.008047640323638916,-0.00434190034866333,0.01073312759399414,XArbitraryZVertical,0.3702001776049533,-0.4527242210733748,0.8061076432802619,0.09046135047341336,-0.6787504553794861,0.6629112958908081,-0.3159852027893066,0,0,0,-1,-1,12173.33683954167,unknown,2,2025-04-30T12:15:54.596+03:00,2025-04-30T12:00:08.093+03:00,132,1.288074,0,0,109.9097,0,0,2025-04-30T12:15:54.596+03:00,767697393.3892071,0,2.27,100.9393,1,0.8,2025-04-30T12:16:28.395+03:00,94,1.566666666666667,2025-04-22T14:20:19.516+03:00,0.02197104130929222,0
2025-04-30T12:16:33.797+03:00,1746004590.822486,40.95209689816259,29.14023898507819,76.36157,-1,-1,-1,-1,30,67.48781531964896,-9999,12196.40409404167,-0.6782379150390625,0.659820556640625,-0.3185577392578125,12196.39401804167,2.444243303760079,-1.134513416978685,-0.7245388164680455,0.03713937103748322,0.03257272392511368,-0.004281614907085896,-0.003694057464599609,-0.006189167499542236,0.005161285400390625,XArbitraryZVertical,0.3700947419292813,-0.4525673811722254,0.8062426868059561,0.09047427398952272,-0.6786637902259827,0.6627901792526245,-0.3164252936840057,0,0,0,-1,-1,12173.33683954167,unknown,2,2025-04-30T12:15:54.596+03:00,2025-04-30T12:00:08.093+03:00,132,1.288074,0,0,109.9097,0,0,2025-04-30T12:15:54.596+03:00,767697393.3892071,0,2.27,100.9393,1,0.8,2025-04-30T12:16:28.395+03:00,94,1.566666666666667,2025-04-22T14:20:19.516+03:00,0.02197104130929222,0
2025-04-30T12:16:33.807+03:00,1746004590.822486,40.95209689816259,29.14023898507819,76.36157,-1,-1,-1,-1,30,67.48781531964896,-9999,12196.41417104167,-0.673858642578125,0.665283203125,-0.3195037841796875,12196.40409404167,2.444698724449318,-1.133889674997615,-0.7244270560335663,0.04486760124564171,0.04565789923071861,0.006792607717216015,-0.002924263477325439,-0.003526747226715088,0.002091050148010254,XArbitraryZVertical,0.3699713910796079,-0.4524171128549807,0.8063847443116122,0.09046379225577324,-0.6785333156585693,0.6627064943313599,-0.3168798387050629,0,0,0,-1,-1,12173.33683954167,unknown,2,2025-04-30T12:15:54.596+03:00,2025-04-30T12:00:08.093+03:00,132,1.288074,0,0,109.9097,0,0,2025-04-30T12:15:54.596+03:00,767697393.3892071,0,2.27,100.9393,1,0.8,2025-04-30T12:16:28.395+03:00,94,1.566666666666667,2025-04-22T14:20:19.516+03:00,0.02197104130929222,0
2025-04-30T12:16:33.817+03:00,1746004590.822486,40.95209689816259,29.14023898507819,76.36157,-1,-1,-1,-1,30,67.48781531964896,-9999,12196.42424704167,-0.6724395751953125,0.6554718017578125,-0.3160400390625,12196.41417104167,2.44514940068006,-1.133254513371107,-0.7242513579875076,0.03450037911534309,0.0234846193343401,-0.001398376887664199,0.0001993775367736816,-0.002754330635070801,-0.001197636127471924,XArbitraryZVertical,0.3698565803659907,-0.4522455862678011,0.8065322052096686,0.09047609906190802,-0.6784372925758362,0.6625748872756958,-0.3173600733280182,0,0,0,-1,-1,12173.33683954167,unknown,2,2025-04-30T12:15:54.596+03:00,2025-04-30T12:00:08.093+03:00,132,1.288074,0,0,109.9097,0,0,2025-04-30T12:15:54.596+03:00,767697393.3892071,0,2.27,100.9393,1,0.8,2025-04-30T12:16:28.395+03:00,94,1.566666666666667,2025-04-22T14:20:19.516+03:00,0.02197104130929222,0
2025-04-30T12:16:33.827+03:00,1746004590.822486,40.95209689816259,29.14023898507819,76.36157,-1,-1,-1,-1,30,67.48781531964896,-9999,12196.43432404167,-0.666900634765625,0.6408538818359375,-0.3148651123046875,12196.42424704167,2.445398322820774,-1.132902134956847,-0.724127703020526,0.01252130977809429,0.01436702162027359,-0.004492171108722687,0.00454103946685791,0.002801001071929932,-0.001869857311248779,XArbitraryZVertical,0.3697984127580445,-0.4521417704869193,0.8066154785116459,0.09049095687426581,-0.6783997416496277,0.6624822616577148,-0.3176338970661163,0,0,0,-1,-1,12173.33683954167,unknown,2,2025-04-30T12:15:54.596+03:00,2025-04-30T12:00:08.093+03:00,132,1.288074,0,0,109.9097,0,0,2025-04-30T12:15:54.596+03:00,767697393.3892071,0,2.27,100.9393,1,0.8,2025-04-30T12:16:28.395+03:00,94,1.566666666666667,2025-04-22T14:20:19.516+03:00,0.02197104130929222,0
2025-04-30T12:16:33.837+03:00,1746004590.822486,40.95209689816259,29.14023898507819,76.36157,-1,-1,-1,-1,30,67.48781531964896,-9999,12196.44440004167,-0.6706695556640625,0.6622772216796875,-0.3211669921875,12196.43432404167,2.445514807745961,-1.132708093369761,-0.724056278108567,0.0100954370573163,0.007887016981840134,-0.0009907800704240799,0.005941271781921387,-0.006956934928894043,0.001745522022247314,XArbitraryZVertical,0.3697625000200185,-0.4520872740096094,0.8066604979885003,0.0905082573137637,-0.6783808469772339,0.6624287962913513,-0.3177855908870697,0,0,0,-1,-1,12173.33683954167,unknown,2,2025-04-30T12:15:54.596+03:00,2025-04-30T12:00:08.093+03:00,132,1.288074,0,0,109.9097,0,0,2025-04-30T12:15:54.596+03:00,767697393.3892071,0,2.27,100.9393,1,0.8,2025-04-30T12:16:28.395+03:00,94,1.566666666666667,2025-04-22T14:20:19.516+03:00,0.02197104130929222,0
2025-04-30T12:16:33.848+03:00,1746004590.822486,40.95209689816259,29.14023898507819,76.36157,-1,-1,-1,-1,30,67.48781531964896,-9999,12196.45447704167,-0.6738433837890625,0.664825439453125,-0.319976806640625,12196.44440004167,2.445659693329933,-1.132528468651798,-0.7239421054884004,0.02096406370401382,0.009814613498747349,-0.007418585475534201,0.01149153709411621,-0.02148932218551636,0.003074407577514648,XArbitraryZVertical,0.3697483696165098,-0.4520137046454497,0.8067065091278742,0.09052312693727986,-0.678392231464386,0.6623432636260986,-0.3179395198822021,0,0,0,-1,-1,12173.33683954167,unknown,2,2025-04-30T12:15:54.596+03:00,2025-04-30T12:00:08.093+03:00,132,1.288074,0,0,109.9097,0,0,2025-04-30T12:15:54.596+03:00,767697393.3892071,0,2.27,100.9393,1,0.8,2025-04-30T12:16:28.395+03:00,94,1.566666666666667,2025-04-22T14:20:19.516+03:00,0.02197104130929222,0
2025-04-30T12:16:33.858+03:00,1746004590.822486,40.95209689816259,29.14023898507819,76.36157,-1,-1,-1,-1,30,67.48781531964896,-9999,12196.46455304167,-0.678680419921875,0.667388916015625,-0.319061279296875,12196.45447704167,2.445857189177035,-1.132328188054609,-0.7237732332311607,0.0253745261579752,0.01336593925952911,-0.006075819954276085,0.007760167121887207,6.055831909179688e-05,-0.00304412841796875,XArbitraryZVertical,0.3697500184781467,-0.4519109447630386,0.8067617378237804,0.0905371267748665,-0.6784297823905945,0.6622167229652405,-0.3181228339672089,0,0,0,-1,-1,12173.33683954167,unknown,2,2025-04-30T12:15:54.596+03:00,2025-04-30T12:00:08.093+03:00,132,1.288074,0,0,109.9097,0,0,2025-04-30T12:15:54.596+03:00,767697393.3892071,0,2.27,100.9393,1,0.8,2025-04-30T12:16:28.395+03:00,94,1.566666666666667,2025-04-22T14:20:19.516+03:00,0.02197104130929222,0
2025-04-30T12:16:33.868+03:00,1746004590.822486,40.95209689816259,29.14023898507819,76.36157,-1,-1,-1,-1,30,67.48781531964896,-9999,12196.47463004167,-0.678558349609375,0.6619110107421875,-0.3149566650390625,12196.46455304167,2.446108789364349,-1.132074080053643,-0.7236078252942902,0.03069072775542736,0.01682431995868683,-0.001971888588741422,0.004604697227478027,0.002732694149017334,-0.001635044813156128,XArbitraryZVertical,0.3697413704786929,-0.4517969060359953,0.8068291907811573,0.09054045763499369,-0.6784480810165405,0.6620927453041077,-0.3183417618274689,0,0,0,-1,-1,12173.33683954167,unknown,2,2025-04-30T12:15:54.596+03:00,2025-04-30T12:00:08.093+03:00,132,1.288074,0,0,109.9097,0,0,2025-04-30T12:15:54.596+03:00,767697393.3892071,0,2.27,100.9393,1,0.8,2025-04-30T12:16:28.395+03:00,94,1.566666666666667,2025-04-22T14:20:19.516+03:00,0.02197104130929222,0
2025-04-30T12:16:33.878+03:00,1746004590.822486,40.95209689816259,29.14023898507819,76.36157,-1,-1,-1,-1,30,67.48781531964896,-9999,12196.48470704167,-0.676666259765625,0.6590118408203125,-0.3152313232421875,12196.47463004167,2.446421395187232,-1.131726851670728,-0.7234607599330821,0.02716403640806675,0.01951477862894535,0.000701858545653522,-0.0002548098564147949,0.005406379699707031,-0.0004425346851348877,XArbitraryZVertical,0.3697048008852442,-0.4516735753292595,0.8069156002118352,0.09053489549637712,-0.6784256100654602,0.661982536315918,-0.3186186850070953,0,0,0,-1,-1,12173.33683954167,unknown,2,2025-04-30T12:15:54.596+03:00,2025-04-30T12:00:08.093+03:00,132,1.288074,0,0,109.9097,0,0,2025-04-30T12:15:54.596+03:00,767697393.3892071,0,2.27,100.9393,1,0.8,2025-04-30T12:16:28.395+03:00,94,1.566666666666667,2025-04-22T14:20:19.516+03:00,0.02197104130929222,0
2025-04-30T12:16:33.888+03:00,1746004590.822486,40.95209689816259,29.14023898507819,76.36157,-1,-1,-1,-1,30,67.48781531964896,-9999,12196.49478304167,-0.6749420166015625,0.66015625,-0.3199310302734375,12196.48470704167,2.446731120599413,-1.131347753987874,-0.7233631202209574,0.02798721939325333,0.01796242222189903,0.005262788385152817,-0.0001950860023498535,1.668930053710938e-06,0.003946691751480103,XArbitraryZVertical,0.3696436157213212,-0.4515660789964021,0.8070050680454529,0.0905235130824452,-0.6783632636070251,0.6619093418121338,-0.3189033567905426,0,0,0,-1,-1,12173.33683954167,unknown,2,2025-04-30T12:15:54.596+03:00,2025-04-30T12:00:08.093+03:00,132,1.288074,0,0,109.9097,0,0,2025-04-30T12:15:54.596+03:00,767697393.3892071,0,2.27,100.9393,1,0.8,2025-04-30T12:16:28.395+03:00,94,1.566666666666667,2025-04-22T14:20:19.516+03:00,0.02197104130929222,0
2025-04-30T12:16:33.898+03:00,1746004590.822486,40.95209689816259,29.14023898507819,76.36157,-1,-1,-1,-1,30,67.48781531964896,-9999,12196.50486004167,-0.6764373779296875,0.6711883544921875,-0.322265625,12196.49478304167,2.447252513598246,-1.130774518787435,-0.7233742941468411,0.04449142888188362,0.02774161472916603,0.001930407946929336,0.001507461071014404,-0.002905845642089844,0.004057735204696655,XArbitraryZVertical,0.3695274806197239,-0.4514475859936223,0.807134019286543,0.09043939309604247,-0.6781737208366394,0.6619177460670471,-0.3192890286445618,0,0,0,-1,-1,12173.33683954167,unknown,2,2025-04-30T12:15:54.596+03:00,2025-04-30T12:00:08.093+03:00,132,1.288074,0,0,109.9097,0,0,2025-04-30T12:15:54.596+03:00,767697393.3892071,0,2.27,100.9393,1,0.8,2025-04-30T12:16:28.395+03:00,94,1.566666666666667,2025-04-22T14:20:19.516+03:00,0.02197104130929222,0
2025-04-30T12:16:33.908+03:00,1746004590.822486,40.95209689816259,29.14023898507819,76.36157,-1,-1,-1,-1,30,67.48781531964896,-9999,12196.51493604167,-0.6743316650390625,0.6547698974609375,-0.3191375732421875,12196.50486004167,2.44775129653472,-1.130250942625058,-0.7232994039263606,0.03210213780403137,0.01183029357343912,0.006068161688745022,0.003109276294708252,-0.001705288887023926,-0.0002657771110534668,XArbitraryZVertical,0.3694454460613524,-0.4513063755711172,0.8072574831409242,0.09037776653321521,-0.6780513525009155,0.6618615984916687,-0.3196652233600616,0,0,0,-1,-1,12173.33683954167,unknown,2,2025-04-30T12:15:54.596+03:00,2025-04-30T12:00:08.093+03:00,132,1.288074,0,0,109.9097,0,0,2025-04-30T12:15:54.596+03:00,767697393.3892071,0,2.27,100.9393,1,0.8,2025-04-30T12:16:28.395+03:00,94,1.566666666666667,2025-04-22T14:20:19.516+03:00,0.02197104130929222,0
2025-04-30T12:16:33.918+03:00,1746004590.822486,40.95209689816259,29.14023898507819,76.36157,-1,-1,-1,-1,30,67.48781531964896,-9999,12196.52501304167,-0.673095703125,0.6536865234375,-0.318328857421875,12196.51493604167,2.448096334211675,-1.129906320244638,-0.7232287608109867,0.02377775870263577,0.01156837213784456,0.004167662933468819,0.001545965671539307,0.009379804134368896,-0.002346783876419067,XArbitraryZVertical,0.3693999645417215,-0.4512031079273983,0.8073406448289362,0.09033647940988396,-0.6779834032058716,0.6618086099624634,-0.3199188411235809,0,0,0,-1,-1,12173.33683954167,unknown,2,2025-04-30T12:15:54.596+03:00,2025-04-30T12:00:08.093+03:00,132,1.288074,0,0,109.9097,0,0,2025-04-30T12:15:54.596+03:00,767697393.3892071,0,2.27,100.9393,1,0.8,2025-04-30T12:16:28.395+03:00,94,1.566666666666667,2025-04-22T14:20:19.516+03:00,0.02197104130929222,0
2025-04-30T12:16:33.928+03:00,1746004590.822486,40.95209689816259,29.14023898507819,76.36157,-1,-1,-1,-1,30,67.48781531964896,-9999,12196.53508904167,-0.675140380859375,0.660552978515625,-0.3178558349609375,12196.52501304167,2.448399578717585,-1.12957025258319,-0.723123866121928,0.02067171409726143,0.01418918929994106,0.002999334130436182,0.003606855869293213,-0.006960034370422363,0.001038730144500732,XArbitraryZVertical,0.369356151686052,-0.4510963249680435,0.8074221601026251,0.09031979926330344,-0.6779385209083557,0.6617299914360046,-0.3201762735843658,0,0,0,-1,-1,12173.33683954167,unknown,2,2025-04-30T12:15:54.596+03:00,2025-04-30T12:00:08.093+03:00,132,1.288074,0,0,109.9097,0,0,2025-04-30T12:15:54.596+03:00,767697393.3892071,0,2.27,100.9393,1,0.8,2025-04-30T12:16:28.395+03:00,94,1.566666666666667,2025-04-22T14:20:19.516+03:00,0.02197104130929222,0
