loggingTime(txt),locationTimestamp_since1970(s),locationLatitude(WGS84),locationLongitude(WGS84),locationAltitude(m),locationSpeed(m/s),locationSpeedAccuracy(m/s),locationCourse(°),locationCourseAccuracy(°),locationVerticalAccuracy(m),locationHorizontalAccuracy(m),locationFloor(Z),accelerometerTimestamp_sinceReboot(s),accelerometerAccelerationX(G),accelerometerAccelerationY(G),accelerometerAccelerationZ(G),motionTimestamp_sinceReboot(s),motionYaw(rad),motionRoll(rad),motionPitch(rad),motionRotationRateX(rad/s),motionRotationRateY(rad/s),motionRotationRateZ(rad/s),motionUserAccelerationX(G),motionUserAccelerationY(G),motionUserAccelerationZ(G),motionAttitudeReferenceFrame(txt),motionQuaternionX(R),motionQuaternionY(R),motionQuaternionZ(R),motionQuaternionW(R),motionGravityX(G),motionGravityY(G),motionGravityZ(G),motionMagneticFieldX(µT),motionMagneticFieldY(µT),motionMagneticFieldZ(µT),motionHeading(°),motionMagneticFieldCalibrationAccuracy(Z),activityTimestamp_sinceReboot(s),activity(txt),activityActivityConfidence(Z),activityActivityStartDate(txt),pedometerStartDate(txt),pedometerNumberofSteps(N),pedometerAverageActivePace(s/m),pedometerCurrentPace(s/m),pedometerCurrentCadence(steps/s),pedometerDistance(m),pedometerFloorAscended(N),pedometerFloorDescended(N),pedometerEndDate(txt),altimeterTimestamp_sinceReboot(s),altimeterReset(bool),altimeterRelativeAltitude(m),altimeterPressure(kPa),batteryState(N),batteryLevel(R),heartRateBPMTimestamp(txt),heartRateBPM(N),heartRateBPS(R),heartRateVariabilityTimestamp(txt),heartRateVariability(ms),label
2025-04-20T22:18:37.838+03:00,1745176712.716959,40.98552636824662,29.137368114026,128.4453,-1,-1,-1,-1,30,30.35635389065777,-9999,9091.226645000001,0.6389923095703125,-0.5129547119140625,-0.5525054931640625,9091.222875000001,1.185417354820506,0.8596808231467706,0.5204886655567064,0.02058757655322552,-0.0001190910115838051,-0.05385139957070351,0.004224002361297607,0.003102481365203857,0.01194310188293457,XArbitraryZVertical,-0.03093703400719853,0.4646701603879985,0.579635624497019,0.6686905627445454,0.6573055386543274,-0.4973041415214539,-0.5662490725517273,0,0,0,-1,-1,9080.303592166667,unknown,2,2025-04-20T22:18:26.887+03:00,2025-04-20T21:57:49.637+03:00,29,1.789309,0,0,23.86625,0,0,2025-04-20T22:09:07.141+03:00,766869517.3048571,0,0.9300003,99.72591,1,1,2025-04-20T22:18:29.793+03:00,93,1.55,2025-04-19T12:19:17.059+03:00,0.05691595998002078,0
2025-04-20T22:18:37.840+03:00,1745176712.716959,40.98552636824662,29.137368114026,128.4453,-1,-1,-1,-1,30,30.35635389065777,-9999,9091.236722,0.670989990234375,-0.492340087890625,-0.5561676025390625,9091.232951,1.184835581266795,0.8599228898421898,0.5202405023814739,0.02218920178711414,-0.005001730285584927,-0.05206415429711342,-0.0185437798500061,-0.01586586236953735,0.01366502046585083,XArbitraryZVertical,-0.03096986946725684,0.464710285736826,0.5794121020548867,0.6688547880932789,0.6575360298156738,-0.4970888495445251,-0.5661704540252686,0,0,0,-1,-1,9080.303592166667,unknown,2,2025-04-20T22:18:26.887+03:00,2025-04-20T21:57:49.637+03:00,29,1.789309,0,0,23.86625,0,0,2025-04-20T22:09:07.141+03:00,766869517.3048571,0,0.9300003,99.72591,1,1,2025-04-20T22:18:29.793+03:00,93,1.55,2025-04-19T12:19:17.059+03:00,0.05691595998002078,0
2025-04-20T22:18:37.841+03:00,1745176712.716959,40.98552636824662,29.137368114026,128.4453,-1,-1,-1,-1,30,30.35635389065777,-9999,9091.246798,0.661163330078125,-0.495941162109375,-0.55963134765625,9091.243028000001,1.184186058679594,0.8601770950444826,0.5200023666401455,0.02964532189071178,-0.007205962669104338,-0.05443846434354782,0.01322036981582642,0.004542082548141479,0.009912967681884766,XArbitraryZVertical,-0.03098646051888803,0.4647575696066483,0.5791666485492122,0.6690337586409895,0.6577696800231934,-0.4968822002410889,-0.5660805106163025,0,0,0,-1,-1,9080.303592166667,unknown,2,2025-04-20T22:18:26.887+03:00,2025-04-20T21:57:49.637+03:00,29,1.789309,0,0,23.86625,0,0,2025-04-20T22:09:07.141+03:00,766869517.3048571,0,0.9300003,99.72591,1,1,2025-04-20T22:18:29.793+03:00,93,1.55,2025-04-19T12:19:17.059+03:00,0.05691595998002078,0
2025-04-20T22:18:37.844+03:00,1745176712.716959,40.98552636824662,29.137368114026,128.4453,-1,-1,-1,-1,30,30.35635389065777,-9999,9091.256875000001,0.6600799560546875,-0.495086669921875,-0.567230224609375,9091.253105,1.183495950020841,0.860407885863995,0.5198020728021452,0.03295136988162994,-0.0115080326795578,-0.05356894060969353,0.00318753719329834,0.0007672011852264404,0.006362318992614746,XArbitraryZVertical,-0.03097185959352203,0.4648052795769649,0.5789117351822352,0.6692219856004894,0.6579757928848267,-0.4967083632946014,-0.56599360704422,0,0,0,-1,-1,9080.303592166667,unknown,2,2025-04-20T22:18:26.887+03:00,2025-04-20T21:57:49.637+03:00,29,1.789309,0,0,23.86625,0,0,2025-04-20T22:09:07.141+03:00,766869517.3048571,0,0.9300003,99.72591,1,1,2025-04-20T22:18:29.793+03:00,93,1.55,2025-04-19T12:19:17.059+03:00,0.05691595998002078,0
2025-04-20T22:18:37.853+03:00,1745176712.716959,40.98552636824662,29.137368114026,128.4453,-1,-1,-1,-1,30,30.35635389065777,-9999,9091.266951000001,0.660858154296875,-0.497802734375,-0.56427001953125,9091.263181,1.182824116793642,0.8605862650724312,0.5196006678499435,0.02737237885594368,-0.01732164621353149,-0.05138924345374107,0.001927435398101807,0.00144687294960022,-0.001288771629333496,XArbitraryZVertical,-0.03094682780383591,0.4648350357383786,0.5786635792560825,0.6694169304580756,0.6581524610519409,-0.4965335428714752,-0.5659413933753967,0,0,0,-1,-1,9080.303592166667,unknown,2,2025-04-20T22:18:26.887+03:00,2025-04-20T21:57:49.637+03:00,29,1.789309,0,0,23.86625,0,0,2025-04-20T22:09:07.141+03:00,766869517.3048571,0,0.9300003,99.72591,1,1,2025-04-20T22:18:29.793+03:00,93,1.55,2025-04-19T12:19:17.059+03:00,0.05691595998002078,0
2025-04-20T22:18:37.864+03:00,1745176712.716959,40.98552636824662,29.137368114026,128.4453,-1,-1,-1,-1,30,30.35635389065777,-9999,9091.277028,0.6632843017578125,-0.5034637451171875,-0.5567626953125,9091.273258000001,1.182198612904466,0.8607110057512161,0.5193260033409683,0.02000048384070396,-0.01952354796230793,-0.05594591051340103,0.002531647682189941,-0.00150763988494873,0.001678228378295898,XArbitraryZVertical,-0.03094585828126489,0.4648314355717854,0.5784241416239659,0.6696264498979092,0.6583265066146851,-0.4962951242923737,-0.5659481883049011,0,0,0,-1,-1,9080.303592166667,unknown,2,2025-04-20T22:18:26.887+03:00,2025-04-20T21:57:49.637+03:00,29,1.789309,0,0,23.86625,0,0,2025-04-20T22:09:07.141+03:00,766869517.3048571,0,0.9300003,99.72591,1,1,2025-04-20T22:18:29.793+03:00,93,1.55,2025-04-19T12:19:17.059+03:00,0.05691595998002078,0
2025-04-20T22:18:37.874+03:00,1745176712.716959,40.98552636824662,29.137368114026,128.4453,-1,-1,-1,-1,30,30.35635389065777,-9999,9091.287105000001,0.6636505126953125,-0.500396728515625,-0.5553741455078125,9091.283334,1.181585689957237,0.8608167101548166,0.5190199205686633,0.02085835486650467,-0.02122337743639946,-0.05855165049433708,0.004782795906066895,-0.00743439793586731,0.009214878082275391,XArbitraryZVertical,-0.0309547451728485,0.4648150408938103,0.5781859070833892,0.6698430926751645,0.6585015058517456,-0.4960293769836426,-0.5659775733947754,0,0,0,-1,-1,9080.303592166667,unknown,2,2025-04-20T22:18:26.887+03:00,2025-04-20T21:57:49.637+03:00,29,1.789309,0,0,23.86625,0,0,2025-04-20T22:09:07.141+03:00,766869517.3048571,0,0.9300003,99.72591,1,1,2025-04-20T22:18:29.793+03:00,93,1.55,2025-04-19T12:19:17.059+03:00,0.05691595998002078,0
2025-04-20T22:18:37.884+03:00,1745176712.716959,40.98552636824662,29.137368114026,128.4453,-1,-1,-1,-1,30,30.35635389065777,-9999,9091.297181,0.66351318359375,-0.494232177734375,-0.558502197265625,9091.293411000001,1.181009894999223,0.8608997758997632,0.5187349467579081,0.0197286419570446,-0.02348227053880692,-0.04835227504372597,0.004994809627532959,-0.004614830017089844,0.01064085960388184,XArbitraryZVertical,-0.03095737830369562,0.46479474241118,0.5779625136163948,0.6700498310286875,0.6586557030677795,-0.4957818984985352,-0.5660150051116943,0,0,0,-1,-1,9080.303592166667,unknown,2,2025-04-20T22:18:26.887+03:00,2025-04-20T21:57:49.637+03:00,29,1.789309,0,0,23.86625,0,0,2025-04-20T22:09:07.141+03:00,766869517.3048571,0,0.9300003,99.72591,1,1,2025-04-20T22:18:29.793+03:00,93,1.55,2025-04-19T12:19:17.059+03:00,0.05691595998002078,0
2025-04-20T22:18:37.894+03:00,1745176712.716959,40.98552636824662,29.137368114026,128.4453,-1,-1,-1,-1,30,30.35635389065777,-9999,9091.307258000001,0.660003662109375,-0.489837646484375,-0.56475830078125,9091.303488000001,1.18048088813251,0.8609227751634422,0.5184822376466938,0.01385244261473417,-0.02742448076605797,-0.0485522449016571,0.004749417304992676,0.00133022665977478,0.007579326629638672,XArbitraryZVertical,-0.03094079509539201,0.4647600686240096,0.5777589445989059,0.6702502406612579,0.6587637662887573,-0.4955624341964722,-0.5660814642906189,0,0,0,-1,-1,9080.303592166667,unknown,2,2025-04-20T22:18:26.887+03:00,2025-04-20T21:57:49.637+03:00,29,1.789309,0,0,23.86625,0,0,2025-04-20T22:09:07.141+03:00,766869517.3048571,0,0.9300003,99.72591,1,1,2025-04-20T22:18:29.793+03:00,93,1.55,2025-04-19T12:19:17.059+03:00,0.05691595998002078,0
2025-04-20T22:18:37.904+03:00,1745176712.716959,40.98552636824662,29.137368114026,128.4453,-1,-1,-1,-1,30,30.35635389065777,-9999,9091.317334000001,0.658111572265625,-0.488525390625,-0.5601959228515625,9091.313564,1.179995114748353,0.8608696653020043,0.5182748068598897,0.016229048371315,-0.02977019175887108,-0.04572290182113647,0.001192033290863037,0.005544573068618774,0.001425206661224365,XArbitraryZVertical,-0.03089444726907373,0.4647082961812614,0.57757563171042,0.6704462396465382,0.658811628818512,-0.4953822493553162,-0.5661834478378296,0,0,0,-1,-1,9080.303592166667,unknown,2,2025-04-20T22:18:26.887+03:00,2025-04-20T21:57:49.637+03:00,29,1.789309,0,0,23.86625,0,0,2025-04-20T22:09:07.141+03:00,766869517.3048571,0,0.9300003,99.72591,1,1,2025-04-20T22:18:29.793+03:00,93,1.55,2025-04-19T12:19:17.059+03:00,0.05691595998002078,0
2025-04-20T22:18:37.914+03:00,1745176712.716959,40.98552636824662,29.137368114026,128.4453,-1,-1,-1,-1,30,30.35635389065777,-9999,9091.327411,0.6614227294921875,-0.4912872314453125,-0.5572662353515625,9091.323641000001,1.179557964242016,0.8607968686042985,0.5179938621677919,0.009107955731451511,-0.03266191855072975,-0.04453636333346367,-0.000764310359954834,0.006612718105316162,0.006126224994659424,XArbitraryZVertical,-0.030882764352384,0.4646344775056661,0.5774013035346083,0.6706480551792819,0.6588759422302246,-0.4951381683349609,-0.5663220882415771,0,0,0,-1,-1,9080.303592166667,unknown,2,2025-04-20T22:18:26.887+03:00,2025-04-20T21:57:49.637+03:00,29,1.789309,0,0,23.86625,0,0,2025-04-20T22:09:07.141+03:00,766869517.3048571,0,0.9300003,99.72591,1,1,2025-04-20T22:18:29.793+03:00,93,1.55,2025-04-19T12:19:17.059+03:00,0.05691595998002078,0
2025-04-20T22:18:37.924+03:00,1745176712.716959,40.98552636824662,29.137368114026,128.4453,-1,-1,-1,-1,30,30.35635389065777,-9999,9091.337488000001,0.6583099365234375,-0.49530029296875,-0.55767822265625,9091.333717000001,1.179138924485928,0.8607191063034617,0.5177113187441502,0.007408858276903629,-0.02552811056375504,-0.04236775264143944,0.002484798431396484,0.003605455160140991,0.009198367595672607,XArbitraryZVertical,-0.03087455144776285,0.4645584155360777,0.5772329106629545,0.6708459566127712,0.6589378714561462,-0.4948926866054535,-0.5664644837379456,0,0,0,-1,-1,9080.303592166667,unknown,2,2025-04-20T22:18:26.887+03:00,2025-04-20T21:57:49.637+03:00,29,1.789309,0,0,23.86625,0,0,2025-04-20T22:09:07.141+03:00,766869517.3048571,0,0.9300003,99.72591,1,1,2025-04-20T22:18:29.793+03:00,93,1.55,2025-04-19T12:19:17.059+03:00,0.05691595998002078,0
2025-04-20T22:18:37.934+03:00,1745176712.716959,40.98552636824662,29.137368114026,128.4453,-1,-1,-1,-1,30,30.35635389065777,-9999,9091.347564,0.65460205078125,-0.49688720703125,-0.5621795654296875,9091.343794,1.178701915837153,0.8607091220084848,0.5174524918854267,0.01477822475135326,-0.02026663720607758,-0.04401645064353943,-0.0007194280624389648,-0.0006325244903564453,0.008876442909240723,XArbitraryZVertical,-0.0308723721295672,0.4645101006736261,0.5770598158163908,0.6710283647362975,0.6590293049812317,-0.4946677386760712,-0.5665545463562012,0,0,0,-1,-1,9080.303592166667,unknown,2,2025-04-20T22:18:26.887+03:00,2025-04-20T21:57:49.637+03:00,29,1.789309,0,0,23.86625,0,0,2025-04-20T22:09:07.141+03:00,766869517.3048571,0,0.9300003,99.72591,1,1,2025-04-20T22:18:36.793+03:00,89,1.483333333333333,2025-04-19T12:19:17.059+03:00,0.05691595998002078,0
2025-04-20T22:18:37.944+03:00,1745176712.716959,40.98552636824662,29.137368114026,128.4453,-1,-1,-1,-1,30,30.35635389065777,-9999,9091.357641000001,0.6536102294921875,-0.4942626953125,-0.5640716552734375,9091.353871000001,1.178246927637633,0.8607672944244057,0.5172447752535133,0.01553296484053135,-0.01482686400413513,-0.03859585151076317,-0.004538178443908691,-0.002400010824203491,0.004403650760650635,XArbitraryZVertical,-0.03086550720687475,0.4644951525071166,0.5768848397496267,0.671189443650181,0.6591401696205139,-0.4944872260093689,-0.5665831565856934,0,0,0,-1,-1,9080.303592166667,unknown,2,2025-04-20T22:18:26.887+03:00,2025-04-20T21:57:49.637+03:00,29,1.789309,0,0,23.86625,0,0,2025-04-20T22:09:07.141+03:00,766869517.3048571,0,0.9300003,99.72591,1,1,2025-04-20T22:18:36.793+03:00,89,1.483333333333333,2025-04-19T12:19:17.059+03:00,0.05691595998002078,0
2025-04-20T22:18:37.954+03:00,1745176712.716959,40.98552636824662,29.137368114026,128.4453,-1,-1,-1,-1,30,30.35635389065777,-9999,9091.367718000001,0.6520538330078125,-0.497039794921875,-0.560882568359375,9091.363947,1.177834852543522,0.860857113915667,0.5170537110791009,0.01403553504496813,-0.01247469335794449,-0.03923018276691437,-0.005652546882629395,5.84721565246582e-05,0.002514004707336426,XArbitraryZVertical,-0.03087114698136244,0.464493497038301,0.5767254356362456,0.6713273398565112,0.6592627167701721,-0.4943211376667023,-0.5665855407714844,0,0,0,-1,-1,9080.303592166667,unknown,2,2025-04-20T22:18:26.887+03:00,2025-04-20T21:57:49.637+03:00,29,1.789309,0,0,23.86625,0,0,2025-04-20T22:09:07.141+03:00,766869517.3048571,0,0.9300003,99.72591,1,1,2025-04-20T22:18:36.793+03:00,89,1.483333333333333,2025-04-19T12:19:17.059+03:00,0.05691595998002078,0
2025-04-20T22:18:37.964+03:00,1745176712.716959,40.98552636824662,29.137368114026,128.4453,-1,-1,-1,-1,30,30.35635389065777,-9999,9091.377794,0.65179443359375,-0.499176025390625,-0.558074951171875,9091.374024000001,1.177453581486626,0.8609565580669599,0.5168160604121148,0.006460706237703562,-0.008416568860411644,-0.04266246408224106,-0.007354378700256348,-0.002925276756286621,0.005713999271392822,XArbitraryZVertical,-0.03090512654272077,0.4644853263756729,0.5765713728487554,0.6714637524091319,0.6594081521034241,-0.4941145479679108,-0.566596508026123,0,0,0,-1,-1,9080.303592166667,unknown,2,2025-04-20T22:18:26.887+03:00,2025-04-20T21:57:49.637+03:00,29,1.789309,0,0,23.86625,0,0,2025-04-20T22:09:07.141+03:00,766869517.3048571,0,0.9300003,99.72591,1,1,2025-04-20T22:18:36.793+03:00,89,1.483333333333333,2025-04-19T12:19:17.059+03:00,0.05691595998002078,0
2025-04-20T22:18:37.975+03:00,1745176712.716959,40.98552636824662,29.137368114026,128.4453,-1,-1,-1,-1,30,30.35635389065777,-9999,9091.387871000001,0.65020751953125,-0.5006866455078125,-0.55865478515625,9091.384100000001,1.177084430856502,0.8610839335540258,0.5165340535640505,0.005723876412957907,-0.002675792668014765,-0.04234964028000832,-0.007791578769683838,-0.00530669093132019,0.008528411388397217,XArbitraryZVertical,-0.03096749938825701,0.4644775280372265,0.5764163153572884,0.6715993663970771,0.6595859527587891,-0.4938693344593048,-0.5666033029556274,0,0,0,-1,-1,9080.303592166667,unknown,2,2025-04-20T22:18:26.887+03:00,2025-04-20T21:57:49.637+03:00,29,1.789309,0,0,23.86625,0,0,2025-04-20T22:09:07.141+03:00,766869517.3048571,0,0.9300003,99.72591,1,1,2025-04-20T22:18:36.793+03:00,89,1.483333333333333,2025-04-19T12:19:17.059+03:00,0.05691595998002078,0
2025-04-20T22:18:37.984+03:00,1745176712.716959,40.98552636824662,29.137368114026,128.4453,-1,-1,-1,-1,30,30.35635389065777,-9999,9091.397947000001,0.6519317626953125,-0.498199462890625,-0.5604248046875,9091.394177,1.176742551751883,0.8612524568410377,0.5162618048612878,0.004728120286017656,0.0006923074834048748,-0.03530770912766457,-0.009575963020324707,-0.007054060697555542,0.007925033569335938,XArbitraryZVertical,-0.03104418004635482,0.4644850920948057,0.5762707185652465,0.6717155883794399,0.6597834825515747,-0.493632584810257,-0.5665796995162964,0,0,0,-1,-1,9080.303592166667,unknown,2,2025-04-20T22:18:26.887+03:00,2025-04-20T21:57:49.637+03:00,29,1.789309,0,0,23.86625,0,0,2025-04-20T22:09:07.141+03:00,766869517.3048571,0,0.9300003,99.72591,1,1,2025-04-20T22:18:36.793+03:00,89,1.483333333333333,2025-04-19T12:19:17.059+03:00,0.05691595998002078,0
2025-04-20T22:18:37.995+03:00,1745176712.716959,40.98552636824662,29.137368114026,128.4453,-1,-1,-1,-1,30,30.35635389065777,-9999,9091.408024,0.6533203125,-0.496185302734375,-0.5637054443359375,9091.404254000001,1.17645099613894,0.861445492121796,0.516006780737027,-6.224066601134837e-05,0.006750066764652729,-0.03149479627609253,-0.008056581020355225,-0.004788637161254883,0.00610959529876709,XArbitraryZVertical,-0.03113285046429212,0.4645036114623253,0.5761433962932735,0.6718077971493511,0.6599882841110229,-0.4934107959270477,-0.5665342807769775,0,0,0,-1,-1,9080.303592166667,unknown,2,2025-04-20T22:18:26.887+03:00,2025-04-20T21:57:49.637+03:00,29,1.789309,0,0,23.86625,0,0,2025-04-20T22:09:07.141+03:00,766869517.3048571,0,0.9300003,99.72591,1,1,2025-04-20T22:18:36.793+03:00,89,1.483333333333333,2025-04-19T12:19:17.059+03:00,0.05691595998002078,0
2025-04-20T22:18:38.005+03:00,1745176712.716959,40.98552636824662,29.137368114026,128.4453,-1,-1,-1,-1,30,30.35635389065777,-9999,9091.418101000001,0.651641845703125,-0.494415283203125,-0.5622406005859375,9091.414330000001,1.176216244114832,0.8616449184316847,0.5157842997269235,0.001118871266953647,0.009860105812549591,-0.02713200636208057,-0.006864309310913086,-0.002968043088912964,0.002768754959106445,XArbitraryZVertical,-0.03122361861812496,0.4645298715037804,0.5760383521952553,0.6718756102727583,0.6601845622062683,-0.493217259645462,-0.5664741396903992,0,0,0,-1,-1,9080.303592166667,unknown,2,2025-04-20T22:18:26.887+03:00,2025-04-20T21:57:49.637+03:00,29,1.789309,0,0,23.86625,0,0,2025-04-20T22:09:07.141+03:00,766869517.3048571,0,0.9300003,99.72591,1,1,2025-04-20T22:18:36.793+03:00,89,1.483333333333333,2025-04-19T12:19:17.059+03:00,0.05691595998002078,0
2025-04-20T22:18:38.015+03:00,1745176712.716959,40.98552636824662,29.137368114026,128.4453,-1,-1,-1,-1,30,30.35635389065777,-9999,9091.428177,0.6510467529296875,-0.493438720703125,-0.5605010986328125,9091.424407,1.176026387241526,0.86181534316912,0.5156035604061425,-0.001551746623590589,0.005052301567047834,-0.02156440168619156,-0.008706927299499512,-0.001355260610580444,0.004179120063781738,XArbitraryZVertical,-0.03130001099398805,0.4645540630837488,0.5759531606129153,0.671928331012552,0.6603487730026245,-0.4930600225925446,-0.5664196610450745,0,0,0,-1,-1,9080.303592166667,unknown,2,2025-04-20T22:18:26.887+03:00,2025-04-20T21:57:49.637+03:00,29,1.789309,0,0,23.86625,0,0,2025-04-20T22:09:07.141+03:00,766869517.3048571,0,0.9300003,99.72591,1,1,2025-04-20T22:18:36.793+03:00,89,1.483333333333333,2025-04-19T12:19:17.059+03:00,0.05691595998002078,0
2025-04-20T22:18:38.025+03:00,1745176712.716959,40.98552636824662,29.137368114026,128.4453,-1,-1,-1,-1,30,30.35635389065777,-9999,9091.438254000001,0.654205322265625,-0.4933319091796875,-0.559234619140625,9091.434483000001,1.17589402696082,0.861938499477904,0.515442929931333,-0.001111792400479317,0.004670138005167246,-0.01744608953595161,-0.009431898593902588,-0.0005184412002563477,0.005888879299163818,XArbitraryZVertical,-0.03136816798603571,0.4645654801228763,0.5758900784373731,0.6719713785724062,0.6604786515235901,-0.4929202795028687,-0.5663899183273315,0,0,0,-1,-1,9080.303592166667,unknown,2,2025-04-20T22:18:26.887+03:00,2025-04-20T21:57:49.637+03:00,29,1.789309,0,0,23.86625,0,0,2025-04-20T22:09:07.141+03:00,766869517.3048571,0,0.9300003,99.72591,1,1,2025-04-20T22:18:36.793+03:00,89,1.483333333333333,2025-04-19T12:19:17.059+03:00,0.05691595998002078,0
2025-04-20T22:18:38.035+03:00,1745176712.716959,40.98552636824662,29.137368114026,128.4453,-1,-1,-1,-1,30,30.35635389065777,-9999,9091.448330000001,0.65582275390625,-0.495361328125,-0.561798095703125,9091.44456,1.175770338326633,0.8620167818192396,0.5153258673853826,0.001501367776654661,-0.0012758350931108,-0.01548503898084164,-0.006361484527587891,-0.0005134940147399902,0.007141232490539551,XArbitraryZVertical,-0.03140822558558086,0.4645703907881344,0.5758351340013228,0.6720131873742278,0.6605668067932129,-0.4928184151649475,-0.566375732421875,0,0,0,-1,-1,9080.303592166667,unknown,2,2025-04-20T22:18:26.887+03:00,2025-04-20T21:57:49.637+03:00,29,1.789309,0,0,23.86625,0,0,2025-04-20T22:09:07.141+03:00,766869517.3048571,0,0.9300003,99.72591,1,1,2025-04-20T22:18:36.793+03:00,89,1.483333333333333,2025-04-19T12:19:17.059+03:00,0.05691595998002078,0
2025-04-20T22:18:38.045+03:00,1745176712.716959,40.98552636824662,29.137368114026,128.4453,-1,-1,-1,-1,30,30.35635389065777,-9999,9091.458407,0.6576080322265625,-0.49859619140625,-0.560302734375,9091.454637000001,1.175705807372219,0.862028857415384,0.5152321889945458,-0.005067052785307169,-0.001973849721252918,-0.01047350186854601,-0.004785895347595215,-0.002624422311782837,0.004599809646606445,XArbitraryZVertical,-0.03143374384926505,0.4645568034746052,0.575803538151166,0.6720483929405323,0.6606086492538452,-0.4927369058132172,-0.5663977861404419,0,0,0,-1,-1,9080.303592166667,unknown,2,2025-04-20T22:18:26.887+03:00,2025-04-20T21:57:49.637+03:00,29,1.789309,0,0,23.86625,0,0,2025-04-20T22:09:07.141+03:00,766869517.3048571,0,0.9300003,99.72591,1,1,2025-04-20T22:18:36.793+03:00,89,1.483333333333333,2025-04-19T12:19:17.059+03:00,0.05691595998002078,0
2025-04-20T22:18:38.055+03:00,1745176712.716959,40.98552636824662,29.137368114026,128.4453,-1,-1,-1,-1,30,30.35635389065777,-9999,9091.468484000001,0.6610870361328125,-0.497833251953125,-0.5582427978515625,9091.464713000001,1.175637397050642,0.8620157344593936,0.5151697792075536,-0.0009725090931169689,-0.007160954643040895,-0.009401745162904263,-0.00301659107208252,-0.005913585424423218,0.006123900413513184,XArbitraryZVertical,-0.03143868545681393,0.4645410012827631,0.5757742507561985,0.6720843088494718,0.660624623298645,-0.4926826059818268,-0.5664265155792236,0,0,0,-1,-1,9080.303592166667,unknown,2,2025-04-20T22:18:26.887+03:00,2025-04-20T21:57:49.637+03:00,29,1.789309,0,0,23.86625,0,0,2025-04-20T22:09:07.141+03:00,766869517.3048571,0,0.9300003,99.72591,1,1,2025-04-20T22:18:36.793+03:00,89,1.483333333333333,2025-04-19T12:19:17.059+03:00,0.05691595998002078,0
2025-04-20T22:18:38.066+03:00,1745176712.716959,40.98552636824662,29.137368114026,128.4453,-1,-1,-1,-1,30,30.35635389065777,-9999,9091.478560000001,0.6599884033203125,-0.49822998046875,-0.558837890625,9091.47479,1.175587720151452,0.8619616980128448,0.5151142893731468,-0.0007895499584265053,-0.007976947352290154,-0.01035169512033463,0.0004723072052001953,-0.005198955535888672,0.008237242698669434,XArbitraryZVertical,-0.03143355814944723,0.4645125899306539,0.5757526591530787,0.6721225528399255,0.6606146693229675,-0.4926342964172363,-0.5664799809455872,0,0,0,-1,-1,9080.303592166667,unknown,2,2025-04-20T22:18:26.887+03:00,2025-04-20T21:57:49.637+03:00,29,1.789309,0,0,23.86625,0,0,2025-04-20T22:09:07.141+03:00,766869517.3048571,0,0.9300003,99.72591,1,1,2025-04-20T22:18:36.793+03:00,89,1.483333333333333,2025-04-19T12:19:17.059+03:00,0.05691595998002078,0
2025-04-20T22:18:38.087+03:00,1745176712.716959,40.98552636824662,29.137368114026,128.4453,-1,-1,-1,-1,30,30.35635389065777,-9999,9091.488637,0.658721923828125,-0.5005645751953125,-0.561065673828125,9091.484867000001,1.175575570333852,0.8618847458413272,0.5150231579597824,-0.01178021542727947,-0.009758668951690197,-0.005745258647948503,-0.0006167888641357422,-0.005674958229064941,0.007722258567810059,XArbitraryZVertical,-0.03144459825228386,0.4644687606959225,0.5757403196671654,0.6721628635531576,0.6606051325798035,-0.4925549924373627,-0.5665600299835205,0,0,0,-1,-1,9080.303592166667,unknown,2,2025-04-20T22:18:26.887+03:00,2025-04-20T21:57:49.637+03:00,29,1.789309,0,0,23.86625,0,0,2025-04-20T22:09:07.141+03:00,766869517.3048571,0,0.9300003,99.72591,1,1,2025-04-20T22:18:36.793+03:00,89,1.483333333333333,2025-04-19T12:19:17.059+03:00,0.05691595998002078,0
2025-04-20T22:18:38.089+03:00,1745176712.716959,40.98552636824662,29.137368114026,128.4453,-1,-1,-1,-1,30,30.35635389065777,-9999,9091.498713000001,0.6569061279296875,-0.4990234375,-0.5620574951171875,9091.494943,1.175650752877679,0.8617179971980639,0.5148717282343818,-0.01907088607549667,-0.01419789250940084,-0.007643293589353561,-0.001845419406890869,-0.008141368627548218,0.005653142929077148,XArbitraryZVertical,-0.03147385740580628,0.4643813313589352,0.5757524653110606,0.6722115628024186,0.6605672836303711,-0.4924232065677643,-0.5667187571525574,0,0,0,-1,-1,9080.303592166667,unknown,2,2025-04-20T22:18:26.887+03:00,2025-04-20T21:57:49.637+03:00,29,1.789309,0,0,23.86625,0,0,2025-04-20T22:09:07.141+03:00,766869517.3048571,0,0.9300003,99.72591,1,1,2025-04-20T22:18:36.793+03:00,89,1.483333333333333,2025-04-19T12:19:17.059+03:00,0.05691595998002078,0
2025-04-20T22:18:38.106+03:00,1745176712.716959,40.98552636824662,29.137368114026,128.4453,-1,-1,-1,-1,30,30.35635389065777,-9999,9091.50879,0.6567840576171875,-0.50286865234375,-0.562347412109375,9091.505020000001,1.175775026058057,0.8615171059217797,0.5146885968893308,-0.01923899911344051,-0.01215052045881748,-0.01020622067153454,-0.003615796566009521,-0.006759613752365112,0.004852771759033203,XArbitraryZVertical,-0.03151723431008897,0.4642753354369641,0.5757783771989535,0.6722605274834038,0.6605218648910522,-0.4922638237476349,-0.5669101476669312,0,0,0,-1,-1,9080.303592166667,unknown,2,2025-04-20T22:18:26.887+03:00,2025-04-20T21:57:49.637+03:00,29,1.789309,0,0,23.86625,0,0,2025-04-20T22:09:07.141+03:00,766869517.3048571,0,0.9300003,99.72591,1,1,2025-04-20T22:18:36.793+03:00,89,1.483333333333333,2025-04-19T12:19:17.059+03:00,0.05691595998002078,0
2025-04-20T22:18:38.107+03:00,1745176712.716959,40.98552636824662,29.137368114026,128.4453,-1,-1,-1,-1,30,30.35635389065777,-9999,9091.518867000001,0.65478515625,-0.502410888671875,-0.5648040771484375,9091.515096000001,1.175884029890825,0.8613591648718815,0.5144846605896187,-0.02184170484542847,-0.009125968441367149,-0.009771060198545456,-0.003724396228790283,-0.01078236103057861,0.004732489585876465,XArbitraryZVertical,-0.03157764208327157,0.4641798474552908,0.5757963296171233,0.6723082310392726,0.6605084538459778,-0.4920862913131714,-0.5670798420906067,0,0,0,-1,-1,9080.303592166667,unknown,2,2025-04-20T22:18:26.887+03:00,2025-04-20T21:57:49.637+03:00,29,1.789309,0,0,23.86625,0,0,2025-04-20T22:09:07.141+03:00,766869517.3048571,0,0.9300003,99.72591,1,1,2025-04-20T22:18:36.793+03:00,89,1.483333333333333,2025-04-19T12:19:17.059+03:00,0.05691595998002078,0
2025-04-20T22:18:38.116+03:00,1745176712.716959,40.98552636824662,29.137368114026,128.4453,-1,-1,-1,-1,30,30.35635389065777,-9999,9091.528943000001,0.657318115234375,-0.498016357421875,-0.5640869140625,9091.525173,1.175999955473802,0.8611885972375252,0.5143067826528249,-0.01819164305925369,-0.01347231306135654,-0.007205802947282791,-0.005693018436431885,-0.01047948002815247,0.002445518970489502,XArbitraryZVertical,-0.03162569282780451,0.4640851706890445,0.5758195135382093,0.6723515269079372,0.6604781150817871,-0.4919314384460449,-0.5672495365142822,0,0,0,-1,-1,9080.303592166667,unknown,2,2025-04-20T22:18:26.887+03:00,2025-04-20T21:57:49.637+03:00,29,1.789309,0,0,23.86625,0,0,2025-04-20T22:09:07.141+03:00,766869517.3048571,0,0.9300003,99.72591,1,1,2025-04-20T22:18:36.793+03:00,89,1.483333333333333,2025-04-19T12:19:17.059+03:00,0.05691595998002078,0
2025-04-20T22:18:38.126+03:00,1745176712.716959,40.98552636824662,29.137368114026,128.4453,-1,-1,-1,-1,30,30.35635389065777,-9999,9091.53902,0.6616363525390625,-0.4969329833984375,-0.5610809326171875,9091.535250000001,1.176135638574074,0.8609506080214974,0.5140904875636192,-0.02736490219831467,-0.02016537077724934,-0.007300877943634987,-0.003105700016021729,-0.006273239850997925,0.003389179706573486,XArbitraryZVertical,-0.03167413531755126,0.46395985784852,0.5758464521477697,0.672412559326568,0.660423755645752,-0.4917431175708771,-0.5674759745597839,0,0,0,-1,-1,9080.303592166667,unknown,2,2025-04-20T22:18:26.887+03:00,2025-04-20T21:57:49.637+03:00,29,1.789309,0,0,23.86625,0,0,2025-04-20T22:09:07.141+03:00,766869517.3048571,0,0.9300003,99.72591,1,1,2025-04-20T22:18:36.793+03:00,89,1.483333333333333,2025-04-19T12:19:17.059+03:00,0.05691595998002078,0
2025-04-20T22:18:38.136+03:00,1745176712.716959,40.98552636824662,29.137368114026,128.4453,-1,-1,-1,-1,30,30.35635389065777,-9999,9091.549096000001,0.6616973876953125,-0.496795654296875,-0.55712890625,9091.545326000001,1.176304310081242,0.8606738837009279,0.5138638186292709,-0.02780359052121639,-0.02057556435465813,-0.008270568214356899,0.001285135746002197,-0.005387276411056519,0.006650567054748535,XArbitraryZVertical,-0.03172312661456281,0.4638188775768961,0.5758840218405552,0.6724753333016076,0.6603512167930603,-0.491545706987381,-0.5677313804626465,0,0,0,-1,-1,9080.303592166667,unknown,2,2025-04-20T22:18:26.887+03:00,2025-04-20T21:57:49.637+03:00,29,1.789309,0,0,23.86625,0,0,2025-04-20T22:09:07.141+03:00,766869517.3048571,0,0.9300003,99.72591,1,1,2025-04-20T22:18:36.793+03:00,89,1.483333333333333,2025-04-19T12:19:17.059+03:00,0.05691595998002078,0
2025-04-20T22:18:38.146+03:00,1745176712.716959,40.98552636824662,29.137368114026,128.4453,-1,-1,-1,-1,30,30.35635389065777,-9999,9091.559173,0.6576690673828125,-0.494873046875,-0.558837890625,9091.555403,1.176445943142439,0.8604008501093049,0.5136766741160117,-0.02045672759413719,-0.02045385725796223,-0.006658290512859821,0.001431405544281006,-0.005412906408309937,0.01084285974502563,XArbitraryZVertical,-0.03175126035050788,0.4636874211810999,0.5759165532823174,0.672536855508456,0.6602659225463867,-0.4913827478885651,-0.5679716467857361,0,0,0,-1,-1,9080.303592166667,unknown,2,2025-04-20T22:18:26.887+03:00,2025-04-20T21:57:49.637+03:00,29,1.789309,0,0,23.86625,0,0,2025-04-20T22:09:07.141+03:00,766869517.3048571,0,0.9300003,99.72591,1,1,2025-04-20T22:18:36.793+03:00,89,1.483333333333333,2025-04-19T12:19:17.059+03:00,0.05691595998002078,0
2025-04-20T22:18:38.156+03:00,1745176712.716959,40.98552636824662,29.137368114026,128.4453,-1,-1,-1,-1,30,30.35635389065777,-9999,9091.56925,0.662322998046875,-0.4903564453125,-0.56427001953125,9091.565479000001,1.176561433104649,0.8601408627675627,0.5135413955501107,-0.01413058862090111,-0.01934511587023735,-0.004949972499161959,-0.002499580383300781,-0.003608137369155884,0.009348869323730469,XArbitraryZVertical,-0.03175658169991671,0.4635711065222922,0.5759454770053231,0.6725920919183336,0.6601686477661133,-0.4912649095058441,-0.5681867003440857,0,0,0,-1,-1,9080.303592166667,unknown,2,2025-04-20T22:18:26.887+03:00,2025-04-20T21:57:49.637+03:00,29,1.789309,0,0,23.86625,0,0,2025-04-20T22:09:07.141+03:00,766869517.3048571,0,0.9300003,99.72591,1,1,2025-04-20T22:18:36.793+03:00,89,1.483333333333333,2025-04-19T12:19:17.059+03:00,0.05691595998002078,0
2025-04-20T22:18:38.166+03:00,1745176712.716959,40.98552636824662,29.137368114026,128.4453,-1,-1,-1,-1,30,30.35635389065777,-9999,9091.579326000001,0.6581573486328125,-0.491424560546875,-0.565673828125,9091.575556,1.176652949380816,0.8599331469548069,0.513447700162599,-0.01151776127517223,-0.01376313157379627,-0.002349928254261613,0.002237558364868164,0.0008268356323242188,0.004083871841430664,XArbitraryZVertical,-0.03175499622686639,0.4634810708034975,0.5759698423416533,0.6726333289406556,0.6600854992866516,-0.4911833107471466,-0.5683538317680359,0,0,0,-1,-1,9080.303592166667,unknown,2,2025-04-20T22:18:26.887+03:00,2025-04-20T21:57:49.637+03:00,29,1.789309,0,0,23.86625,0,0,2025-04-20T22:09:07.141+03:00,766869517.3048571,0,0.9300003,99.72591,1,1,2025-04-20T22:18:36.793+03:00,89,1.483333333333333,2025-04-19T12:19:17.059+03:00,0.05691595998002078,0
2025-04-20T22:18:38.176+03:00,1745176712.716959,40.98552636824662,29.137368114026,128.4453,-1,-1,-1,-1,30,30.35635389065777,-9999,9091.589403,0.6532745361328125,-0.492218017578125,-0.563232421875,9091.585633000001,1.176763945319933,0.8597488269616784,0.5133694352632001,-0.01368164643645287,-0.01127340830862522,-0.0007130496087484062,-0.001852452754974365,-0.0003094375133514404,0.002826809883117676,XArbitraryZVertical,-0.03175857375382805,0.463401680146141,0.5760019980853952,0.6726602619465351,0.6600098013877869,-0.4911151230335236,-0.5685005784034729,0,0,0,-1,-1,9080.303592166667,unknown,2,2025-04-20T22:18:26.887+03:00,2025-04-20T21:57:49.637+03:00,29,1.789309,0,0,23.86625,0,0,2025-04-20T22:09:07.141+03:00,766869517.3048571,0,0.9300003,99.72591,1,1,2025-04-20T22:18:36.793+03:00,89,1.483333333333333,2025-04-19T12:19:17.059+03:00,0.05691595998002078,0
2025-04-20T22:18:38.186+03:00,1745176712.716959,40.98552636824662,29.137368114026,128.4453,-1,-1,-1,-1,30,30.35635389065777,-9999,9091.599480000001,0.6522064208984375,-0.494842529296875,-0.5622406005859375,9091.595709000001,1.17688843087036,0.8595791317345718,0.5132481556369726,-0.01750781014561653,-0.01114930585026741,-0.006109146866947412,-0.006683945655822754,-0.00120854377746582,0.005419075489044189,XArbitraryZVertical,-0.03178643907866963,0.4633183615746724,0.5760339924441674,0.6726889797786734,0.6599584221839905,-0.4910094738006592,-0.5686514377593994,0,0,0,-1,-1,9080.303592166667,unknown,2,2025-04-20T22:18:26.887+03:00,2025-04-20T21:57:49.637+03:00,29,1.789309,0,0,23.86625,0,0,2025-04-20T22:09:07.141+03:00,766869517.3048571,0,0.9300003,99.72591,1,1,2025-04-20T22:18:36.793+03:00,89,1.483333333333333,2025-04-19T12:19:17.059+03:00,0.05691595998002078,0
2025-04-20T22:18:38.196+03:00,1745176712.716959,40.98552636824662,29.137368114026,128.4453,-1,-1,-1,-1,30,30.35635389065777,-9999,9091.609556000001,0.65118408203125,-0.495849609375,-0.562347412109375,9091.605786,1.176971382312174,0.859395821282084,0.5131241195998688,-0.01369516178965569,-0.01612269133329391,-0.006753598339855671,-0.007693946361541748,-0.003941088914871216,0.006571650505065918,XArbitraryZVertical,-0.03180186706312846,0.4632305758414465,0.5760519654712737,0.672733285410946,0.6599003076553345,-0.4909014105796814,-0.5688121318817139,0,0,0,-1,-1,9080.303592166667,unknown,2,2025-04-20T22:18:26.887+03:00,2025-04-20T21:57:49.637+03:00,29,1.789309,0,0,23.86625,0,0,2025-04-20T22:09:07.141+03:00,766869517.3048571,0,0.9300003,99.72591,1,1,2025-04-20T22:18:36.793+03:00,89,1.483333333333333,2025-04-19T12:19:17.059+03:00,0.05691595998002078,0
2025-04-20T22:18:38.206+03:00,1745176712.716959,40.98552636824662,29.137368114026,128.4453,-1,-1,-1,-1,30,30.35635389065777,-9999,9091.619633,0.6516876220703125,-0.49407958984375,-0.5628814697265625,9091.615862000001,1.177013496587085,0.8591947278459016,0.5130184576240802,-0.008576299995183945,-0.01764335669577122,-0.00861141923815012,-0.00864112377166748,-0.005040258169174194,0.006631374359130859,XArbitraryZVertical,-0.03179543133179634,0.4631411112414499,0.5760583837010291,0.672789719430031,0.6598252058029175,-0.4908093512058258,-0.5689787268638611,0,0,0,-1,-1,9080.303592166667,unknown,2,2025-04-20T22:18:26.887+03:00,2025-04-20T21:57:49.637+03:00,29,1.789309,0,0,23.86625,0,0,2025-04-20T22:09:07.141+03:00,766869517.3048571,0,0.9300003,99.72591,1,1,2025-04-20T22:18:36.793+03:00,89,1.483333333333333,2025-04-19T12:19:17.059+03:00,0.05691595998002078,0
2025-04-20T22:18:38.216+03:00,1745176712.716959,40.98552636824662,29.137368114026,128.4453,-1,-1,-1,-1,30,30.35635389065777,-9999,9091.629709000001,0.6532440185546875,-0.4909210205078125,-0.5623779296875,9091.625939000001,1.176972914586279,0.8590251343251244,0.512937239412859,-0.0003147083334624767,-0.01966929063200951,-0.01122933998703957,-0.008071303367614746,-0.003340989351272583,0.006235241889953613,XArbitraryZVertical,-0.03176926312892877,0.46306844106561,0.5760390140350852,0.6728575880312929,0.6597589254379272,-0.4907386004924774,-0.5691166520118713,0,0,0,-1,-1,9080.303592166667,unknown,2,2025-04-20T22:18:26.887+03:00,2025-04-20T21:57:49.637+03:00,29,1.789309,0,0,23.86625,0,0,2025-04-20T22:09:07.141+03:00,766869517.3048571,0,0.9300003,99.72591,1,1,2025-04-20T22:18:36.793+03:00,89,1.483333333333333,2025-04-19T12:19:17.059+03:00,0.05691595998002078,0
2025-04-20T22:18:38.226+03:00,1745176712.716959,40.98552636824662,29.137368114026,128.4453,-1,-1,-1,-1,30,30.35635389065777,-9999,9091.639786,0.657196044921875,-0.4885711669921875,-0.5618743896484375,9091.636016,1.176862484450368,0.8589099995474103,0.5128854510659955,0.005603102035820484,-0.01892253942787647,-0.01078938506543636,-0.006468594074249268,-0.0002275705337524414,0.006831347942352295,XArbitraryZVertical,-0.03173099757456455,0.4630210925720466,0.5759983278225654,0.6729268015581207,0.6597126126289368,-0.4906934797763824,-0.5692092180252075,0,0,0,-1,-1,9080.303592166667,unknown,2,2025-04-20T22:18:26.887+03:00,2025-04-20T21:57:49.637+03:00,29,1.789309,0,0,23.86625,0,0,2025-04-20T22:09:07.141+03:00,766869517.3048571,0,0.9300003,99.72591,1,1,2025-04-20T22:18:36.793+03:00,89,1.483333333333333,2025-04-19T12:19:17.059+03:00,0.05691595998002078,0
2025-04-20T22:18:38.237+03:00,1745176712.716959,40.98552636824662,29.137368114026,128.4453,-1,-1,-1,-1,30,30.35635389065777,-9999,9091.649863000001,0.6575164794921875,-0.4866180419921875,-0.5650634765625,9091.646092000001,1.17670400460416,0.8588380787538269,0.5128797407654063,0.0104296812787652,-0.01301418244838715,-0.009410867467522621,-0.002477765083312988,0.002117305994033813,0.007384181022644043,XArbitraryZVertical,-0.03167586146044537,0.4629982674099261,0.5759455555064725,0.6729902445482352,0.6596737504005432,-0.4906885027885437,-0.5692585110664368,0,0,0,-1,-1,9080.303592166667,unknown,2,2025-04-20T22:18:26.887+03:00,2025-04-20T21:57:49.637+03:00,29,1.789309,0,0,23.86625,0,0,2025-04-20T22:09:07.141+03:00,766869517.3048571,0,0.9300003,99.72591,1,1,2025-04-20T22:18:36.793+03:00,89,1.483333333333333,2025-04-19T12:19:17.059+03:00,0.05691595998002078,0
2025-04-20T22:18:38.247+03:00,1745176712.716959,40.98552636824662,29.137368114026,128.4453,-1,-1,-1,-1,30,30.35635389065777,-9999,9091.659939000001,0.6598663330078125,-0.4880218505859375,-0.566192626953125,9091.656169,1.176535372167741,0.8587941210375319,0.5128779068190131,0.007555598393082619,-0.01331458799540997,-0.008092868141829967,-0.002133011817932129,0.004068851470947266,0.004224658012390137,XArbitraryZVertical,-0.03162487121303092,0.4629857651861917,0.5758893063989476,0.6730494319547655,0.6596494913101196,-0.4906868934631348,-0.5692880749702454,0,0,0,-1,-1,9080.303592166667,unknown,2,2025-04-20T22:18:26.887+03:00,2025-04-20T21:57:49.637+03:00,29,1.789309,0,0,23.86625,0,0,2025-04-20T22:09:07.141+03:00,766869517.3048571,0,0.9300003,99.72591,1,1,2025-04-20T22:18:36.793+03:00,89,1.483333333333333,2025-04-19T12:19:17.059+03:00,0.05691595998002078,0
2025-04-20T22:18:38.257+03:00,1745176712.716959,40.98552636824662,29.137368114026,128.4453,-1,-1,-1,-1,30,30.35635389065777,-9999,9091.670016,0.66192626953125,-0.4919281005859375,-0.5650634765625,9091.666245,1.17642988485704,0.8586915575330608,0.5128559529997193,0.004012595862150192,-0.01662030443549156,-0.005611834581941366,0.0002670884132385254,0.002645909786224365,0.003170192241668701,XArbitraryZVertical,-0.03157961832834049,0.4629485363719488,0.5758531637858624,0.673108020940161,0.6595991849899292,-0.4906677603721619,-0.5693627595901489,0,0,0,-1,-1,9080.303592166667,unknown,2,2025-04-20T22:18:26.887+03:00,2025-04-20T21:57:49.637+03:00,29,1.789309,0,0,23.86625,0,0,2025-04-20T22:09:07.141+03:00,766869517.3048571,0,0.9300003,99.72591,1,1,2025-04-20T22:18:36.793+03:00,89,1.483333333333333,2025-04-19T12:19:17.059+03:00,0.05691595998002078,0
2025-04-20T22:18:38.267+03:00,1745176712.716959,40.98552636824662,29.137368114026,128.4453,-1,-1,-1,-1,30,30.35635389065777,-9999,9091.680092000001,0.6597900390625,-0.49334716796875,-0.56524658203125,9091.676322000001,1.176337485994468,0.8585473553022072,0.512820720720611,0.001281523727811873,-0.02084141224622726,-0.008182850666344166,0.002396047115325928,-0.001291036605834961,0.004405736923217773,XArbitraryZVertical,-0.03153062830085476,0.4628944061217305,0.5758206903788837,0.6731753416469718,0.6595301628112793,-0.4906370639801025,-0.569469153881073,0,0,0,-1,-1,9080.303592166667,unknown,2,2025-04-20T22:18:26.887+03:00,2025-04-20T21:57:49.637+03:00,29,1.789309,0,0,23.86625,0,0,2025-04-20T22:09:07.141+03:00,766869517.3048571,0,0.9300003,99.72591,1,1,2025-04-20T22:18:36.793+03:00,89,1.483333333333333,2025-04-19T12:19:17.059+03:00,0.05691595998002078,0
2025-04-20T22:18:38.277+03:00,1745176712.716959,40.98552636824662,29.137368114026,128.4453,-1,-1,-1,-1,30,30.35635389065777,-9999,9091.690169000001,0.6584014892578125,-0.496337890625,-0.5648651123046875,9091.686399,1.17627922751529,0.85835014794306,0.5127694237013656,-0.001303273718804121,-0.02252659574151039,-0.007715965155512094,0.0003530979156494141,-0.002754807472229004,0.004369139671325684,XArbitraryZVertical,-0.03148062439159548,0.4628186690376542,0.5757988715546518,0.6732484587108037,0.6594369411468506,-0.490592360496521,-0.5696157217025757,0,0,0,-1,-1,9080.303592166667,unknown,2,2025-04-20T22:18:26.887+03:00,2025-04-20T21:57:49.637+03:00,29,1.789309,0,0,23.86625,0,0,2025-04-20T22:09:07.141+03:00,766869517.3048571,0,0.9300003,99.72591,1,1,2025-04-20T22:18:36.793+03:00,89,1.483333333333333,2025-04-19T12:19:17.059+03:00,0.05691595998002078,0
2025-04-20T22:18:38.287+03:00,1745176712.716959,40.98552636824662,29.137368114026,128.4453,-1,-1,-1,-1,30,30.35635389065777,-9999,9091.700246,0.65521240234375,-0.4994049072265625,-0.5634765625,9091.696475000001,1.17624264827497,0.8581124585670821,0.5126810445866528,-0.004841549322009087,-0.02645236067473888,-0.009977786801755428,-0.0009328722953796387,-0.005822539329528809,0.004935741424560547,XArbitraryZVertical,-0.03143865280930939,0.4627215387214483,0.5757811508032201,0.6733323447450378,0.6593343019485474,-0.4905153512954712,-0.5698007941246033,0,0,0,-1,-1,9080.303592166667,unknown,2,2025-04-20T22:18:26.887+03:00,2025-04-20T21:57:49.637+03:00,29,1.789309,0,0,23.86625,0,0,2025-04-20T22:09:07.141+03:00,766869517.3048571,0,0.9300003,99.72591,1,1,2025-04-20T22:18:36.793+03:00,89,1.483333333333333,2025-04-19T12:19:17.059+03:00,0.05691595998002078,0
2025-04-20T22:18:38.297+03:00,1745176712.716959,40.98552636824662,29.137368114026,128.4453,-1,-1,-1,-1,30,30.35635389065777,-9999,9091.710322000001,0.6550750732421875,-0.500579833984375,-0.5624237060546875,9091.706552,1.176206751966326,0.8578748436342867,0.5125589160726433,-0.005084363278001547,-0.02328765951097012,-0.01464561000466347,-0.004031836986541748,-0.008995950222015381,0.006520092487335205,XArbitraryZVertical,-0.03141021802298619,0.4626176629214702,0.5757601710758857,0.6734229506503251,0.659244179725647,-0.4904089272022247,-0.5699965953826904,0,0,0,-1,-1,9080.303592166667,unknown,2,2025-04-20T22:18:26.887+03:00,2025-04-20T21:57:49.637+03:00,29,1.789309,0,0,23.86625,0,0,2025-04-20T22:09:07.141+03:00,766869517.3048571,0,0.9300003,99.72591,1,1,2025-04-20T22:18:36.793+03:00,89,1.483333333333333,2025-04-19T12:19:17.059+03:00,0.05691595998002078,0
2025-04-20T22:18:38.307+03:00,1745176712.716959,40.98552636824662,29.137368114026,128.4453,-1,-1,-1,-1,30,30.35635389065777,-9999,9091.720399,0.6546630859375,-0.497772216796875,-0.562744140625,9091.716628,1.176140964365471,0.8576653407169861,0.5124135695198436,-0.003709905780851841,-0.02462510019540787,-0.0167244728654623,-0.004103660583496094,-0.01029759645462036,0.007757663726806641,XArbitraryZVertical,-0.03139211157573824,0.4625190391825775,0.5757262664476378,0.6735205847828303,0.6591787338256836,-0.490282267332077,-0.5701813697814941,0,0,0,-1,-1,9080.303592166667,unknown,2,2025-04-20T22:18:26.887+03:00,2025-04-20T21:57:49.637+03:00,29,1.789309,0,0,23.86625,0,0,2025-04-20T22:09:07.141+03:00,766869517.3048571,0,0.9300003,99.72591,1,1,2025-04-20T22:18:36.793+03:00,89,1.483333333333333,2025-04-19T12:19:17.059+03:00,0.05691595998002078,0
2025-04-20T22:18:38.317+03:00,1745176712.716959,40.98552636824662,29.137368114026,128.4453,-1,-1,-1,-1,30,30.35635389065777,-9999,9091.730475,0.6571807861328125,-0.4949951171875,-0.564361572265625,9091.726705000001,1.176002846613186,0.857484892988309,0.5122794749372466,0.002080605132505298,-0.02447569742798805,-0.0190918892621994,-0.00446242094039917,-0.007606834173202515,0.007599234580993652,XArbitraryZVertical,-0.03136122952276836,0.4624335881857639,0.5756687148723332,0.6736298829139004,0.6591255068778992,-0.4901653826236725,-0.5703433156013489,0,0,0,-1,-1,9080.303592166667,unknown,2,2025-04-20T22:18:26.887+03:00,2025-04-20T21:57:49.637+03:00,29,1.789309,0,0,23.86625,0,0,2025-04-20T22:09:07.141+03:00,766869517.3048571,0,0.9300003,99.72591,1,1,2025-04-20T22:18:36.793+03:00,89,1.483333333333333,2025-04-19T12:19:17.059+03:00,0.05691595998002078,0
2025-04-20T22:18:38.327+03:00,1745176712.716959,40.98552636824662,29.137368114026,128.4453,-1,-1,-1,-1,30,30.35635389065777,-9999,9091.740552000001,0.659515380859375,-0.490753173828125,-0.5672760009765625,9091.736782,1.175818089900875,0.8573476289071643,0.5121613774062417,0.004472922999411821,-0.02127537503838539,-0.0198985617607832,-0.001910209655761719,-0.004932671785354614,0.006110131740570068,XArbitraryZVertical,-0.03132572614836308,0.4623666299001,0.5755964380169584,0.6737391314528657,0.6590909361839294,-0.4900624454021454,-0.5704715847969055,0,0,0,-1,-1,9080.303592166667,unknown,2,2025-04-20T22:18:26.887+03:00,2025-04-20T21:57:49.637+03:00,29,1.789309,0,0,23.86625,0,0,2025-04-20T22:09:07.141+03:00,766869517.3048571,0,0.9300003,99.72591,1,1,2025-04-20T22:18:36.793+03:00,89,1.483333333333333,2025-04-19T12:19:17.059+03:00,0.05691595998002078,0
2025-04-20T22:18:38.337+03:00,1745176712.716959,40.98552636824662,29.137368114026,128.4453,-1,-1,-1,-1,30,30.35635389065777,-9999,9091.750629,0.65771484375,-0.489227294921875,-0.5670166015625,9091.746858,1.175630548990397,0.8572526560964178,0.5120226208838351,0.0005047463346272707,-0.01862186938524246,-0.02108902856707573,0.0004271864891052246,-0.0008116960525512695,0.00330275297164917,XArbitraryZVertical,-0.03130988979278766,0.4623097946408559,0.5755203934658455,0.6738438194324637,0.659088134765625,-0.4899414777755737,-0.5705786943435669,0,0,0,-1,-1,9080.303592166667,unknown,2,2025-04-20T22:18:26.887+03:00,2025-04-20T21:57:49.637+03:00,29,1.789309,0,0,23.86625,0,0,2025-04-20T22:09:07.141+03:00,766869517.3048571,0,0.9300003,99.72591,1,1,2025-04-20T22:18:36.793+03:00,89,1.483333333333333,2025-04-19T12:19:17.059+03:00,0.05691595998002078,0
2025-04-20T22:18:38.347+03:00,1745176712.716959,40.98552636824662,29.137368114026,128.4453,-1,-1,-1,-1,30,30.35635389065777,-9999,9091.760705000001,0.6575927734375,-0.4879302978515625,-0.564208984375,9091.756935000001,1.175456896032958,0.8571897018359587,0.5118666306994129,-0.001393554848618805,-0.01377038843929768,-0.02193964086472988,-0.001395225524902344,0.0005782246589660645,0.00365370512008667,XArbitraryZVertical,-0.03131332527459657,0.4622600920141837,0.5754467422120214,0.6739405746739583,0.6591099500656128,-0.4898054897785187,-0.5706701874732971,0,0,0,-1,-1,9080.303592166667,unknown,2,2025-04-20T22:18:26.887+03:00,2025-04-20T21:57:49.637+03:00,29,1.789309,0,0,23.86625,0,0,2025-04-20T22:09:07.141+03:00,766869517.3048571,0,0.9300003,99.72591,1,1,2025-04-20T22:18:36.793+03:00,89,1.483333333333333,2025-04-19T12:19:17.059+03:00,0.05691595998002078,0
2025-04-20T22:18:38.358+03:00,1745176712.716959,40.98552636824662,29.137368114026,128.4453,-1,-1,-1,-1,30,30.35635389065777,-9999,9091.770782000001,0.654083251953125,-0.488739013671875,-0.5640716552734375,9091.767012,1.175317024646109,0.8571260234407639,0.5116896186633627,-0.004767313599586487,-0.0132388873025775,-0.02300121076405048,-0.00154644250869751,0.001720845699310303,0.006559967994689941,XArbitraryZVertical,-0.03133261560655533,0.4622053680333543,0.5753822707500575,0.6740323596218011,0.6591392159461975,-0.4896511435508728,-0.5707689523696899,0,0,0,-1,-1,9080.303592166667,unknown,2,2025-04-20T22:18:26.887+03:00,2025-04-20T21:57:49.637+03:00,29,1.789309,0,0,23.86625,0,0,2025-04-20T22:09:07.141+03:00,766869517.3048571,0,0.9300003,99.72591,1,1,2025-04-20T22:18:36.793+03:00,89,1.483333333333333,2025-04-19T12:19:17.059+03:00,0.05691595998002078,0
2025-04-20T22:18:38.368+03:00,1745176712.716959,40.98552636824662,29.137368114026,128.4453,-1,-1,-1,-1,30,30.35635389065777,-9999,9091.780858,0.6529998779296875,-0.4905853271484375,-0.5633697509765625,9091.777088000001,1.175191184316343,0.8570433532959936,0.5114729735596162,-0.007890136912465096,-0.01451400946825743,-0.02482227981090546,-0.005088984966278076,0.0007232129573822021,0.006821274757385254,XArbitraryZVertical,-0.03136541034251824,0.4621361172303075,0.5753187344805436,0.6741325136276664,0.6591721773147583,-0.4894622564315796,-0.5708928108215332,0,0,0,-1,-1,9080.303592166667,unknown,2,2025-04-20T22:18:26.887+03:00,2025-04-20T21:57:49.637+03:00,29,1.789309,0,0,23.86625,0,0,2025-04-20T22:09:07.141+03:00,766869517.3048571,0,0.9300003,99.72591,1,1,2025-04-20T22:18:36.793+03:00,89,1.483333333333333,2025-04-19T12:19:17.059+03:00,0.05691595998002078,0
2025-04-20T22:18:38.378+03:00,1745176712.716959,40.98552636824662,29.137368114026,128.4453,-1,-1,-1,-1,30,30.35635389065777,-9999,9091.790935000001,0.651275634765625,-0.492218017578125,-0.5628204345703125,9091.787165,1.175071205170803,0.8569755100952863,0.5112515300506613,-0.01055183261632919,-0.01138626039028168,-0.02585751749575138,-0.006215512752532959,-0.001316219568252563,0.007638812065124512,XArbitraryZVertical,-0.03140571763505974,0.4620707999548824,0.5752564274675875,0.6742285827919797,0.6592153906822205,-0.4892691373825073,-0.5710085034370422,0,0,0,-1,-1,9080.303592166667,unknown,2,2025-04-20T22:18:26.887+03:00,2025-04-20T21:57:49.637+03:00,29,1.789309,0,0,23.86625,0,0,2025-04-20T22:09:07.141+03:00,766869517.3048571,0,0.9300003,99.72591,1,1,2025-04-20T22:18:36.793+03:00,89,1.483333333333333,2025-04-19T12:19:17.059+03:00,0.05691595998002078,0
2025-04-20T22:18:38.388+03:00,1745176712.716959,40.98552636824662,29.137368114026,128.4453,-1,-1,-1,-1,30,30.35635389065777,-9999,9091.801012,0.65155029296875,-0.492919921875,-0.563507080078125,9091.797241,1.174965116932325,0.8569377251915526,0.5110160890440361,-0.008752334862947464,-0.008011768572032452,-0.02576563879847527,-0.008005261421203613,-0.003154218196868896,0.00828850269317627,XArbitraryZVertical,-0.0314634339354318,0.4620126011369854,0.5751968755010517,0.6743165488962217,0.6592808365821838,-0.4890637695789337,-0.5711088180541992,0,0,0,-1,-1,9080.303592166667,unknown,2,2025-04-20T22:18:26.887+03:00,2025-04-20T21:57:49.637+03:00,29,1.789309,0,0,23.86625,0,0,2025-04-20T22:09:07.141+03:00,766869517.3048571,0,0.9300003,99.72591,1,1,2025-04-20T22:18:36.793+03:00,89,1.483333333333333,2025-04-19T12:19:17.059+03:00,0.05691595998002078,0
2025-04-20T22:18:38.398+03:00,1745176712.716959,40.98552636824662,29.137368114026,128.4453,-1,-1,-1,-1,30,30.35635389065777,-9999,9091.811088,0.6570281982421875,-0.4924163818359375,-0.5635223388671875,9091.807318000001,1.17481732530891,0.8569512493959722,0.5107912881942552,-0.004167969338595867,-0.00571638997644186,-0.02770282328128815,-0.007821381092071533,-0.004052221775054932,0.007664918899536133,XArbitraryZVertical,-0.0315220659235614,0.4619744864924145,0.5751235399135056,0.6744024605201077,0.6593716144561768,-0.4888677000999451,-0.5711718797683716,0,0,0,-1,-1,9080.303592166667,unknown,2,2025-04-20T22:18:26.887+03:00,2025-04-20T21:57:49.637+03:00,29,1.789309,0,0,23.86625,0,0,2025-04-20T22:09:07.141+03:00,766869517.3048571,0,0.9300003,99.72591,1,1,2025-04-20T22:18:36.793+03:00,89,1.483333333333333,2025-04-19T12:19:17.059+03:00,0.05691595998002078,0
2025-04-20T22:18:38.408+03:00,1745176712.716959,40.98552636824662,29.137368114026,128.4453,-1,-1,-1,-1,30,30.35635389065777,-9999,9091.821165000001,0.6558990478515625,-0.4891815185546875,-0.56500244140625,9091.817395,1.174626327454909,0.8570211753497204,0.5105870071519718,-0.001988172065466642,0.0002512214705348015,-0.02626658044755459,-0.002458930015563965,-0.00372689962387085,0.007668912410736084,XArbitraryZVertical,-0.0315788055501905,0.4619601756662902,0.5750368429553256,0.6744835850561041,0.6594870686531067,-0.4886894822120667,-0.571191132068634,0,0,0,-1,-1,9080.303592166667,unknown,2,2025-04-20T22:18:26.887+03:00,2025-04-20T21:57:49.637+03:00,29,1.789309,0,0,23.86625,0,0,2025-04-20T22:09:07.141+03:00,766869517.3048571,0,0.9300003,99.72591,1,1,2025-04-20T22:18:36.793+03:00,89,1.483333333333333,2025-04-19T12:19:17.059+03:00,0.05691595998002078,0
2025-04-20T22:18:38.418+03:00,1745176712.716959,40.98552636824662,29.137368114026,128.4453,-1,-1,-1,-1,30,30.35635389065777,-9999,9091.831241,0.656158447265625,-0.488677978515625,-0.5672454833984375,9091.827471000001,1.174449876818577,0.8571383075957177,0.510360690481571,-0.004334882833063602,0.00320872850716114,-0.02711103484034538,-0.003738522529602051,-0.0006895065307617188,0.006183862686157227,XArbitraryZVertical,-0.03166121341226966,0.4619571729409502,0.5749520067297341,0.674554081321968,0.6596375703811646,-0.4884920120239258,-0.5711863040924072,0,0,0,-1,-1,9080.303592166667,unknown,2,2025-04-20T22:18:26.887+03:00,2025-04-20T21:57:49.637+03:00,29,1.789309,0,0,23.86625,0,0,2025-04-20T22:09:07.141+03:00,766869517.3048571,0,0.9300003,99.72591,1,1,2025-04-20T22:18:36.793+03:00,89,1.483333333333333,2025-04-19T12:19:17.059+03:00,0.05691595998002078,0
2025-04-20T22:18:38.428+03:00,1745176712.716959,40.98552636824662,29.137368114026,128.4453,-1,-1,-1,-1,30,30.35635389065777,-9999,9091.841318000001,0.65557861328125,-0.489837646484375,-0.5692596435546875,9091.837548000001,1.174284987588461,0.857302075424241,0.5101302115957935,-0.006212677806615829,0.01044213958084583,-0.0267709493637085,-0.003657758235931396,-0.0003871023654937744,0.003906488418579102,XArbitraryZVertical,-0.0317613350409728,0.4619688975790055,0.5748698677890627,0.6746113457355097,0.6598162055015564,-0.4882908761501312,-0.5711519122123718,0,0,0,-1,-1,9080.303592166667,unknown,2,2025-04-20T22:18:26.887+03:00,2025-04-20T21:57:49.637+03:00,29,1.789309,0,0,23.86625,0,0,2025-04-20T22:09:07.141+03:00,766869517.3048571,0,0.9300003,99.72591,1,1,2025-04-20T22:18:36.793+03:00,89,1.483333333333333,2025-04-19T12:19:17.059+03:00,0.05691595998002078,0
2025-04-20T22:18:38.438+03:00,1745176712.716959,40.98552636824662,29.137368114026,128.4453,-1,-1,-1,-1,30,30.35635389065777,-9999,9091.851395,0.65447998046875,-0.4906768798828125,-0.5667266845703125,9091.847624,1.174138669757607,0.8574770958113325,0.5098929309586229,-0.007104437332600355,0.009348513558506966,-0.02492650970816612,-0.004425168037414551,-0.001753866672515869,0.001852631568908691,XArbitraryZVertical,-0.03187164961371482,0.4619827707758922,0.5747930691858045,0.6746621182868006,0.6600037813186646,-0.4880838096141815,-0.5711122155189514,0,0,0,-1,-1,9080.303592166667,unknown,2,2025-04-20T22:18:26.887+03:00,2025-04-20T21:57:49.637+03:00,29,1.789309,0,0,23.86625,0,0,2025-04-20T22:09:07.141+03:00,766869517.3048571,0,0.9300003,99.72591,1,1,2025-04-20T22:18:36.793+03:00,89,1.483333333333333,2025-04-19T12:19:17.059+03:00,0.05691595998002078,0
2025-04-20T22:18:38.448+03:00,1745176712.716959,40.98552636824662,29.137368114026,128.4453,-1,-1,-1,-1,30,30.35635389065777,-9999,9091.861471,0.6527099609375,-0.4909820556640625,-0.5660247802734375,9091.857701000001,1.174049241149189,0.8576251732696897,0.5096565131288552,-0.01140863914042711,0.01027236320078373,-0.02292194962501526,-0.005695641040802002,-0.002799451351165771,0.004363358020782471,XArbitraryZVertical,-0.03198701763438424,0.4619868363574661,0.5747359509506759,0.6747025640897626,0.6601755619049072,-0.4878774285316467,-0.5710899829864502,0,0,0,-1,-1,9080.303592166667,unknown,2,2025-04-20T22:18:26.887+03:00,2025-04-20T21:57:49.637+03:00,29,1.789309,0,0,23.86625,0,0,2025-04-20T22:09:07.141+03:00,766869517.3048571,0,0.9300003,99.72591,1,1,2025-04-20T22:18:36.793+03:00,89,1.483333333333333,2025-04-19T12:19:17.059+03:00,0.05691595998002078,0
2025-04-20T22:18:38.458+03:00,1745176712.716959,40.98552636824662,29.137368114026,128.4453,-1,-1,-1,-1,30,30.35635389065777,-9999,9091.871548000001,0.6515960693359375,-0.489471435546875,-0.5678863525390625,9091.867778,1.173970469635499,0.8577808497417813,0.5094086379121727,-0.0105771329253912,0.01186579931527376,-0.02332605049014091,-0.007646024227142334,-0.003320991992950439,0.005041599273681641,XArbitraryZVertical,-0.03211158666791344,0.4619910297641231,0.5746810993816718,0.674740440078306,0.6603559255599976,-0.4876610636711121,-0.5710662603378296,0,0,0,-1,-1,9080.303592166667,unknown,2,2025-04-20T22:18:26.887+03:00,2025-04-20T21:57:49.637+03:00,29,1.789309,0,0,23.86625,0,0,2025-04-20T22:09:07.141+03:00,766869517.3048571,0,0.9300003,99.72591,1,1,2025-04-20T22:18:36.793+03:00,89,1.483333333333333,2025-04-19T12:19:17.059+03:00,0.05691595998002078,0
2025-04-20T22:18:38.469+03:00,1745176712.716959,40.98552636824662,29.137368114026,128.4453,-1,-1,-1,-1,30,30.35635389065777,-9999,9091.881625,0.653472900390625,-0.4899139404296875,-0.5703582763671875,9091.877854,1.173912601581594,0.8578898666006475,0.5091618463281342,-0.01372951734811068,0.005939466878771782,-0.02277104742825031,-0.008913159370422363,-0.002025872468948364,0.003186702728271484,XArbitraryZVertical,-0.03222712875343656,0.4619793594448105,0.5746341284904388,0.6747829141217777,0.6605091691017151,-0.487445592880249,-0.5710729956626892,0,0,0,-1,-1,9080.303592166667,unknown,2,2025-04-20T22:18:26.887+03:00,2025-04-20T21:57:49.637+03:00,29,1.789309,0,0,23.86625,0,0,2025-04-20T22:09:07.141+03:00,766869517.3048571,0,0.9300003,99.72591,1,1,2025-04-20T22:18:36.793+03:00,89,1.483333333333333,2025-04-19T12:19:17.059+03:00,0.05691595998002078,0
2025-04-20T22:18:38.478+03:00,1745176712.716959,40.98552636824662,29.137368114026,128.4453,-1,-1,-1,-1,30,30.35635389065777,-9999,9091.891701,0.65679931640625,-0.492706298828125,-0.5700531005859375,9091.887931000001,1.17390295370219,0.8579500983225834,0.5089170450545214,-0.01557269040495157,0.004833988845348358,-0.01782395876944065,-0.007160961627960205,-0.002682089805603027,0.0007530450820922852,XArbitraryZVertical,-0.03233899932455447,0.4619508488603439,0.5746043991526542,0.674822396867288,0.6606338024139404,-0.4872318208217621,-0.5711112022399902,0,0,0,-1,-1,9080.303592166667,unknown,2,2025-04-20T22:18:26.887+03:00,2025-04-20T21:57:49.637+03:00,29,1.789309,0,0,23.86625,0,0,2025-04-20T22:09:07.141+03:00,766869517.3048571,0,0.9300003,99.72591,1,1,2025-04-20T22:18:36.793+03:00,89,1.483333333333333,2025-04-19T12:19:17.059+03:00,0.05691595998002078,0
2025-04-20T22:18:38.489+03:00,1745176712.716959,40.98552636824662,29.137368114026,128.4453,-1,-1,-1,-1,30,30.35635389065777,-9999,9091.901778000001,0.6591339111328125,-0.49163818359375,-0.5644073486328125,9091.898007,1.173936617370208,0.8579439533204392,0.5086752238189612,-0.02467990294098854,-0.004562175832688808,-0.01757495291531086,-0.003920137882232666,-0.005685687065124512,0.001139283180236816,XArbitraryZVertical,-0.03244061742777102,0.4618998276534085,0.5745906539716711,0.6748641649170988,0.6607194542884827,-0.4870206415653229,-0.5711923241615295,0,0,0,-1,-1,9080.303592166667,unknown,2,2025-04-20T22:18:26.887+03:00,2025-04-20T21:57:49.637+03:00,29,1.789309,0,0,23.86625,0,0,2025-04-20T22:09:07.141+03:00,766869517.3048571,0,0.9300003,99.72591,1,1,2025-04-20T22:18:36.793+03:00,89,1.483333333333333,2025-04-19T12:19:17.059+03:00,0.05691595998002078,0
