loggingTime(txt),locationTimestamp_since1970(s),locationLatitude(WGS84),locationLongitude(WGS84),locationAltitude(m),locationSpeed(m/s),locationSpeedAccuracy(m/s),locationCourse(°),locationCourseAccuracy(°),locationVerticalAccuracy(m),locationHorizontalAccuracy(m),locationFloor(Z),accelerometerTimestamp_sinceReboot(s),accelerometerAccelerationX(G),accelerometerAccelerationY(G),accelerometerAccelerationZ(G),motionTimestamp_sinceReboot(s),motionYaw(rad),motionRoll(rad),motionPitch(rad),motionRotationRateX(rad/s),motionRotationRateY(rad/s),motionRotationRateZ(rad/s),motionUserAccelerationX(G),motionUserAccelerationY(G),motionUserAccelerationZ(G),motionAttitudeReferenceFrame(txt),motionQuaternionX(R),motionQuaternionY(R),motionQuaternionZ(R),motionQuaternionW(R),motionGravityX(G),motionGravityY(G),motionGravityZ(G),motionMagneticFieldX(µT),motionMagneticFieldY(µT),motionMagneticFieldZ(µT),motionHeading(°),motionMagneticFieldCalibrationAccuracy(Z),activityTimestamp_sinceReboot(s),activity(txt),activityActivityConfidence(Z),activityActivityStartDate(txt),pedometerStartDate(txt),pedometerNumberofSteps(N),pedometerAverageActivePace(s/m),pedometerCurrentPace(s/m),pedometerCurrentCadence(steps/s),pedometerDistance(m),pedometerFloorAscended(N),pedometerFloorDescended(N),pedometerEndDate(txt),altimeterTimestamp_sinceReboot(s),altimeterReset(bool),altimeterRelativeAltitude(m),altimeterPressure(kPa),batteryState(N),batteryLevel(R),heartRateBPMTimestamp(txt),heartRateBPM(N),heartRateBPS(R),heartRateVariabilityTimestamp(txt),heartRateVariability(ms),label
2025-04-20T21:58:52.798+03:00,1745175531.592006,40.98581706731666,29.13746237102972,124.5693,-1,-1,-1,-1,30,214.5326883410212,-9999,8353.054963625,-0.57781982421875,0.4760284423828125,-0.666290283203125,8353.051193625,-2.00619777408835,-0.7115659160649092,-0.4410546354611463,0.02752147242426872,-0.004747595638036728,-0.01660533249378204,-0.003115475177764893,0.02174550294876099,0.01408791542053223,XArbitraryZVertical,-0.3968253791485326,-0.00987349253027101,-0.730229662955333,0.5560547140305352,-0.5905277132987976,0.426893413066864,-0.6848642826080322,0,0,0,-1,-1,8343.190615125,automotive,2,2025-04-20T21:58:42.884+03:00,null,0,0,0,0,0,0,0,null,766868322.9873313,0,-0.1100006,99.73491,1,1,2025-04-20T21:51:51.574+03:00,72,1.2,2025-04-19T12:19:17.059+03:00,0.05691595998002078,0
2025-04-20T21:58:52.799+03:00,1745175531.592006,40.98581706731666,29.13746237102972,124.5693,-1,-1,-1,-1,30,214.5326883410212,-9999,8353.065039625,-0.60400390625,0.4136199951171875,-0.6673126220703125,8353.061269625001,-2.006179269377664,-0.7115456885305314,-0.440774495765697,0.01917598955333233,0.006185279693454504,-0.01922518573701382,0.0127720832824707,0.04938837885856628,0.0186765193939209,XArbitraryZVertical,-0.3967580233942175,-0.009985281668635534,-0.7302783085357639,0.556036811832312,-0.5905919075012207,0.4266400635242462,-0.6849667429924011,0,0,0,-1,-1,8343.190615125,automotive,2,2025-04-20T21:58:42.884+03:00,null,0,0,0,0,0,0,0,null,766868322.9873313,0,-0.1100006,99.73491,1,1,2025-04-20T21:51:51.574+03:00,72,1.2,2025-04-19T12:19:17.059+03:00,0.05691595998002078,0
2025-04-20T21:58:52.800+03:00,1745175531.592006,40.98581706731666,29.13746237102972,124.5693,-1,-1,-1,-1,30,214.5326883410212,-9999,8353.075115625001,-0.5991363525390625,0.43707275390625,-0.6667633056640625,8353.071345625001,-2.006209399179708,-0.7114617198471952,-0.4405525796787803,0.01097771618515253,0.02121615968644619,-0.01230016723275185,-0.01340770721435547,-0.01281934976577759,0.01777541637420654,XArbitraryZVertical,-0.3966800728921566,-0.01004606346327055,-0.7303427614854743,0.5560066121325841,-0.5905961990356445,0.4264393448829651,-0.6850879788398743,0,0,0,-1,-1,8343.190615125,automotive,2,2025-04-20T21:58:42.884+03:00,null,0,0,0,0,0,0,0,null,766868322.9873313,0,-0.1100006,99.73491,1,1,2025-04-20T21:51:51.574+03:00,72,1.2,2025-04-19T12:19:17.059+03:00,0.05691595998002078,0
2025-04-20T21:58:52.801+03:00,1745175531.592006,40.98581706731666,29.13746237102972,124.5693,-1,-1,-1,-1,30,214.5326883410212,-9999,8353.085191625001,-0.5961151123046875,0.43115234375,-0.668701171875,8353.081421625,-2.006208016864012,-0.7111680051743703,-0.4403439781082511,0.0156156774610281,0.04152549430727959,-0.007585007231682539,-0.008683323860168457,0.0108221173286438,0.0185655951499939,XArbitraryZVertical,-0.3965281773728924,-0.01004941158420282,-0.730437709296172,0.5559902399655515,-0.590453028678894,0.4262506663799286,-0.6853288412094116,0,0,0,-1,-1,8343.190615125,automotive,2,2025-04-20T21:58:42.884+03:00,null,0,0,0,0,0,0,0,null,766868322.9873313,0,-0.1100006,99.73491,1,1,2025-04-20T21:51:51.574+03:00,72,1.2,2025-04-19T12:19:17.059+03:00,0.05691595998002078,0
2025-04-20T21:58:52.802+03:00,1745175531.592006,40.98581706731666,29.13746237102972,124.5693,-1,-1,-1,-1,30,214.5326883410212,-9999,8353.095267625,-0.6073150634765625,0.4119720458984375,-0.67437744140625,8353.091497625001,-2.006155644275663,-0.7107496595938096,-0.4402363157863148,0.009728493168950081,0.04138541221618652,-0.007145319599658251,-0.005918920040130615,0.004999101161956787,0.01690948009490967,XArbitraryZVertical,-0.3963520783794264,-0.009987226135912684,-0.730525213025831,0.5560020059367798,-0.5901961922645569,0.4261532723903656,-0.6856105923652649,0,0,0,-1,-1,8343.190615125,automotive,2,2025-04-20T21:58:42.884+03:00,null,0,0,0,0,0,0,0,null,766868322.9873313,0,-0.1100006,99.73491,1,1,2025-04-20T21:51:51.574+03:00,72,1.2,2025-04-19T12:19:17.059+03:00,0.05691595998002078,0
2025-04-20T21:58:52.804+03:00,1745175531.592006,40.98581706731666,29.13746237102972,124.5693,-1,-1,-1,-1,30,214.5326883410212,-9999,8353.105343625,-0.591094970703125,0.4234466552734375,-0.6712646484375,8353.101573625001,-2.006146668703528,-0.7104143422327763,-0.4401744063664512,0.01006212085485458,0.03105840459465981,-0.002551666228100657,-0.01733160018920898,-0.01412516832351685,0.01145100593566895,XArbitraryZVertical,-0.3962163054115937,-0.009920924844968241,-0.7306001447396914,0.5560014886754544,-0.5899834632873535,0.4260972440242767,-0.6858284473419189,0,0,0,-1,-1,8343.190615125,automotive,2,2025-04-20T21:58:42.884+03:00,null,0,0,0,0,0,0,0,null,766868322.9873313,0,-0.1100006,99.73491,1,1,2025-04-20T21:51:51.574+03:00,72,1.2,2025-04-19T12:19:17.059+03:00,0.05691595998002078,0
2025-04-20T21:58:52.813+03:00,1745175531.592006,40.98581706731666,29.13746237102972,124.5693,-1,-1,-1,-1,30,214.5326883410212,-9999,8353.115419625001,-0.585479736328125,0.43084716796875,-0.670562744140625,8353.111649625,-2.006108847463832,-0.7101578194102728,-0.4400967316661537,0.01615729741752148,0.02820216491818428,-6.454013055190444e-05,-0.001265883445739746,-0.002580314874649048,0.0147402286529541,XArbitraryZVertical,-0.3961057806575467,-0.009888652428689255,-0.7306542374498172,0.55600975082605,-0.5898290872573853,0.4260269701480865,-0.6860048770904541,0,0,0,-1,-1,8343.190615125,automotive,2,2025-04-20T21:58:42.884+03:00,null,0,0,0,0,0,0,0,null,766868322.9873313,0,-0.1100006,99.73491,1,1,2025-04-20T21:51:51.574+03:00,72,1.2,2025-04-19T12:19:17.059+03:00,0.05691595998002078,0
2025-04-20T21:58:52.824+03:00,1745175531.592006,40.98581706731666,29.13746237102972,124.5693,-1,-1,-1,-1,30,214.5326883410212,-9999,8353.125495625001,-0.5869598388671875,0.435546875,-0.6724853515625,8353.121725625,-2.006022165154257,-0.7098473165257562,-0.4399588952867523,0.01578392274677753,0.03166001290082932,-0.004696575924754143,0.004174590110778809,0.004944890737533569,0.01566982269287109,XArbitraryZVertical,-0.3959624082919259,-0.009875474250230937,-0.7307160853932143,0.5560308272937374,-0.5896543264389038,0.4259022772312164,-0.6862325072288513,0,0,0,-1,-1,8343.190615125,automotive,2,2025-04-20T21:58:42.884+03:00,null,0,0,0,0,0,0,0,null,766868322.9873313,0,-0.1100006,99.73491,1,1,2025-04-20T21:51:51.574+03:00,72,1.2,2025-04-19T12:19:17.059+03:00,0.05691595998002078,0
2025-04-20T21:58:52.833+03:00,1745175531.592006,40.98581706731666,29.13746237102972,124.5693,-1,-1,-1,-1,30,214.5326883410212,-9999,8353.135571625,-0.5869293212890625,0.4362335205078125,-0.67449951171875,8353.131801625001,-2.00597965990191,-0.7095684614746982,-0.4399061380262521,0.01017104461789131,0.02487294748425484,-0.002144202589988708,0.0025177001953125,0.009692341089248657,0.01392865180969238,XArbitraryZVertical,-0.3958490445921286,-0.009827758025468709,-0.7307687798588984,0.5560429978410244,-0.5894775390625,0.4258545339107513,-0.6864138841629028,0,0,0,-1,-1,8343.190615125,automotive,2,2025-04-20T21:58:42.884+03:00,null,0,0,0,0,0,0,0,null,766868322.9873313,0,-0.1100006,99.73491,1,1,2025-04-20T21:51:51.574+03:00,72,1.2,2025-04-19T12:19:17.059+03:00,0.05691595998002078,0
2025-04-20T21:58:52.844+03:00,1745175531.592006,40.98581706731666,29.13746237102972,124.5693,-1,-1,-1,-1,30,214.5326883410212,-9999,8353.145647625,-0.5887298583984375,0.433135986328125,-0.6763153076171875,8353.141877625001,-2.005916387346905,-0.7092607019734668,-0.4399622142716064,0.01031818427145481,0.03134722262620926,-0.001036260975524783,0.002321422100067139,0.0103282630443573,0.0120776891708374,XArbitraryZVertical,-0.39574828781924,-0.00973194091587618,-0.7308021502777448,0.5560725571070008,-0.5892507433891296,0.4259052872657776,-0.6865771412849426,0,0,0,-1,-1,8343.190615125,automotive,2,2025-04-20T21:58:42.884+03:00,null,0,0,0,0,0,0,0,null,766868322.9873313,0,-0.1100006,99.73491,1,1,2025-04-20T21:51:51.574+03:00,72,1.2,2025-04-19T12:19:17.059+03:00,0.05691595998002078,0
2025-04-20T21:58:52.854+03:00,1745175531.592006,40.98581706731666,29.13746237102972,124.5693,-1,-1,-1,-1,30,214.5326883410212,-9999,8353.155723625001,-0.5982666015625,0.4307403564453125,-0.67694091796875,8353.151953625,-2.005858426203277,-0.7089461540735956,-0.439865577811996,0.01138238329440355,0.03541866689920425,0.005592347122728825,0.0003316402435302734,0.007318168878555298,0.01047849655151367,XArbitraryZVertical,-0.3956123778803242,-0.009695188916363416,-0.73086538570433,0.5560867443671659,-0.5890614986419678,0.4258178472518921,-0.6867936849594116,0,0,0,-1,-1,8343.190615125,automotive,2,2025-04-20T21:58:42.884+03:00,null,0,0,0,0,0,0,0,null,766868322.9873313,0,-0.1100006,99.73491,1,1,2025-04-20T21:51:51.574+03:00,72,1.2,2025-04-19T12:19:17.059+03:00,0.05691595998002078,0
2025-04-20T21:58:52.864+03:00,1745175531.592006,40.98581706731666,29.13746237102972,124.5693,-1,-1,-1,-1,30,214.5326883410212,-9999,8353.165799625,-0.5972900390625,0.4258270263671875,-0.6746673583984375,8353.162029625,-2.005704610127432,-0.7084371051731693,-0.4398705500584698,0.01155475620180368,0.06499473750591278,0.01041536498814821,-0.009556174278259277,0.004918009042739868,0.01015102863311768,XArbitraryZVertical,-0.3954266690562866,-0.009582045526792475,-0.7309224080608998,0.5561458538930844,-0.5887104272842407,0.4258223474025726,-0.6870918869972229,0,0,0,-1,-1,8343.190615125,automotive,2,2025-04-20T21:58:42.884+03:00,null,0,0,0,0,0,0,0,null,766868322.9873313,0,-0.1100006,99.73491,1,1,2025-04-20T21:51:51.574+03:00,72,1.2,2025-04-19T12:19:17.059+03:00,0.05691595998002078,0
2025-04-20T21:58:52.874+03:00,1745175531.592006,40.98581706731666,29.13746237102972,124.5693,-1,-1,-1,-1,30,214.5326883410212,-9999,8353.175875625,-0.6006622314453125,0.4181060791015625,-0.6725616455078125,8353.172105625001,-2.005586857692063,-0.7077105181989033,-0.4398664271224114,0.00674615241587162,0.06163062900304794,0.00274945585988462,-0.009077787399291992,8.404254913330078e-06,0.01285350322723389,XArbitraryZVertical,-0.3951596474342289,-0.009404962992220042,-0.7310340366352525,0.5561920478960758,-0.588212251663208,0.4258186221122742,-0.6875208020210266,0,0,0,-1,-1,8343.190615125,automotive,2,2025-04-20T21:58:42.884+03:00,null,0,0,0,0,0,0,0,null,766868322.9873313,0,-0.1100006,99.73491,1,1,2025-04-20T21:51:51.574+03:00,72,1.2,2025-04-19T12:19:17.059+03:00,0.05691595998002078,0
2025-04-20T21:58:52.884+03:00,1745175531.592006,40.98581706731666,29.13746237102972,124.5693,-1,-1,-1,-1,30,214.5326883410212,-9999,8353.185951625001,-0.5997314453125,0.433349609375,-0.670684814453125,8353.182181625001,-2.00553160466434,-0.7071083654137799,-0.4397487359970913,0.02288091368973255,0.07312004268169403,-0.00083529221592471,-0.01283156871795654,-0.007606029510498047,0.01535141468048096,XArbitraryZVertical,-0.394914033959218,-0.009296230061838346,-0.7311584689798205,0.5562047901572791,-0.5878307223320007,0.4257121086120605,-0.6879130005836487,0,0,0,-1,-1,8343.190615125,automotive,2,2025-04-20T21:58:42.884+03:00,null,0,0,0,0,0,0,0,null,766868322.9873313,0,-0.1100006,99.73491,1,1,2025-04-20T21:51:51.574+03:00,72,1.2,2025-04-19T12:19:17.059+03:00,0.05691595998002078,0
2025-04-20T21:58:52.894+03:00,1745175531.592006,40.98581706731666,29.13746237102972,124.5693,-1,-1,-1,-1,30,214.5326883410212,-9999,8353.196027625001,-0.5990447998046875,0.45562744140625,-0.681854248046875,8353.192257625,-2.00529380966768,-0.7064756079124199,-0.4395326805727043,0.02970792725682259,0.01882324367761612,0.006082534790039062,-0.01227647066116333,0.007833003997802734,0.01766997575759888,XArbitraryZVertical,-0.3946352537870682,-0.009254940559183345,-0.7312554794754894,0.5562757740487067,-0.5874549746513367,0.4255166053771973,-0.6883547306060791,0,0,0,-1,-1,8343.190615125,automotive,2,2025-04-20T21:58:42.884+03:00,null,0,0,0,0,0,0,0,null,766868322.9873313,0,-0.1100006,99.73491,1,1,2025-04-20T21:51:51.574+03:00,72,1.2,2025-04-19T12:19:17.059+03:00,0.05691595998002078,0
2025-04-20T21:58:52.904+03:00,1745175531.592006,40.98581706731666,29.13746237102972,124.5693,-1,-1,-1,-1,30,214.5326883410212,-9999,8353.206103625,-0.551788330078125,0.4182891845703125,-0.6707763671875,8353.202333625,-2.005301062763686,-0.7065444955963595,-0.4394857262194823,-0.01575229875743389,-0.001107387244701385,-0.01010246016085148,-0.01152944564819336,0.03015333414077759,0.006475269794464111,XArbitraryZVertical,-0.3946504019955411,-0.009291739959805218,-0.7312522120544236,0.5562686966506303,-0.5875153541564941,0.4254741072654724,-0.6883294582366943,0,0,0,-1,-1,8343.190615125,automotive,2,2025-04-20T21:58:42.884+03:00,null,0,0,0,0,0,0,0,null,766868322.9873313,0,-0.1100006,99.73491,1,1,2025-04-20T21:51:51.574+03:00,72,1.2,2025-04-19T12:19:17.059+03:00,0.05691595998002078,0
2025-04-20T21:58:52.914+03:00,1745175531.592006,40.98581706731666,29.13746237102972,124.5693,-1,-1,-1,-1,30,214.5326883410212,-9999,8353.216179625,-0.5855560302734375,0.403717041015625,-0.664306640625,8353.212409625001,-2.005480730269814,-0.7063842293061393,-0.4396424032941953,-0.01934703439474106,0.03921899572014809,0.001250062836334109,0.03557342290878296,-0.007326722145080566,0.01759660243988037,XArbitraryZVertical,-0.3946262319656521,-0.009148084994093215,-0.731306092328857,0.556217461795369,-0.5873618125915527,0.4256159067153931,-0.6883729100227356,0,0,0,-1,-1,8343.190615125,automotive,2,2025-04-20T21:58:42.884+03:00,null,0,0,0,0,0,0,0,null,766868322.9873313,0,-0.1100006,99.73491,1,1,2025-04-20T21:51:51.574+03:00,72,1.2,2025-04-19T12:19:17.059+03:00,0.05691595998002078,0
2025-04-20T21:58:52.924+03:00,1745175531.592006,40.98581706731666,29.13746237102972,124.5693,-1,-1,-1,-1,30,214.5326883410212,-9999,8353.226255625001,-0.6104736328125,0.4176483154296875,-0.6776123046875,8353.222485625001,-2.005628088029175,-0.7062574711955263,-0.439833040507525,-0.02610773406922817,0.003706276183947921,-0.00103772571310401,0.001665830612182617,-0.02207136154174805,0.02407902479171753,XArbitraryZVertical,-0.3946214532571197,-0.009006302971711797,-0.7313383152655003,0.5561807493138966,-0.5872218608856201,0.425788402557373,-0.6883856058120728,0,0,0,-1,-1,8343.190615125,automotive,2,2025-04-20T21:58:42.884+03:00,null,0,0,0,0,0,0,0,null,766868322.9873313,0,-0.1100006,99.73491,1,1,2025-04-20T21:51:51.574+03:00,72,1.2,2025-04-19T12:19:17.059+03:00,0.05691595998002078,0
2025-04-20T21:58:52.934+03:00,1745175531.592006,40.98581706731666,29.13746237102972,124.5693,-1,-1,-1,-1,30,214.5326883410212,-9999,8353.236331625001,-0.5658721923828125,0.4288330078125,-0.668670654296875,8353.232561625,-2.005861586881397,-0.7063335017054163,-0.4401088863729857,-0.03349800780415535,0.01060492917895317,-0.0001258593983948231,-0.02327567338943481,-0.00838962197303772,0.01063930988311768,XArbitraryZVertical,-0.3947094392769262,-0.008869319290513548,-0.7313394241100798,0.5561191343642814,-0.5871979594230652,0.4260379672050476,-0.6882516145706177,0,0,0,-1,-1,8343.190615125,automotive,2,2025-04-20T21:58:42.884+03:00,null,0,0,0,0,0,0,0,null,766868322.9873313,0,-0.1100006,99.73491,1,1,2025-04-20T21:51:51.574+03:00,72,1.2,2025-04-19T12:19:17.059+03:00,0.05691595998002078,0
2025-04-20T21:58:52.944+03:00,1745175531.592006,40.98581706731666,29.13746237102972,124.5693,-1,-1,-1,-1,30,214.5326883410212,-9999,8353.246407625,-0.5911102294921875,0.43084716796875,-0.676666259765625,8353.242637625,-2.006078909685398,-0.7063346928153887,-0.440325726672286,-0.01988345943391323,0.01062856428325176,-0.000173030624864623,0.02126657962799072,0.002598851919174194,0.01950997114181519,XArbitraryZVertical,-0.3947573299186898,-0.008738644540530121,-0.7313611855910769,0.5560585222918207,-0.5871387720108032,0.4262341558933258,-0.6881805658340454,0,0,0,-1,-1,8343.190615125,automotive,2,2025-04-20T21:58:42.884+03:00,null,0,0,0,0,0,0,0,null,766868322.9873313,0,-0.1100006,99.73491,1,1,2025-04-20T21:51:51.574+03:00,72,1.2,2025-04-19T12:19:17.059+03:00,0.05691595998002078,0
2025-04-20T21:58:52.955+03:00,1745175531.592006,40.98581706731666,29.13746237102972,124.5693,-1,-1,-1,-1,30,214.5326883410212,-9999,8353.256483625,-0.5901031494140625,0.4272918701171875,-0.6787567138671875,8353.252713625001,-2.006248710439944,-0.706389659583438,-0.4404817429850632,-0.02198975346982479,-0.0007519219070672989,-0.001081434893421829,-0.003976821899414062,0.004471927881240845,0.01143145561218262,XArbitraryZVertical,-0.3948116248705686,-0.008656996788960534,-0.7313698709035207,0.5560097258822264,-0.5871334075927734,0.4263752698898315,-0.6880976557731628,0,0,0,-1,-1,8343.190615125,automotive,2,2025-04-20T21:58:42.884+03:00,null,0,0,0,0,0,0,0,null,766868322.9873313,0,-0.1100006,99.73491,1,1,2025-04-20T21:51:51.574+03:00,72,1.2,2025-04-19T12:19:17.059+03:00,0.05691595998002078,0
2025-04-20T21:58:52.964+03:00,1745175531.592006,40.98581706731666,29.13746237102972,124.5693,-1,-1,-1,-1,30,214.5326883410212,-9999,8353.266559625001,-0.5833892822265625,0.4353485107421875,-0.67510986328125,8353.262789625,-2.006447727155455,-0.7065269351597205,-0.4406131821606218,-0.02778206393122673,-0.0006370730698108673,-0.0003989665419794619,-0.002911627292633057,0.0007976889610290527,0.009217798709869385,XArbitraryZVertical,-0.3948908553693845,-0.008602448736161802,-0.7313747877515323,0.5559477825364099,-0.5871914625167847,0.4264941513538361,-0.6879743933677673,0,0,0,-1,-1,8343.190615125,automotive,2,2025-04-20T21:58:42.884+03:00,null,0,0,0,0,0,0,0,null,766868322.9873313,0,-0.1100006,99.73491,1,1,2025-04-20T21:51:51.574+03:00,72,1.2,2025-04-19T12:19:17.059+03:00,0.05691595998002078,0
2025-04-20T21:58:52.975+03:00,1745175531.592006,40.98581706731666,29.13746237102972,124.5693,-1,-1,-1,-1,30,214.5326883410212,-9999,8353.276635625001,-0.5941009521484375,0.4257354736328125,-0.6788330078125,8353.272865625,-2.006712226898482,-0.7066441410035654,-0.4408403639539364,-0.02937969379127026,0.006635220721364021,-0.003803818020969629,0.003819942474365234,0.008648872375488281,0.01272213459014893,XArbitraryZVertical,-0.394983515872301,-0.008490470134724797,-0.7313848832794422,0.5558703346227439,-0.587209165096283,0.4266996383666992,-0.6878318786621094,0,0,0,-1,-1,8343.190615125,automotive,2,2025-04-20T21:58:42.884+03:00,null,0,0,0,0,0,0,0,null,766868322.9873313,0,-0.1100006,99.73491,1,1,2025-04-20T21:51:51.574+03:00,72,1.2,2025-04-19T12:19:17.059+03:00,0.05691595998002078,0
2025-04-20T21:58:52.984+03:00,1745175531.592006,40.98581706731666,29.13746237102972,124.5693,-1,-1,-1,-1,30,214.5326883410212,-9999,8353.286711625,-0.5958251953125,0.4185028076171875,-0.677398681640625,8353.282941625001,-2.00702799690252,-0.7067470879134257,-0.4411516124785635,-0.04584674909710884,0.003711136290803552,-0.006902772001922131,-0.006907224655151367,-0.001245617866516113,0.008837461471557617,XArbitraryZVertical,-0.3950890788240382,-0.008330281198750468,-0.7313972198019881,0.5557817442375962,-0.5871937274932861,0.4269810914993286,-0.6876704692840576,0,0,0,-1,-1,8343.190615125,automotive,2,2025-04-20T21:58:42.884+03:00,null,0,0,0,0,0,0,0,null,766868322.9873313,0,-0.1100006,99.73491,1,1,2025-04-20T21:51:51.574+03:00,72,1.2,2025-04-19T12:19:17.059+03:00,0.05691595998002078,0
2025-04-20T21:58:52.995+03:00,1745175531.592006,40.98581706731666,29.13746237102972,124.5693,-1,-1,-1,-1,30,214.5326883410212,-9999,8353.296787625,-0.5858306884765625,0.4200897216796875,-0.6787109375,8353.293017625001,-2.00748096549986,-0.7069022958648111,-0.441521291860068,-0.06423161923885345,-0.002017855644226074,-0.0136400368064642,-0.00862729549407959,-0.008812546730041504,0.01006060838699341,XArbitraryZVertical,-0.3952268116694348,-0.008133658655207139,-0.7314268457387102,0.5556476719375016,-0.5871978998184204,0.427315354347229,-0.6874592304229736,0,0,0,-1,-1,8343.190615125,automotive,2,2025-04-20T21:58:42.884+03:00,null,0,0,0,0,0,0,0,null,766868322.9873313,0,-0.1100006,99.73491,1,1,2025-04-20T21:51:51.574+03:00,72,1.2,2025-04-19T12:19:17.059+03:00,0.05691595998002078,0
2025-04-20T21:58:53.005+03:00,1745175531.592006,40.98581706731666,29.13746237102972,124.5693,-1,-1,-1,-1,30,214.5326883410212,-9999,8353.306863625001,-0.57763671875,0.4149169921875,-0.6863555908203125,8353.303093625,-2.008254854437034,-0.7073531139631027,-0.4420086639270458,-0.1018352508544922,-0.01690605655312538,-0.02177842333912849,0.001541674137115479,-0.007666230201721191,0.00832521915435791,XArbitraryZVertical,-0.3954989564379169,-0.007907820897340703,-0.7314662597041446,0.5554054540405062,-0.587372362613678,0.4277559518814087,-0.6870360970497131,0,0,0,-1,-1,8343.190615125,automotive,2,2025-04-20T21:58:42.884+03:00,null,0,0,0,0,0,0,0,null,766868322.9873313,0,-0.1100006,99.73491,1,1,2025-04-20T21:51:51.574+03:00,72,1.2,2025-04-19T12:19:17.059+03:00,0.05691595998002078,0
2025-04-20T21:58:53.015+03:00,1745175531.592006,40.98581706731666,29.13746237102972,124.5693,-1,-1,-1,-1,30,214.5326883410212,-9999,8353.316939625001,-0.5767364501953125,0.4003753662109375,-0.6818389892578125,8353.313169625,-2.00955976861453,-0.7083533481782932,-0.4428811495039195,-0.2104072570800781,-0.06306210160255432,-0.03612487390637398,0.01017951965332031,-0.01362743973731995,-0.0001909732818603516,XArbitraryZVertical,-0.3960560699584552,-0.007572525094579834,-0.731475598309953,0.5550005244138763,-0.5878162384033203,0.4285444319248199,-0.6861644983291626,0,0,0,-1,-1,8343.190615125,automotive,2,2025-04-20T21:58:42.884+03:00,null,0,0,0,0,0,0,0,null,766868322.9873313,0,-0.1100006,99.73491,1,1,2025-04-20T21:51:51.574+03:00,72,1.2,2025-04-19T12:19:17.059+03:00,0.05691595998002078,0
2025-04-20T21:58:53.025+03:00,1745175531.592006,40.98581706731666,29.13746237102972,124.5693,-1,-1,-1,-1,30,214.5326883410212,-9999,8353.327015625,-0.57196044921875,0.3687591552734375,-0.6634521484375,8353.323245625001,-2.01237714560339,-0.7104100795831727,-0.4450707145942194,-0.4371094405651093,-0.109550841152668,-0.06097033619880676,0.01187646389007568,-0.03014633059501648,0.002402186393737793,XArbitraryZVertical,-0.3972840832883781,-0.006693583213534878,-0.7314593882595987,0.5541549410843059,-0.5886129140853882,0.430521696805954,-0.6842411160469055,0,0,0,-1,-1,8343.190615125,automotive,2,2025-04-20T21:58:42.884+03:00,null,0,0,0,0,0,0,0,null,766868322.9873313,0,-0.1100006,99.73491,1,1,2025-04-20T21:51:51.574+03:00,72,1.2,2025-04-19T12:19:17.059+03:00,0.05691595998002078,0
2025-04-20T21:58:53.035+03:00,1745175531.592006,40.98581706731666,29.13746237102972,124.5693,-1,-1,-1,-1,30,214.5326883410212,-9999,8353.337091625001,-0.5698394775390625,0.30487060546875,-0.6575927734375,8353.333321625001,-2.016697508035531,-0.7135658976588175,-0.4486886673638108,-0.6114985346794128,-0.1443415731191635,-0.05101890116930008,0.01778548955917358,-0.0650252103805542,0.0177459716796875,XArbitraryZVertical,-0.3992161744148464,-0.005234330095227862,-0.7313806820107707,0.5528846010212295,-0.5897459387779236,0.4337843656539917,-0.6811981201171875,0,0,0,-1,-1,8343.190615125,automotive,2,2025-04-20T21:58:42.884+03:00,null,0,0,0,0,0,0,0,null,766868322.9873313,0,-0.1100006,99.73491,1,1,2025-04-20T21:51:51.574+03:00,72,1.2,2025-04-19T12:19:17.059+03:00,0.05691595998002078,0
2025-04-20T21:58:53.046+03:00,1745175531.592006,40.98581706731666,29.13746237102972,124.5693,-1,-1,-1,-1,30,214.5326883410212,-9999,8353.347167625001,-0.5720062255859375,0.247528076171875,-0.6671905517578125,8353.343397625,-2.021861209994431,-0.7173910196571801,-0.4534525731209164,-0.6939046382904053,-0.1627079248428345,-0.02144163474440575,0.02114248275756836,-0.1332011818885803,0.01977968215942383,XArbitraryZVertical,-0.4016252190756014,-0.003316089198112428,-0.7311853273852282,0.5514110238144211,-0.5909820199012756,0.4380717873573303,-0.6773723959922791,0,0,0,-1,-1,8343.190615125,automotive,2,2025-04-20T21:58:42.884+03:00,null,0,0,0,0,0,0,0,null,766868322.9873313,0,-0.1100006,99.73491,1,1,2025-04-20T21:51:51.574+03:00,72,1.2,2025-04-19T12:19:17.059+03:00,0.05691595998002078,0
2025-04-20T21:58:53.055+03:00,1745175531.592006,40.98581706731666,29.13746237102972,124.5693,-1,-1,-1,-1,30,214.5326883410212,-9999,8353.357245166668,-0.5819549560546875,0.29345703125,-0.6781768798828125,8353.353473625,-2.027248371626668,-0.7213975376338055,-0.4588505908318449,-0.7369988560676575,-0.1563214063644409,0.002797126304358244,0.02011454105377197,-0.1953898072242737,0.006023228168487549,XArbitraryZVertical,-0.4042176091516229,-0.001133148411652361,-0.730886583030092,0.5499194973863265,-0.5921207070350647,0.4429178833961487,-0.6732136607170105,0,0,0,-1,-1,8343.190615125,automotive,2,2025-04-20T21:58:42.884+03:00,null,0,0,0,0,0,0,0,null,766868322.9873313,0,-0.1100006,99.73491,1,1,2025-04-20T21:51:51.574+03:00,72,1.2,2025-04-19T12:19:17.059+03:00,0.05691595998002078,0
2025-04-20T21:58:53.067+03:00,1745175531.592006,40.98581706731666,29.13746237102972,124.5693,-1,-1,-1,-1,30,214.5326883410212,-9999,8353.367321166666,-0.588226318359375,0.390594482421875,-0.6982879638671875,8353.363551166667,-2.03234881661991,-0.725180960192813,-0.4642605858504283,-0.650635302066803,-0.1464795619249344,0.02518492192029953,0.01111060380935669,-0.1543047726154327,-0.009011209011077881,XArbitraryZVertical,-0.4067137519119003,0.001069518142858251,-0.7305369906902915,0.5485419750138344,-0.5930655002593994,0.4477617740631104,-0.6691655516624451,0,0,0,-1,-1,8343.190615125,automotive,2,2025-04-20T21:58:42.884+03:00,null,0,0,0,0,0,0,0,null,766868322.9873313,0,-0.1100006,99.73491,1,1,2025-04-20T21:51:51.574+03:00,72,1.2,2025-04-19T12:19:17.059+03:00,0.05691595998002078,0
2025-04-20T21:58:53.075+03:00,1745175531.592006,40.98581706731666,29.13746237102972,124.5693,-1,-1,-1,-1,30,214.5326883410212,-9999,8353.377397166667,-0.5885009765625,0.4500885009765625,-0.744842529296875,8353.373627166668,-2.03665208792228,-0.7284910589029333,-0.4688014655802358,-0.5359566807746887,-0.1229603812098503,0.008151611313223839,0.005691230297088623,-0.06122288107872009,-0.03261309862136841,XArbitraryZVertical,-0.4088449895708008,0.002894408552789707,-0.7302110625125268,0.5473838963421834,-0.5939175486564636,0.4518173933029175,-0.6656748056411743,0,0,0,-1,-1,8343.190615125,automotive,2,2025-04-20T21:58:42.884+03:00,null,0,0,0,0,0,0,0,null,766868322.9873313,0,-0.1100006,99.73491,1,1,2025-04-20T21:51:51.574+03:00,72,1.2,2025-04-19T12:19:17.059+03:00,0.05691595998002078,0
2025-04-20T21:58:53.085+03:00,1745175531.592006,40.98581706731666,29.13746237102972,124.5693,-1,-1,-1,-1,30,214.5326883410212,-9999,8353.387473166667,-0.5863037109375,0.483856201171875,-0.800537109375,8353.383703166668,-2.040353971876212,-0.7312443910453277,-0.4726029936998192,-0.4677069783210754,-0.08839461952447891,0.007663620170205832,0.006095826625823975,-0.00511699914932251,-0.08208870887756348,XArbitraryZVertical,-0.4106133300815789,0.004453435071744216,-0.7299609147009145,0.5463824420256348,-0.594596803188324,0.455205500125885,-0.662753701210022,0,0,0,-1,-1,8343.190615125,automotive,2,2025-04-20T21:58:42.884+03:00,null,0,0,0,0,0,0,0,null,766868322.9873313,0,-0.1100006,99.73491,1,1,2025-04-20T21:51:51.574+03:00,72,1.2,2025-04-19T12:19:17.059+03:00,0.05691595998002078,0
2025-04-20T21:58:53.095+03:00,1745175531.592006,40.98581706731666,29.13746237102972,124.5693,-1,-1,-1,-1,30,214.5326883410212,-9999,8353.397549166668,-0.580413818359375,0.522216796875,-0.8420257568359375,8353.393779166667,-2.044784235639894,-0.7343036154379164,-0.4769063353362901,-0.7377952337265015,-0.1400871127843857,-0.02182689309120178,0.00899970531463623,0.02482330799102783,-0.1410655975341797,XArbitraryZVertical,-0.4125829847290313,0.006290086647865091,-0.7297461774043769,0.5451661708778547,-0.5953034162521362,0.4590328931808472,-0.6594714522361755,0,0,0,-1,-1,8343.190615125,automotive,2,2025-04-20T21:58:42.884+03:00,null,0,0,0,0,0,0,0,null,766868322.9873313,0,-0.1100006,99.73491,1,1,2025-04-20T21:51:51.574+03:00,72,1.2,2025-04-19T12:19:17.059+03:00,0.05691595998002078,0
2025-04-20T21:58:53.122+03:00,1745175531.592006,40.98581706731666,29.13746237102972,124.5693,-1,-1,-1,-1,30,214.5326883410212,-9999,8353.407626166667,-0.5437469482421875,0.527313232421875,-0.80804443359375,8353.403855166667,-2.051752523952771,-0.7397726724748391,-0.4835390218398803,-1.057318329811096,-0.316080778837204,0.01083304826170206,0.01642179489135742,0.05730140209197998,-0.1880830526351929,XArbitraryZVertical,-0.4158706892958536,0.008959869962189303,-0.7292778369611108,0.5432540859904268,-0.5968355536460876,0.4649153649806976,-0.6539425849914551,0,0,0,-1,-1,8343.190615125,automotive,2,2025-04-20T21:58:42.884+03:00,null,0,0,0,0,0,0,0,null,766868322.9873313,0,-0.1100006,99.73491,1,1,2025-04-20T21:51:51.574+03:00,72,1.2,2025-04-19T12:19:17.059+03:00,0.05691595998002078,0
2025-04-20T21:58:53.123+03:00,1745175531.592006,40.98581706731666,29.13746237102972,124.5693,-1,-1,-1,-1,30,214.5326883410212,-9999,8353.417702166667,-0.5018463134765625,0.463897705078125,-0.7563934326171875,8353.413931166668,-2.061115496710757,-0.748425812648661,-0.4929178416207581,-1.439850211143494,-0.5231266617774963,0.0327543281018734,0.05573129653930664,0.05411481857299805,-0.1625142693519592,XArbitraryZVertical,-0.4208096913210921,0.01241630346518325,-0.7282468814439427,0.5407600270165204,-0.5994781851768494,0.4731983840465546,-0.645530104637146,0,0,0,-1,-1,8343.190615125,automotive,2,2025-04-20T21:58:42.884+03:00,null,0,0,0,0,0,0,0,null,766868322.9873313,0,-0.1100006,99.73491,1,1,2025-04-20T21:51:51.574+03:00,72,1.2,2025-04-19T12:19:17.059+03:00,0.05691595998002078,0
2025-04-20T21:58:53.126+03:00,1745175531.592006,40.98581706731666,29.13746237102972,124.5693,-1,-1,-1,-1,30,214.5326883410212,-9999,8353.427777166668,-0.5100250244140625,0.3444061279296875,-0.7093353271484375,8353.424008166667,-2.074123601951628,-0.7609386247597515,-0.505518902909779,-1.947188496589661,-0.7251046895980835,0.04278355836868286,0.1015021204948425,-0.02036383748054504,-0.1227834820747375,XArbitraryZVertical,-0.4276762520547093,0.01697348930959902,-0.7267045315418466,0.5373130730863648,-0.6033483743667603,0.4842615127563477,-0.6336098313331604,0,0,0,-1,-1,8343.190615125,automotive,2,2025-04-20T21:58:42.884+03:00,null,0,0,0,0,0,0,0,null,766868322.9873313,0,-0.1100006,99.73491,1,1,2025-04-20T21:51:51.574+03:00,72,1.2,2025-04-19T12:19:17.059+03:00,0.05691595998002078,0
2025-04-20T21:58:53.136+03:00,1745175531.592006,40.98581706731666,29.13746237102972,124.5693,-1,-1,-1,-1,30,214.5326883410212,-9999,8353.437854166667,-0.495208740234375,0.2383270263671875,-0.7399444580078125,8353.434084166667,-2.091177122749025,-0.7779756396593183,-0.5219018863537959,-2.429118633270264,-0.9777771830558777,0.1122651621699333,0.09837985038757324,-0.1541236340999603,-0.09183090925216675,XArbitraryZVertical,-0.4367224263976545,0.02283317174858366,-0.7244187986700114,0.53288787777332,-0.608404815196991,0.4985297322273254,-0.617504358291626,0,0,0,-1,-1,8343.190615125,automotive,2,2025-04-20T21:58:42.884+03:00,null,0,0,0,0,0,0,0,null,766868322.9873313,0,-0.1100006,99.73491,1,1,2025-04-20T21:51:51.574+03:00,72,1.2,2025-04-19T12:19:17.059+03:00,0.05691595998002078,0
2025-04-20T21:58:53.146+03:00,1745175531.592006,40.98581706731666,29.13746237102972,124.5693,-1,-1,-1,-1,30,214.5326883410212,-9999,8353.447930166667,-0.450286865234375,0.2718353271484375,-0.8285980224609375,8353.444160166668,-2.110763642470708,-0.7987928365202999,-0.5417033993663174,-2.667576789855957,-1.207267999649048,0.3232725858688354,0.1187235713005066,-0.2772692441940308,-0.1422425508499146,XArbitraryZVertical,-0.4475059025331,0.02979131381549681,-0.7211036109849969,0.5280723839154262,-0.6139323115348816,0.5155962705612183,-0.5977019071578979,0,0,0,-1,-1,8343.190615125,automotive,2,2025-04-20T21:58:42.884+03:00,null,0,0,0,0,0,0,0,null,766868322.9873313,0,-0.1100006,99.73491,1,1,2025-04-20T21:51:51.574+03:00,72,1.2,2025-04-19T12:19:17.059+03:00,0.05691595998002078,0
2025-04-20T21:58:53.156+03:00,1745175531.592006,40.98581706731666,29.13746237102972,124.5693,-1,-1,-1,-1,30,214.5326883410212,-9999,8353.458006166667,-0.3892364501953125,0.376922607421875,-0.9783935546875,8353.454236166666,-2.130355788907644,-0.8219745015822406,-0.5640594064640909,-2.789200782775879,-1.381114363670349,0.5902965068817139,0.168735682964325,-0.2627858519554138,-0.2532795667648315,XArbitraryZVertical,-0.4592885147584531,0.03734775017531629,-0.7164822777235751,0.5237483052791466,-0.6190225481987,0.5346211791038513,-0.5753183960914612,0,0,0,-1,-1,8343.190615125,automotive,2,2025-04-20T21:58:42.884+03:00,null,0,0,0,0,0,0,0,null,766868322.9873313,0,-0.1100006,99.73491,1,1,2025-04-20T21:51:51.574+03:00,72,1.2,2025-04-19T12:19:17.059+03:00,0.05691595998002078,0
2025-04-20T21:58:53.166+03:00,1745175531.592006,40.98581706731666,29.13746237102972,124.5693,-1,-1,-1,-1,30,214.5326883410212,-9999,8353.468082166668,-0.367279052734375,0.5152740478515625,-1.003463745117188,8353.464312166667,-2.148045979167334,-0.8464831901429306,-0.5866990366672536,-2.322917222976685,-1.576123595237732,0.7459298968315125,0.2344725131988525,-0.1766925454139709,-0.4265807271003723,XArbitraryZVertical,-0.4712989870614841,0.04439465726964066,-0.710709573975673,0.5203826971676917,-0.623708963394165,0.5536150932312012,-0.5518127679824829,0,0,0,-1,-1,8343.190615125,automotive,2,2025-04-20T21:58:42.884+03:00,null,0,0,0,0,0,0,0,null,766868322.9873313,0,-0.1100006,99.73491,1,1,2025-04-20T21:51:51.574+03:00,72,1.2,2025-04-19T12:19:17.059+03:00,0.05691595998002078,0
2025-04-20T21:58:53.176+03:00,1745175531.592006,40.98581706731666,29.13746237102972,124.5693,-1,-1,-1,-1,30,214.5326883410212,-9999,8353.478158166667,-0.4024200439453125,0.6483306884765625,-1.009140014648438,8353.474388166667,-2.160653209909862,-0.8691099916105021,-0.6056320335602253,-1.730077385902405,-1.524683833122253,0.7294619679450989,0.2606360912322998,-0.05400776863098145,-0.472765326499939,XArbitraryZVertical,-0.4818907385123181,0.04931690928888736,-0.7045824330723472,0.5185679197932508,-0.6279151439666748,0.5692818164825439,-0.530698299407959,0,0,0,-1,-1,8343.190615125,automotive,2,2025-04-20T21:58:42.884+03:00,null,0,0,0,0,0,0,0,null,766868322.9873313,0,-0.1100006,99.73491,1,1,2025-04-20T21:51:51.574+03:00,72,1.2,2025-04-19T12:19:17.059+03:00,0.05691595998002078,0
2025-04-20T21:58:53.186+03:00,1745175531.592006,40.98581706731666,29.13746237102972,124.5693,-1,-1,-1,-1,30,214.5326883410212,-9999,8353.488234166667,-0.4573974609375,0.83465576171875,-1.021194458007812,8353.484464166668,-2.167958195961943,-0.8891321872804987,-0.619707495292128,-0.9507573843002319,-1.620412230491638,0.6628766655921936,0.2297090291976929,0.06753349304199219,-0.4962193965911865,XArbitraryZVertical,-0.4907829674735365,0.05168969234968002,-0.6985705102320996,0.5181305348729388,-0.6321290135383606,0.5807970762252808,-0.5129204988479614,0,0,0,-1,-1,8343.190615125,automotive,2,2025-04-20T21:58:42.884+03:00,null,0,0,0,0,0,0,0,null,766868322.9873313,0,-0.1100006,99.73491,1,1,2025-04-20T21:51:51.574+03:00,72,1.2,2025-04-19T12:19:17.059+03:00,0.05691595998002078,0
2025-04-20T21:58:53.196+03:00,1745175531.592006,40.98581706731666,29.13746237102972,124.5693,-1,-1,-1,-1,30,214.5326883410212,-9999,8353.498310166668,-0.5384063720703125,0.85186767578125,-0.919219970703125,8353.494540166666,-2.170468283109568,-0.9109113812484738,-0.6280482157654385,-0.430347740650177,-2.310728549957275,0.3952820003032684,0.1819022297859192,0.247089147567749,-0.5251486301422119,XArbitraryZVertical,-0.4994683213531836,0.05008513450288392,-0.6920038326507457,0.5188000011254146,-0.6392996311187744,0.5875665545463562,-0.4960457384586334,0,0,0,-1,-1,8343.190615125,automotive,2,2025-04-20T21:58:42.884+03:00,null,0,0,0,0,0,0,0,null,766868322.9873313,0,-0.1100006,99.73491,1,1,2025-04-20T21:51:51.574+03:00,72,1.2,2025-04-19T12:19:17.059+03:00,0.05691595998002078,0
2025-04-20T21:58:53.206+03:00,1745175531.592006,40.98581706731666,29.13746237102972,124.5693,-1,-1,-1,-1,30,214.5326883410212,-9999,8353.508386166668,-0.76092529296875,0.7387542724609375,-0.82745361328125,8353.504616166667,-2.17130605196605,-0.9335810532433482,-0.6332759513043147,-0.3624938726425171,-2.086660861968994,0.3540939390659332,0.1094955205917358,0.2600789070129395,-0.4396271407604218,XArbitraryZVertical,-0.5079734211350699,0.04654722629460412,-0.6853536671440666,0.5196984765650046,-0.6479018330574036,0.591788649559021,-0.4795927107334137,0,0,0,-1,-1,8343.190615125,automotive,2,2025-04-20T21:58:42.884+03:00,null,0,0,0,0,0,0,0,null,766868322.9873313,0,-0.1100006,99.73491,1,1,2025-04-20T21:51:51.574+03:00,72,1.2,2025-04-19T12:19:17.059+03:00,0.05691595998002078,0
2025-04-20T21:58:53.216+03:00,1745175531.592006,40.98581706731666,29.13746237102972,124.5693,-1,-1,-1,-1,30,214.5326883410212,-9999,8353.518462166667,-0.926483154296875,0.656005859375,-0.811431884765625,8353.514692166667,-2.173586691313742,-0.9559004654356438,-0.638401816806364,-0.5303835272789001,-2.087218046188354,0.2564392983913422,-0.1049678325653076,0.1428414583206177,-0.3641957938671112,XArbitraryZVertical,-0.5162228850955586,0.04341751733815616,-0.6790843300754256,0.5200703876422628,-0.6559574007987976,0.595912754535675,-0.4632577002048492,0,0,0,-1,-1,8343.190615125,automotive,2,2025-04-20T21:58:42.884+03:00,null,0,0,0,0,0,0,0,null,766868322.9873313,0,-0.1100006,99.73491,1,1,2025-04-20T21:51:51.574+03:00,72,1.2,2025-04-19T12:19:17.059+03:00,0.05691595998002078,0
2025-04-20T21:58:53.226+03:00,1745175531.592006,40.98581706731666,29.13746237102972,124.5693,-1,-1,-1,-1,30,214.5326883410212,-9999,8353.528538166667,-0.79595947265625,0.5030975341796875,-0.6779937744140625,8353.524768166668,-2.179372278237022,-0.9806319662596269,-0.6441475397114333,-0.9401846528053284,-2.148135423660278,0.159952700138092,-0.2621262073516846,0.05548882484436035,-0.3664497137069702,XArbitraryZVertical,-0.5252064785536712,0.04083013404649895,-0.6728499589130916,0.5193880250752363,-0.6643569469451904,0.6005170345306396,-0.44498211145401,0,0,0,-1,-1,8343.190615125,automotive,2,2025-04-20T21:58:42.884+03:00,null,0,0,0,0,0,0,0,null,766868322.9873313,0,-0.1100006,99.73491,1,1,2025-04-20T21:51:51.574+03:00,72,1.2,2025-04-19T12:19:17.059+03:00,0.05691595998002078,0
2025-04-20T21:58:53.236+03:00,1745175531.592006,40.98581706731666,29.13746237102972,124.5693,-1,-1,-1,-1,30,214.5326883410212,-9999,8353.538614166668,-0.6031341552734375,0.424346923828125,-0.548797607421875,8353.534844166667,-2.191357409355276,-1.010040638931232,-0.6520428375420273,-1.459301352500916,-2.248205900192261,0.1367728114128113,-0.1228415369987488,-0.1037138700485229,-0.2552738189697266,XArbitraryZVertical,-0.5357920041056099,0.03958485800825282,-0.6663520662813051,0.517044397450954,-0.6731179356575012,0.6068114042282104,-0.4227199256420135,0,0,0,-1,-1,8343.190615125,automotive,2,2025-04-20T21:58:42.884+03:00,null,0,0,0,0,0,0,0,null,766868322.9873313,0,-0.1100006,99.73491,1,1,2025-04-20T21:51:51.574+03:00,72,1.2,2025-04-19T12:19:17.059+03:00,0.05691595998002078,0
2025-04-20T21:58:53.251+03:00,1745175531.592006,40.98581706731666,29.13746237102972,124.5693,-1,-1,-1,-1,30,214.5326883410212,-9999,8353.548690166666,-0.5593109130859375,0.5213165283203125,-0.4557952880859375,8353.544920166667,-2.206989684594789,-1.042297159283456,-0.6612288728051942,-1.559216141700745,-2.254822731018066,0.1338257491588593,0.07842415571212769,-0.1897403001785278,-0.150833785533905,XArbitraryZVertical,-0.5472483198365482,0.03920978717066122,-0.659528143859287,0.5138136126361962,-0.6815583109855652,0.6140871644020081,-0.3979637324810028,0,0,0,-1,-1,8343.190615125,automotive,2,2025-04-20T21:58:42.884+03:00,null,0,0,0,0,0,0,0,null,766868322.9873313,0,-0.1100006,99.73491,1,1,2025-04-20T21:51:51.574+03:00,72,1.2,2025-04-19T12:19:17.059+03:00,0.05691595998002078,0
2025-04-20T21:58:53.256+03:00,1745175531.592006,40.98581706731666,29.13746237102972,124.5693,-1,-1,-1,-1,30,214.5326883410212,-9999,8353.558766166667,-0.6012725830078125,0.657806396484375,-0.4081268310546875,8353.554996166667,-2.222716115734438,-1.074417324002301,-0.6693983658430567,-1.316222667694092,-2.181671619415283,0.07871882617473602,0.1302419304847717,-0.09919780492782593,-0.08232647180557251,XArbitraryZVertical,-0.5583678057437904,0.03861375861419124,-0.6527758394712886,0.5105076237715959,-0.6895527839660645,0.6205142736434937,-0.3734687566757202,0,0,0,-1,-1,8343.190615125,automotive,2,2025-04-20T21:58:42.884+03:00,null,0,0,0,0,0,0,0,null,766868322.9873313,0,-0.1100006,99.73491,1,1,2025-04-20T21:51:51.574+03:00,72,1.2,2025-04-19T12:19:17.059+03:00,0.05691595998002078,0
2025-04-20T21:58:53.266+03:00,1745175531.592006,40.98581706731666,29.13746237102972,124.5693,-1,-1,-1,-1,30,214.5326883410212,-9999,8353.568842166667,-0.6328277587890625,0.7821807861328125,-0.324981689453125,8353.565072166668,-2.23454581069593,-1.103241030695718,-0.6748646076001008,-0.7857282161712646,-2.074960708618164,0.03297716379165649,0.09571880102157593,0.03301471471786499,-0.05621987581253052,XArbitraryZVertical,-0.5680606320842864,0.03679236353997747,-0.6463899807800827,0.5080682820528537,-0.6969913244247437,0.6247916221618652,-0.3519068658351898,0,0,0,-1,-1,8343.190615125,automotive,2,2025-04-20T21:58:42.884+03:00,null,0,0,0,0,0,0,0,null,766868322.9873313,0,-0.1100006,99.73491,1,1,2025-04-20T21:51:51.574+03:00,72,1.2,2025-04-19T12:19:17.059+03:00,0.05691595998002078,0
2025-04-20T21:58:53.277+03:00,1745175531.592006,40.98581706731666,29.13746237102972,124.5693,-1,-1,-1,-1,30,214.5326883410212,-9999,8353.578918166668,-0.64984130859375,0.851531982421875,-0.19781494140625,8353.575148166667,-2.239270205069059,-1.126472276336833,-0.6770861040383443,-0.05866660922765732,-1.944754600524902,0.04317387565970421,0.07089507579803467,0.1556561589241028,0.01004230976104736,XArbitraryZVertical,-0.5756651453074111,0.03313104605551277,-0.6404232191810195,0.507316461808428,-0.7037227749824524,0.6265245676040649,-0.3350239396095276,0,0,0,-1,-1,8343.190615125,automotive,2,2025-04-20T21:58:42.884+03:00,null,0,0,0,0,0,0,0,null,766868322.9873313,0,-0.1100006,99.73491,1,1,2025-04-20T21:51:51.574+03:00,72,1.2,2025-04-19T12:19:17.059+03:00,0.05691595998002078,0
2025-04-20T21:58:53.287+03:00,1745175531.592006,40.98581706731666,29.13746237102972,124.5693,-1,-1,-1,-1,30,214.5326883410212,-9999,8353.588994166666,-0.6987152099609375,0.814178466796875,-0.0699615478515625,8353.585224166667,-2.236725581018239,-1.143809625229555,-0.6766303987744159,0.3778385519981384,-1.810076355934143,0.03800494596362114,0.05984377861022949,0.2253625988960266,0.1250768303871155,XArbitraryZVertical,-0.5811889640344714,0.02781215321399267,-0.6348707382217749,0.5083158330146289,-0.7096850275993347,0.6261693239212036,-0.3228917419910431,0,0,0,-1,-1,8343.190615125,automotive,2,2025-04-20T21:58:42.884+03:00,null,0,0,0,0,0,0,0,null,766868322.9873313,0,-0.1100006,99.73491,1,1,2025-04-20T21:51:51.574+03:00,72,1.2,2025-04-19T12:19:17.059+03:00,0.05691595998002078,0
2025-04-20T21:58:53.297+03:00,1745175531.592006,40.98581706731666,29.13746237102972,124.5693,-1,-1,-1,-1,30,214.5326883410212,-9999,8353.599070166667,-0.74493408203125,0.6722259521484375,0.0533294677734375,8353.595300166668,-2.232289066047758,-1.158129135349355,-0.6756377931163656,0.2744407653808594,-1.574535012245178,0.06880440562963486,0.01608961820602417,0.1887833476066589,0.242984265089035,XArbitraryZVertical,-0.5856805498247222,0.02248106649323475,-0.6298001340736731,0.5097300584004074,-0.7148048281669617,0.6253951191902161,-0.3129457831382751,0,0,0,-1,-1,8343.190615125,automotive,2,2025-04-20T21:58:42.884+03:00,null,0,0,0,0,0,0,0,null,766868322.9873313,0,-0.1100006,99.73491,1,1,2025-04-20T21:51:51.574+03:00,72,1.2,2025-04-19T12:19:17.059+03:00,0.05691595998002078,0
2025-04-20T21:58:53.307+03:00,1745175531.592006,40.98581706731666,29.13746237102972,124.5693,-1,-1,-1,-1,30,214.5326883410212,-9999,8353.609146166667,-0.7594451904296875,0.51605224609375,0.056304931640625,8353.605376166668,-2.230821932046076,-1.17199866615451,-0.6762134287468551,-0.1383302062749863,-1.368114352226257,0.1187733262777328,-0.02618962526321411,0.04638183116912842,0.3561916649341583,XArbitraryZVertical,-0.5900997903691605,0.01873925490196544,-0.6252118118564812,0.5104324654168034,-0.7187444567680359,0.6258441805839539,-0.3028621673583984,0,0,0,-1,-1,8343.190615125,automotive,2,2025-04-20T21:58:42.884+03:00,null,0,0,0,0,0,0,0,null,766868333.2957783,0,0.02000046,99.73645,1,1,2025-04-20T21:51:51.574+03:00,72,1.2,2025-04-19T12:19:17.059+03:00,0.05691595998002078,0
2025-04-20T21:58:53.317+03:00,1745175531.592006,40.98581706731666,29.13746237102972,124.5693,-1,-1,-1,-1,30,214.5326883410212,-9999,8353.619222166668,-0.7210693359375,0.450408935546875,-0.0014190673828125,8353.615452166667,-2.234988620860081,-1.187613370257669,-0.6784565490314877,-0.6071963906288147,-1.200130462646484,0.04124980792403221,-0.03736335039138794,-0.1115399599075317,0.3473820388317108,XArbitraryZVertical,-0.5951275455740488,0.01687267137674311,-0.621111028302602,0.5096659784398511,-0.72208172082901,0.627592146396637,-0.291077047586441,0,0,0,-1,-1,8343.190615125,automotive,2,2025-04-20T21:58:42.884+03:00,null,0,0,0,0,0,0,0,null,766868333.2957783,0,0.02000046,99.73645,1,1,2025-04-20T21:51:51.574+03:00,72,1.2,2025-04-19T12:19:17.059+03:00,0.05691595998002078,0
2025-04-20T21:58:53.327+03:00,1745175531.592006,40.98581706731666,29.13746237102972,124.5693,-1,-1,-1,-1,30,214.5326883410212,-9999,8353.629298166667,-0.691741943359375,0.522735595703125,0.001953125,8353.625528166667,-2.243737495711181,-1.204462557216625,-0.6810625173549697,-0.7929443120956421,-1.06225323677063,-0.05302133038640022,0.00428473949432373,-0.1792099475860596,0.2768640518188477,XArbitraryZVertical,-0.6004958561545102,0.01622319384814318,-0.6176750353648592,0.5075618120594312,-0.7253540754318237,0.6296188831329346,-0.2782830595970154,0,0,0,-1,-1,8343.190615125,automotive,2,2025-04-20T21:58:42.884+03:00,null,0,0,0,0,0,0,0,null,766868333.2957783,0,0.02000046,99.73645,1,1,2025-04-20T21:51:51.574+03:00,72,1.2,2025-04-19T12:19:17.059+03:00,0.05691595998002078,0
2025-04-20T21:58:53.337+03:00,1745175531.592006,40.98581706731666,29.13746237102972,124.5693,-1,-1,-1,-1,30,214.5326883410212,-9999,8353.639374166667,-0.66998291015625,0.661712646484375,0.0054168701171875,8353.635604166668,-2.253518877786155,-1.221210611223352,-0.6828192789825012,-0.7308444380760193,-1.052474975585938,-0.1477550268173218,0.03713059425354004,-0.1082471609115601,0.2676702439785004,XArbitraryZVertical,-0.6057206610624275,0.01561905278686493,-0.6146791592868458,0.5050028366756592,-0.7288724184036255,0.6309826970100403,-0.2657170593738556,0,0,0,-1,-1,8343.190615125,automotive,2,2025-04-20T21:58:42.884+03:00,null,0,0,0,0,0,0,0,null,766868333.2957783,0,0.02000046,99.73645,1,1,2025-04-20T21:51:51.574+03:00,72,1.2,2025-04-19T12:19:17.059+03:00,0.05691595998002078,0
2025-04-20T21:58:53.347+03:00,1745175531.592006,40.98581706731666,29.13746237102972,124.5693,-1,-1,-1,-1,30,214.5326883410212,-9999,8353.649450166668,-0.6331787109375,0.751434326171875,0.0305328369140625,8353.645680166666,-2.262354353376691,-1.23721626135494,-0.6833275038078145,-0.565877377986908,-1.005178093910217,-0.2083911150693893,0.06274598836898804,0.03033566474914551,0.2593293488025665,XArbitraryZVertical,-0.6106016288241042,0.01447209320369994,-0.611915732150095,0.5025089046254246,-0.7327287793159485,0.6313769221305847,-0.2539124190807343,0,0,0,-1,-1,8343.190615125,automotive,2,2025-04-20T21:58:42.884+03:00,null,0,0,0,0,0,0,0,null,766868333.2957783,0,0.02000046,99.73645,1,1,2025-04-20T21:51:51.574+03:00,72,1.2,2025-04-19T12:19:17.059+03:00,0.05691595998002078,0
2025-04-20T21:58:53.358+03:00,1745175531.592006,40.98581706731666,29.13746237102972,124.5693,-1,-1,-1,-1,30,214.5326883410212,-9999,8353.659526166668,-0.6492767333984375,0.7655029296875,0.034393310546875,8353.655756166667,-2.268828160443308,-1.250963630160421,-0.6826852185198548,-0.3276144564151764,-0.9098979234695435,-0.2222163826227188,0.1033563017845154,0.120555579662323,0.2744759917259216,XArbitraryZVertical,-0.6147077785784459,0.01275869329457982,-0.6094818511086699,0.5005031208980494,-0.7365349531173706,0.6308786869049072,-0.2439431250095367,0,0,0,-1,-1,8343.190615125,automotive,2,2025-04-20T21:58:42.884+03:00,null,0,0,0,0,0,0,0,null,766868333.2957783,0,0.02000046,99.73645,1,1,2025-04-20T21:51:51.574+03:00,72,1.2,2025-04-19T12:19:17.059+03:00,0.05691595998002078,0
2025-04-20T21:58:53.368+03:00,1745175531.592006,40.98581706731666,29.13746237102972,124.5693,-1,-1,-1,-1,30,214.5326883410212,-9999,8353.669602166667,-0.6873321533203125,0.7197265625,0.0567626953125,8353.665832166667,-2.272073609009631,-1.261686848306385,-0.6813298946899513,-0.06631527096033096,-0.8201462626457214,-0.1945011615753174,0.09064555168151855,0.1356763243675232,0.2706844806671143,XArbitraryZVertical,-0.6178535891263141,0.0105537504525785,-0.6073134042259105,0.4993154528232197,-0.7399222254753113,0.629826545715332,-0.2362911254167557,0,0,0,-1,-1,8343.190615125,automotive,2,2025-04-20T21:58:42.884+03:00,null,0,0,0,0,0,0,0,null,766868333.2957783,0,0.02000046,99.73645,1,1,2025-04-20T21:51:51.574+03:00,72,1.2,2025-04-19T12:19:17.059+03:00,0.05691595998002078,0
2025-04-20T21:58:53.378+03:00,1745175531.592006,40.98581706731666,29.13746237102972,124.5693,-1,-1,-1,-1,30,214.5326883410212,-9999,8353.679678166667,-0.69696044921875,0.6551971435546875,0.098480224609375,8353.675908166668,-2.272002501509574,-1.269974569671809,-0.6794283145135194,0.2006977796554565,-0.8369438648223877,-0.1571697741746902,0.05566549301147461,0.09137809276580811,0.2872679829597473,XArbitraryZVertical,-0.6202319274337424,0.007728818965011694,-0.6051856863994359,0.4990017650273279,-0.7429975867271423,0.6283484101295471,-0.2305052429437637,0,0,0,-1,-1,8343.190615125,automotive,2,2025-04-20T21:58:42.884+03:00,null,0,0,0,0,0,0,0,null,766868333.2957783,0,0.02000046,99.73645,1,1,2025-04-20T21:51:51.574+03:00,72,1.2,2025-04-19T12:19:17.059+03:00,0.05691595998002078,0
2025-04-20T21:58:53.388+03:00,1745175531.592006,40.98581706731666,29.13746237102972,124.5693,-1,-1,-1,-1,30,214.5326883410212,-9999,8353.689754166668,-0.7035369873046875,0.6817626953125,0.0185699462890625,8353.685984166666,-2.26798541617241,-1.275989573427809,-0.6769582983700586,0.5484362244606018,-0.8503670692443848,-0.1395589858293533,0.04889315366744995,0.02877217531204224,0.3249625265598297,XArbitraryZVertical,-0.6218863539920824,0.004027306877804866,-0.6029066769646395,0.4997446802599969,-0.7458536028862,0.6264249682426453,-0.2264822870492935,0,0,0,-1,-1,8343.190615125,automotive,2,2025-04-20T21:58:42.884+03:00,null,0,0,0,0,0,0,0,null,766868333.2957783,0,0.02000046,99.73645,1,1,2025-04-20T21:51:51.574+03:00,72,1.2,2025-04-19T12:19:17.059+03:00,0.05691595998002078,0
2025-04-20T21:58:53.398+03:00,1745175531.592006,40.98581706731666,29.13746237102972,124.5693,-1,-1,-1,-1,30,214.5326883410212,-9999,8353.699830166666,-0.7315521240234375,0.74798583984375,-0.140228271484375,8353.696060166667,-2.25988394735926,-1.279253636311201,-0.673239719085453,0.8575208187103271,-0.7988260984420776,-0.2099476605653763,0.04527783393859863,0.05824059247970581,0.2432845234870911,XArbitraryZVertical,-0.6226091724646918,-0.000741182450379418,-0.6007552257984936,0.5014483016132143,-0.7488147616386414,0.6235221028327942,-0.224714532494545,0,0,0,-1,-1,8343.190615125,automotive,2,2025-04-20T21:58:42.884+03:00,null,0,0,0,0,0,0,0,null,766868333.2957783,0,0.02000046,99.73645,1,1,2025-04-20T21:51:51.574+03:00,72,1.2,2025-04-19T12:19:17.059+03:00,0.05691595998002078,0
2025-04-20T21:58:53.408+03:00,1745175531.592006,40.98581706731666,29.13746237102972,124.5693,-1,-1,-1,-1,30,214.5326883410212,-9999,8353.709906166667,-0.7653045654296875,0.770111083984375,-0.2657470703125,8353.706136166667,-2.248552886212065,-1.280213725058369,-0.6680716631602454,1.117653727531433,-0.8027209043502808,-0.2646043300628662,0.02055531740188599,0.128512442111969,0.08468753099441528,XArbitraryZVertical,-0.6224949310281773,-0.006495377386486957,-0.5988501443925316,0.5038216741397005,-0.7521073818206787,0.6194733381271362,-0.2249157428741455,0,0,0,-1,-1,8343.190615125,automotive,2,2025-04-20T21:58:42.884+03:00,null,0,0,0,0,0,0,0,null,766868333.2957783,0,0.02000046,99.73645,1,1,2025-04-20T21:51:51.574+03:00,72,1.2,2025-04-19T12:19:17.059+03:00,0.05691595998002078,0
2025-04-20T21:58:53.418+03:00,1745175531.592006,40.98581706731666,29.13746237102972,124.5693,-1,-1,-1,-1,30,214.5326883410212,-9999,8353.719982166667,-0.736663818359375,0.7463531494140625,-0.3388214111328125,8353.716212166668,-2.235359467540397,-1.280504121603336,-0.6617245626096545,1.174348950386047,-0.8801304697990417,-0.3597723841667175,-0.009379684925079346,0.1556326746940613,-0.03992879390716553,XArbitraryZVertical,-0.622028173408018,-0.01310910402900668,-0.5969544536762963,0.5065119504455556,-0.7559248208999634,0.6144783496856689,-0.2258182018995285,0,0,0,-1,-1,8343.190615125,automotive,2,2025-04-20T21:58:42.884+03:00,null,0,0,0,0,0,0,0,null,766868333.2957783,0,0.02000046,99.73645,1,1,2025-04-20T21:51:51.574+03:00,72,1.2,2025-04-19T12:19:17.059+03:00,0.05691595998002078,0
2025-04-20T21:58:53.428+03:00,1745175531.592006,40.98581706731666,29.13746237102972,124.5693,-1,-1,-1,-1,30,214.5326883410212,-9999,8353.730058166668,-0.694183349609375,0.66888427734375,-0.372039794921875,8353.726288166667,-2.224084799706183,-1.283205599466436,-0.6546419661020635,0.8659712076187134,-1.029574513435364,-0.4815631210803986,0.02402269840240479,0.1374778151512146,-0.1138172745704651,XArbitraryZVertical,-0.622171495209336,-0.02001467922635807,-0.5949592342919321,0.5084539452360696,-0.760686457157135,0.6088752746582031,-0.2250040918588638,0,0,0,-1,-1,8343.190615125,automotive,2,2025-04-20T21:58:42.884+03:00,null,0,0,0,0,0,0,0,null,766868333.2957783,0,0.02000046,99.73645,1,1,2025-04-20T21:51:51.574+03:00,72,1.2,2025-04-19T12:19:17.059+03:00,0.05691595998002078,0
2025-04-20T21:58:53.438+03:00,1745175531.592006,40.98581706731666,29.13746237102972,124.5693,-1,-1,-1,-1,30,214.5326883410212,-9999,8353.740134166666,-0.6728515625,0.55474853515625,-0.2891693115234375,8353.736364166667,-2.218596733268984,-1.291080413938459,-0.6479915131713936,0.3245574831962585,-1.185768127441406,-0.5298705101013184,0.07212650775909424,0.06529802083969116,-0.1519197225570679,XArbitraryZVertical,-0.6238990030030852,-0.0262683654942767,-0.5927125926948918,0.508676437453435,-0.7663097977638245,0.6035862565040588,-0.2201200127601624,0,0,0,-1,-1,8343.190615125,automotive,2,2025-04-20T21:58:42.884+03:00,null,0,0,0,0,0,0,0,null,766868333.2957783,0,0.02000046,99.73645,1,1,2025-04-20T21:51:51.574+03:00,72,1.2,2025-04-19T12:19:17.059+03:00,0.05691595998002078,0
2025-04-20T21:58:53.448+03:00,1745175531.592006,40.98581706731666,29.13746237102972,124.5693,-1,-1,-1,-1,30,214.5326883410212,-9999,8353.750210166667,-0.710693359375,0.4220123291015625,-0.1575927734375,8353.746440166668,-2.220008596808206,-1.304162644335923,-0.6427877354900675,-0.2641162276268005,-1.234040856361389,-0.5185890793800354,0.09929180145263672,-0.04468071460723877,-0.0782681405544281,XArbitraryZVertical,-0.6273597717459752,-0.03113125936895106,-0.5902309353815796,0.5070283767468577,-0.7721431255340576,0.5994291305541992,-0.2109011262655258,0,0,0,-1,-1,8343.190615125,automotive,2,2025-04-20T21:58:42.884+03:00,null,0,0,0,0,0,0,0,null,766868333.2957783,0,0.02000046,99.73645,1,1,2025-04-20T21:51:51.574+03:00,72,1.2,2025-04-19T12:19:17.059+03:00,0.05691595998002078,0
2025-04-20T21:58:53.458+03:00,1745175531.592006,40.98581706731666,29.13746237102972,124.5693,-1,-1,-1,-1,30,214.5326883410212,-9999,8353.760286166667,-0.805267333984375,0.341583251953125,-0.1002197265625,8353.756516166668,-2.227643681982987,-1.321059010860138,-0.6393006817794781,-0.7069881558418274,-1.187981724739075,-0.4504055380821228,0.06692373752593994,-0.1746220588684082,0.04074794054031372,XArbitraryZVertical,-0.6321801597379707,-0.03432075840909807,-0.5876774702850006,0.5037910778679541,-0.7776170372962952,0.5966343879699707,-0.1983406692743301,0,0,0,-1,-1,8343.190615125,automotive,2,2025-04-20T21:58:42.884+03:00,null,0,0,0,0,0,0,0,null,766868333.2957783,0,0.02000046,99.73645,1,1,2025-04-20T21:51:51.574+03:00,72,1.2,2025-04-19T12:19:17.059+03:00,0.05691595998002078,0
2025-04-20T21:58:53.468+03:00,1745175531.592006,40.98581706731666,29.13746237102972,124.5693,-1,-1,-1,-1,30,214.5326883410212,-9999,8353.770362166668,-0.867218017578125,0.35052490234375,-0.0240936279296875,8353.766592166667,-2.238900774261497,-1.338832858084702,-0.6374817424246033,-0.9152125120162964,-0.9882308840751648,-0.333876371383667,-0.02319306135177612,-0.2535905241966248,0.08451832830905914,XArbitraryZVertical,-0.6374500491699898,-0.03589496372725242,-0.5852958053256545,0.4997976001567373,-0.7820740938186646,0.5951736569404602,-0.184737965464592,0,0,0,-1,-1,8343.190615125,automotive,2,2025-04-20T21:58:42.884+03:00,null,0,0,0,0,0,0,0,null,766868333.2957783,0,0.02000046,99.73645,1,1,2025-04-20T21:51:51.574+03:00,72,1.2,2025-04-19T12:19:17.059+03:00,0.05691595998002078,0
2025-04-20T21:58:53.479+03:00,1745175531.592006,40.98581706731666,29.13746237102972,124.5693,-1,-1,-1,-1,30,214.5326883410212,-9999,8353.780438166666,-0.839324951171875,0.459197998046875,0.0355377197265625,8353.776668166667,-2.250154650369869,-1.354726382466055,-0.6364301450266221,-0.7351835966110229,-0.8711111545562744,-0.2808088958263397,-0.08169561624526978,-0.2438034415245056,0.1483257561922073,XArbitraryZVertical,-0.642220588040503,-0.03664758513045295,-0.5832638371682852,0.4959967889109022,-0.7855222821235657,0.5943282842636108,-0.1724193394184113,0,0,0,-1,-1,8343.190615125,automotive,2,2025-04-20T21:58:42.884+03:00,null,0,0,0,0,0,0,0,null,766868333.2957783,0,0.02000046,99.73645,1,1,2025-04-20T21:51:51.574+03:00,72,1.2,2025-04-19T12:19:17.059+03:00,0.05691595998002078,0
2025-04-20T21:58:53.489+03:00,1745175531.592006,40.98581706731666,29.13746237102972,124.5693,-1,-1,-1,-1,30,214.5326883410212,-9999,8353.790514166667,-0.7689056396484375,0.649139404296875,0.0042724609375,8353.786744166668,-2.257322830664674,-1.367762814800016,-0.634478281732064,-0.2862194776535034,-0.862163782119751,-0.3540217578411102,-0.05048680305480957,-0.1335594058036804,0.1979359984397888,XArbitraryZVertical,-0.6460141632040587,-0.0382961672802444,-0.5813027399659897,0.4932405381137481,-0.7888380289077759,0.5927574038505554,-0.1623982042074203,0,0,0,-1,-1,8343.190615125,automotive,2,2025-04-20T21:58:42.884+03:00,null,0,0,0,0,0,0,0,null,766868333.2957783,0,0.02000046,99.73645,1,1,2025-04-20T21:51:51.574+03:00,72,1.2,2025-04-19T12:19:17.059+03:00,0.05691595998002078,0
