loggingTime(txt),locationTimestamp_since1970(s),locationLatitude(WGS84),locationLongitude(WGS84),locationAltitude(m),locationSpeed(m/s),locationSpeedAccuracy(m/s),locationCourse(°),locationCourseAccuracy(°),locationVerticalAccuracy(m),locationHorizontalAccuracy(m),locationFloor(Z),accelerometerTimestamp_sinceReboot(s),accelerometerAccelerationX(G),accelerometerAccelerationY(G),accelerometerAccelerationZ(G),motionTimestamp_sinceReboot(s),motionYaw(rad),motionRoll(rad),motionPitch(rad),motionRotationRateX(rad/s),motionRotationRateY(rad/s),motionRotationRateZ(rad/s),motionUserAccelerationX(G),motionUserAccelerationY(G),motionUserAccelerationZ(G),motionAttitudeReferenceFrame(txt),motionQuaternionX(R),motionQuaternionY(R),motionQuaternionZ(R),motionQuaternionW(R),motionGravityX(G),motionGravityY(G),motionGravityZ(G),motionMagneticFieldX(µT),motionMagneticFieldY(µT),motionMagneticFieldZ(µT),motionHeading(°),motionMagneticFieldCalibrationAccuracy(Z),activityTimestamp_sinceReboot(s),activity(txt),activityActivityConfidence(Z),activityActivityStartDate(txt),pedometerStartDate(txt),pedometerNumberofSteps(N),pedometerAverageActivePace(s/m),pedometerCurrentPace(s/m),pedometerCurrentCadence(steps/s),pedometerDistance(m),pedometerFloorAscended(N),pedometerFloorDescended(N),pedometerEndDate(txt),altimeterTimestamp_sinceReboot(s),altimeterReset(bool),altimeterRelativeAltitude(m),altimeterPressure(kPa),batteryState(N),batteryLevel(R),heartRateBPMTimestamp(txt),heartRateBPM(N),heartRateBPS(R),heartRateVariabilityTimestamp(txt),heartRateVariability(ms),label
2025-04-22T17:42:50.276+03:00,1745332968.627453,40.95219040362207,29.14025454703285,76.04306,-1,-1,-1,-1,30,13.67661289634224,-9999,40321.21223066667,-0.7826690673828125,0.4457550048828125,-0.4374542236328125,40321.20719366667,-2.856156634148886,-1.036073441608684,-0.4850884610127542,-0.00688578188419342,0.02280324324965477,0.02039452455937862,-0.007880032062530518,-0.01645758748054504,-0.001932084560394287,XArbitraryZVertical,0.5054732584205384,-0.1381700504696154,0.8178734588412756,-0.2376736837132414,-0.7611475586891174,0.4662866294384003,-0.4508116543292999,0,0,0,-1,-1,40316.83576216667,unknown,2,2025-04-22T17:42:45.863+03:00,2025-04-21T17:08:51.449+03:00,9088,1.06215,0,0,7575.567,7,22,2025-04-22T17:37:54.399+03:00,767025768.5449551,0,-12.35,100.3501,1,0.35,2025-04-22T17:38:44.006+03:00,78,1.3,2025-04-22T14:20:19.516+03:00,0.02197104130929222,0
2025-04-22T17:42:50.280+03:00,1745332968.627453,40.95219040362207,29.14025454703285,76.04306,-1,-1,-1,-1,30,13.67661289634224,-9999,40321.22230666667,-0.783660888671875,0.4542388916015625,-0.449951171875,40321.21726866667,-2.856135689089932,-1.035831063757156,-0.4853376759057447,-0.01540150493383408,0.01369123905897141,0.02107975631952286,-0.001589059829711914,-0.0250704288482666,0.02018111944198608,XArbitraryZVertical,0.5053758780386693,-0.1382997076492143,0.8178978850678256,-0.2377210705296569,-0.7609382271766663,0.4665070772171021,-0.4509368240833282,0,0,0,-1,-1,40316.83576216667,unknown,2,2025-04-22T17:42:45.863+03:00,2025-04-21T17:08:51.449+03:00,9088,1.06215,0,0,7575.567,7,22,2025-04-22T17:37:54.399+03:00,767025768.5449551,0,-12.35,100.3501,1,0.35,2025-04-22T17:38:44.006+03:00,78,1.3,2025-04-22T14:20:19.516+03:00,0.02197104130929222,0
2025-04-22T17:42:50.282+03:00,1745332968.627453,40.95219040362207,29.14025454703285,76.04306,-1,-1,-1,-1,30,13.67661289634224,-9999,40321.23238166667,-0.742523193359375,0.458770751953125,-0.4540252685546875,40321.22734466667,-2.856271530669921,-1.035979883767549,-0.485601941551808,-0.03098872117698193,-0.02398103848099709,0.01337736193090677,-0.03370207548141479,-0.01559951901435852,0.003052413463592529,XArbitraryZVertical,0.5054276187420349,-0.1384288829917056,0.8178400938654866,-0.2377347490879179,-0.7608992457389832,0.4667407870292664,-0.4507607221603394,0,0,0,-1,-1,40316.83576216667,unknown,2,2025-04-22T17:42:45.863+03:00,2025-04-21T17:08:51.449+03:00,9088,1.06215,0,0,7575.567,7,22,2025-04-22T17:37:54.399+03:00,767025768.5449551,0,-12.35,100.3501,1,0.35,2025-04-22T17:38:44.006+03:00,78,1.3,2025-04-22T14:20:19.516+03:00,0.02197104130929222,0
2025-04-22T17:42:50.284+03:00,1745332968.627453,40.95219040362207,29.14025454703285,76.04306,-1,-1,-1,-1,30,13.67661289634224,-9999,40321.24245766667,-0.7435455322265625,0.4647216796875,-0.45880126953125,40321.23741966667,-2.856479113880692,-1.036389381972747,-0.4858041820415565,-0.02055605314671993,-0.02266357094049454,0.01321437675505877,0.006714880466461182,-0.00952225923538208,-0.001671254634857178,XArbitraryZVertical,0.5055808887853291,-0.1385187949083302,0.817733436763966,-0.2377233329290788,-0.7610024809837341,0.4669196605682373,-0.4504010081291199,0,0,0,-1,-1,40316.83576216667,unknown,2,2025-04-22T17:42:45.863+03:00,2025-04-21T17:08:51.449+03:00,9088,1.06215,0,0,7575.567,7,22,2025-04-22T17:37:54.399+03:00,767025768.5449551,0,-12.35,100.3501,1,0.35,2025-04-22T17:38:44.006+03:00,78,1.3,2025-04-22T14:20:19.516+03:00,0.02197104130929222,0
2025-04-22T17:42:50.307+03:00,1745332968.627453,40.95219040362207,29.14025454703285,76.04306,-1,-1,-1,-1,30,13.67661289634224,-9999,40321.25253266667,-0.7583770751953125,0.4694976806640625,-0.4618072509765625,40321.24749466667,-2.856475039539685,-1.036496648700079,-0.4860194532194526,-0.01073591411113739,-0.01177710201591253,0.03180603682994843,0.02236276865005493,-0.005150258541107178,-0.007358253002166748,XArbitraryZVertical,0.5056252104346839,-0.13859665761128,0.8176763005571436,-0.2377804668983913,-0.7609643340110779,0.4671100080013275,-0.4502682387828827,0,0,0,-1,-1,40316.83576216667,unknown,2,2025-04-22T17:42:45.863+03:00,2025-04-21T17:08:51.449+03:00,9088,1.06215,0,0,7575.567,7,22,2025-04-22T17:37:54.399+03:00,767025768.5449551,0,-12.35,100.3501,1,0.35,2025-04-22T17:38:44.006+03:00,78,1.3,2025-04-22T14:20:19.516+03:00,0.02197104130929222,0
2025-04-22T17:42:50.309+03:00,1745332968.627453,40.95219040362207,29.14025454703285,76.04306,-1,-1,-1,-1,30,13.67661289634224,-9999,40321.26260866667,-0.759063720703125,0.4725494384765625,-0.4582061767578125,40321.25757066667,-2.856392360063354,-1.036557966232628,-0.4862956715886448,-0.0006236247718334198,-0.01712286472320557,0.0124911954626441,0.005830347537994385,0.0006022155284881592,-0.01160576939582825,XArbitraryZVertical,0.5056562619975108,-0.1386860724849037,0.8176129159312349,-0.2378801429259977,-0.7608808279037476,0.4673542082309723,-0.4501558244228363,0,0,0,-1,-1,40316.83576216667,unknown,2,2025-04-22T17:42:45.863+03:00,2025-04-21T17:08:51.449+03:00,9088,1.06215,0,0,7575.567,7,22,2025-04-22T17:37:54.399+03:00,767025768.5449551,0,-12.35,100.3501,1,0.35,2025-04-22T17:38:44.006+03:00,78,1.3,2025-04-22T14:20:19.516+03:00,0.02197104130929222,0
2025-04-22T17:42:50.310+03:00,1745332968.627453,40.95219040362207,29.14025454703285,76.04306,-1,-1,-1,-1,30,13.67661289634224,-9999,40321.27268366667,-0.759796142578125,0.4707489013671875,-0.4582061767578125,40321.26764566667,-2.856231977060255,-1.036583061860707,-0.4864404967280782,0.0118178641423583,-0.01166311930865049,0.01462918054312468,0.001083672046661377,0.00511285662651062,-0.009736746549606323,XArbitraryZVertical,0.5056777792460418,-0.1387042036448471,0.8175675076899327,-0.237979753508311,-0.7608338594436646,0.4674822390079498,-0.4501022696495056,0,0,0,-1,-1,40316.83576216667,unknown,2,2025-04-22T17:42:45.863+03:00,2025-04-21T17:08:51.449+03:00,9088,1.06215,0,0,7575.567,7,22,2025-04-22T17:37:54.399+03:00,767025768.5449551,0,-12.35,100.3501,1,0.35,2025-04-22T17:38:44.006+03:00,78,1.3,2025-04-22T14:20:19.516+03:00,0.02197104130929222,0
2025-04-22T17:42:50.314+03:00,1745332968.627453,40.95219040362207,29.14025454703285,76.04306,-1,-1,-1,-1,30,13.67661289634224,-9999,40321.28275866667,-0.7630462646484375,0.469818115234375,-0.45892333984375,40321.27772166667,-2.855999608174999,-1.036506781966962,-0.4865385105963167,0.01196034345775843,0.00226041954010725,0.02333585359156132,0.001620233058929443,0.004354864358901978,-0.007993042469024658,XArbitraryZVertical,0.5056627931041617,-0.1386962517601941,0.8175456888101575,-0.2380913198050196,-0.7607601284980774,0.4675688743591309,-0.4501369893550873,0,0,0,-1,-1,40316.83576216667,unknown,2,2025-04-22T17:42:45.863+03:00,2025-04-21T17:08:51.449+03:00,9088,1.06215,0,0,7575.567,7,22,2025-04-22T17:37:54.399+03:00,767025768.5449551,0,-12.35,100.3501,1,0.35,2025-04-22T17:38:44.006+03:00,78,1.3,2025-04-22T14:20:19.516+03:00,0.02197104130929222,0
2025-04-22T17:42:50.325+03:00,1745332968.627453,40.95219040362207,29.14025454703285,76.04306,-1,-1,-1,-1,30,13.67661289634224,-9999,40321.29283466667,-0.762542724609375,0.4675140380859375,-0.4578857421875,40321.28779666667,-2.855741743866576,-1.036348576748056,-0.4866237040274292,0.01848835125565529,0.005430979654192924,0.01833260618150234,-0.0007894039154052734,0.002646863460540771,-0.009312093257904053,XArbitraryZVertical,0.505616100151896,-0.1386861813485792,0.8175431703221782,-0.2382047503081949,-0.7606545686721802,0.4676441848278046,-0.4502370059490204,0,0,0,-1,-1,40316.83576216667,unknown,2,2025-04-22T17:42:45.863+03:00,2025-04-21T17:08:51.449+03:00,9088,1.06215,0,0,7575.567,7,22,2025-04-22T17:37:54.399+03:00,767025768.5449551,0,-12.35,100.3501,1,0.35,2025-04-22T17:38:44.006+03:00,78,1.3,2025-04-22T14:20:19.516+03:00,0.02197104130929222,0
2025-04-22T17:42:50.334+03:00,1745332968.627453,40.95219040362207,29.14025454703285,76.04306,-1,-1,-1,-1,30,13.67661289634224,-9999,40321.30290966667,-0.761077880859375,0.4638824462890625,-0.4568023681640625,40321.29787266667,-2.855481922630009,-1.036167401567339,-0.4866791541358516,0.01647020690143108,0.00645842682570219,0.01895818300545216,-0.002571702003479004,0.001209288835525513,-0.008180409669876099,XArbitraryZVertical,0.5055601082780711,-0.1386656882812678,0.8175504004217051,-0.2383107618617656,-0.7605506777763367,0.4676932096481323,-0.4503616094589233,0,0,0,-1,-1,40316.83576216667,unknown,2,2025-04-22T17:42:45.863+03:00,2025-04-21T17:08:51.449+03:00,9088,1.06215,0,0,7575.567,7,22,2025-04-22T17:37:54.399+03:00,767025768.5449551,0,-12.35,100.3501,1,0.35,2025-04-22T17:38:44.006+03:00,78,1.3,2025-04-22T14:20:19.516+03:00,0.02197104130929222,0
2025-04-22T17:42:50.344+03:00,1745332968.627453,40.95219040362207,29.14025454703285,76.04306,-1,-1,-1,-1,30,13.67661289634224,-9999,40321.31298566667,-0.7572784423828125,0.4606781005859375,-0.4563751220703125,40321.30794766667,-2.855257156290051,-1.036013012984471,-0.4867528731190107,0.007956347428262234,0.003922032658010721,0.01827508211135864,-0.001419723033905029,-0.001861870288848877,-0.006768316030502319,XArbitraryZVertical,0.5055126687090447,-0.138658671319075,0.8175524291950678,-0.2384083655592179,-0.7604514360427856,0.4677583575248718,-0.4504614174365997,0,0,0,-1,-1,40316.83576216667,unknown,2,2025-04-22T17:42:45.863+03:00,2025-04-21T17:08:51.449+03:00,9088,1.06215,0,0,7575.567,7,22,2025-04-22T17:37:54.399+03:00,767025768.5449551,0,-12.35,100.3501,1,0.35,2025-04-22T17:38:44.006+03:00,78,1.3,2025-04-22T14:20:19.516+03:00,0.02197104130929222,0
2025-04-22T17:42:50.357+03:00,1745332968.627453,40.95219040362207,29.14025454703285,76.04306,-1,-1,-1,-1,30,13.67661289634224,-9999,40321.32306066667,-0.7537841796875,0.4591064453125,-0.45440673828125,40321.31802266667,-2.855114156659591,-1.035908989495524,-0.4868761364666731,-0.0022920286282897,-3.8886908441782e-05,0.01587424241006374,0.0008031725883483887,-0.005648195743560791,-0.005833566188812256,XArbitraryZVertical,0.505480202095872,-0.1386874195911957,0.8175446550647116,-0.2384870769271453,-0.7603549361228943,0.4678673148155212,-0.4505111277103424,0,0,0,-1,-1,40316.83576216667,unknown,2,2025-04-22T17:42:45.863+03:00,2025-04-21T17:08:51.449+03:00,9088,1.06215,0,0,7575.567,7,22,2025-04-22T17:37:54.399+03:00,767025768.5449551,0,-12.35,100.3501,1,0.35,2025-04-22T17:38:44.006+03:00,78,1.3,2025-04-22T14:20:19.516+03:00,0.02197104130929222,0
2025-04-22T17:42:50.365+03:00,1745332968.627453,40.95219040362207,29.14025454703285,76.04306,-1,-1,-1,-1,30,13.67661289634224,-9999,40321.33313666667,-0.7509765625,0.4605712890625,-0.4542388916015625,40321.32809866667,-2.855074727012172,-1.035923974888447,-0.4870319507097989,-0.005897482857108116,-0.01177896652370691,0.01285258587449789,0.006499707698822021,-0.008120447397232056,-0.004371523857116699,XArbitraryZVertical,0.5054892279635351,-0.1387420047996722,0.8175147191665223,-0.2385389600164824,-0.760299026966095,0.4680050015449524,-0.4504625797271729,0,0,0,-1,-1,40316.83576216667,unknown,2,2025-04-22T17:42:45.863+03:00,2025-04-21T17:08:51.449+03:00,9088,1.06215,0,0,7575.567,7,22,2025-04-22T17:37:54.399+03:00,767025768.5449551,0,-12.35,100.3501,1,0.35,2025-04-22T17:38:44.006+03:00,78,1.3,2025-04-22T14:20:19.516+03:00,0.02197104130929222,0
2025-04-22T17:42:50.375+03:00,1745332968.627453,40.95219040362207,29.14025454703285,76.04306,-1,-1,-1,-1,30,13.67661289634224,-9999,40321.34321166667,-0.750274658203125,0.4633636474609375,-0.4555206298828125,40321.33817366667,-2.855043371673366,-1.036030718058814,-0.4871708434494473,-0.002721929224207997,-0.01443280559033155,0.01300997845828533,0.008246660232543945,-0.00810590386390686,-0.003326147794723511,XArbitraryZVertical,0.5055351929962683,-0.138780491889094,0.8174648027599302,-0.2385901305439103,-0.7602911591529846,0.4681277573108673,-0.450348287820816,0,0,0,-1,-1,40316.83576216667,unknown,2,2025-04-22T17:42:45.863+03:00,2025-04-21T17:08:51.449+03:00,9088,1.06215,0,0,7575.567,7,22,2025-04-22T17:37:54.399+03:00,767025768.5449551,0,-12.35,100.3501,1,0.35,2025-04-22T17:38:44.006+03:00,78,1.3,2025-04-22T14:20:19.516+03:00,0.02197104130929222,0
2025-04-22T17:42:50.384+03:00,1745332968.627453,40.95219040362207,29.14025454703285,76.04306,-1,-1,-1,-1,30,13.67661289634224,-9999,40321.35328666667,-0.75604248046875,0.4735565185546875,-0.455474853515625,40321.34824966667,-2.854871433421751,-1.036023823493372,-0.4872574305370427,0.01927877776324749,-0.002494854386895895,0.01478540897369385,0.01086372137069702,-0.006473362445831299,-0.005035340785980225,XArbitraryZVertical,0.5055443917303953,-0.1387747114564402,0.8174341340852517,-0.2386792276446832,-0.7602531909942627,0.4682042598724365,-0.4503328800201416,0,0,0,-1,-1,40316.83576216667,unknown,2,2025-04-22T17:42:45.863+03:00,2025-04-21T17:08:51.449+03:00,9088,1.06215,0,0,7575.567,7,22,2025-04-22T17:37:54.399+03:00,767025768.5449551,0,-12.35,100.3501,1,0.35,2025-04-22T17:38:44.006+03:00,78,1.3,2025-04-22T14:20:19.516+03:00,0.02197104130929222,0
2025-04-22T17:42:50.395+03:00,1745332968.627453,40.95219040362207,29.14025454703285,76.04306,-1,-1,-1,-1,30,13.67661289634224,-9999,40321.36336266667,-0.7604217529296875,0.47662353515625,-0.457977294921875,40321.35832466667,-2.854498572619657,-1.035839069985948,-0.4872385708412851,0.03688440099358559,0.001721728825941682,0.01197923626750708,0.006546139717102051,0.001142174005508423,-0.004981875419616699,XArbitraryZVertical,0.5054947190493176,-0.1386944888086728,0.8174389423486231,-0.2388146063920025,-0.7601776123046875,0.4681876003742218,-0.4504778683185577,0,0,0,-1,-1,40316.83576216667,unknown,2,2025-04-22T17:42:45.863+03:00,2025-04-21T17:08:51.449+03:00,9088,1.06215,0,0,7575.567,7,22,2025-04-22T17:37:54.399+03:00,767025768.5449551,0,-12.35,100.3501,1,0.35,2025-04-22T17:38:44.006+03:00,78,1.3,2025-04-22T14:20:19.516+03:00,0.02197104130929222,0
2025-04-22T17:42:50.405+03:00,1745332968.627453,40.95219040362207,29.14025454703285,76.04306,-1,-1,-1,-1,30,13.67661289634224,-9999,40321.37343766667,-0.76141357421875,0.4692840576171875,-0.4562835693359375,40321.36840066667,-2.854057732790945,-1.035535930952028,-0.487163633533906,0.03522844985127449,0.01178155280649662,0.01418965961784124,0.001282215118408203,0.009829610586166382,-0.006412029266357422,XArbitraryZVertical,0.505401277336572,-0.1385873722644318,0.8174732670801416,-0.2389570881379678,-0.7600712180137634,0.4681213796138763,-0.450726181268692,0,0,0,-1,-1,40316.83576216667,unknown,2,2025-04-22T17:42:45.863+03:00,2025-04-21T17:08:51.449+03:00,9088,1.06215,0,0,7575.567,7,22,2025-04-22T17:37:54.399+03:00,767025768.5449551,0,-12.35,100.3501,1,0.35,2025-04-22T17:38:44.006+03:00,78,1.3,2025-04-22T14:20:19.516+03:00,0.02197104130929222,0
2025-04-22T17:42:50.415+03:00,1745332968.627453,40.95219040362207,29.14025454703285,76.04306,-1,-1,-1,-1,30,13.67661289634224,-9999,40321.38351366667,-0.7559661865234375,0.46270751953125,-0.4549102783203125,40321.37847566667,-2.853658691854216,-1.035219421507454,-0.4871598032425132,0.02499951235949993,0.009189498610794544,0.01976871676743031,-0.001849651336669922,0.004202485084533691,-0.006704628467559814,XArbitraryZVertical,0.5052995540820523,-0.1385227494966422,0.817506028583044,-0.2390974094907519,-0.7599300146102905,0.4681179821491241,-0.4509676098823547,0,0,0,-1,-1,40316.83576216667,unknown,2,2025-04-22T17:42:45.863+03:00,2025-04-21T17:08:51.449+03:00,9088,1.06215,0,0,7575.567,7,22,2025-04-22T17:37:54.399+03:00,767025768.5449551,0,-12.35,100.3501,1,0.35,2025-04-22T17:38:44.006+03:00,78,1.3,2025-04-22T14:20:19.516+03:00,0.02197104130929222,0
2025-04-22T17:42:50.425+03:00,1745332968.627453,40.95219040362207,29.14025454703285,76.04306,-1,-1,-1,-1,30,13.67661289634224,-9999,40321.39358866667,-0.7498626708984375,0.4562225341796875,-0.4554595947265625,40321.38855066667,-2.853385759160261,-1.035043515961904,-0.4872163628041971,0.009313361719250679,0.00250456458888948,0.01678763888776302,0.001847624778747559,-0.002485007047653198,-0.003837943077087402,XArbitraryZVertical,0.5052466218799626,-0.1384989031996109,0.81751010524149,-0.2392093851761612,-0.7598279714584351,0.4681679606437683,-0.4510878026485443,0,0,0,-1,-1,40316.83576216667,unknown,2,2025-04-22T17:42:45.863+03:00,2025-04-21T17:08:51.449+03:00,9088,1.06215,0,0,7575.567,7,22,2025-04-22T17:37:54.399+03:00,767025768.5449551,0,-12.35,100.3501,1,0.35,2025-04-22T17:38:44.006+03:00,78,1.3,2025-04-22T14:20:19.516+03:00,0.02197104130929222,0
2025-04-22T17:42:50.435+03:00,1745332968.627453,40.95219040362207,29.14025454703285,76.04306,-1,-1,-1,-1,30,13.67661289634224,-9999,40321.40366466667,-0.74810791015625,0.4549713134765625,-0.4577484130859375,40321.39862666667,-2.853250381045543,-1.034970023456379,-0.4873378337916425,-0.0007738936692476273,-0.001861954107880592,0.0177607573568821,0.008372664451599121,-0.009626686573028564,-0.004513025283813477,XArbitraryZVertical,0.5052261471944711,-0.1385252344575036,0.8174956582393891,-0.2392866565044325,-0.7597458958625793,0.4682753086090088,-0.4511145949363708,0,0,0,-1,-1,40316.83576216667,unknown,2,2025-04-22T17:42:45.863+03:00,2025-04-21T17:08:51.449+03:00,9088,1.06215,0,0,7575.567,7,22,2025-04-22T17:37:54.399+03:00,767025768.5449551,0,-12.35,100.3501,1,0.35,2025-04-22T17:38:44.006+03:00,78,1.3,2025-04-22T14:20:19.516+03:00,0.02197104130929222,0
2025-04-22T17:42:50.445+03:00,1745332968.627453,40.95219040362207,29.14025454703285,76.04306,-1,-1,-1,-1,30,13.67661289634224,-9999,40321.41373966667,-0.7504119873046875,0.45953369140625,-0.4571990966796875,40321.40870166667,-2.853192380544,-1.034975216559741,-0.4875041298885848,-0.005476570222526789,-0.006902319379150867,0.01793995499610901,0.01105469465255737,-0.01403084397315979,-0.006097853183746338,XArbitraryZVertical,0.5052325403246972,-0.1385807844699577,0.8174644203983624,-0.2393477218745,-0.7596812844276428,0.4684222340583801,-0.4510709047317505,0,0,0,-1,-1,40316.83576216667,unknown,2,2025-04-22T17:42:45.863+03:00,2025-04-21T17:08:51.449+03:00,9088,1.06215,0,0,7575.567,7,22,2025-04-22T17:37:54.399+03:00,767025768.5449551,0,-12.35,100.3501,1,0.35,2025-04-22T17:38:44.006+03:00,78,1.3,2025-04-22T14:20:19.516+03:00,0.02197104130929222,0
2025-04-22T17:42:50.455+03:00,1745332968.627453,40.95219040362207,29.14025454703285,76.04306,-1,-1,-1,-1,30,13.67661289634224,-9999,40321.42381466667,-0.7528839111328125,0.464935302734375,-0.459197998046875,40321.41877766667,-2.853143441864748,-1.035018281904182,-0.4876896746942906,-0.003739390056580305,-0.008881313726305962,0.01887685619294643,0.01067894697189331,-0.01063945889472961,-0.006678462028503418,XArbitraryZVertical,0.5052538136653018,-0.1386422868566254,0.8174220265758264,-0.2394119879163554,-0.7596259713172913,0.4685861468315125,-0.4509938061237335,0,0,0,-1,-1,40316.83576216667,unknown,2,2025-04-22T17:42:45.863+03:00,2025-04-21T17:08:51.449+03:00,9088,1.06215,0,0,7575.567,7,22,2025-04-22T17:37:54.399+03:00,767025768.5449551,0,-12.35,100.3501,1,0.35,2025-04-22T17:38:44.006+03:00,78,1.3,2025-04-22T14:20:19.516+03:00,0.02197104130929222,0
2025-04-22T17:42:50.465+03:00,1745332968.627453,40.95219040362207,29.14025454703285,76.04306,-1,-1,-1,-1,30,13.67661289634224,-9999,40321.43389066667,-0.7512664794921875,0.4685821533203125,-0.4613800048828125,40321.42885266667,-2.853025762781992,-1.035089270854811,-0.4878547809909005,0.003530906513333321,-0.01917776092886925,0.01906760409474373,0.006692409515380859,-0.006146639585494995,-0.007489025592803955,XArbitraryZVertical,0.5052912286623789,-0.1386743667080635,0.8173671880267082,-0.2395017382415999,-0.7595914602279663,0.4687319993972778,-0.4509003758430481,0,0,0,-1,-1,40316.83576216667,unknown,2,2025-04-22T17:42:45.863+03:00,2025-04-21T17:08:51.449+03:00,9088,1.06215,0,0,7575.567,7,22,2025-04-22T17:37:54.399+03:00,767025768.5449551,0,-12.35,100.3501,1,0.35,2025-04-22T17:38:44.006+03:00,78,1.3,2025-04-22T14:20:19.516+03:00,0.02197104130929222,0
2025-04-22T17:42:50.475+03:00,1745332968.627453,40.95219040362207,29.14025454703285,76.04306,-1,-1,-1,-1,30,13.67661289634224,-9999,40321.44396566667,-0.7527008056640625,0.4703826904296875,-0.4598541259765625,40321.43892866667,-2.85281198452947,-1.035148227464299,-0.4879598010618881,0.01487810350954533,-0.01455397997051477,0.01726171560585499,0.008034646511077881,-0.001432865858078003,-0.01051920652389526,XArbitraryZVertical,0.5053303105253827,-0.1386580231352993,0.8173121142032946,-0.2396165500720322,-0.7595756649971008,0.4688247740268707,-0.4508304595947266,0,0,0,-1,-1,40316.83576216667,unknown,2,2025-04-22T17:42:45.863+03:00,2025-04-21T17:08:51.449+03:00,9088,1.06215,0,0,7575.567,7,22,2025-04-22T17:37:54.399+03:00,767025768.5449551,0,-12.35,100.3501,1,0.35,2025-04-22T17:38:44.006+03:00,78,1.3,2025-04-22T14:20:19.516+03:00,0.02197104130929222,0
2025-04-22T17:42:50.485+03:00,1745332968.627453,40.95219040362207,29.14025454703285,76.04306,-1,-1,-1,-1,30,13.67661289634224,-9999,40321.45404166667,-0.75628662109375,0.472625732421875,-0.456878662109375,40321.44900366667,-2.852477417656606,-1.035100176181257,-0.4880107896284822,0.02750228531658649,-0.005746374372392893,0.01968186348676682,0.007946670055389404,0.0002463459968566895,-0.009518325328826904,XArbitraryZVertical,0.5053339465173126,-0.1386009636424948,0.8172770904844092,-0.2397612802325665,-0.7595334053039551,0.4688698053359985,-0.4508547484874725,0,0,0,-1,-1,40316.83576216667,unknown,2,2025-04-22T17:42:45.863+03:00,2025-04-21T17:08:51.449+03:00,9088,1.06215,0,0,7575.567,7,22,2025-04-22T17:37:54.399+03:00,767025768.5449551,0,-12.35,100.3501,1,0.35,2025-04-22T17:38:44.006+03:00,78,1.3,2025-04-22T14:20:19.516+03:00,0.02197104130929222,0
2025-04-22T17:42:50.495+03:00,1745332968.627453,40.95219040362207,29.14025454703285,76.04306,-1,-1,-1,-1,30,13.67661289634224,-9999,40321.46411666667,-0.7569122314453125,0.46875,-0.4547119140625,40321.45907866667,-2.852047457385764,-1.034950578935109,-0.4880240394000058,0.03303393721580505,-0.001730061136186123,0.01805547066032887,0.005249321460723877,0.003057509660720825,-0.007225930690765381,XArbitraryZVertical,0.5053026307448319,-0.1385159185704078,0.8172614590198828,-0.2399295564784446,-0.7594606280326843,0.4688815176486969,-0.4509651958942413,0,0,0,-1,-1,40316.83576216667,unknown,2,2025-04-22T17:42:45.863+03:00,2025-04-21T17:08:51.449+03:00,9088,1.06215,0,0,7575.567,7,22,2025-04-22T17:37:54.399+03:00,767025768.5449551,0,-12.35,100.3501,1,0.35,2025-04-22T17:38:44.006+03:00,78,1.3,2025-04-22T14:20:19.516+03:00,0.02197104130929222,0
2025-04-22T17:42:50.505+03:00,1745332968.627453,40.95219040362207,29.14025454703285,76.04306,-1,-1,-1,-1,30,13.67661289634224,-9999,40321.47419266667,-0.7540435791015625,0.46661376953125,-0.4528350830078125,40321.46915466667,-2.851581181588692,-1.034716079453769,-0.4879661001531246,0.0410543829202652,0.00167805259115994,0.01535958517342806,0.002191424369812012,0.002299964427947998,-0.005004525184631348,XArbitraryZVertical,0.5052389815123677,-0.1384015836242118,0.8172727884567828,-0.2400909785654993,-0.75937819480896,0.4688303470611572,-0.4511571526527405,0,0,0,-1,-1,40316.83576216667,unknown,2,2025-04-22T17:42:45.863+03:00,2025-04-21T17:08:51.449+03:00,9088,1.06215,0,0,7575.567,7,22,2025-04-22T17:37:54.399+03:00,767025768.5449551,0,-12.35,100.3501,1,0.35,2025-04-22T17:38:44.006+03:00,78,1.3,2025-04-22T14:20:19.516+03:00,0.02197104130929222,0
2025-04-22T17:42:50.515+03:00,1745332968.627453,40.95219040362207,29.14025454703285,76.04306,-1,-1,-1,-1,30,13.67661289634224,-9999,40321.48426766667,-0.75360107421875,0.4696044921875,-0.455230712890625,40321.47922966667,-2.851076017253561,-1.034479155634076,-0.4878695841736969,0.04216811433434486,-0.005505291745066643,0.01367726735770702,0.003573000431060791,-0.001994073390960693,-0.001825988292694092,XArbitraryZVertical,0.5051769138865937,-0.1382613124798033,0.8172853953000274,-0.2402595765730444,-0.759310245513916,0.468745082616806,-0.4513601958751678,0,0,0,-1,-1,40316.83576216667,unknown,2,2025-04-22T17:42:45.863+03:00,2025-04-21T17:08:51.449+03:00,9088,1.06215,0,0,7575.567,7,22,2025-04-22T17:37:54.399+03:00,767025768.5449551,0,-12.35,100.3501,1,0.35,2025-04-22T17:38:44.006+03:00,78,1.3,2025-04-22T14:20:19.516+03:00,0.02197104130929222,0
2025-04-22T17:42:50.526+03:00,1745332968.627453,40.95219040362207,29.14025454703285,76.04306,-1,-1,-1,-1,30,13.67661289634224,-9999,40321.49434266667,-0.755615234375,0.463226318359375,-0.4604034423828125,40321.48930566667,-2.850579736830239,-1.034266623668415,-0.4877525341272844,0.04099732264876366,0.0001778276637196541,0.01475035399198532,0.005797803401947021,0.001328945159912109,-0.002582669258117676,XArbitraryZVertical,0.5051241109272894,-0.1381116425205372,0.8172956899417898,-0.2404216930880222,-0.759261429309845,0.4686416983604431,-0.451549619436264,0,0,0,-1,-1,40316.83576216667,unknown,2,2025-04-22T17:42:45.863+03:00,2025-04-21T17:08:51.449+03:00,9088,1.06215,0,0,7575.567,7,22,2025-04-22T17:37:54.399+03:00,767025768.5449551,0,-12.35,100.3501,1,0.35,2025-04-22T17:38:44.006+03:00,78,1.3,2025-04-22T14:20:19.516+03:00,0.02197104130929222,0
2025-04-22T17:42:50.535+03:00,1745332968.627453,40.95219040362207,29.14025454703285,76.04306,-1,-1,-1,-1,30,13.67661289634224,-9999,40321.50441866667,-0.7573699951171875,0.4594879150390625,-0.4559173583984375,40321.49938066667,-2.850126153828473,-1.033958198621148,-0.4877157153372243,0.02544845454394817,0.01204194407910109,0.01804335229098797,0.004574716091156006,-0.002911001443862915,-0.006535828113555908,XArbitraryZVertical,0.505029309180411,-0.1380185045802398,0.8173241122749064,-0.2405775811137141,-0.759136974811554,0.4686091542243958,-0.4517925679683685,0,0,0,-1,-1,40316.83576216667,unknown,2,2025-04-22T17:42:45.863+03:00,2025-04-21T17:08:51.449+03:00,9088,1.06215,0,0,7575.567,7,22,2025-04-22T17:37:54.399+03:00,767025768.5449551,0,-12.35,100.3501,1,0.35,2025-04-22T17:38:44.006+03:00,78,1.3,2025-04-22T14:20:19.516+03:00,0.02197104130929222,0
2025-04-22T17:42:50.546+03:00,1745332968.627453,40.95219040362207,29.14025454703285,76.04306,-1,-1,-1,-1,30,13.67661289634224,-9999,40321.51449366667,-0.754241943359375,0.4591827392578125,-0.45550537109375,40321.50945666667,-2.849840004808953,-1.033736769397577,-0.4877533213350077,0.01169263012707233,-0.001565544400364161,0.01486110873520374,0.0014839768409729,-0.008651018142700195,-0.006163179874420166,XArbitraryZVertical,0.5049586569764882,-0.1379889234347649,0.8173403293372234,-0.2406875850771437,-0.7590216994285583,0.468642383813858,-0.4519516229629517,0,0,0,-1,-1,40316.83576216667,unknown,2,2025-04-22T17:42:45.863+03:00,2025-04-21T17:08:51.449+03:00,9088,1.06215,0,0,7575.567,7,22,2025-04-22T17:37:54.399+03:00,767025768.5449551,0,-12.35,100.3501,1,0.35,2025-04-22T17:38:44.006+03:00,78,1.3,2025-04-22T14:20:19.516+03:00,0.02197104130929222,0
2025-04-22T17:42:50.556+03:00,1745332968.627453,40.95219040362207,29.14025454703285,76.04306,-1,-1,-1,-1,30,13.67661289634224,-9999,40321.52456966667,-0.744873046875,0.4588470458984375,-0.4589385986328125,40321.51953166667,-2.849616982481966,-1.0336683137534,-0.4878192878107522,0.01154056377708912,-0.006522485986351967,0.01664489321410656,0.002799808979034424,-0.00919756293296814,-0.0008780360221862793,XArbitraryZVertical,0.5049462211206417,-0.1379689594336474,0.8173216112659485,-0.2407886444294776,-0.7589641809463501,0.468700647354126,-0.4519877731800079,0,0,0,-1,-1,40316.83576216667,unknown,2,2025-04-22T17:42:45.863+03:00,2025-04-21T17:08:51.449+03:00,9088,1.06215,0,0,7575.567,7,22,2025-04-22T17:37:54.399+03:00,767025768.5449551,0,-12.35,100.3501,1,0.35,2025-04-22T17:38:44.006+03:00,78,1.3,2025-04-22T14:20:19.516+03:00,0.02197104130929222,0
2025-04-22T17:42:50.566+03:00,1745332968.627453,40.95219040362207,29.14025454703285,76.04306,-1,-1,-1,-1,30,13.67661289634224,-9999,40321.53464466667,-0.7448272705078125,0.455322265625,-0.4420013427734375,40321.52960766667,-2.849421282976103,-1.033530626610619,-0.4879501961032435,0.002293535275384784,0.01003225520253181,0.02186349220573902,0.0103600025177002,-0.009160637855529785,-0.008296996355056763,XArbitraryZVertical,0.5049037733037337,-0.1379919133289477,0.8173145832681917,-0.2408881632310327,-0.7588492035865784,0.4688162803649902,-0.4520608186721802,0,0,0,-1,-1,40316.83576216667,unknown,2,2025-04-22T17:42:45.863+03:00,2025-04-21T17:08:51.449+03:00,9088,1.06215,0,0,7575.567,7,22,2025-04-22T17:37:54.399+03:00,767025768.5449551,0,-12.35,100.3501,1,0.35,2025-04-22T17:38:44.006+03:00,78,1.3,2025-04-22T14:20:19.516+03:00,0.02197104130929222,0
2025-04-22T17:42:50.576+03:00,1745332968.627453,40.95219040362207,29.14025454703285,76.04306,-1,-1,-1,-1,30,13.67661289634224,-9999,40321.54472066667,-0.746368408203125,0.4592437744140625,-0.44744873046875,40321.53968266667,-2.849294175763163,-1.033366173152675,-0.4881678542920467,-0.00564960902556777,0.005333374254405499,0.02304620109498501,0.01535540819168091,-0.01298445463180542,0.005035459995269775,XArbitraryZVertical,0.5048458459485549,-0.1380723569541157,0.8173106332501945,-0.2409770505064951,-0.7586871981620789,0.4690085351467133,-0.4521333873271942,0,0,0,-1,-1,40316.83576216667,unknown,2,2025-04-22T17:42:45.863+03:00,2025-04-21T17:08:51.449+03:00,9088,1.06215,0,0,7575.567,7,22,2025-04-22T17:37:54.399+03:00,767025768.5449551,0,-12.35,100.3501,1,0.35,2025-04-22T17:38:44.006+03:00,78,1.3,2025-04-22T14:20:19.516+03:00,0.02197104130929222,0
2025-04-22T17:42:50.586+03:00,1745332968.627453,40.95219040362207,29.14025454703285,76.04306,-1,-1,-1,-1,30,13.67661289634224,-9999,40321.55479566667,-0.7438812255859375,0.4612884521484375,-0.46453857421875,40321.54975766667,-2.849268531878315,-1.033373518752678,-0.4883894413309792,-0.01149265095591545,-0.01211838610470295,0.01659279689192772,0.01226347684860229,-0.01177635788917542,0.01042410731315613,XArbitraryZVertical,0.5048511505365714,-0.1381594104006603,0.8172748751369792,-0.2410371844712138,-0.758601188659668,0.4692042171955109,-0.4520745873451233,0,0,0,-1,-1,40316.83576216667,unknown,2,2025-04-22T17:42:45.863+03:00,2025-04-21T17:08:51.449+03:00,9088,1.06215,0,0,7575.567,7,22,2025-04-22T17:37:54.399+03:00,767025768.5449551,0,-12.35,100.3501,1,0.35,2025-04-22T17:38:44.006+03:00,78,1.3,2025-04-22T14:20:19.516+03:00,0.02197104130929222,0
2025-04-22T17:42:50.596+03:00,1745332968.627453,40.95219040362207,29.14025454703285,76.04306,-1,-1,-1,-1,30,13.67661289634224,-9999,40321.56487166667,-0.746978759765625,0.46246337890625,-0.4725189208984375,40321.55983366667,-2.849299782696014,-1.033579182492874,-0.4885810045233103,-0.008426287211477757,-0.02813729830086231,0.01135062985122204,0.01336252689361572,-0.008542776107788086,-0.007218778133392334,XArbitraryZVertical,0.5049334757676012,-0.1382241200479217,0.8172001142165646,-0.2410811193402836,-0.7586169242858887,0.4693733751773834,-0.4518725574016571,0,0,0,-1,-1,40316.83576216667,unknown,2,2025-04-22T17:42:45.863+03:00,2025-04-21T17:08:51.449+03:00,9088,1.06215,0,0,7575.567,7,22,2025-04-22T17:37:54.399+03:00,767025768.5449551,0,-12.35,100.3501,1,0.35,2025-04-22T17:38:44.006+03:00,78,1.3,2025-04-22T14:20:19.516+03:00,0.02197104130929222,0
2025-04-22T17:42:50.606+03:00,1745332968.627453,40.95219040362207,29.14025454703285,76.04306,-1,-1,-1,-1,30,13.67661289634224,-9999,40321.57494666667,-0.75140380859375,0.469268798828125,-0.4679412841796875,40321.56990866667,-2.849277920879103,-1.033938963110502,-0.4886667008339765,0.003059327136725187,-0.04636590555310249,0.001480389037169516,0.01361256837844849,-0.008664220571517944,-0.01929211616516113,XArbitraryZVertical,0.5050821768911316,-0.1382117288155076,0.8170947441051691,-0.2411339315754249,-0.7587448954582214,0.4694490432739258,-0.4515790343284607,0,0,0,-1,-1,40316.83576216667,unknown,2,2025-04-22T17:42:45.863+03:00,2025-04-21T17:08:51.449+03:00,9088,1.06215,0,0,7575.567,7,22,2025-04-22T17:37:54.399+03:00,767025768.5449551,0,-12.35,100.3501,1,0.35,2025-04-22T17:38:44.006+03:00,78,1.3,2025-04-22T14:20:19.516+03:00,0.02197104130929222,0
2025-04-22T17:42:50.616+03:00,1745332968.627453,40.95219040362207,29.14025454703285,76.04306,-1,-1,-1,-1,30,13.67661289634224,-9999,40321.58502166667,-0.7559661865234375,0.4705047607421875,-0.4554901123046875,40321.57998466667,-2.849237486192631,-1.034386077235752,-0.4886206012642874,0.006950738374143839,-0.0478343740105629,-0.002732465509325266,0.009530067443847656,-0.002169042825698853,-0.01969665288925171,XArbitraryZVertical,0.5052675184951974,-0.1381279666794638,0.8169833499315572,-0.2411711075746366,-0.7589653730392456,0.4694083631038666,-0.4512507915496826,0,0,0,-1,-1,40316.83576216667,unknown,2,2025-04-22T17:42:45.863+03:00,2025-04-21T17:08:51.449+03:00,9088,1.06215,0,0,7575.567,7,22,2025-04-22T17:37:54.399+03:00,767025768.5449551,0,-12.35,100.3501,1,0.35,2025-04-22T17:38:44.006+03:00,78,1.3,2025-04-22T14:20:19.516+03:00,0.02197104130929222,0
2025-04-22T17:42:50.626+03:00,1745332968.627453,40.95219040362207,29.14025454703285,76.04306,-1,-1,-1,-1,30,13.67661289634224,-9999,40321.59509766667,-0.7609405517578125,0.4655914306640625,-0.4489898681640625,40321.59005966667,-2.84921136897092,-1.034782820774072,-0.4885579027695535,0.002800468122586608,-0.03503548353910446,-0.002152295783162117,0.00508040189743042,0.001929908990859985,-0.009911954402923584,XArbitraryZVertical,0.505431233160744,-0.1380468166383679,0.8168886883207152,-0.2411952482709053,-0.7591696381568909,0.4693529903888702,-0.4509646892547607,0,0,0,-1,-1,40316.83576216667,unknown,2,2025-04-22T17:42:45.863+03:00,2025-04-21T17:08:51.449+03:00,9088,1.06215,0,0,7575.567,7,22,2025-04-22T17:37:54.399+03:00,767025768.5449551,0,-12.35,100.3501,1,0.35,2025-04-22T17:38:44.006+03:00,78,1.3,2025-04-22T14:20:19.516+03:00,0.02197104130929222,0
2025-04-22T17:42:50.636+03:00,1745332968.627453,40.95219040362207,29.14025454703285,76.04306,-1,-1,-1,-1,30,13.67661289634224,-9999,40321.60517266667,-0.7615203857421875,0.466461181640625,-0.44805908203125,40321.60013566667,-2.849235570167684,-1.035077329509882,-0.4885145155664507,-0.001559659256599844,-0.02400334179401398,-0.005274851806461811,-0.0004455447196960449,-0.001175105571746826,0.0008764266967773438,XArbitraryZVertical,0.5055497549294087,-0.137998942985826,0.8168231800291069,-0.2411960488472553,-0.7593199014663696,0.4693146646022797,-0.4507514834403992,0,0,0,-1,-1,40316.83576216667,unknown,2,2025-04-22T17:42:45.863+03:00,2025-04-21T17:08:51.449+03:00,9088,1.06215,0,0,7575.567,7,22,2025-04-22T17:37:54.399+03:00,767025768.5449551,0,-12.35,100.3501,1,0.35,2025-04-22T17:38:44.006+03:00,78,1.3,2025-04-22T14:20:19.516+03:00,0.02197104130929222,0
2025-04-22T17:42:50.646+03:00,1745332968.627453,40.95219040362207,29.14025454703285,76.04306,-1,-1,-1,-1,30,13.67661289634224,-9999,40321.61524866667,-0.7549896240234375,0.470245361328125,-0.450042724609375,40321.61021066667,-2.849261274968052,-1.035315331980915,-0.4884313567951699,0.002577694598585367,-0.02680245786905289,-0.0091960234567523,-0.002379953861236572,-0.003924548625946045,0.00280606746673584,XArbitraryZVertical,0.505644991531826,-0.1379413223697976,0.8167776965908436,-0.2411834955947441,-0.7594607472419739,0.4692412316799164,-0.4505906701087952,0,0,0,-1,-1,40316.83576216667,unknown,2,2025-04-22T17:42:45.863+03:00,2025-04-21T17:08:51.449+03:00,9088,1.06215,0,0,7575.567,7,22,2025-04-22T17:37:54.399+03:00,767025768.5449551,0,-12.35,100.3501,1,0.35,2025-04-22T17:38:44.006+03:00,78,1.3,2025-04-22T14:20:19.516+03:00,0.02197104130929222,0
2025-04-22T17:42:50.657+03:00,1745332968.627453,40.95219040362207,29.14025454703285,76.04306,-1,-1,-1,-1,30,13.67661289634224,-9999,40321.62532366667,-0.746734619140625,0.4705810546875,-0.4516143798828125,40321.62028666667,-2.849280229769143,-1.035612516227153,-0.4883150243012745,0.006387612782418728,-0.03253011777997017,-0.01015902310609818,0.001539230346679688,8.448958396911621e-05,0.001219630241394043,XArbitraryZVertical,0.5057647778606176,-0.1378607317340717,0.8167210632111958,-0.2411703970379348,-0.7596416473388672,0.469138503074646,-0.4503928124904633,0,0,0,-1,-1,40316.83576216667,unknown,2,2025-04-22T17:42:45.863+03:00,2025-04-21T17:08:51.449+03:00,9088,1.06215,0,0,7575.567,7,22,2025-04-22T17:37:54.399+03:00,767025768.5449551,0,-12.35,100.3501,1,0.35,2025-04-22T17:38:44.006+03:00,78,1.3,2025-04-22T14:20:19.516+03:00,0.02197104130929222,0
2025-04-22T17:42:50.667+03:00,1745332968.627453,40.95219040362207,29.14025454703285,76.04306,-1,-1,-1,-1,30,13.67661289634224,-9999,40321.63539966667,-0.7469329833984375,0.4681396484375,-0.452056884765625,40321.63036166667,-2.849283402975896,-1.035919092481428,-0.4882118703167013,0.001535799354314804,-0.02591489255428314,-0.007154211867600679,0.01050800085067749,0.001243621110916138,-0.0005449950695037842,XArbitraryZVertical,0.5058895525261641,-0.1377806772637271,0.8166580569199052,-0.241167276015685,-0.7598211765289307,0.4690473973751068,-0.4501844942569733,0,0,0,-1,-1,40316.83576216667,unknown,2,2025-04-22T17:42:45.863+03:00,2025-04-21T17:08:51.449+03:00,9088,1.06215,0,0,7575.567,7,22,2025-04-22T17:37:54.399+03:00,767025768.5449551,0,-12.35,100.3501,1,0.35,2025-04-22T17:38:44.006+03:00,78,1.3,2025-04-22T14:20:19.516+03:00,0.02197104130929222,0
2025-04-22T17:42:50.677+03:00,1745332968.627453,40.95219040362207,29.14025454703285,76.04306,-1,-1,-1,-1,30,13.67661289634224,-9999,40321.64547466667,-0.7493438720703125,0.4648284912109375,-0.4523773193359375,40321.64043666667,-2.849308441468151,-1.036138903821422,-0.4881645087075073,-0.001513520022854209,-0.01897309720516205,-0.004288117866963148,0.01401352882385254,0.001285433769226074,-0.00140264630317688,XArbitraryZVertical,0.5059774765234676,-0.1377403414128402,0.816612049947569,-0.2411616605736086,-0.7599392533302307,0.4690055847167969,-0.4500287771224976,0,0,0,-1,-1,40316.83576216667,unknown,2,2025-04-22T17:42:45.863+03:00,2025-04-21T17:08:51.449+03:00,9088,1.06215,0,0,7575.567,7,22,2025-04-22T17:37:54.399+03:00,767025768.5449551,0,-12.35,100.3501,1,0.35,2025-04-22T17:38:44.006+03:00,78,1.3,2025-04-22T14:20:19.516+03:00,0.02197104130929222,0
2025-04-22T17:42:50.688+03:00,1745332968.627453,40.95219040362207,29.14025454703285,76.04306,-1,-1,-1,-1,30,13.67661289634224,-9999,40321.65555066667,-0.75408935546875,0.4648590087890625,-0.4577484130859375,40321.65051266667,-2.84931066921396,-1.036266374569156,-0.4881501671253826,-0.002636109013110399,-0.01525459252297878,-0.001866272417828441,0.01212352514266968,-0.003874629735946655,-0.002396315336227417,XArbitraryZVertical,0.5060293323973099,-0.1377194232315786,0.8165820906891842,-0.2411663423766084,-0.7600023746490479,0.4689929187297821,-0.4499353468418121,0,0,0,-1,-1,40316.83576216667,unknown,2,2025-04-22T17:42:45.863+03:00,2025-04-21T17:08:51.449+03:00,9088,1.06215,0,0,7575.567,7,22,2025-04-22T17:37:54.399+03:00,767025768.5449551,0,-12.35,100.3501,1,0.35,2025-04-22T17:38:44.006+03:00,78,1.3,2025-04-22T14:20:19.516+03:00,0.02197104130929222,0
2025-04-22T17:42:50.697+03:00,1745332968.627453,40.95219040362207,29.14025454703285,76.04306,-1,-1,-1,-1,30,13.67661289634224,-9999,40321.66562566667,-0.754486083984375,0.463714599609375,-0.4586639404296875,40321.66058766667,-2.849323648303626,-1.036347635031668,-0.4881579703256919,-0.004945868626236916,-0.01035837084054947,0.0006437569973058999,0.007136821746826172,-0.003637343645095825,-0.005191266536712646,XArbitraryZVertical,0.5060616267831018,-0.1377162242117148,0.8165620469778931,-0.2411683780601101,-0.7600358128547668,0.4689998030662537,-0.4498717486858368,0,0,0,-1,-1,40316.83576216667,unknown,2,2025-04-22T17:42:45.863+03:00,2025-04-21T17:08:51.449+03:00,9088,1.06215,0,0,7575.567,7,22,2025-04-22T17:37:54.399+03:00,767025768.5449551,0,-12.35,100.3501,1,0.35,2025-04-22T17:38:44.006+03:00,78,1.3,2025-04-22T14:20:19.516+03:00,0.02197104130929222,0
2025-04-22T17:42:50.707+03:00,1745332968.627453,40.95219040362207,29.14025454703285,76.04306,-1,-1,-1,-1,30,13.67661289634224,-9999,40321.67570066667,-0.7553863525390625,0.465667724609375,-0.4558563232421875,40321.67066366667,-2.849360087728884,-1.036438975710429,-0.488214260190011,-0.008567102253437042,-0.007889220491051674,0.004770924337208271,0.006087064743041992,-0.005029827356338501,-0.009073585271835327,XArbitraryZVertical,0.5060965410009478,-0.1377384034273965,0.8165354556617742,-0.2411723079786776,-0.7600541710853577,0.4690495133399963,-0.4497888386249542,0,0,0,-1,-1,40316.83576216667,unknown,2,2025-04-22T17:42:45.863+03:00,2025-04-21T17:08:51.449+03:00,9088,1.06215,0,0,7575.567,7,22,2025-04-22T17:37:54.399+03:00,767025768.5449551,0,-12.35,100.3501,1,0.35,2025-04-22T17:38:44.006+03:00,78,1.3,2025-04-22T14:20:19.516+03:00,0.02197104130929222,0
2025-04-22T17:42:50.717+03:00,1745332968.627453,40.95219040362207,29.14025454703285,76.04306,-1,-1,-1,-1,30,13.67661289634224,-9999,40321.68577666667,-0.755889892578125,0.4683990478515625,-0.455963134765625,40321.68073866667,-2.849432291112062,-1.036524754067725,-0.4883164301627146,-0.01176396012306213,-0.003071295097470284,0.006133663933724165,0.0050162672996521,-0.004082441329956055,-0.006508171558380127,XArbitraryZVertical,0.506126795829195,-0.1377898152841334,0.8165083187463058,-0.2411714752991113,-0.7600515484809875,0.4691397547721863,-0.4496992528438568,0,0,0,-1,-1,40316.83576216667,unknown,2,2025-04-22T17:42:45.863+03:00,2025-04-21T17:08:51.449+03:00,9088,1.06215,0,0,7575.567,7,22,2025-04-22T17:37:54.399+03:00,767025768.5449551,0,-12.35,100.3501,1,0.35,2025-04-22T17:38:44.006+03:00,78,1.3,2025-04-22T14:20:19.516+03:00,0.02197104130929222,0
2025-04-22T17:42:50.727+03:00,1745332968.627453,40.95219040362207,29.14025454703285,76.04306,-1,-1,-1,-1,30,13.67661289634224,-9999,40321.69585166667,-0.75732421875,0.4693756103515625,-0.4561614990234375,40321.69081466667,-2.849515300389233,-1.0365859605282,-0.4884079240248217,-0.006887912284582853,0.002042040461674333,0.0054322206415236,0.004762709140777588,-0.002240657806396484,-0.006195038557052612,XArbitraryZVertical,0.5061462532240782,-0.1378423873077773,0.8164901425784279,-0.2411621629931043,-0.760042130947113,0.4692205488681793,-0.4496308863162994,0,0,0,-1,-1,40316.83576216667,unknown,2,2025-04-22T17:42:45.863+03:00,2025-04-21T17:08:51.449+03:00,9088,1.06215,0,0,7575.567,7,22,2025-04-22T17:37:54.399+03:00,767025768.5449551,0,-12.35,100.3501,1,0.35,2025-04-22T17:38:44.006+03:00,78,1.3,2025-04-22T14:20:19.516+03:00,0.02197104130929222,0
2025-04-22T17:42:50.737+03:00,1745332968.627453,40.95219040362207,29.14025454703285,76.04306,-1,-1,-1,-1,30,13.67661289634224,-9999,40321.70592766667,-0.7586669921875,0.4749908447265625,-0.4570770263671875,40321.70088966667,-2.849498501787035,-1.036559973728267,-0.4884962894727858,0.001316488138400018,0.00111765693873167,0.008572886697947979,0.003433644771575928,-0.0005944967269897461,-0.006669461727142334,XArbitraryZVertical,0.5061370032914287,-0.1378789023811603,0.8164823215087847,-0.2411868814098652,-0.7599946856498718,0.4692985713481903,-0.4496294856071472,0,0,0,-1,-1,40316.83576216667,unknown,2,2025-04-22T17:42:45.863+03:00,2025-04-21T17:08:51.449+03:00,9088,1.06215,0,0,7575.567,7,22,2025-04-22T17:37:54.399+03:00,767025768.5449551,0,-12.35,100.3501,1,0.35,2025-04-22T17:38:44.006+03:00,78,1.3,2025-04-22T14:20:19.516+03:00,0.02197104130929222,0
2025-04-22T17:42:50.747+03:00,1745332968.627453,40.95219040362207,29.14025454703285,76.04306,-1,-1,-1,-1,30,13.67661289634224,-9999,40321.71600266667,-0.7573394775390625,0.47607421875,-0.457916259765625,40321.71096566667,-2.849394844718311,-1.036489057833195,-0.4885488602816924,0.007251075934618711,0.003987213131040335,0.007208016235381365,0.001686811447143555,0.002838134765625,-0.006811201572418213,XArbitraryZVertical,0.5061152835350444,-0.1378835773657698,0.8164806010926267,-0.2412360192709742,-0.7599416375160217,0.4693450033664703,-0.4496708810329437,0,0,0,-1,-1,40316.83576216667,unknown,2,2025-04-22T17:42:45.863+03:00,2025-04-21T17:08:51.449+03:00,9088,1.06215,0,0,7575.567,7,22,2025-04-22T17:37:54.399+03:00,767025768.5449551,0,-12.35,100.3501,1,0.35,2025-04-22T17:38:44.006+03:00,78,1.3,2025-04-22T14:20:19.516+03:00,0.02197104130929222,0
2025-04-22T17:42:50.759+03:00,1745332968.627453,40.95219040362207,29.14025454703285,76.04306,-1,-1,-1,-1,30,13.67661289634224,-9999,40321.72607866667,-0.75872802734375,0.4735565185546875,-0.4567718505859375,40321.72104066667,-2.849250477434517,-1.036343384629518,-0.4885784240231169,0.01033128891140223,0.008813394233584404,0.009853334166109562,0.001838207244873047,0.007832169532775879,-0.008324980735778809,XArbitraryZVertical,0.5060658280485442,-0.1378772033576843,0.8164959424363367,-0.2412914902881094,-0.7598642110824585,0.469371110200882,-0.4497745037078857,0,0,0,-1,-1,40316.83576216667,unknown,2,2025-04-22T17:42:45.863+03:00,2025-04-21T17:08:51.449+03:00,9088,1.06215,0,0,7575.567,7,22,2025-04-22T17:37:54.399+03:00,767025768.5449551,0,-12.35,100.3501,1,0.35,2025-04-22T17:38:44.006+03:00,78,1.3,2025-04-22T14:20:19.516+03:00,0.02197104130929222,0
2025-04-22T17:42:50.767+03:00,1745332968.627453,40.95219040362207,29.14025454703285,76.04306,-1,-1,-1,-1,30,13.67661289634224,-9999,40321.73615366667,-0.760223388671875,0.4698486328125,-0.4554901123046875,40321.73111566667,-2.849106522045745,-1.03614288232109,-0.488628064937669,0.004829663783311844,0.01346080936491489,0.01046556141227484,0.001804232597351074,0.004583984613418579,-0.007635176181793213,XArbitraryZVertical,0.5059939965610942,-0.1378860990568587,0.8165224416452599,-0.2413474817650482,-0.7597540020942688,0.4694149494171143,-0.4499149918556213,0,0,0,-1,-1,40316.83576216667,unknown,2,2025-04-22T17:42:45.863+03:00,2025-04-21T17:08:51.449+03:00,9088,1.06215,0,0,7575.567,7,22,2025-04-22T17:37:54.399+03:00,767025768.5449551,0,-12.35,100.3501,1,0.35,2025-04-22T17:38:44.006+03:00,78,1.3,2025-04-22T14:20:19.516+03:00,0.02197104130929222,0
2025-04-22T17:42:50.778+03:00,1745332968.627453,40.95219040362207,29.14025454703285,76.04306,-1,-1,-1,-1,30,13.67661289634224,-9999,40321.74622966667,-0.759552001953125,0.463134765625,-0.4542694091796875,40321.74119166667,-2.849053154270016,-1.035952231073311,-0.4887285888014538,-0.008270159363746643,0.01617137528955936,0.01083733886480331,-4.637241363525391e-05,0.00214540958404541,-0.005469739437103271,XArbitraryZVertical,0.5059200545724124,-0.1379383982440883,0.8165502814822474,-0.2413784768776912,-0.7596275806427002,0.4695037007331848,-0.4500357806682587,0,0,0,-1,-1,40316.83576216667,unknown,2,2025-04-22T17:42:45.863+03:00,2025-04-21T17:08:51.449+03:00,9088,1.06215,0,0,7575.567,7,22,2025-04-22T17:37:54.399+03:00,767025768.5449551,0,-12.35,100.3501,1,0.35,2025-04-22T17:38:44.006+03:00,78,1.3,2025-04-22T14:20:19.516+03:00,0.02197104130929222,0
2025-04-22T17:42:50.800+03:00,1745332968.627453,40.95219040362207,29.14025454703285,76.04306,-1,-1,-1,-1,30,13.67661289634224,-9999,40321.75630466667,-0.7572174072265625,0.462249755859375,-0.4553375244140625,40321.75126666667,-2.849062765045611,-1.035776271980453,-0.488847752114912,-0.0108826532959938,0.01482894271612167,0.009220567531883717,-0.0002804994583129883,-0.004551619291305542,-0.004174411296844482,XArbitraryZVertical,0.5058478136432228,-0.138012802621555,0.8165793640305298,-0.241388901992377,-0.75950026512146,0.4696089029312134,-0.4501409232616425,0,0,0,-1,-1,40316.83576216667,unknown,2,2025-04-22T17:42:45.863+03:00,2025-04-21T17:08:51.449+03:00,9088,1.06215,0,0,7575.567,7,22,2025-04-22T17:37:54.399+03:00,767025768.5449551,0,-12.35,100.3501,1,0.35,2025-04-22T17:38:44.006+03:00,78,1.3,2025-04-22T14:20:19.516+03:00,0.02197104130929222,0
2025-04-22T17:42:50.801+03:00,1745332968.627453,40.95219040362207,29.14025454703285,76.04306,-1,-1,-1,-1,30,13.67661289634224,-9999,40321.76638066667,-0.7536163330078125,0.463775634765625,-0.457183837890625,40321.76134266667,-2.849030237627374,-1.035570716193795,-0.4889404232994244,0.005230802111327648,0.02149110473692417,0.01079316344112158,0.001634180545806885,-0.007929354906082153,-0.004284679889678955,XArbitraryZVertical,0.5057663393465214,-0.1380688492450074,0.816614501964254,-0.2414085880151864,-0.7593702673912048,0.4696907103061676,-0.450274795293808,0,0,0,-1,-1,40316.83576216667,unknown,2,2025-04-22T17:42:45.863+03:00,2025-04-21T17:08:51.449+03:00,9088,1.06215,0,0,7575.567,7,22,2025-04-22T17:37:54.399+03:00,767025768.5449551,0,-12.35,100.3501,1,0.35,2025-04-22T17:38:44.006+03:00,78,1.3,2025-04-22T14:20:19.516+03:00,0.02197104130929222,0
2025-04-22T17:42:50.808+03:00,1745332968.627453,40.95219040362207,29.14025454703285,76.04306,-1,-1,-1,-1,30,13.67661289634224,-9999,40321.77645566667,-0.751129150390625,0.4632720947265625,-0.450592041015625,40321.77141766667,-2.848938189591963,-1.03524955408327,-0.4890301147983124,-0.001874245121143758,0.02977886237204075,0.01211156137287617,0.004291415214538574,-0.006162196397781372,-0.007465064525604248,XArbitraryZVertical,0.5056417570019414,-0.138122534732542,0.8166721133379382,-0.2414439247835831,-0.7591893672943115,0.4697698950767517,-0.4504971504211426,0,0,0,-1,-1,40316.83576216667,unknown,2,2025-04-22T17:42:45.863+03:00,2025-04-21T17:08:51.449+03:00,9088,1.06215,0,0,7575.567,7,22,2025-04-22T17:37:54.399+03:00,767025768.5449551,0,-12.35,100.3501,1,0.35,2025-04-22T17:38:44.006+03:00,78,1.3,2025-04-22T14:20:19.516+03:00,0.02197104130929222,0
2025-04-22T17:42:50.818+03:00,1745332968.627453,40.95219040362207,29.14025454703285,76.04306,-1,-1,-1,-1,30,13.67661289634224,-9999,40321.78653066667,-0.7508697509765625,0.4636688232421875,-0.4530792236328125,40321.78149366667,-2.84888080252285,-1.034922297519178,-0.489158376617433,-0.006034369114786386,0.02798096276819706,0.01510575413703918,0.007220208644866943,-0.006336480379104614,-0.002990186214447021,XArbitraryZVertical,0.5055123697150232,-0.1382021521755094,0.8167300810923878,-0.2414732401556847,-0.7589900493621826,0.469883143901825,-0.4507148265838623,0,0,0,-1,-1,40316.83576216667,unknown,2,2025-04-22T17:42:45.863+03:00,2025-04-21T17:08:51.449+03:00,9088,1.06215,0,0,7575.567,7,22,2025-04-22T17:37:54.399+03:00,767025768.5449551,0,-12.35,100.3501,1,0.35,2025-04-22T17:38:44.006+03:00,78,1.3,2025-04-22T14:20:19.516+03:00,0.02197104130929222,0
2025-04-22T17:42:50.828+03:00,1745332968.627453,40.95219040362207,29.14025454703285,76.04306,-1,-1,-1,-1,30,13.67661289634224,-9999,40321.79660666667,-0.7475128173828125,0.459625244140625,-0.4557952880859375,40321.79156866667,-2.848915450994518,-1.034690531964716,-0.4893587710214553,-0.01751026324927807,0.01940871402621269,0.01597963832318783,0.007950246334075928,-0.006635367870330811,-0.000146329402923584,XArbitraryZVertical,0.5054157573588651,-0.1383242132797002,0.8167650498014933,-0.2414875719713146,-0.7588046789169312,0.4700600206851959,-0.4508426487445831,0,0,0,-1,-1,40316.83576216667,unknown,2,2025-04-22T17:42:45.863+03:00,2025-04-21T17:08:51.449+03:00,9088,1.06215,0,0,7575.567,7,22,2025-04-22T17:37:54.399+03:00,767025768.5449551,0,-12.35,100.3501,1,0.35,2025-04-22T17:38:44.006+03:00,78,1.3,2025-04-22T14:20:19.516+03:00,0.02197104130929222,0
2025-04-22T17:42:50.838+03:00,1745332968.627453,40.95219040362207,29.14025454703285,76.04306,-1,-1,-1,-1,30,13.67661289634224,-9999,40321.80668166667,-0.7486419677734375,0.4590606689453125,-0.4595184326171875,40321.80164466667,-2.849001526913461,-1.034558257090192,-0.489597272840392,-0.01885409466922283,0.01651865243911743,0.01660840958356857,0.009884655475616455,-0.009150028228759766,-0.004833489656448364,XArbitraryZVertical,0.5053563381251505,-0.1384635350664872,0.8167755007534357,-0.2414961936908452,-0.7586485147476196,0.4702705144882202,-0.4508856534957886,0,0,0,-1,-1,40316.83576216667,unknown,2,2025-04-22T17:42:45.863+03:00,2025-04-21T17:08:51.449+03:00,9088,1.06215,0,0,7575.567,7,22,2025-04-22T17:37:54.399+03:00,767025768.5449551,0,-12.35,100.3501,1,0.35,2025-04-22T17:38:44.006+03:00,78,1.3,2025-04-22T14:20:19.516+03:00,0.02197104130929222,0
2025-04-22T17:42:50.848+03:00,1745332968.627453,40.95219040362207,29.14025454703285,76.04306,-1,-1,-1,-1,30,13.67661289634224,-9999,40321.81675766667,-0.7511749267578125,0.4647979736328125,-0.4601898193359375,40321.81171966667,-2.849083992937412,-1.034398753865569,-0.489829939664219,-0.01715599745512009,0.02027537301182747,0.0157873909920454,0.01101565361022949,-0.0113542377948761,-0.006919890642166138,XArbitraryZVertical,0.5052859876036527,-0.1386027146115749,0.8167933782724743,-0.2415031076669137,-0.7584825158119202,0.470475822687149,-0.4509507119655609,0,0,0,-1,-1,40316.83576216667,unknown,2,2025-04-22T17:42:45.863+03:00,2025-04-21T17:08:51.449+03:00,9088,1.06215,0,0,7575.567,7,22,2025-04-22T17:37:54.399+03:00,767025768.5449551,0,-12.35,100.3501,1,0.35,2025-04-22T17:38:44.006+03:00,78,1.3,2025-04-22T14:20:19.516+03:00,0.02197104130929222,0
2025-04-22T17:42:50.858+03:00,1745332968.627453,40.95219040362207,29.14025454703285,76.04306,-1,-1,-1,-1,30,13.67661289634224,-9999,40321.82683266667,-0.7498321533203125,0.4713592529296875,-0.45355224609375,40321.82179566667,-2.84911279828367,-1.034189941675923,-0.4900173912203981,-0.008656783029437065,0.02237208001315594,0.01384914107620716,0.007549703121185303,-0.008483052253723145,-0.009812593460083008,XArbitraryZVertical,0.5051990876019791,-0.1387150151462931,0.8168236372949729,-0.241518475087794,-0.7583126425743103,0.4706412255764008,-0.4510640501976013,0,0,0,-1,-1,40316.83576216667,unknown,2,2025-04-22T17:42:45.863+03:00,2025-04-21T17:08:51.449+03:00,9088,1.06215,0,0,7575.567,7,22,2025-04-22T17:37:54.399+03:00,767025768.5449551,0,-12.35,100.3501,1,0.35,2025-04-22T17:38:44.006+03:00,78,1.3,2025-04-22T14:20:19.516+03:00,0.02197104130929222,0
2025-04-22T17:42:50.868+03:00,1745332968.627453,40.95219040362207,29.14025454703285,76.04306,-1,-1,-1,-1,30,13.67661289634224,-9999,40321.83690866667,-0.74560546875,0.4732818603515625,-0.449981689453125,40321.83187066667,-2.849149184361804,-1.033977692481687,-0.4901561538953895,-0.01028104592114687,0.02044022269546986,0.0111248604953289,0.007260620594024658,-0.001632273197174072,-0.004603862762451172,XArbitraryZVertical,0.505110174123186,-0.1388089387747247,0.816862295242434,-0.2415196703509087,-0.7581607103347778,0.4707636535167694,-0.4511915743350983,0,0,0,-1,-1,40316.83576216667,unknown,2,2025-04-22T17:42:45.863+03:00,2025-04-21T17:08:51.449+03:00,9088,1.06215,0,0,7575.567,7,22,2025-04-22T17:37:54.399+03:00,767025768.5449551,0,-12.35,100.3501,1,0.35,2025-04-22T17:38:44.006+03:00,78,1.3,2025-04-22T14:20:19.516+03:00,0.02197104130929222,0
2025-04-22T17:42:50.878+03:00,1745332968.627453,40.95219040362207,29.14025454703285,76.04306,-1,-1,-1,-1,30,13.67661289634224,-9999,40321.84698366667,-0.7410736083984375,0.4724884033203125,-0.4507598876953125,40321.84194566667,-2.849202420757882,-1.033830878690365,-0.4902428135859449,-0.009077297523617744,0.01345741376280785,0.005163907073438168,0.009676933288574219,0.001648187637329102,1.84476375579834e-05,XArbitraryZVertical,0.5050467146118757,-0.1388770389143222,0.8168936307737616,-0.2415069463312672,-0.7580593228340149,0.4708401262760162,-0.4512819647789001,0,0,0,-1,-1,40316.83576216667,unknown,2,2025-04-22T17:42:45.863+03:00,2025-04-21T17:08:51.449+03:00,9088,1.06215,0,0,7575.567,7,22,2025-04-22T17:37:54.399+03:00,767025768.5449551,0,-12.35,100.3501,1,0.35,2025-04-22T17:38:44.006+03:00,78,1.3,2025-04-22T14:20:19.516+03:00,0.02197104130929222,0
2025-04-22T17:42:50.888+03:00,1745332968.627453,40.95219040362207,29.14025454703285,76.04306,-1,-1,-1,-1,30,13.67661289634224,-9999,40321.85705966667,-0.7425537109375,0.4705657958984375,-0.4539947509765625,40321.85202166667,-2.849272956388453,-1.03372416618139,-0.4902996503376791,-0.008789342828094959,0.0123338932171464,0.002574814949184656,0.0151294469833374,0.002422034740447998,0.001672506332397461,XArbitraryZVertical,0.5049983467848155,-0.1389319423385649,0.8169211829429589,-0.2414833301560924,-0.7579882144927979,0.4708902537822723,-0.4513491690158844,0,0,0,-1,-1,40316.83576216667,unknown,2,2025-04-22T17:42:45.863+03:00,2025-04-21T17:08:51.449+03:00,9088,1.06215,0,0,7575.567,7,22,2025-04-22T17:37:54.399+03:00,767025768.5449551,0,-12.35,100.3501,1,0.35,2025-04-22T17:38:44.006+03:00,78,1.3,2025-04-22T14:20:19.516+03:00,0.02197104130929222,0
2025-04-22T17:42:50.899+03:00,1745332968.627453,40.95219040362207,29.14025454703285,76.04306,-1,-1,-1,-1,30,13.67661289634224,-9999,40321.86713466667,-0.7440643310546875,0.46881103515625,-0.4579315185546875,40321.86209666667,-2.849297847131114,-1.033591372453684,-0.4903221636505246,-0.001583627657964826,0.01260473672300577,0.003669108264148235,0.0169219970703125,0.0001438558101654053,-0.001055151224136353,XArbitraryZVertical,0.5049424270116997,-0.138963853879175,0.8169545554284536,-0.2414689272875589,-0.7579191327095032,0.4709101319313049,-0.4514443874359131,0,0,0,-1,-1,40316.83576216667,unknown,2,2025-04-22T17:42:45.863+03:00,2025-04-21T17:08:51.449+03:00,9088,1.06215,0,0,7575.567,7,22,2025-04-22T17:37:54.399+03:00,767025768.5449551,0,-12.35,100.3501,1,0.35,2025-04-22T17:38:44.006+03:00,78,1.3,2025-04-22T14:20:19.516+03:00,0.02197104130929222,0
2025-04-22T17:42:50.909+03:00,1745332968.627453,40.95219040362207,29.14025454703285,76.04306,-1,-1,-1,-1,30,13.67661289634224,-9999,40321.87721066667,-0.7423095703125,0.4665985107421875,-0.46051025390625,40321.87217266667,-2.849318562453425,-1.033490899127659,-0.4903794451443276,-0.006726724561303854,0.005994770210236311,0.005229320842772722,0.0134507417678833,-0.001752972602844238,-0.004624426364898682,XArbitraryZVertical,0.5049000643851838,-0.139005612001784,0.8169744491556051,-0.2414661849068057,-0.7578505873680115,0.4709606468677521,-0.4515067338943481,0,0,0,-1,-1,40316.83576216667,unknown,2,2025-04-22T17:42:45.863+03:00,2025-04-21T17:08:51.449+03:00,9088,1.06215,0,0,7575.567,7,22,2025-04-22T17:37:54.399+03:00,767025768.5449551,0,-12.35,100.3501,1,0.35,2025-04-22T17:38:44.006+03:00,78,1.3,2025-04-22T14:20:19.516+03:00,0.02197104130929222,0
2025-04-22T17:42:50.919+03:00,1745332968.627453,40.95219040362207,29.14025454703285,76.04306,-1,-1,-1,-1,30,13.67661289634224,-9999,40321.88728566667,-0.738433837890625,0.46148681640625,-0.46319580078125,40321.88224766667,-2.84938783826465,-1.033477096100074,-0.4904679603327139,-0.01408024504780769,-0.0002599298022687435,0.005380854941904545,0.01414114236831665,-0.003601133823394775,-0.008068442344665527,XArbitraryZVertical,0.5048897957061818,-0.1390624720783258,0.8169739556290424,-0.2414565512023594,-0.7578085660934448,0.4710387289524078,-0.4514958560466766,0,0,0,-1,-1,40316.83576216667,unknown,2,2025-04-22T17:42:45.863+03:00,2025-04-21T17:08:51.449+03:00,9088,1.06215,0,0,7575.567,7,22,2025-04-22T17:37:54.399+03:00,767025768.5449551,0,-12.35,100.3501,1,0.35,2025-04-22T17:38:44.006+03:00,78,1.3,2025-04-22T14:20:19.516+03:00,0.02197104130929222,0
