loggingTime(txt),locationTimestamp_since1970(s),locationLatitude(WGS84),locationLongitude(WGS84),locationAltitude(m),locationSpeed(m/s),locationSpeedAccuracy(m/s),locationCourse(°),locationCourseAccuracy(°),locationVerticalAccuracy(m),locationHorizontalAccuracy(m),locationFloor(Z),accelerometerTimestamp_sinceReboot(s),accelerometerAccelerationX(G),accelerometerAccelerationY(G),accelerometerAccelerationZ(G),motionTimestamp_sinceReboot(s),motionYaw(rad),motionRoll(rad),motionPitch(rad),motionRotationRateX(rad/s),motionRotationRateY(rad/s),motionRotationRateZ(rad/s),motionUserAccelerationX(G),motionUserAccelerationY(G),motionUserAccelerationZ(G),motionAttitudeReferenceFrame(txt),motionQuaternionX(R),motionQuaternionY(R),motionQuaternionZ(R),motionQuaternionW(R),motionGravityX(G),motionGravityY(G),motionGravityZ(G),motionMagneticFieldX(µT),motionMagneticFieldY(µT),motionMagneticFieldZ(µT),motionHeading(°),motionMagneticFieldCalibrationAccuracy(Z),activityTimestamp_sinceReboot(s),activity(txt),activityActivityConfidence(Z),activityActivityStartDate(txt),pedometerStartDate(txt),pedometerNumberofSteps(N),pedometerAverageActivePace(s/m),pedometerCurrentPace(s/m),pedometerCurrentCadence(steps/s),pedometerDistance(m),pedometerFloorAscended(N),pedometerFloorDescended(N),pedometerEndDate(txt),altimeterTimestamp_sinceReboot(s),altimeterReset(bool),altimeterRelativeAltitude(m),altimeterPressure(kPa),batteryState(N),batteryLevel(R),heartRateBPMTimestamp(txt),heartRateBPM(N),heartRateBPS(R),heartRateVariabilityTimestamp(txt),heartRateVariability(ms),label
2025-04-20T22:05:30.529+03:00,1745175929.972784,40.98562279296635,29.13746977659649,128.3677,-1,-1,-1,-1,30,30.98550395246249,-9999,8671.039150875,-0.6881103515625,0.536865234375,-0.474822998046875,8671.029074875001,-2.125976961367733,-0.9402511636811101,-0.5678157757987123,0.06289070844650269,0.02021557278931141,-0.04448900371789932,0.001576721668243408,0.01669728755950928,0.02973520755767822,XArbitraryZVertical,0.5014193702152592,-0.00675080540163224,0.6861270925020514,-0.5270319346382253,-0.6809590458869934,0.5377918481826782,-0.4970660805702209,0,0,0,-1,-1,8650.688061375002,unknown,2,2025-04-20T22:05:07.242+03:00,2025-04-20T21:57:49.637+03:00,10,3.550022,0,0,8.640187,0,0,2025-04-20T22:04:54.344+03:00,766868715.0734541,0,0.2199993,99.73423,1,1,2025-04-20T22:05:14.565+03:00,66,1.1,2025-04-19T12:19:17.059+03:00,0.05691595998002078,0
2025-04-20T22:05:30.530+03:00,1745175929.972784,40.98562279296635,29.13746977659649,128.3677,-1,-1,-1,-1,30,30.98550395246249,-9999,8671.049227875001,-0.6675262451171875,0.5358734130859375,-0.4726409912109375,8671.039150875,-2.125774048493963,-0.9400658203048214,-0.5672469516643548,0.04466935619711876,0.006046224851161242,-0.03178945183753967,0.0124279260635376,0.02288365364074707,0.02741718292236328,XArbitraryZVertical,0.5012696004172559,-0.006518555797292513,0.6862422325511169,-0.5270273676762921,-0.6811138391494751,0.5373122096061707,-0.4973725974559784,0,0,0,-1,-1,8650.688061375002,unknown,2,2025-04-20T22:05:07.242+03:00,2025-04-20T21:57:49.637+03:00,10,3.550022,0,0,8.640187,0,0,2025-04-20T22:04:54.344+03:00,766868715.0734541,0,0.2199993,99.73423,1,1,2025-04-20T22:05:14.565+03:00,66,1.1,2025-04-19T12:19:17.059+03:00,0.05691595998002078,0
2025-04-20T22:05:30.531+03:00,1745175929.972784,40.98562279296635,29.13746977659649,128.3677,-1,-1,-1,-1,30,30.98550395246249,-9999,8671.059303875001,-0.66851806640625,0.5445098876953125,-0.4767913818359375,8671.049227875001,-2.125629127711505,-0.9400289233944626,-0.5668804133968101,0.03506626561284065,0.00289810192771256,-0.02340156026184559,-0.006855905055999756,-0.0001378059387207031,0.02269089221954346,XArbitraryZVertical,0.5012014104133745,-0.006343622491312923,0.6862919481719576,-0.5270295325782931,-0.6812544465065002,0.5370030403137207,-0.4975138008594513,0,0,0,-1,-1,8650.688061375002,unknown,2,2025-04-20T22:05:07.242+03:00,2025-04-20T21:57:49.637+03:00,10,3.550022,0,0,8.640187,0,0,2025-04-20T22:04:54.344+03:00,766868715.0734541,0,0.2199993,99.73423,1,1,2025-04-20T22:05:14.565+03:00,66,1.1,2025-04-19T12:19:17.059+03:00,0.05691595998002078,0
2025-04-20T22:05:30.533+03:00,1745175929.972784,40.98562279296635,29.13746977659649,128.3677,-1,-1,-1,-1,30,30.98550395246249,-9999,8671.069379875,-0.684295654296875,0.5404510498046875,-0.483306884765625,8671.059303875001,-2.125596692218739,-0.9400401462991889,-0.5666656797347306,0.02274301834404469,0.008180748671293259,-0.02396188862621784,0.01382690668106079,-0.000948488712310791,0.02493321895599365,XArbitraryZVertical,0.5011725423446878,-0.00624562917726652,0.6863266726634154,-0.5270129130268046,-0.6813530921936035,0.5368219017982483,-0.4975741505622864,0,0,0,-1,-1,8650.688061375002,unknown,2,2025-04-20T22:05:07.242+03:00,2025-04-20T21:57:49.637+03:00,10,3.550022,0,0,8.640187,0,0,2025-04-20T22:04:54.344+03:00,766868715.0734541,0,0.2199993,99.73423,1,1,2025-04-20T22:05:14.565+03:00,66,1.1,2025-04-19T12:19:17.059+03:00,0.05691595998002078,0
2025-04-20T22:05:30.543+03:00,1745175929.972784,40.98562279296635,29.13746977659649,128.3677,-1,-1,-1,-1,30,30.98550395246249,-9999,8671.079456875001,-0.68109130859375,0.547210693359375,-0.482879638671875,8671.069379875,-2.125552904785048,-0.9399383903857722,-0.5663394744387772,0.02980225905776024,0.01197708398103714,-0.02495311759412289,0.01292586326599121,0.007963180541992188,0.0209554135799408,XArbitraryZVertical,0.501087880958082,-0.006129445171520915,0.6864106258816184,-0.5269854128106339,-0.6814438104629517,0.5365466475486755,-0.4977467358112335,0,0,0,-1,-1,8650.688061375002,unknown,2,2025-04-20T22:05:07.242+03:00,2025-04-20T21:57:49.637+03:00,10,3.550022,0,0,8.640187,0,0,2025-04-20T22:04:54.344+03:00,766868715.0734541,0,0.2199993,99.73423,1,1,2025-04-20T22:05:14.565+03:00,66,1.1,2025-04-19T12:19:17.059+03:00,0.05691595998002078,0
2025-04-20T22:05:30.553+03:00,1745175929.972784,40.98562279296635,29.13746977659649,128.3677,-1,-1,-1,-1,30,30.98550395246249,-9999,8671.089532875001,-0.68145751953125,0.5572662353515625,-0.482208251953125,8671.079456875001,-2.125357807319347,-0.9396573815850956,-0.5659847511112498,0.04710082337260246,0.02042116969823837,-0.02770948968827724,-0.002838015556335449,0.004203736782073975,0.01474365592002869,XArbitraryZVertical,0.500937748308583,-0.006011037980938591,0.6865057225357247,-0.5270056445857,-0.6814575791358948,0.5362472534179688,-0.4980504810810089,0,0,0,-1,-1,8650.688061375002,unknown,2,2025-04-20T22:05:07.242+03:00,2025-04-20T21:57:49.637+03:00,10,3.550022,0,0,8.640187,0,0,2025-04-20T22:04:54.344+03:00,766868715.0734541,0,0.2199993,99.73423,1,1,2025-04-20T22:05:14.565+03:00,66,1.1,2025-04-19T12:19:17.059+03:00,0.05691595998002078,0
2025-04-20T22:05:30.563+03:00,1745175929.972784,40.98562279296635,29.13746977659649,128.3677,-1,-1,-1,-1,30,30.98550395246249,-9999,8671.099608875,-0.6836700439453125,0.5493011474609375,-0.480499267578125,8671.089532875001,-2.125116908920299,-0.9393359684309637,-0.5655622605369118,0.05284453183412552,0.02325830236077309,-0.03354697301983833,0.0003890395164489746,0.01132005453109741,0.01552364230155945,XArbitraryZVertical,0.5007634207097162,-0.005864377995176876,0.6866133837490568,-0.5270327938569931,-0.6814802885055542,0.5358906388282776,-0.4984032213687897,0,0,0,-1,-1,8650.688061375002,unknown,2,2025-04-20T22:05:07.242+03:00,2025-04-20T21:57:49.637+03:00,10,3.550022,0,0,8.640187,0,0,2025-04-20T22:04:54.344+03:00,766868715.0734541,0,0.2199993,99.73423,1,1,2025-04-20T22:05:14.565+03:00,66,1.1,2025-04-19T12:19:17.059+03:00,0.05691595998002078,0
2025-04-20T22:05:30.573+03:00,1745175929.972784,40.98562279296635,29.13746977659649,128.3677,-1,-1,-1,-1,30,30.98550395246249,-9999,8671.109685875001,-0.6806488037109375,0.543426513671875,-0.4825439453125,8671.099608875,-2.124934831684988,-0.9390288113372123,-0.5650318112046607,0.04794863983988762,0.02802782133221626,-0.03508611023426056,9.900331497192383e-05,0.02182358503341675,0.01657211780548096,XArbitraryZVertical,0.5005771663948019,-0.005684997302540842,0.6867560736648606,-0.5270259069831155,-0.6815565228462219,0.5354427099227905,-0.498780369758606,0,0,0,-1,-1,8650.688061375002,unknown,2,2025-04-20T22:05:07.242+03:00,2025-04-20T21:57:49.637+03:00,10,3.550022,0,0,8.640187,0,0,2025-04-20T22:04:54.344+03:00,766868715.0734541,0,0.2199993,99.73423,1,1,2025-04-20T22:05:14.565+03:00,66,1.1,2025-04-19T12:19:17.059+03:00,0.05691595998002078,0
2025-04-20T22:05:30.583+03:00,1745175929.972784,40.98562279296635,29.13746977659649,128.3677,-1,-1,-1,-1,30,30.98550395246249,-9999,8671.119761875001,-0.6746673583984375,0.54620361328125,-0.4814453125,8671.109685875001,-2.124749905725527,-0.9387585461662304,-0.5645776881321515,0.05187946557998657,0.02059174329042435,-0.03078164532780647,-0.002052247524261475,0.01424205303192139,0.01860892772674561,XArbitraryZVertical,0.5004152298138559,-0.005526144366296571,0.6868722505592005,-0.5270299009964308,-0.681617796421051,0.5350590944290161,-0.4991081058979034,0,0,0,-1,-1,8650.688061375002,unknown,2,2025-04-20T22:05:07.242+03:00,2025-04-20T21:57:49.637+03:00,10,3.550022,0,0,8.640187,0,0,2025-04-20T22:04:54.344+03:00,766868715.0734541,0,0.2199993,99.73423,1,1,2025-04-20T22:05:14.565+03:00,66,1.1,2025-04-19T12:19:17.059+03:00,0.05691595998002078,0
2025-04-20T22:05:30.593+03:00,1745175929.972784,40.98562279296635,29.13746977659649,128.3677,-1,-1,-1,-1,30,30.98550395246249,-9999,8671.129837875,-0.673675537109375,0.5416412353515625,-0.4824371337890625,8671.119761875001,-2.124510703794172,-0.9385026658018258,-0.5641899422368453,0.0481637567281723,0.01680546253919601,-0.02930375747382641,0.001008570194244385,0.008695125579833984,0.0168612003326416,XArbitraryZVertical,0.5002684520898963,-0.005376753720075601,0.68695634255663,-0.527061303307867,-0.6816574335098267,0.5347314476966858,-0.4994051456451416,0,0,0,-1,-1,8650.688061375002,unknown,2,2025-04-20T22:05:07.242+03:00,2025-04-20T21:57:49.637+03:00,10,3.550022,0,0,8.640187,0,0,2025-04-20T22:04:54.344+03:00,766868715.0734541,0,0.2199993,99.73423,1,1,2025-04-20T22:05:14.565+03:00,66,1.1,2025-04-19T12:19:17.059+03:00,0.05691595998002078,0
2025-04-20T22:05:30.603+03:00,1745175929.972784,40.98562279296635,29.13746977659649,128.3677,-1,-1,-1,-1,30,30.98550395246249,-9999,8671.139914875001,-0.6741180419921875,0.537750244140625,-0.4845733642578125,8671.129837875,-2.124279539710348,-0.9383479457932106,-0.5637297578030125,0.04662551730871201,0.004057442769408226,-0.0177320558577776,0.007111191749572754,0.01186102628707886,0.01821073889732361,XArbitraryZVertical,0.5001452447796119,-0.005173490076703109,0.6870325798406195,-0.5270807283527962,-0.6817784905433655,0.5343425273895264,-0.4996559321880341,0,0,0,-1,-1,8650.688061375002,unknown,2,2025-04-20T22:05:07.242+03:00,2025-04-20T21:57:49.637+03:00,10,3.550022,0,0,8.640187,0,0,2025-04-20T22:04:54.344+03:00,766868715.0734541,0,0.2199993,99.73423,1,1,2025-04-20T22:05:14.565+03:00,66,1.1,2025-04-19T12:19:17.059+03:00,0.05691595998002078,0
2025-04-20T22:05:30.614+03:00,1745175929.972784,40.98562279296635,29.13746977659649,128.3677,-1,-1,-1,-1,30,30.98550395246249,-9999,8671.149990875001,-0.6642303466796875,0.5360870361328125,-0.48101806640625,8671.139914875001,-2.124030565813793,-0.9382926953938813,-0.5634725817896618,0.03012430295348167,-0.008875666186213493,-0.004091744311153889,0.008186161518096924,0.007516086101531982,0.01733773946762085,XArbitraryZVertical,0.500087359439342,-0.005021697448634636,0.6870358383718774,-0.5271328796411324,-0.6818616986274719,0.5341251492500305,-0.499774843454361,0,0,0,-1,-1,8650.688061375002,unknown,2,2025-04-20T22:05:07.242+03:00,2025-04-20T21:57:49.637+03:00,10,3.550022,0,0,8.640187,0,0,2025-04-20T22:04:54.344+03:00,766868730.5491806,0,0.2299995,99.73525,1,1,2025-04-20T22:05:14.565+03:00,66,1.1,2025-04-19T12:19:17.059+03:00,0.05691595998002078,0
2025-04-20T22:05:30.624+03:00,1745175929.972784,40.98562279296635,29.13746977659649,128.3677,-1,-1,-1,-1,30,30.98550395246249,-9999,8671.160066875,-0.6696624755859375,0.536956787109375,-0.478729248046875,8671.149990875001,-2.1238060880435,-0.9383581717699823,-0.5634097160575441,0.02241445146501064,-0.01533516310155392,0.003420233959332108,0.007803499698638916,0.003678202629089355,0.01517677307128906,XArbitraryZVertical,0.5001007235881839,-0.004922841438448886,0.6869737967119566,-0.5272020743377016,-0.6819215416908264,0.5340719819068909,-0.4997500777244568,0,0,0,-1,-1,8650.688061375002,unknown,2,2025-04-20T22:05:07.242+03:00,2025-04-20T21:57:49.637+03:00,10,3.550022,0,0,8.640187,0,0,2025-04-20T22:04:54.344+03:00,766868730.5491806,0,0.2299995,99.73525,1,1,2025-04-20T22:05:14.565+03:00,66,1.1,2025-04-19T12:19:17.059+03:00,0.05691595998002078,0
2025-04-20T22:05:30.634+03:00,1745175929.972784,40.98562279296635,29.13746977659649,128.3677,-1,-1,-1,-1,30,30.98550395246249,-9999,8671.170142875,-0.681427001953125,0.5406951904296875,-0.4820709228515625,8671.160066875,-2.123612172725335,-0.9383951955950358,-0.5633856258003689,0.0191928930580616,-0.003405999392271042,0.00678597018122673,0.01772004365921021,0.002035439014434814,0.01871436834335327,XArbitraryZVertical,0.5001101994980894,-0.004854830062215936,0.686918598815303,-0.5272656819016668,-0.6819504499435425,0.5340516567230225,-0.4997324347496033,0,0,0,-1,-1,8650.688061375002,unknown,2,2025-04-20T22:05:07.242+03:00,2025-04-20T21:57:49.637+03:00,10,3.550022,0,0,8.640187,0,0,2025-04-20T22:04:54.344+03:00,766868730.5491806,0,0.2299995,99.73525,1,1,2025-04-20T22:05:14.565+03:00,66,1.1,2025-04-19T12:19:17.059+03:00,0.05691595998002078,0
2025-04-20T22:05:30.644+03:00,1745175929.972784,40.98562279296635,29.13746977659649,128.3677,-1,-1,-1,-1,30,30.98550395246249,-9999,8671.180219875001,-0.6781158447265625,0.5388031005859375,-0.4821929931640625,8671.170142875,-2.123423002982257,-0.9383897692115244,-0.5634547035601005,0.01308093778789043,-0.006308845244348049,0.01191441994160414,0.01225548982620239,0.002846717834472656,0.02098515629768372,XArbitraryZVertical,0.5001194457518451,-0.004836944958364464,0.6868552353856046,-0.5273394986409817,-0.6819179058074951,0.5341100096702576,-0.4997142851352692,0,0,0,-1,-1,8650.688061375002,unknown,2,2025-04-20T22:05:07.242+03:00,2025-04-20T21:57:49.637+03:00,10,3.550022,0,0,8.640187,0,0,2025-04-20T22:04:54.344+03:00,766868730.5491806,0,0.2299995,99.73525,1,1,2025-04-20T22:05:14.565+03:00,66,1.1,2025-04-19T12:19:17.059+03:00,0.05691595998002078,0
2025-04-20T22:05:30.654+03:00,1745175929.972784,40.98562279296635,29.13746977659649,128.3677,-1,-1,-1,-1,30,30.98550395246249,-9999,8671.190295875,-0.6888427734375,0.5420684814453125,-0.4852142333984375,8671.180219875001,-2.123249607349157,-0.9382970611691259,-0.5635602825572658,0.01650902628898621,0.01729242131114006,0.008620388805866241,0.0003991127014160156,0.006495893001556396,0.0176733136177063,XArbitraryZVertical,0.500104276328499,-0.004860755279588944,0.6868100960476737,-0.5274124677177473,-0.681826114654541,0.5341992974281311,-0.499744176864624,0,0,0,-1,-1,8650.688061375002,unknown,2,2025-04-20T22:05:07.242+03:00,2025-04-20T21:57:49.637+03:00,10,3.550022,0,0,8.640187,0,0,2025-04-20T22:04:54.344+03:00,766868730.5491806,0,0.2299995,99.73525,1,1,2025-04-20T22:05:14.565+03:00,66,1.1,2025-04-19T12:19:17.059+03:00,0.05691595998002078,0
2025-04-20T22:05:30.664+03:00,1745175929.972784,40.98562279296635,29.13746977659649,128.3677,-1,-1,-1,-1,30,30.98550395246249,-9999,8671.200371875,-0.687530517578125,0.542999267578125,-0.4871063232421875,8671.190295875,-2.12307305578432,-0.9380753935653523,-0.5636426637456542,0.01248978264629841,0.01607349142432213,0.01535126194357872,0.003564000129699707,0.004534125328063965,0.01767635345458984,XArbitraryZVertical,0.5000412644334814,-0.004908401398008382,0.686801332639882,-0.5274832065871611,-0.6816797852516174,0.5342689156532288,-0.4998692870140076,0,0,0,-1,-1,8650.688061375002,unknown,2,2025-04-20T22:05:07.242+03:00,2025-04-20T21:57:49.637+03:00,10,3.550022,0,0,8.640187,0,0,2025-04-20T22:04:54.344+03:00,766868730.5491806,0,0.2299995,99.73525,1,1,2025-04-20T22:05:14.565+03:00,66,1.1,2025-04-19T12:19:17.059+03:00,0.05691595998002078,0
2025-04-20T22:05:30.674+03:00,1745175929.972784,40.98562279296635,29.13746977659649,128.3677,-1,-1,-1,-1,30,30.98550395246249,-9999,8671.210448875001,-0.6762237548828125,0.5412139892578125,-0.4841461181640625,8671.200371875,-2.12290296817138,-0.9378771905322485,-0.5638084059802191,0.003164324909448624,0.01437452808022499,0.02352963015437126,-0.007333457469940186,0.007659435272216797,0.01473784446716309,XArbitraryZVertical,0.4999991464138165,-0.004985228009725833,0.6867705328422428,-0.5275625146534719,-0.6815093159675598,0.5344090461730957,-0.4999519884586334,0,0,0,-1,-1,8650.688061375002,unknown,2,2025-04-20T22:05:07.242+03:00,2025-04-20T21:57:49.637+03:00,10,3.550022,0,0,8.640187,0,0,2025-04-20T22:04:54.344+03:00,766868730.5491806,0,0.2299995,99.73525,1,1,2025-04-20T22:05:14.565+03:00,66,1.1,2025-04-19T12:19:17.059+03:00,0.05691595998002078,0
2025-04-20T22:05:30.684+03:00,1745175929.972784,40.98562279296635,29.13746977659649,128.3677,-1,-1,-1,-1,30,30.98550395246249,-9999,8671.220524875,-0.6825714111328125,0.5389556884765625,-0.4859619140625,8671.210448875001,-2.122775453633587,-0.9377089333140008,-0.5640738499722875,-0.001193671720102429,0.01103306002914906,0.02455148473381996,-0.006219744682312012,0.008365869522094727,0.01287639141082764,XArbitraryZVertical,0.4999826008750119,-0.005105193089031679,0.6867220429278256,-0.5276400344343756,-0.6813107132911682,0.5346333980560303,-0.4999826848506927,0,0,0,-1,-1,8650.688061375002,unknown,2,2025-04-20T22:05:07.242+03:00,2025-04-20T21:57:49.637+03:00,10,3.550022,0,0,8.640187,0,0,2025-04-20T22:04:54.344+03:00,766868730.5491806,0,0.2299995,99.73525,1,1,2025-04-20T22:05:14.565+03:00,66,1.1,2025-04-19T12:19:17.059+03:00,0.05691595998002078,0
2025-04-20T22:05:30.694+03:00,1745175929.972784,40.98562279296635,29.13746977659649,128.3677,-1,-1,-1,-1,30,30.98550395246249,-9999,8671.230600875,-0.683197021484375,0.541900634765625,-0.4886322021484375,8671.220524875,-2.122677938492972,-0.9375553896609324,-0.5643766700411026,-0.008874228224158287,0.01425761543214321,0.02443070895969868,0.00487971305847168,0.006324648857116699,0.01584538817405701,XArbitraryZVertical,0.4999767918638681,-0.005243896600398841,0.686669787291619,-0.5277120983544809,-0.6811034083366394,0.534889280796051,-0.4999914169311523,0,0,0,-1,-1,8650.688061375002,unknown,2,2025-04-20T22:05:07.242+03:00,2025-04-20T21:57:49.637+03:00,10,3.550022,0,0,8.640187,0,0,2025-04-20T22:04:54.344+03:00,766868730.5491806,0,0.2299995,99.73525,1,1,2025-04-20T22:05:14.565+03:00,66,1.1,2025-04-19T12:19:17.059+03:00,0.05691595998002078,0
2025-04-20T22:05:30.704+03:00,1745175929.972784,40.98562279296635,29.13746977659649,128.3677,-1,-1,-1,-1,30,30.98550395246249,-9999,8671.240677875001,-0.68402099609375,0.545501708984375,-0.4889373779296875,8671.230600875,-2.122595122325724,-0.9374319780128338,-0.5646820030917176,-0.0110372481867671,0.00778320524841547,0.02530662342905998,-0.001661300659179688,0.003808498382568359,0.01401698589324951,XArbitraryZVertical,0.499981643884948,-0.005379285746763004,0.6866134295097588,-0.5277796086774789,-0.680910050868988,0.5351471900939941,-0.4999788403511047,0,0,0,-1,-1,8650.688061375002,unknown,2,2025-04-20T22:05:07.242+03:00,2025-04-20T21:57:49.637+03:00,10,3.550022,0,0,8.640187,0,0,2025-04-20T22:04:54.344+03:00,766868730.5491806,0,0.2299995,99.73525,1,1,2025-04-20T22:05:14.565+03:00,66,1.1,2025-04-19T12:19:17.059+03:00,0.05691595998002078,0
2025-04-20T22:05:30.714+03:00,1745175929.972784,40.98562279296635,29.13746977659649,128.3677,-1,-1,-1,-1,30,30.98550395246249,-9999,8671.250753875,-0.684814453125,0.5470123291015625,-0.4886016845703125,8671.240677875001,-2.122581087010729,-0.9374186481047493,-0.5649891381816982,-0.0104247871786356,-0.008304751478135586,0.01731124892830849,-0.002426087856292725,0.006493926048278809,0.01125851273536682,XArbitraryZVertical,0.5000244083585069,-0.005503594604143017,0.6865472230374623,-0.5278239203963302,-0.6807708740234375,0.5354066491127014,-0.4998905956745148,0,0,0,-1,-1,8650.688061375002,unknown,2,2025-04-20T22:05:07.242+03:00,2025-04-20T21:57:49.637+03:00,10,3.550022,0,0,8.640187,0,0,2025-04-20T22:04:54.344+03:00,766868730.5491806,0,0.2299995,99.73525,1,1,2025-04-20T22:05:14.565+03:00,66,1.1,2025-04-19T12:19:17.059+03:00,0.05691595998002078,0
2025-04-20T22:05:30.724+03:00,1745175929.972784,40.98562279296635,29.13746977659649,128.3677,-1,-1,-1,-1,30,30.98550395246249,-9999,8671.260829875,-0.6797027587890625,0.5457305908203125,-0.4883575439453125,8671.250753875,-2.122578239252718,-0.9375895580837135,-0.5652327940607177,-0.00586811825633049,-0.02061654441058636,0.01582999899983406,-0.003269851207733154,0.00988924503326416,0.01075971126556396,XArbitraryZVertical,0.5001205834737916,-0.005556364262081884,0.6864515313936372,-0.5278567655931281,-0.6807511448860168,0.5356124043464661,-0.4996970593929291,0,0,0,-1,-1,8650.688061375002,unknown,2,2025-04-20T22:05:07.242+03:00,2025-04-20T21:57:49.637+03:00,10,3.550022,0,0,8.640187,0,0,2025-04-20T22:04:54.344+03:00,766868730.5491806,0,0.2299995,99.73525,1,1,2025-04-20T22:05:14.565+03:00,66,1.1,2025-04-19T12:19:17.059+03:00,0.05691595998002078,0
2025-04-20T22:05:30.735+03:00,1745175929.972784,40.98562279296635,29.13746977659649,128.3677,-1,-1,-1,-1,30,30.98550395246249,-9999,8671.270906875001,-0.684539794921875,0.54510498046875,-0.48748779296875,8671.260829875,-2.122585473265582,-0.9378350561600061,-0.565406111258827,-0.003283654106780887,-0.01619290187954903,0.008353507146239281,-0.004015445709228516,0.01125359535217285,0.01087337732315063,XArbitraryZVertical,0.5002314891957361,-0.005563507699560525,0.6863548930279054,-0.5278772915460569,-0.6807989478111267,0.5357587933540344,-0.4994750022888184,0,0,0,-1,-1,8650.688061375002,unknown,2,2025-04-20T22:05:07.242+03:00,2025-04-20T21:57:49.637+03:00,10,3.550022,0,0,8.640187,0,0,2025-04-20T22:04:54.344+03:00,766868730.5491806,0,0.2299995,99.73525,1,1,2025-04-20T22:05:14.565+03:00,66,1.1,2025-04-19T12:19:17.059+03:00,0.05691595998002078,0
2025-04-20T22:05:30.745+03:00,1745175929.972784,40.98562279296635,29.13746977659649,128.3677,-1,-1,-1,-1,30,30.98550395246249,-9999,8671.280982875001,-0.6879425048828125,0.54595947265625,-0.4876708984375,8671.270906875001,-2.122577521853134,-0.9379971523723867,-0.5654803701391412,0.004490911960601807,-0.009214353747665882,0.002849285490810871,0.001145124435424805,0.009909093379974365,0.01098364591598511,XArbitraryZVertical,0.5002985533708622,-0.005548769922706878,0.6862963483744898,-0.5278900615775141,-0.6808478832244873,0.5358214974403381,-0.4993411302566528,0,0,0,-1,-1,8650.688061375002,unknown,2,2025-04-20T22:05:07.242+03:00,2025-04-20T21:57:49.637+03:00,10,3.550022,0,0,8.640187,0,0,2025-04-20T22:04:54.344+03:00,766868730.5491806,0,0.2299995,99.73525,1,1,2025-04-20T22:05:14.565+03:00,66,1.1,2025-04-19T12:19:17.059+03:00,0.05691595998002078,0
2025-04-20T22:05:30.755+03:00,1745175929.972784,40.98562279296635,29.13746977659649,128.3677,-1,-1,-1,-1,30,30.98550395246249,-9999,8671.291058875,-0.6808013916015625,0.54736328125,-0.487518310546875,8671.280982875001,-2.122536066347469,-0.9381166215356599,-0.5654366056895022,0.01349672395735979,-0.01166226528584957,-0.003677423112094402,-0.00361335277557373,0.009320497512817383,0.01178592443466187,XArbitraryZVertical,0.5003329314354851,-0.005489160650554141,0.686264899885479,-0.5278989722621401,-0.6809264421463013,0.5357845425605774,-0.4992736577987671,0,0,0,-1,-1,8650.688061375002,unknown,2,2025-04-20T22:05:07.242+03:00,2025-04-20T21:57:49.637+03:00,10,3.550022,0,0,8.640187,0,0,2025-04-20T22:04:54.344+03:00,766868730.5491806,0,0.2299995,99.73525,1,1,2025-04-20T22:05:14.565+03:00,66,1.1,2025-04-19T12:19:17.059+03:00,0.05691595998002078,0
2025-04-20T22:05:30.776+03:00,1745175929.972784,40.98562279296635,29.13746977659649,128.3677,-1,-1,-1,-1,30,30.98550395246249,-9999,8671.301135875001,-0.6723175048828125,0.5472259521484375,-0.4836578369140625,8671.291058875,-2.122467677719372,-0.9383105684104718,-0.5653284588393389,0.01603311859071255,-0.02345261164009571,-0.004285955335944891,-0.00687253475189209,0.01026624441146851,0.01150494813919067,XArbitraryZVertical,0.5003830356066978,-0.005377115044461694,0.686221493897258,-0.5279089999903649,-0.6810699105262756,0.5356932282447815,-0.4991758167743683,0,0,0,-1,-1,8650.688061375002,unknown,2,2025-04-20T22:05:07.242+03:00,2025-04-20T21:57:49.637+03:00,10,3.550022,0,0,8.640187,0,0,2025-04-20T22:04:54.344+03:00,766868730.5491806,0,0.2299995,99.73525,1,1,2025-04-20T22:05:14.565+03:00,66,1.1,2025-04-19T12:19:17.059+03:00,0.05691595998002078,0
2025-04-20T22:05:30.777+03:00,1745175929.972784,40.98562279296635,29.13746977659649,128.3677,-1,-1,-1,-1,30,30.98550395246249,-9999,8671.311211875001,-0.6762237548828125,0.5446929931640625,-0.48394775390625,8671.301135875001,-2.122365823634064,-0.9385332550315399,-0.565257751560006,0.01502371393144131,-0.02461168542504311,-0.004843388684093952,0.0004102587699890137,0.01172977685928345,0.01152825355529785,XArbitraryZVertical,0.5004488393832305,-0.005264255637139908,0.6861540296724353,-0.5279353954208573,-0.6812115907669067,0.5356335043907166,-0.4990465044975281,0,0,0,-1,-1,8650.688061375002,unknown,2,2025-04-20T22:05:07.242+03:00,2025-04-20T21:57:49.637+03:00,10,3.550022,0,0,8.640187,0,0,2025-04-20T22:04:54.344+03:00,766868730.5491806,0,0.2299995,99.73525,1,1,2025-04-20T22:05:14.565+03:00,66,1.1,2025-04-19T12:19:17.059+03:00,0.05691595998002078,0
2025-04-20T22:05:30.785+03:00,1745175929.972784,40.98562279296635,29.13746977659649,128.3677,-1,-1,-1,-1,30,30.98550395246249,-9999,8671.321287875,-0.6779937744140625,0.5419769287109375,-0.4825897216796875,8671.311211875001,-2.122293270702362,-0.9387959887639783,-0.565177352586314,0.01077543944120407,-0.02460982277989388,-0.002426037099212408,0.00905996561050415,0.01166033744812012,0.01523512601852417,XArbitraryZVertical,0.5005267963510934,-0.005144225413331669,0.686086360516858,-0.527950586894097,-0.6813774108886719,0.5355656147003174,-0.4988929331302643,0,0,0,-1,-1,8650.688061375002,unknown,2,2025-04-20T22:05:07.242+03:00,2025-04-20T21:57:49.637+03:00,10,3.550022,0,0,8.640187,0,0,2025-04-20T22:04:54.344+03:00,766868730.5491806,0,0.2299995,99.73525,1,1,2025-04-20T22:05:14.565+03:00,66,1.1,2025-04-19T12:19:17.059+03:00,0.05691595998002078,0
2025-04-20T22:05:30.795+03:00,1745175929.972784,40.98562279296635,29.13746977659649,128.3677,-1,-1,-1,-1,30,30.98550395246249,-9999,8671.331364875001,-0.6757965087890625,0.540496826171875,-0.4810028076171875,8671.321287875,-2.122219624470855,-0.939050756553245,-0.5651690408397848,0.006827502977102995,-0.02522294968366623,0.004851949401199818,0.005284368991851807,0.009134411811828613,0.01477426290512085,XArbitraryZVertical,0.5006130846274309,-0.005055158808627321,0.6860049686629223,-0.5279754629269309,-0.6815081238746643,0.5355585813522339,-0.4987219572067261,0,0,0,-1,-1,8650.688061375002,unknown,2,2025-04-20T22:05:07.242+03:00,2025-04-20T21:57:49.637+03:00,10,3.550022,0,0,8.640187,0,0,2025-04-20T22:04:54.344+03:00,766868730.5491806,0,0.2299995,99.73525,1,1,2025-04-20T22:05:14.565+03:00,66,1.1,2025-04-19T12:19:17.059+03:00,0.05691595998002078,0
2025-04-20T22:05:30.805+03:00,1745175929.972784,40.98562279296635,29.13746977659649,128.3677,-1,-1,-1,-1,30,30.98550395246249,-9999,8671.341440875001,-0.6763458251953125,0.5364227294921875,-0.478363037109375,8671.331364875001,-2.122161383867478,-0.9392842411272082,-0.5652528291613922,-0.0004690256319008768,-0.02112780511379242,0.01184301357716322,0.003594577312469482,0.006347596645355225,0.01594668626785278,XArbitraryZVertical,0.5007061988962046,-0.005012832022048271,0.6859131774646376,-0.5280068447413246,-0.681588351726532,0.5356293320655823,-0.4985363483428955,0,0,0,-1,-1,8650.688061375002,unknown,2,2025-04-20T22:05:07.242+03:00,2025-04-20T21:57:49.637+03:00,10,3.550022,0,0,8.640187,0,0,2025-04-20T22:04:54.344+03:00,766868730.5491806,0,0.2299995,99.73525,1,1,2025-04-20T22:05:14.565+03:00,66,1.1,2025-04-19T12:19:17.059+03:00,0.05691595998002078,0
2025-04-20T22:05:30.815+03:00,1745175929.972784,40.98562279296635,29.13746977659649,128.3677,-1,-1,-1,-1,30,30.98550395246249,-9999,8671.351516875,-0.6787109375,0.535797119140625,-0.47857666015625,8671.341440875001,-2.122150426325458,-0.939491869137579,-0.5654601510277947,-0.01148685626685619,-0.01487317122519016,0.01605716720223427,0.005805671215057373,0.004692375659942627,0.01732653379440308,XArbitraryZVertical,0.5008093186276634,-0.005039142438813475,0.685813805925147,-0.5280378689497929,-0.6816021800041199,0.5358043909072876,-0.4983292520046234,0,0,0,-1,-1,8650.688061375002,unknown,2,2025-04-20T22:05:07.242+03:00,2025-04-20T21:57:49.637+03:00,10,3.550022,0,0,8.640187,0,0,2025-04-20T22:04:54.344+03:00,766868730.5491806,0,0.2299995,99.73525,1,1,2025-04-20T22:05:14.565+03:00,66,1.1,2025-04-19T12:19:17.059+03:00,0.05691595998002078,0
2025-04-20T22:05:30.825+03:00,1745175929.972784,40.98562279296635,29.13746977659649,128.3677,-1,-1,-1,-1,30,30.98550395246249,-9999,8671.361592875,-0.67376708984375,0.5383148193359375,-0.47991943359375,8671.351516875,-2.122197946152556,-0.9397382353767527,-0.5657479184831253,-0.01971336081624031,-0.02218274958431721,0.02149906940758228,0.005254566669464111,0.0003753900527954102,0.01970738172531128,XArbitraryZVertical,0.5009379184212036,-0.005102405298224324,0.6857028805028353,-0.5280593284619152,-0.6816003918647766,0.5360473394393921,-0.4980703294277191,0,0,0,-1,-1,8650.688061375002,unknown,2,2025-04-20T22:05:07.242+03:00,2025-04-20T21:57:49.637+03:00,10,3.550022,0,0,8.640187,0,0,2025-04-20T22:04:54.344+03:00,766868730.5491806,0,0.2299995,99.73525,1,1,2025-04-20T22:05:14.565+03:00,66,1.1,2025-04-19T12:19:17.059+03:00,0.05691595998002078,0
2025-04-20T22:05:30.835+03:00,1745175929.972784,40.98562279296635,29.13746977659649,128.3677,-1,-1,-1,-1,30,30.98550395246249,-9999,8671.371669875001,-0.6773529052734375,0.537261962890625,-0.479095458984375,8671.361592875,-2.122272654785063,-0.9399612319611473,-0.5661577352186549,-0.0279962569475174,-0.007108659483492374,0.03370876237750053,0.002823054790496826,-0.000596165657043457,0.01921212673187256,XArbitraryZVertical,0.501077149238922,-0.005228012389964253,0.6855787508779911,-0.5280871811200264,-0.6815339922904968,0.5363932847976685,-0.4977887272834778,0,0,0,-1,-1,8650.688061375002,unknown,2,2025-04-20T22:05:07.242+03:00,2025-04-20T21:57:49.637+03:00,10,3.550022,0,0,8.640187,0,0,2025-04-20T22:04:54.344+03:00,766868730.5491806,0,0.2299995,99.73525,1,1,2025-04-20T22:05:14.565+03:00,66,1.1,2025-04-19T12:19:17.059+03:00,0.05691595998002078,0
2025-04-20T22:05:30.845+03:00,1745175929.972784,40.98562279296635,29.13746977659649,128.3677,-1,-1,-1,-1,30,30.98550395246249,-9999,8671.381745875,-0.6893768310546875,0.540496826171875,-0.4804840087890625,8671.371669875001,-2.122389360391349,-0.9399850007001525,-0.5666246565370855,-0.03133532777428627,0.01501874718815088,0.02862265892326832,0.007576465606689453,0.001527488231658936,0.01770538091659546,XArbitraryZVertical,0.5011566904341657,-0.005439840274032977,0.6855033328962246,-0.5281075041081562,-0.6813434958457947,0.5367872714996338,-0.4976247549057007,0,0,0,-1,-1,8650.688061375002,unknown,2,2025-04-20T22:05:07.242+03:00,2025-04-20T21:57:49.637+03:00,10,3.550022,0,0,8.640187,0,0,2025-04-20T22:04:54.344+03:00,766868730.5491806,0,0.2299995,99.73525,1,1,2025-04-20T22:05:14.565+03:00,66,1.1,2025-04-19T12:19:17.059+03:00,0.05691595998002078,0
2025-04-20T22:05:30.855+03:00,1745175929.972784,40.98562279296635,29.13746977659649,128.3677,-1,-1,-1,-1,30,30.98550395246249,-9999,8671.391821875,-0.6786651611328125,0.544647216796875,-0.4824371337890625,8671.381745875,-2.122468579493492,-0.9398672580263284,-0.5671201538611941,-0.02871411293745041,0.01648388430476189,0.03398686274886131,0.003717124462127686,5.668401718139648e-05,0.01845258474349976,XArbitraryZVertical,0.501192191133583,-0.005691237788738217,0.6854472536544116,-0.5281438855517612,-0.6810700297355652,0.5372052788734436,-0.49754798412323,0,0,0,-1,-1,8650.688061375002,unknown,2,2025-04-20T22:05:07.242+03:00,2025-04-20T21:57:49.637+03:00,10,3.550022,0,0,8.640187,0,0,2025-04-20T22:04:54.344+03:00,766868730.5491806,0,0.2299995,99.73525,1,1,2025-04-20T22:05:14.565+03:00,66,1.1,2025-04-19T12:19:17.059+03:00,0.05691595998002078,0
2025-04-20T22:05:30.866+03:00,1745175929.972784,40.98562279296635,29.13746977659649,128.3677,-1,-1,-1,-1,30,30.98550395246249,-9999,8671.401898875001,-0.666717529296875,0.5375213623046875,-0.479278564453125,8671.391821875,-2.1225316909713,-0.9398058258116458,-0.5677096447231952,-0.0403372123837471,0.007330600637942553,0.04397984221577644,-0.008593142032623291,0.002794384956359863,0.01691895723342896,XArbitraryZVertical,0.5012614036684636,-0.005961741566069393,0.6853526020220001,-0.5281980505909833,-0.6807836294174194,0.5377023816108704,-0.4974029362201691,0,0,0,-1,-1,8650.688061375002,unknown,2,2025-04-20T22:05:07.242+03:00,2025-04-20T21:57:49.637+03:00,10,3.550022,0,0,8.640187,0,0,2025-04-20T22:04:54.344+03:00,766868730.5491806,0,0.2299995,99.73525,1,1,2025-04-20T22:05:14.565+03:00,66,1.1,2025-04-19T12:19:17.059+03:00,0.05691595998002078,0
2025-04-20T22:05:30.876+03:00,1745175929.972784,40.98562279296635,29.13746977659649,128.3677,-1,-1,-1,-1,30,30.98550395246249,-9999,8671.411974875,-0.676177978515625,0.5406341552734375,-0.4810333251953125,8671.401898875001,-2.122654252571702,-0.9398228125987564,-0.5683564906846675,-0.04086558520793915,0.01076394785195589,0.03932423889636993,0.001845955848693848,0.00639951229095459,0.01474899053573608,XArbitraryZVertical,0.5013660377357201,-0.006249644791224984,0.6852416102583738,-0.5282394251584572,-0.6805111169815063,0.5382476449012756,-0.4971860647201538,0,0,0,-1,-1,8650.688061375002,unknown,2,2025-04-20T22:05:07.242+03:00,2025-04-20T21:57:49.637+03:00,10,3.550022,0,0,8.640187,0,0,2025-04-20T22:04:54.344+03:00,766868730.5491806,0,0.2299995,99.73525,1,1,2025-04-20T22:05:14.565+03:00,66,1.1,2025-04-19T12:19:17.059+03:00,0.05691595998002078,0
2025-04-20T22:05:30.886+03:00,1745175929.972784,40.98562279296635,29.13746977659649,128.3677,-1,-1,-1,-1,30,30.98550395246249,-9999,8671.422050875,-0.684783935546875,0.5524749755859375,-0.4849090576171875,8671.411974875,-2.122800404222634,-0.9397716782247663,-0.5688911581331125,-0.03050642088055611,0.01659973338246346,0.02784761227667332,0.01353573799133301,-0.001176834106445312,0.01777255535125732,XArbitraryZVertical,0.5014299804744055,-0.006516077951740664,0.6851780165297258,-0.5282580380365645,-0.680253267288208,0.5386981964111328,-0.4970510303974152,0,0,0,-1,-1,8650.688061375002,unknown,2,2025-04-20T22:05:07.242+03:00,2025-04-20T21:57:49.637+03:00,10,3.550022,0,0,8.640187,0,0,2025-04-20T22:04:54.344+03:00,766868730.5491806,0,0.2299995,99.73525,1,1,2025-04-20T22:05:14.565+03:00,66,1.1,2025-04-19T12:19:17.059+03:00,0.05691595998002078,0
2025-04-20T22:05:30.896+03:00,1745175929.972784,40.98562279296635,29.13746977659649,128.3677,-1,-1,-1,-1,30,30.98550395246249,-9999,8671.432127875001,-0.6768798828125,0.5548858642578125,-0.483367919921875,8671.422050875,-2.12291990395885,-0.939753543083929,-0.5692283193104495,-0.01919504255056381,0.004364771768450737,0.0148610407486558,0.003919601440429688,0.001651942729949951,0.0159229040145874,XArbitraryZVertical,0.5014750077184918,-0.006687219631061352,0.6851415852400031,-0.528260448405083,-0.6800975799560547,0.5389822125434875,-0.4969561994075775,0,0,0,-1,-1,8650.688061375002,unknown,2,2025-04-20T22:05:07.242+03:00,2025-04-20T21:57:49.637+03:00,10,3.550022,0,0,8.640187,0,0,2025-04-20T22:04:54.344+03:00,766868730.5491806,0,0.2299995,99.73525,1,1,2025-04-20T22:05:14.565+03:00,66,1.1,2025-04-19T12:19:17.059+03:00,0.05691595998002078,0
2025-04-20T22:05:30.906+03:00,1745175929.972784,40.98562279296635,29.13746977659649,128.3677,-1,-1,-1,-1,30,30.98550395246249,-9999,8671.442203875,-0.6742401123046875,0.55303955078125,-0.483612060546875,8671.432127875001,-2.122997892522767,-0.9398369442901968,-0.5694607464723298,-0.01228999905288219,-0.002860650420188904,0.011414909735322,-0.004746079444885254,0.01329696178436279,0.01191657781600952,XArbitraryZVertical,0.5015389060005849,-0.006778784927169186,0.6850912272307945,-0.5282639030737482,-0.6800378561019897,0.5391779541969299,-0.4968255460262299,0,0,0,-1,-1,8650.688061375002,unknown,2,2025-04-20T22:05:07.242+03:00,2025-04-20T21:57:49.637+03:00,10,3.550022,0,0,8.640187,0,0,2025-04-20T22:04:54.344+03:00,766868730.5491806,0,0.2299995,99.73525,1,1,2025-04-20T22:05:14.565+03:00,66,1.1,2025-04-19T12:19:17.059+03:00,0.05691595998002078,0
2025-04-20T22:05:30.916+03:00,1745175929.972784,40.98562279296635,29.13746977659649,128.3677,-1,-1,-1,-1,30,30.98550395246249,-9999,8671.452279875,-0.6837158203125,0.548370361328125,-0.485870361328125,8671.442203875,-2.123085879726669,-0.9399194257681623,-0.5696137375195054,-0.01028909906744957,0.006480186711996794,0.006258264649659395,0.003132343292236328,0.01557904481887817,0.01335293054580688,XArbitraryZVertical,0.501590262811528,-0.006840939818815297,0.6850608791980898,-0.5282537685867543,-0.6800122261047363,0.5393068194389343,-0.4967208206653595,0,0,0,-1,-1,8650.688061375002,unknown,2,2025-04-20T22:05:07.242+03:00,2025-04-20T21:57:49.637+03:00,10,3.550022,0,0,8.640187,0,0,2025-04-20T22:04:54.344+03:00,766868730.5491806,0,0.2299995,99.73525,1,1,2025-04-20T22:05:14.565+03:00,66,1.1,2025-04-19T12:19:17.059+03:00,0.05691595998002078,0
2025-04-20T22:05:30.926+03:00,1745175929.972784,40.98562279296635,29.13746977659649,128.3677,-1,-1,-1,-1,30,30.98550395246249,-9999,8671.462356875001,-0.6751861572265625,0.544677734375,-0.4821319580078125,8671.452279875,-2.12319554069778,-0.940025364526018,-0.5697807837372857,-0.01608733274042606,-0.01475932262837887,0.005219365935772657,0.005751967430114746,0.01359200477600098,0.01298359036445618,XArbitraryZVertical,0.5016517567305485,-0.006908081413134529,0.6850272379263456,-0.5282379882195144,-0.6799920201301575,0.5394474864006042,-0.4965955913066864,0,0,0,-1,-1,8650.688061375002,unknown,2,2025-04-20T22:05:07.242+03:00,2025-04-20T21:57:49.637+03:00,10,3.550022,0,0,8.640187,0,0,2025-04-20T22:04:54.344+03:00,766868730.5491806,0,0.2299995,99.73525,1,1,2025-04-20T22:05:14.565+03:00,66,1.1,2025-04-19T12:19:17.059+03:00,0.05691595998002078,0
2025-04-20T22:05:30.936+03:00,1745175929.972784,40.98562279296635,29.13746977659649,128.3677,-1,-1,-1,-1,30,30.98550395246249,-9999,8671.472432875,-0.673126220703125,0.5482177734375,-0.483245849609375,8671.462356875001,-2.12337677799722,-0.9403720826498814,-0.5699374400351629,-0.01982854120433331,-0.02112267911434174,-0.00141390273347497,-0.003619909286499023,0.008790910243988037,0.0104396641254425,XArbitraryZVertical,0.5017938434987808,-0.006925361697731551,0.6849543729609879,-0.5281972583881466,-0.6800958514213562,0.5395793914794922,-0.4963099658489227,0,0,0,-1,-1,8650.688061375002,unknown,2,2025-04-20T22:05:07.242+03:00,2025-04-20T21:57:49.637+03:00,10,3.550022,0,0,8.640187,0,0,2025-04-20T22:04:54.344+03:00,766868730.5491806,0,0.2299995,99.73525,1,1,2025-04-20T22:05:14.565+03:00,66,1.1,2025-04-19T12:19:17.059+03:00,0.05691595998002078,0
2025-04-20T22:05:30.946+03:00,1745175929.972784,40.98562279296635,29.13746977659649,128.3677,-1,-1,-1,-1,30,30.98550395246249,-9999,8671.482508875,-0.6842498779296875,0.5539093017578125,-0.48583984375,8671.472432875,-2.123620781863488,-0.940771133081056,-0.5700019560628414,-0.01048670522868633,-0.02535364218056202,-0.008313886821269989,0.00507962703704834,0.005044043064117432,0.01388615369796753,XArbitraryZVertical,0.5019395075971061,-0.006907289530776506,0.6849048133318619,-0.5281234250605102,-0.6802657842636108,0.5396336913108826,-0.4960180521011353,0,0,0,-1,-1,8650.688061375002,unknown,2,2025-04-20T22:05:07.242+03:00,2025-04-20T21:57:49.637+03:00,10,3.550022,0,0,8.640187,0,0,2025-04-20T22:04:54.344+03:00,766868730.5491806,0,0.2299995,99.73525,1,1,2025-04-20T22:05:14.565+03:00,66,1.1,2025-04-19T12:19:17.059+03:00,0.05691595998002078,0
2025-04-20T22:05:30.957+03:00,1745175929.972784,40.98562279296635,29.13746977659649,128.3677,-1,-1,-1,-1,30,30.98550395246249,-9999,8671.492585875001,-0.67791748046875,0.5557098388671875,-0.480926513671875,8671.482508875,-2.123767820468937,-0.9411547127085583,-0.5699850406187837,-0.003913824446499348,-0.02822859212756157,-0.009903428144752979,0.00733715295791626,0.00859832763671875,0.01251667737960815,XArbitraryZVertical,0.5020677653840439,-0.0068360611143234,0.6848510185088368,-0.5280722285734515,-0.6804633736610413,0.5396194458007812,-0.4957624673843384,0,0,0,-1,-1,8650.688061375002,unknown,2,2025-04-20T22:05:07.242+03:00,2025-04-20T21:57:49.637+03:00,10,3.550022,0,0,8.640187,0,0,2025-04-20T22:04:54.344+03:00,766868730.5491806,0,0.2299995,99.73525,1,1,2025-04-20T22:05:14.565+03:00,66,1.1,2025-04-19T12:19:17.059+03:00,0.05691595998002078,0
2025-04-20T22:05:30.988+03:00,1745175929.972784,40.98562279296635,29.13746977659649,128.3677,-1,-1,-1,-1,30,30.98550395246249,-9999,8671.502661875,-0.6785888671875,0.5522918701171875,-0.4810333251953125,8671.492585875001,-2.123875701154233,-0.9415304313318194,-0.5698838808066284,0.002593875862658024,-0.02968933805823326,-0.02013023197650909,-0.003556191921234131,0.01437503099441528,0.009699106216430664,XArbitraryZVertical,0.5021806141696817,-0.00672303907006831,0.6848069402618069,-0.5280234856149633,-0.6806936860084534,0.5395342707633972,-0.4955388605594635,0,0,0,-1,-1,8650.688061375002,unknown,2,2025-04-20T22:05:07.242+03:00,2025-04-20T21:57:49.637+03:00,10,3.550022,0,0,8.640187,0,0,2025-04-20T22:04:54.344+03:00,766868730.5491806,0,0.2299995,99.73525,1,1,2025-04-20T22:05:14.565+03:00,66,1.1,2025-04-19T12:19:17.059+03:00,0.05691595998002078,0
2025-04-20T22:05:30.991+03:00,1745175929.972784,40.98562279296635,29.13746977659649,128.3677,-1,-1,-1,-1,30,30.98550395246249,-9999,8671.512737875,-0.6806488037109375,0.54901123046875,-0.483978271484375,8671.502661875,-2.123959990432531,-0.9418234456017609,-0.569766383736425,0.003702017012983561,-0.01157451327890158,-0.009496496059000492,0.002972662448883057,0.01627445220947266,0.01445025205612183,XArbitraryZVertical,0.5022627174510377,-0.006619309753436669,0.6847809429366062,-0.5279804567144856,-0.6808901429176331,0.5394353270530701,-0.4953767061233521,0,0,0,-1,-1,8650.688061375002,unknown,2,2025-04-20T22:05:07.242+03:00,2025-04-20T21:57:49.637+03:00,10,3.550022,0,0,8.640187,0,0,2025-04-20T22:04:54.344+03:00,766868730.5491806,0,0.2299995,99.73525,1,1,2025-04-20T22:05:14.565+03:00,66,1.1,2025-04-19T12:19:17.059+03:00,0.05691595998002078,0
2025-04-20T22:05:30.993+03:00,1745175929.972784,40.98562279296635,29.13746977659649,128.3677,-1,-1,-1,-1,30,30.98550395246249,-9999,8671.522814875001,-0.6820068359375,0.543487548828125,-0.479949951171875,8671.512737875,-2.123976340796808,-0.9418493319085525,-0.5697411238591136,0.004034645855426788,0.01596203818917274,-0.005462074186652899,0.002325117588043213,0.01287776231765747,0.01433384418487549,XArbitraryZVertical,0.5022676734966079,-0.006606367858348165,0.6847841936182973,-0.5279716752556003,-0.6809139847755432,0.53941410779953,-0.4953670799732208,0,0,0,-1,-1,8650.688061375002,unknown,2,2025-04-20T22:05:07.242+03:00,2025-04-20T21:57:49.637+03:00,10,3.550022,0,0,8.640187,0,0,2025-04-20T22:04:54.344+03:00,766868730.5491806,0,0.2299995,99.73525,1,1,2025-04-20T22:05:14.565+03:00,66,1.1,2025-04-19T12:19:17.059+03:00,0.05691595998002078,0
2025-04-20T22:05:30.997+03:00,1745175929.972784,40.98562279296635,29.13746977659649,128.3677,-1,-1,-1,-1,30,30.98550395246249,-9999,8671.532890875,-0.685760498046875,0.5428009033203125,-0.4718780517578125,8671.522814875001,-2.123996767886029,-0.9415688918902395,-0.5697934675476704,-0.00231519527733326,0.04474807903170586,-0.001503717852756381,0.0001034140586853027,0.009553074836730957,0.01156318187713623,XArbitraryZVertical,0.5021795690282195,-0.006706701453136585,0.6848487359081198,-0.5279705089900042,-0.6807522177696228,0.539458155632019,-0.4955413937568665,0,0,0,-1,-1,8650.688061375002,unknown,2,2025-04-20T22:05:07.242+03:00,2025-04-20T21:57:49.637+03:00,10,3.550022,0,0,8.640187,0,0,2025-04-20T22:04:54.344+03:00,766868730.5491806,0,0.2299995,99.73525,1,1,2025-04-20T22:05:14.565+03:00,66,1.1,2025-04-19T12:19:17.059+03:00,0.05691595998002078,0
2025-04-20T22:05:31.007+03:00,1745175929.972784,40.98562279296635,29.13746977659649,128.3677,-1,-1,-1,-1,30,30.98550395246249,-9999,8671.542966875,-0.684814453125,0.5489044189453125,-0.475799560546875,8671.532890875,-2.124024564715236,-0.9410826134760621,-0.5698419283485928,0.001925089629366994,0.05671978741884232,-0.003097885986790061,-0.001516819000244141,0.003988564014434814,0.01590704917907715,XArbitraryZVertical,0.5020203579451938,-0.006861672989160968,0.6849676825711642,-0.5279655540196625,-0.6804900169372559,0.5394989848136902,-0.4958569407463074,0,0,0,-1,-1,8650.688061375002,unknown,2,2025-04-20T22:05:07.242+03:00,2025-04-20T21:57:49.637+03:00,10,3.550022,0,0,8.640187,0,0,2025-04-20T22:04:54.344+03:00,766868730.5491806,0,0.2299995,99.73525,1,1,2025-04-20T22:05:14.565+03:00,66,1.1,2025-04-19T12:19:17.059+03:00,0.05691595998002078,0
2025-04-20T22:05:31.017+03:00,1745175929.972784,40.98562279296635,29.13746977659649,128.3677,-1,-1,-1,-1,30,30.98550395246249,-9999,8671.553043875001,-0.680694580078125,0.5545806884765625,-0.4819793701171875,8671.542966875,-2.124021986217102,-0.9405239163739701,-0.569809857574235,0.008092038333415985,0.05815296620130539,-0.004473874345421791,-0.005533576011657715,0.003328919410705566,0.02436929941177368,XArbitraryZVertical,0.5018240845555292,-0.006995507952825798,0.6851141701625456,-0.5279604257174008,-0.6802268624305725,0.5394719839096069,-0.4962472915649414,0,0,0,-1,-1,8650.688061375002,unknown,2,2025-04-20T22:05:07.242+03:00,2025-04-20T21:57:49.637+03:00,10,3.550022,0,0,8.640187,0,0,2025-04-20T22:04:54.344+03:00,766868730.5491806,0,0.2299995,99.73525,1,1,2025-04-20T22:05:14.565+03:00,66,1.1,2025-04-19T12:19:17.059+03:00,0.05691595998002078,0
2025-04-20T22:05:31.027+03:00,1745175929.972784,40.98562279296635,29.13746977659649,128.3677,-1,-1,-1,-1,30,30.98550395246249,-9999,8671.563119875,-0.677734375,0.551177978515625,-0.4840850830078125,8671.553043875001,-2.123996359640878,-0.9400073676927627,-0.5697617480915333,0.009705115109682083,0.04731017351150513,-0.007000681944191456,-0.004823029041290283,0.009472966194152832,0.02081441879272461,XArbitraryZVertical,0.5016398695571975,-0.007105986884181892,0.6852473217089674,-0.5279611570872158,-0.6799913644790649,0.5394314527511597,-0.4966138899326324,0,0,0,-1,-1,8650.688061375002,unknown,2,2025-04-20T22:05:07.242+03:00,2025-04-20T21:57:49.637+03:00,10,3.550022,0,0,8.640187,0,0,2025-04-20T22:04:54.344+03:00,766868730.5491806,0,0.2299995,99.73525,1,1,2025-04-20T22:05:14.565+03:00,66,1.1,2025-04-19T12:19:17.059+03:00,0.05691595998002078,0
2025-04-20T22:05:31.037+03:00,1745175929.972784,40.98562279296635,29.13746977659649,128.3677,-1,-1,-1,-1,30,30.98550395246249,-9999,8671.573195875,-0.6722564697265625,0.545013427734375,-0.483062744140625,8671.563119875,-2.124020465939868,-0.9397195308679451,-0.5697292600532654,-0.001808728906325996,0.01507986709475517,-0.01070949994027615,-0.0008319616317749023,0.01517653465270996,0.01484066247940063,XArbitraryZVertical,0.5015361722078741,-0.007174839314323169,0.6853329193331625,-0.5279477482717636,-0.6798626184463501,0.5394040942192078,-0.4968199729919434,0,0,0,-1,-1,8650.688061375002,unknown,2,2025-04-20T22:05:07.242+03:00,2025-04-20T21:57:49.637+03:00,10,3.550022,0,0,8.640187,0,0,2025-04-20T22:04:54.344+03:00,766868730.5491806,0,0.2299995,99.73525,1,1,2025-04-20T22:05:14.565+03:00,66,1.1,2025-04-19T12:19:17.059+03:00,0.05691595998002078,0
2025-04-20T22:05:31.047+03:00,1745175929.972784,40.98562279296635,29.13746977659649,128.3677,-1,-1,-1,-1,30,30.98550395246249,-9999,8671.583272875001,-0.667266845703125,0.540863037109375,-0.4813232421875,8671.573195875,-2.124164941977098,-0.9397758797627914,-0.5697469895645516,-0.007020801305770874,0.002960087265819311,-0.008245010860264301,0.00214850902557373,0.01175892353057861,0.01269102096557617,XArbitraryZVertical,0.5015576774297732,-0.007203378870452922,0.6853530933859471,-0.5279007077133088,-0.6798828840255737,0.5394189953804016,-0.4967760145664215,0,0,0,-1,-1,8650.688061375002,unknown,2,2025-04-20T22:05:07.242+03:00,2025-04-20T21:57:49.637+03:00,10,3.550022,0,0,8.640187,0,0,2025-04-20T22:04:54.344+03:00,766868730.5491806,0,0.2299995,99.73525,1,1,2025-04-20T22:05:14.565+03:00,66,1.1,2025-04-19T12:19:17.059+03:00,0.05691595998002078,0
2025-04-20T22:05:31.057+03:00,1745175929.972784,40.98562279296635,29.13746977659649,128.3677,-1,-1,-1,-1,30,30.98550395246249,-9999,8671.593348875,-0.678497314453125,0.5401458740234375,-0.479949951171875,8671.583272875001,-2.124296821445171,-0.9398111967165518,-0.5697722108225607,-0.002705881372094154,0.0110780019313097,-0.0101070599630475,0.007632970809936523,0.005573153495788574,0.01368129253387451,XArbitraryZVertical,0.5015731523978378,-0.007237328733924075,0.6853736296082618,-0.5278589052736429,-0.679889440536499,0.5394402742385864,-0.4967439770698547,0,0,0,-1,-1,8650.688061375002,unknown,2,2025-04-20T22:05:07.242+03:00,2025-04-20T21:57:49.637+03:00,10,3.550022,0,0,8.640187,0,0,2025-04-20T22:04:54.344+03:00,766868730.5491806,0,0.2299995,99.73525,1,1,2025-04-20T22:05:14.565+03:00,66,1.1,2025-04-19T12:19:17.059+03:00,0.05691595998002078,0
2025-04-20T22:05:31.067+03:00,1745175929.972784,40.98562279296635,29.13746977659649,128.3677,-1,-1,-1,-1,30,30.98550395246249,-9999,8671.603424875,-0.67205810546875,0.5413055419921875,-0.475189208984375,8671.593348875,-2.124449403572874,-0.9398299203861108,-0.5697743772844155,-0.01160430163145065,0.01216643489897251,-0.009690008126199245,0.01263093948364258,0.001420915126800537,0.01540735363960266,XArbitraryZVertical,0.5015793789977889,-0.00727157818080046,0.6854086505114836,-0.5278068636893801,-0.6798977255821228,0.5394420623779297,-0.4967305064201355,0,0,0,-1,-1,8650.688061375002,unknown,2,2025-04-20T22:05:07.242+03:00,2025-04-20T21:57:49.637+03:00,10,3.550022,0,0,8.640187,0,0,2025-04-20T22:04:54.344+03:00,766868730.5491806,0,0.2299995,99.73525,1,1,2025-04-20T22:05:14.565+03:00,66,1.1,2025-04-19T12:19:17.059+03:00,0.05691595998002078,0
2025-04-20T22:05:31.078+03:00,1745175929.972784,40.98562279296635,29.13746977659649,128.3677,-1,-1,-1,-1,30,30.98550395246249,-9999,8671.613501875001,-0.6680450439453125,0.5500030517578125,-0.4762115478515625,8671.603424875,-2.124647573332969,-0.9398706754837367,-0.5698065313335601,-0.01019682083278894,0.006305084098130465,-0.009439671412110329,0.001406669616699219,0.0006766915321350098,0.01674270629882812,XArbitraryZVertical,0.5015975292423182,-0.007323528359888109,0.6854438155710265,-0.5277432521763346,-0.6799039840698242,0.5394691824913025,-0.496692568063736,0,0,0,-1,-1,8650.688061375002,unknown,2,2025-04-20T22:05:07.242+03:00,2025-04-20T21:57:49.637+03:00,10,3.550022,0,0,8.640187,0,0,2025-04-20T22:04:54.344+03:00,766868730.5491806,0,0.2299995,99.73525,1,1,2025-04-20T22:05:14.565+03:00,66,1.1,2025-04-19T12:19:17.059+03:00,0.05691595998002078,0
2025-04-20T22:05:31.088+03:00,1745175929.972784,40.98562279296635,29.13746977659649,128.3677,-1,-1,-1,-1,30,30.98550395246249,-9999,8671.623577875,-0.671295166015625,0.5504302978515625,-0.478973388671875,8671.613501875001,-2.124837002181204,-0.9399693005615655,-0.569808920548725,-0.005588486790657043,-0.001176001504063606,-0.0103960121050477,0.007893860340118408,0.001834332942962646,0.02143561840057373,XArbitraryZVertical,0.5016309837631544,-0.007345957083037479,0.6854685926128382,-0.5276790512515334,-0.6799519658088684,0.5394711494445801,-0.4966247975826263,0,0,0,-1,-1,8650.688061375002,unknown,2,2025-04-20T22:05:07.242+03:00,2025-04-20T21:57:49.637+03:00,10,3.550022,0,0,8.640187,0,0,2025-04-20T22:04:54.344+03:00,766868730.5491806,0,0.2299995,99.73525,1,1,2025-04-20T22:05:14.565+03:00,66,1.1,2025-04-19T12:19:17.059+03:00,0.05691595998002078,0
2025-04-20T22:05:31.098+03:00,1745175929.972784,40.98562279296635,29.13746977659649,128.3677,-1,-1,-1,-1,30,30.98550395246249,-9999,8671.633653875,-0.6739501953125,0.54620361328125,-0.4828643798828125,8671.623577875,-2.125049231944665,-0.9401463093513307,-0.5698280065247571,-0.01485948264598846,0.005515190772712231,-0.00570099288597703,0.01198649406433105,0.01051580905914307,0.02028685808181763,XArbitraryZVertical,0.5016937859038193,-0.007360219425235235,0.6854760704124109,-0.5276094159177487,-0.6800315380096436,0.5394872426986694,-0.4964983463287354,0,0,0,-1,-1,8650.688061375002,unknown,2,2025-04-20T22:05:07.242+03:00,2025-04-20T21:57:49.637+03:00,10,3.550022,0,0,8.640187,0,0,2025-04-20T22:04:54.344+03:00,766868730.5491806,0,0.2299995,99.73525,1,1,2025-04-20T22:05:14.565+03:00,66,1.1,2025-04-19T12:19:17.059+03:00,0.05691595998002078,0
2025-04-20T22:05:31.107+03:00,1745175929.972784,40.98562279296635,29.13746977659649,128.3677,-1,-1,-1,-1,30,30.98550395246249,-9999,8671.643730875001,-0.6818695068359375,0.54486083984375,-0.483184814453125,8671.633653875,-2.125249920952983,-0.9402249806894176,-0.5698925998004081,-0.01002930849790573,0.01003883592784405,-0.009358045645058155,0.008747339248657227,0.01088869571685791,0.01745098829269409,XArbitraryZVertical,0.5017298528090843,-0.007415937038347575,0.685495398630948,-0.5275492786532338,-0.6800424456596375,0.5395416021347046,-0.4964243173599243,0,0,0,-1,-1,8650.688061375002,unknown,2,2025-04-20T22:05:07.242+03:00,2025-04-20T21:57:49.637+03:00,10,3.550022,0,0,8.640187,0,0,2025-04-20T22:04:54.344+03:00,766868730.5491806,0,0.2299995,99.73525,1,1,2025-04-20T22:05:14.565+03:00,66,1.1,2025-04-19T12:19:17.059+03:00,0.05691595998002078,0
2025-04-20T22:05:31.118+03:00,1745175929.972784,40.98562279296635,29.13746977659649,128.3677,-1,-1,-1,-1,30,30.98550395246249,-9999,8671.653806875,-0.6796875,0.5421905517578125,-0.479644775390625,8671.643730875001,-2.125446151191326,-0.9402526675095975,-0.5699415725502658,-0.009830169379711151,0.01293096225708723,-0.01243216544389725,0.006084620952606201,0.006620705127716064,0.01352554559707642,XArbitraryZVertical,0.5017461016296506,-0.007477713830533342,0.6855296140098519,-0.5274883725203983,-0.6800348162651062,0.5395828485488892,-0.4963898658752441,0,0,0,-1,-1,8650.688061375002,unknown,2,2025-04-20T22:05:07.242+03:00,2025-04-20T21:57:49.637+03:00,10,3.550022,0,0,8.640187,0,0,2025-04-20T22:04:54.344+03:00,766868730.5491806,0,0.2299995,99.73525,1,1,2025-04-20T22:05:14.565+03:00,66,1.1,2025-04-19T12:19:17.059+03:00,0.05691595998002078,0
2025-04-20T22:05:31.128+03:00,1745175929.972784,40.98562279296635,29.13746977659649,128.3677,-1,-1,-1,-1,30,30.98550395246249,-9999,8671.663882875,-0.6803131103515625,0.545135498046875,-0.4793853759765625,8671.653806875,-2.125666996381899,-0.9402472449049242,-0.569965441070693,-0.01244752481579781,0.01449370570480824,-0.01249821204692125,-0.001847743988037109,0.005257844924926758,0.01320123672485352,XArbitraryZVertical,0.5017470362034078,-0.007544184247224974,0.6855841227431284,-0.5274157784192579,-0.6800217628479004,0.5396029353141785,-0.4963859915733337,0,0,0,-1,-1,8650.688061375002,unknown,2,2025-04-20T22:05:07.242+03:00,2025-04-20T21:57:49.637+03:00,10,3.550022,0,0,8.640187,0,0,2025-04-20T22:04:54.344+03:00,766868730.5491806,0,0.2299995,99.73525,1,1,2025-04-20T22:05:14.565+03:00,66,1.1,2025-04-19T12:19:17.059+03:00,0.05691595998002078,0
2025-04-20T22:05:31.138+03:00,1745175929.972784,40.98562279296635,29.13746977659649,128.3677,-1,-1,-1,-1,30,30.98550395246249,-9999,8671.673959875001,-0.6804351806640625,0.5460052490234375,-0.4820098876953125,8671.663882875,-2.125916041044894,-0.940245829628878,-0.5700015331240472,-0.01881061494350433,0.01314508076757193,-0.01450250763446093,0.0003178119659423828,0.002557218074798584,0.01673072576522827,XArbitraryZVertical,0.5017511096142171,-0.007621647852494083,0.6856423743404555,-0.5273350470703466,-0.6800053119659424,0.5396333336830139,-0.4963754713535309,0,0,0,-1,-1,8650.688061375002,unknown,2,2025-04-20T22:05:07.242+03:00,2025-04-20T21:57:49.637+03:00,10,3.550022,0,0,8.640187,0,0,2025-04-20T22:04:54.344+03:00,766868730.5491806,0,0.2299995,99.73525,1,1,2025-04-20T22:05:14.565+03:00,66,1.1,2025-04-19T12:19:17.059+03:00,0.05691595998002078,0
2025-04-20T22:05:31.148+03:00,1745175929.972784,40.98562279296635,29.13746977659649,128.3677,-1,-1,-1,-1,30,30.98550395246249,-9999,8671.684035875001,-0.6819305419921875,0.549774169921875,-0.4836273193359375,8671.673959875001,-2.126216050378304,-0.9403310520185171,-0.5700031616194056,-0.01742870174348354,0.006426990497857332,-0.0212837141007185,-0.0002661943435668945,0.00550079345703125,0.01693165302276611,XArbitraryZVertical,0.5017794197659081,-0.007675094165953701,0.6856997590697946,-0.5272327532959699,-0.6800469160079956,0.5396347045898438,-0.4963169991970062,0,0,0,-1,-1,8650.688061375002,unknown,2,2025-04-20T22:05:07.242+03:00,2025-04-20T21:57:49.637+03:00,10,3.550022,0,0,8.640187,0,0,2025-04-20T22:04:54.344+03:00,766868730.5491806,0,0.2299995,99.73525,1,1,2025-04-20T22:05:14.565+03:00,66,1.1,2025-04-19T12:19:17.059+03:00,0.05691595998002078,0
2025-04-20T22:05:31.158+03:00,1745175929.972784,40.98562279296635,29.13746977659649,128.3677,-1,-1,-1,-1,30,30.98550395246249,-9999,8671.694112875,-0.6851654052734375,0.55621337890625,-0.485443115234375,8671.684035875001,-2.126518502673706,-0.940504264405313,-0.5699606139911997,-0.01157727092504501,0.0007163076661527157,-0.01623599231243134,-0.0002837181091308594,0.00640636682510376,0.01420295238494873,XArbitraryZVertical,0.5018311621773497,-0.007688093442589408,0.6857451920018328,-0.5271242430152268,-0.6801514625549316,0.5395988821983337,-0.4962127506732941,0,0,0,-1,-1,8650.688061375002,unknown,2,2025-04-20T22:05:07.242+03:00,2025-04-20T21:57:49.637+03:00,10,3.550022,0,0,8.640187,0,0,2025-04-20T22:04:54.344+03:00,766868730.5491806,0,0.2299995,99.73525,1,1,2025-04-20T22:05:14.565+03:00,66,1.1,2025-04-19T12:19:17.059+03:00,0.05691595998002078,0
2025-04-20T22:05:31.168+03:00,1745175929.972784,40.98562279296635,29.13746977659649,128.3677,-1,-1,-1,-1,30,30.98550395246249,-9999,8671.704188875001,-0.678070068359375,0.5536956787109375,-0.4886322021484375,8671.694112875,-2.12676504979866,-0.9407730212892847,-0.5699352768805539,-0.01011279877275229,-0.0221722312271595,-0.0151187963783741,-0.001634716987609863,0.0101965069770813,0.01241067051887512,XArbitraryZVertical,0.5019185425315309,-0.007668926863714415,0.6857480891966673,-0.5270373660554196,-0.6802957653999329,0.5395775437355042,-0.4960379302501678,0,0,0,-1,-1,8650.688061375002,unknown,2,2025-04-20T22:05:07.242+03:00,2025-04-20T21:57:49.637+03:00,10,3.550022,0,0,8.640187,0,0,2025-04-20T22:04:54.344+03:00,766868730.5491806,0,0.2299995,99.73525,1,1,2025-04-20T22:05:14.565+03:00,66,1.1,2025-04-19T12:19:17.059+03:00,0.05691595998002078,0
2025-04-20T22:05:31.178+03:00,1745175929.972784,40.98562279296635,29.13746977659649,128.3677,-1,-1,-1,-1,30,30.98550395246249,-9999,8671.714264875001,-0.6705169677734375,0.5512542724609375,-0.485595703125,8671.704188875001,-2.126990612687253,-0.9412173702645129,-0.5699795814715297,-0.01276563946157694,-0.03531765937805176,-0.01036149170249701,-0.004668533802032471,0.01659846305847168,0.01027849316596985,XArbitraryZVertical,0.5020767681618443,-0.007626390317112361,0.6856864594349129,-0.5269674546286286,-0.6804967522621155,0.5396148562431335,-0.4957215189933777,0,0,0,-1,-1,8650.688061375002,unknown,2,2025-04-20T22:05:07.242+03:00,2025-04-20T21:57:49.637+03:00,10,3.550022,0,0,8.640187,0,0,2025-04-20T22:04:54.344+03:00,766868730.5491806,0,0.2299995,99.73525,1,1,2025-04-20T22:05:14.565+03:00,66,1.1,2025-04-19T12:19:17.059+03:00,0.05691595998002078,0
