loggingTime(txt),locationTimestamp_since1970(s),locationLatitude(WGS84),locationLongitude(WGS84),locationAltitude(m),locationSpeed(m/s),locationSpeedAccuracy(m/s),locationCourse(°),locationCourseAccuracy(°),locationVerticalAccuracy(m),locationHorizontalAccuracy(m),locationFloor(Z),accelerometerTimestamp_sinceReboot(s),accelerometerAccelerationX(G),accelerometerAccelerationY(G),accelerometerAccelerationZ(G),motionTimestamp_sinceReboot(s),motionYaw(rad),motionRoll(rad),motionPitch(rad),motionRotationRateX(rad/s),motionRotationRateY(rad/s),motionRotationRateZ(rad/s),motionUserAccelerationX(G),motionUserAccelerationY(G),motionUserAccelerationZ(G),motionAttitudeReferenceFrame(txt),motionQuaternionX(R),motionQuaternionY(R),motionQuaternionZ(R),motionQuaternionW(R),motionGravityX(G),motionGravityY(G),motionGravityZ(G),motionMagneticFieldX(µT),motionMagneticFieldY(µT),motionMagneticFieldZ(µT),motionHeading(°),motionMagneticFieldCalibrationAccuracy(Z),activityTimestamp_sinceReboot(s),activity(txt),activityActivityConfidence(Z),activityActivityStartDate(txt),pedometerStartDate(txt),pedometerNumberofSteps(N),pedometerAverageActivePace(s/m),pedometerCurrentPace(s/m),pedometerCurrentCadence(steps/s),pedometerDistance(m),pedometerFloorAscended(N),pedometerFloorDescended(N),pedometerEndDate(txt),altimeterTimestamp_sinceReboot(s),altimeterReset(bool),altimeterRelativeAltitude(m),altimeterPressure(kPa),batteryState(N),batteryLevel(R),heartRateBPMTimestamp(txt),heartRateBPM(N),heartRateBPS(R),heartRateVariabilityTimestamp(txt),heartRateVariability(ms),label
2025-04-20T22:29:16.993+03:00,1745177355.696831,40.98571032071658,29.13751301048976,128.3675,-1,-1,-1,-1,30.05240832,23.80645510177979,-9999,9339.693226541667,0.2942657470703125,-0.656005859375,-0.6967315673828125,9339.683150541667,2.17228980807077,0.3422417531148576,0.7595760003720229,-0.06387094408273697,-0.02228964492678642,-0.06410121917724609,-0.03211012482643127,-0.007354617118835449,-0.007523417472839355,XArbitraryZVertical,0.03025787355332784,0.3969224619131636,0.8391961620273155,0.370522397017774,0.2433527410030365,-0.6886140704154968,-0.6830740571022034,0,0,0,-1,-1,9334.544369125,unknown,2,2025-04-20T22:29:11.819+03:00,2025-04-20T21:57:49.637+03:00,29,3.385239,0,0,23.86625,0,0,2025-04-20T22:29:14.398+03:00,766870151.9255434,0,0.6399994,99.73888,1,0.95,2025-04-20T22:21:30.043+03:00,95,1.583333333333333,2025-04-19T12:19:17.059+03:00,0.05691595998002078,0
2025-04-20T22:29:16.994+03:00,1745177355.696831,40.98571032071658,29.13751301048976,128.3675,-1,-1,-1,-1,30.05240832,23.80645510177979,-9999,9339.703302541668,0.2599945068359375,-0.6458892822265625,-0.7122344970703125,9339.693226541667,2.171479753394222,0.3426445406091302,0.7585706854171096,-0.06536684185266495,-0.02373281121253967,-0.06776013225317001,-0.001749172806739807,0.005954146385192871,-0.0003932714462280273,XArbitraryZVertical,0.03000705751021194,0.3965926867962768,0.8391773398117569,0.3709382580056353,0.2438603192567825,-0.6878847479820251,-0.6836276054382324,0,0,0,-1,-1,9334.544369125,unknown,2,2025-04-20T22:29:11.819+03:00,2025-04-20T21:57:49.637+03:00,29,3.385239,0,0,23.86625,0,0,2025-04-20T22:29:14.398+03:00,766870151.9255434,0,0.6399994,99.73888,1,0.95,2025-04-20T22:21:30.043+03:00,95,1.583333333333333,2025-04-19T12:19:17.059+03:00,0.05691595998002078,0
2025-04-20T22:29:16.995+03:00,1745177355.696831,40.98571032071658,29.13751301048976,128.3675,-1,-1,-1,-1,30.05240832,23.80645510177979,-9999,9339.713379541667,0.2290496826171875,-0.631134033203125,-0.711456298828125,9339.703302541668,2.171093538424579,0.3429551866614957,0.757671277544128,-0.07084956765174866,0.02672896347939968,-0.03804447874426842,0.04998505115509033,0.03122574090957642,-0.01259720325469971,XArbitraryZVertical,0.02973619957438141,0.3962936128845114,0.8392221709007389,0.3711783083777918,0.2442806363105774,-0.6872316598892212,-0.6841342449188232,0,0,0,-1,-1,9334.544369125,unknown,2,2025-04-20T22:29:11.819+03:00,2025-04-20T21:57:49.637+03:00,29,3.385239,0,0,23.86625,0,0,2025-04-20T22:29:14.398+03:00,766870151.9255434,0,0.6399994,99.73888,1,0.95,2025-04-20T22:21:30.043+03:00,95,1.583333333333333,2025-04-19T12:19:17.059+03:00,0.05691595998002078,0
2025-04-20T22:29:17.004+03:00,1745177355.696831,40.98571032071658,29.13751301048976,128.3675,-1,-1,-1,-1,30.05240832,23.80645510177979,-9999,9339.723455541667,0.2420806884765625,-0.638641357421875,-0.7090911865234375,9339.713379541667,2.170932936050929,0.3434304875950829,0.7568395010497954,-0.07005994021892548,0.04048179462552071,-0.0351397693157196,0.01519632339477539,0.04073786735534668,-0.02767848968505859,XArbitraryZVertical,0.02936768561840728,0.3960549755737678,0.8393025153411776,0.3712803692013589,0.2447981238365173,-0.6866271495819092,-0.6845560073852539,0,0,0,-1,-1,9334.544369125,unknown,2,2025-04-20T22:29:11.819+03:00,2025-04-20T21:57:49.637+03:00,29,3.385239,0,0,23.86625,0,0,2025-04-20T22:29:14.398+03:00,766870151.9255434,0,0.6399994,99.73888,1,0.95,2025-04-20T22:21:30.043+03:00,95,1.583333333333333,2025-04-19T12:19:17.059+03:00,0.05691595998002078,0
2025-04-20T22:29:17.013+03:00,1745177355.696831,40.98571032071658,29.13751301048976,128.3675,-1,-1,-1,-1,30.05240832,23.80645510177979,-9999,9339.733531541668,0.252288818359375,-0.64044189453125,-0.7263031005859375,9339.723455541667,2.170892939783739,0.3438056751080686,0.7558323416277569,-0.1018117442727089,0.03090027347207069,-0.03604098409414291,-0.01623830199241638,0.05476057529449463,-0.02634137868881226,XArbitraryZVertical,0.02897491294413373,0.395731026649909,0.8394252692975389,0.3713791088731938,0.2452879250049591,-0.6858946084976196,-0.6851148009300232,0,0,0,-1,-1,9334.544369125,unknown,2,2025-04-20T22:29:11.819+03:00,2025-04-20T21:57:49.637+03:00,29,3.385239,0,0,23.86625,0,0,2025-04-20T22:29:14.398+03:00,766870151.9255434,0,0.6399994,99.73888,1,0.95,2025-04-20T22:21:30.043+03:00,95,1.583333333333333,2025-04-19T12:19:17.059+03:00,0.05691595998002078,0
2025-04-20T22:29:17.023+03:00,1745177355.696831,40.98571032071658,29.13751301048976,128.3675,-1,-1,-1,-1,30.05240832,23.80645510177979,-9999,9339.743607541668,0.24267578125,-0.632904052734375,-0.750518798828125,9339.733531541668,2.170919769075544,0.3441888072029254,0.7545137972184363,-0.1268651634454727,0.05980515852570534,-0.0484292097389698,-0.003774747252464294,0.04629313945770264,-0.02321958541870117,XArbitraryZVertical,0.02849033557749094,0.395287886382668,0.839598674435676,0.3714966626190589,0.2458553612232208,-0.6849344968795776,-0.6858716011047363,0,0,0,-1,-1,9334.544369125,unknown,2,2025-04-20T22:29:11.819+03:00,2025-04-20T21:57:49.637+03:00,29,3.385239,0,0,23.86625,0,0,2025-04-20T22:29:14.398+03:00,766870151.9255434,0,0.6399994,99.73888,1,0.95,2025-04-20T22:21:30.043+03:00,95,1.583333333333333,2025-04-19T12:19:17.059+03:00,0.05691595998002078,0
2025-04-20T22:29:17.035+03:00,1745177355.696831,40.98571032071658,29.13751301048976,128.3675,-1,-1,-1,-1,30.05240832,23.80645510177979,-9999,9339.753683541667,0.2328033447265625,-0.64251708984375,-0.7685089111328125,9339.743607541668,2.170979787648397,0.3450021139111,0.7528236974320638,-0.1776513755321503,0.1193933933973312,-0.04367600008845329,0.005484521389007568,0.04326021671295166,-0.0395432710647583,XArbitraryZVertical,0.02772873332541327,0.394779950476037,0.8398293969971706,0.3715729107450075,0.246804267168045,-0.6837021112442017,-0.6867598295211792,0,0,0,-1,-1,9334.544369125,unknown,2,2025-04-20T22:29:11.819+03:00,2025-04-20T21:57:49.637+03:00,29,3.385239,0,0,23.86625,0,0,2025-04-20T22:29:14.398+03:00,766870151.9255434,0,0.6399994,99.73888,1,0.95,2025-04-20T22:21:30.043+03:00,95,1.583333333333333,2025-04-19T12:19:17.059+03:00,0.05691595998002078,0
2025-04-20T22:29:17.043+03:00,1745177355.696831,40.98571032071658,29.13751301048976,128.3675,-1,-1,-1,-1,30.05240832,23.80645510177979,-9999,9339.763759541667,0.233642578125,-0.6463623046875,-0.7943878173828125,9339.753683541667,2.171254864114291,0.3464870490405446,0.7508383168770577,-0.1972842067480087,0.2194882929325104,-0.05626529455184937,-0.005608543753623962,0.04934787750244141,-0.06285077333450317,XArbitraryZVertical,0.02657108949021248,0.394284168212496,0.8401441268741898,0.3714723681258119,0.248284250497818,-0.6822519302368164,-0.6876679658889771,0,0,0,-1,-1,9334.544369125,unknown,2,2025-04-20T22:29:11.819+03:00,2025-04-20T21:57:49.637+03:00,29,3.385239,0,0,23.86625,0,0,2025-04-20T22:29:14.398+03:00,766870151.9255434,0,0.6399994,99.73888,1,0.95,2025-04-20T22:21:30.043+03:00,95,1.583333333333333,2025-04-19T12:19:17.059+03:00,0.05691595998002078,0
2025-04-20T22:29:17.053+03:00,1745177355.696831,40.98571032071658,29.13751301048976,128.3675,-1,-1,-1,-1,30.05240832,23.80645510177979,-9999,9339.773835541668,0.2348480224609375,-0.6407318115234375,-0.8001861572265625,9339.763759541667,2.171219337078498,0.3491416670702314,0.7487377990738381,-0.1985907554626465,0.3213512599468231,-0.1158359497785568,-0.01779526472091675,0.03819757699966431,-0.08015733957290649,XArbitraryZVertical,0.02495499856677318,0.3939561936962114,0.8404279274471494,0.3712904276099914,0.2505985796451569,-0.6807146668434143,-0.6883515119552612,0,0,0,-1,-1,9334.544369125,unknown,2,2025-04-20T22:29:11.819+03:00,2025-04-20T21:57:49.637+03:00,29,3.385239,0,0,23.86625,0,0,2025-04-20T22:29:14.398+03:00,766870151.9255434,0,0.6399994,99.73888,1,0.95,2025-04-20T22:21:30.043+03:00,95,1.583333333333333,2025-04-19T12:19:17.059+03:00,0.05691595998002078,0
2025-04-20T22:29:17.063+03:00,1745177355.696831,40.98571032071658,29.13751301048976,128.3675,-1,-1,-1,-1,30.05240832,23.80645510177979,-9999,9339.783911541666,0.2497711181640625,-0.65618896484375,-0.8260650634765625,9339.773835541668,2.17013345573221,0.3535098102684685,0.7463118813720161,-0.1911821067333221,0.397760808467865,-0.2110388875007629,-0.02053141593933105,0.03257322311401367,-0.1055902242660522,XArbitraryZVertical,0.02274589417809611,0.3938068656870383,0.840572046803348,0.3712645564844321,0.2541739344596863,-0.6789355874061584,-0.6887975335121155,0,0,0,-1,-1,9334.544369125,unknown,2,2025-04-20T22:29:11.819+03:00,2025-04-20T21:57:49.637+03:00,29,3.385239,0,0,23.86625,0,0,2025-04-20T22:29:14.398+03:00,766870151.9255434,0,0.6399994,99.73888,1,0.95,2025-04-20T22:21:30.043+03:00,95,1.583333333333333,2025-04-19T12:19:17.059+03:00,0.05691595998002078,0
2025-04-20T22:29:17.074+03:00,1745177355.696831,40.98571032071658,29.13751301048976,128.3675,-1,-1,-1,-1,30.05240832,23.80645510177979,-9999,9339.793987541667,0.2682647705078125,-0.672393798828125,-0.8724365234375,9339.783911541666,2.167712856087826,0.3595980834488639,0.7437144878423158,-0.1497558355331421,0.4640189409255981,-0.2900500893592834,-0.02413451671600342,0.03629446029663086,-0.1113004088401794,XArbitraryZVertical,0.02003338278632487,0.3938982208437029,0.840498694175432,0.3714900707669,0.2589824795722961,-0.6770262718200684,-0.6888856887817383,0,0,0,-1,-1,9334.544369125,unknown,2,2025-04-20T22:29:11.819+03:00,2025-04-20T21:57:49.637+03:00,29,3.385239,0,0,23.86625,0,0,2025-04-20T22:29:14.398+03:00,766870151.9255434,0,0.6399994,99.73888,1,0.95,2025-04-20T22:21:30.043+03:00,95,1.583333333333333,2025-04-19T12:19:17.059+03:00,0.05691595998002078,0
2025-04-20T22:29:17.084+03:00,1745177355.696831,40.98571032071658,29.13751301048976,128.3675,-1,-1,-1,-1,30.05240832,23.80645510177979,-9999,9339.804063541667,0.2462158203125,-0.6722564697265625,-0.918609619140625,9339.793987541667,2.162404417622595,0.3679819151273913,0.741713445770424,0.109253890812397,0.4926330149173737,-0.6323610544204712,-0.01546454429626465,0.01936328411102295,-0.1381120681762695,XArbitraryZVertical,0.0170697854244249,0.3946291594299123,0.8398254571633701,0.3723836663882283,0.2652356326580048,-0.6755522489547729,-0.6879528760910034,0,0,0,-1,-1,9334.544369125,unknown,2,2025-04-20T22:29:11.819+03:00,2025-04-20T21:57:49.637+03:00,29,3.385239,0,0,23.86625,0,0,2025-04-20T22:29:14.398+03:00,766870151.9255434,0,0.6399994,99.73888,1,0.95,2025-04-20T22:21:30.043+03:00,95,1.583333333333333,2025-04-19T12:19:17.059+03:00,0.05691595998002078,0
2025-04-20T22:29:17.094+03:00,1745177355.696831,40.98571032071658,29.13751301048976,128.3675,-1,-1,-1,-1,30.05240832,23.80645510177979,-9999,9339.814139541668,0.220001220703125,-0.6849517822265625,-0.9466705322265625,9339.804063541667,2.151677288839904,0.3814031273075065,0.7411288394596864,0.3567444980144501,0.7089172005653381,-0.833460807800293,-0.006326854228973389,0.002727270126342773,-0.1877387762069702,XArbitraryZVertical,0.0134187592881967,0.3968262889167891,0.8379929113850153,0.3743214906064667,0.2745915651321411,-0.6751210689544678,-0.684697687625885,0,0,0,-1,-1,9334.544369125,unknown,2,2025-04-20T22:29:11.819+03:00,2025-04-20T21:57:49.637+03:00,29,3.385239,0,0,23.86625,0,0,2025-04-20T22:29:16.978+03:00,766870157.0812269,0,0.7299995,99.72822,1,0.95,2025-04-20T22:21:30.043+03:00,95,1.583333333333333,2025-04-19T12:19:17.059+03:00,0.05691595998002078,0
2025-04-20T22:29:17.108+03:00,1745177355.696831,40.98571032071658,29.13751301048976,128.3675,-1,-1,-1,-1,30.05240832,23.80645510177979,-9999,9339.824216541667,0.3039093017578125,-0.770294189453125,-0.891448974609375,9339.814139541668,2.137036810240737,0.3991435320314398,0.741405540930248,0.5119400024414062,0.8833843469619751,-1.134250283241272,-0.04040613770484924,0.003068685531616211,-0.2390629053115845,XArbitraryZVertical,0.008983570947055711,0.4001824292655598,0.8353115284544405,0.3768657122759412,0.2866218984127045,-0.6753252148628235,-0.6795466542243958,0,0,0,-1,-1,9334.544369125,unknown,2,2025-04-20T22:29:11.819+03:00,2025-04-20T21:57:49.637+03:00,29,3.385239,0,0,23.86625,0,0,2025-04-20T22:29:16.978+03:00,766870157.0812269,0,0.7299995,99.72822,1,0.95,2025-04-20T22:21:30.043+03:00,95,1.583333333333333,2025-04-19T12:19:17.059+03:00,0.05691595998002078,0
2025-04-20T22:29:17.114+03:00,1745177355.696831,40.98571032071658,29.13751301048976,128.3675,-1,-1,-1,-1,30.05240832,23.80645510177979,-9999,9339.834292541667,0.4267578125,-0.8568878173828125,-0.842987060546875,9339.824216541667,2.117658519802979,0.4220172325754111,0.7420613599854061,0.7287620902061462,1.044575452804565,-1.384347796440125,-0.08190670609474182,-0.009143054485321045,-0.2742612361907959,XArbitraryZVertical,0.003516881908189877,0.4047011551028339,0.8316436520365453,0.3802280454419431,0.301907867193222,-0.6758087277412415,-0.6724092364311218,0,0,0,-1,-1,9334.544369125,unknown,2,2025-04-20T22:29:11.819+03:00,2025-04-20T21:57:49.637+03:00,29,3.385239,0,0,23.86625,0,0,2025-04-20T22:29:16.978+03:00,766870157.0812269,0,0.7299995,99.72822,1,0.95,2025-04-20T22:21:30.043+03:00,95,1.583333333333333,2025-04-19T12:19:17.059+03:00,0.05691595998002078,0
2025-04-20T22:29:17.124+03:00,1745177355.696831,40.98571032071658,29.13751301048976,128.3675,-1,-1,-1,-1,30.05240832,23.80645510177979,-9999,9339.844368541668,0.5896453857421875,-0.8555755615234375,-0.8059234619140625,9339.834292541667,2.095870337568807,0.4470841135629104,0.7428296887083197,0.7384989261627197,0.9832596778869629,-1.447153687477112,-0.0145326554775238,-0.09391939640045166,-0.2272863388061523,XArbitraryZVertical,-0.002244610570551111,0.4097727341407847,0.8274084273251224,0.3840268841685506,0.3184418976306915,-0.6763748526573181,-0.6641625165939331,0,0,0,-1,-1,9334.544369125,unknown,2,2025-04-20T22:29:11.819+03:00,2025-04-20T21:57:49.637+03:00,29,3.385239,0,0,23.86625,0,0,2025-04-20T22:29:16.978+03:00,766870157.0812269,0,0.7299995,99.72822,1,0.95,2025-04-20T22:21:30.043+03:00,95,1.583333333333333,2025-04-19T12:19:17.059+03:00,0.05691595998002078,0
2025-04-20T22:29:17.134+03:00,1745177355.696831,40.98571032071658,29.13751301048976,128.3675,-1,-1,-1,-1,30.05240832,23.80645510177979,-9999,9339.854444541666,0.7088470458984375,-0.9100799560546875,-0.762969970703125,9339.844368541668,2.072920834407469,0.471833143446404,0.7419318346177612,0.5574319958686829,0.8574607968330383,-1.653361320495605,0.09170180559158325,-0.1811745166778564,-0.1863675713539124,XArbitraryZVertical,-0.00796601029624916,0.4142787234272953,0.8230012195260943,0.3885594750470723,0.3350559175014496,-0.6757132411003113,-0.6566193699836731,0,0,0,-1,-1,9334.544369125,unknown,2,2025-04-20T22:29:11.819+03:00,2025-04-20T21:57:49.637+03:00,29,3.385239,0,0,23.86625,0,0,2025-04-20T22:29:16.978+03:00,766870157.0812269,0,0.7299995,99.72822,1,0.95,2025-04-20T22:21:30.043+03:00,95,1.583333333333333,2025-04-19T12:19:17.059+03:00,0.05691595998002078,0
2025-04-20T22:29:17.144+03:00,1745177355.696831,40.98571032071658,29.13751301048976,128.3675,-1,-1,-1,-1,30.05240832,23.80645510177979,-9999,9339.864520541667,0.7666778564453125,-0.913116455078125,-0.7769927978515625,9339.854444541666,2.049007146448121,0.4951186991899839,0.7382204121940817,0.4220972955226898,0.5190718173980713,-1.771408081054688,0.238202691078186,-0.1826028823852539,-0.155081033706665,XArbitraryZVertical,-0.01355083309702467,0.4176065019820078,0.8185417694764209,0.3942213408672577,0.3514426350593567,-0.6729726791381836,-0.6508423686027527,0,0,0,-1,-1,9334.544369125,unknown,2,2025-04-20T22:29:11.819+03:00,2025-04-20T21:57:49.637+03:00,29,3.385239,0,0,23.86625,0,0,2025-04-20T22:29:16.978+03:00,766870157.0812269,0,0.7299995,99.72822,1,0.95,2025-04-20T22:21:30.043+03:00,95,1.583333333333333,2025-04-19T12:19:17.059+03:00,0.05691595998002078,0
2025-04-20T22:29:17.155+03:00,1745177355.696831,40.98571032071658,29.13751301048976,128.3675,-1,-1,-1,-1,30.05240832,23.80645510177979,-9999,9339.874596541667,0.7993927001953125,-0.8428497314453125,-0.8121337890625,9339.864520541667,2.024277949199768,0.5160290234045974,0.733214999272197,0.4772570133209229,0.3104369342327118,-1.911060571670532,0.3422152400016785,-0.2408180832862854,-0.1166962385177612,XArbitraryZVertical,-0.01828368068250691,0.4201533664615168,0.813894909883369,0.4008890041439013,0.3666317164897919,-0.6692619323730469,-0.6462737321853638,0,0,0,-1,-1,9334.544369125,unknown,2,2025-04-20T22:29:11.819+03:00,2025-04-20T21:57:49.637+03:00,29,3.385239,0,0,23.86625,0,0,2025-04-20T22:29:16.978+03:00,766870157.0812269,0,0.7299995,99.72822,1,0.95,2025-04-20T22:21:30.043+03:00,95,1.583333333333333,2025-04-19T12:19:17.059+03:00,0.05691595998002078,0
2025-04-20T22:29:17.164+03:00,1745177355.696831,40.98571032071658,29.13751301048976,128.3675,-1,-1,-1,-1,30.05240832,23.80645510177979,-9999,9339.884672541668,0.7280731201171875,-0.806915283203125,-0.8177490234375,9339.874596541667,1.99812956798046,0.5359420294166093,0.727307376039091,0.455955445766449,0.2064271569252014,-2.009467840194702,0.3852380514144897,-0.2482556700706482,-0.134759247303009,XArbitraryZVertical,-0.02251357452706837,0.4223463377490727,0.808876760685604,0.4084542329743944,0.3814397156238556,-0.664860725402832,-0.6422334313392639,0,0,0,-1,-1,9334.544369125,unknown,2,2025-04-20T22:29:11.819+03:00,2025-04-20T21:57:49.637+03:00,29,3.385239,0,0,23.86625,0,0,2025-04-20T22:29:16.978+03:00,766870157.0812269,0,0.7299995,99.72822,1,0.95,2025-04-20T22:21:30.043+03:00,95,1.583333333333333,2025-04-19T12:19:17.059+03:00,0.05691595998002078,0
2025-04-20T22:29:17.175+03:00,1745177355.696831,40.98571032071658,29.13751301048976,128.3675,-1,-1,-1,-1,30.05240832,23.80645510177979,-9999,9339.894748541667,0.62420654296875,-0.777618408203125,-0.7446136474609375,9339.884672541668,1.971576134515251,0.5557080655518012,0.7204788733146543,0.434360682964325,0.2272631973028183,-2.07350492477417,0.4029479920864105,-0.1831051707267761,-0.1737227439880371,XArbitraryZVertical,-0.02681531808600941,0.4243529899521913,0.8036620456383976,0.4163323334373079,0.3964446485042572,-0.6597446203231812,-0.6384109854698181,0,0,0,-1,-1,9334.544369125,unknown,2,2025-04-20T22:29:11.819+03:00,2025-04-20T21:57:49.637+03:00,29,3.385239,0,0,23.86625,0,0,2025-04-20T22:29:16.978+03:00,766870157.0812269,0,0.7299995,99.72822,1,0.95,2025-04-20T22:21:30.043+03:00,95,1.583333333333333,2025-04-19T12:19:17.059+03:00,0.05691595998002078,0
2025-04-20T22:29:17.185+03:00,1745177355.696831,40.98571032071658,29.13751301048976,128.3675,-1,-1,-1,-1,30.05240832,23.80645510177979,-9999,9339.904824541667,0.5599517822265625,-0.75616455078125,-0.6360015869140625,9339.894748541667,1.944888827165168,0.5755125346198871,0.7124960548083628,0.3418299555778503,0.2187583893537521,-2.15545654296875,0.3162101805210114,-0.1531906127929688,-0.1829158663749695,XArbitraryZVertical,-0.03139899099103444,0.4261426896399538,0.7982979772141584,0.4244251509304228,0.411862850189209,-0.6537246704101562,-0.634833037853241,0,0,0,-1,-1,9334.544369125,unknown,2,2025-04-20T22:29:11.819+03:00,2025-04-20T21:57:49.637+03:00,29,3.385239,0,0,23.86625,0,0,2025-04-20T22:29:16.978+03:00,766870157.0812269,0,0.7299995,99.72822,1,0.95,2025-04-20T22:21:30.043+03:00,95,1.583333333333333,2025-04-19T12:19:17.059+03:00,0.05691595998002078,0
2025-04-20T22:29:17.195+03:00,1745177355.696831,40.98571032071658,29.13751301048976,128.3675,-1,-1,-1,-1,30.05240832,23.80645510177979,-9999,9339.914901541668,0.5127410888671875,-0.7722320556640625,-0.486572265625,9339.904824541667,1.918228289336341,0.5948088556189594,0.7018868843353119,0.1155082583427429,0.1661041080951691,-2.379962921142578,0.1963087320327759,-0.1319587230682373,-0.1121367216110229,XArbitraryZVertical,-0.03653414804794498,0.4271144995331422,0.7928849089670925,0.4330958232682826,0.4278977513313293,-0.6456596851348877,-0.6324769258499146,0,0,0,-1,-1,9334.544369125,unknown,2,2025-04-20T22:29:11.819+03:00,2025-04-20T21:57:49.637+03:00,29,3.385239,0,0,23.86625,0,0,2025-04-20T22:29:16.978+03:00,766870157.0812269,0,0.7299995,99.72822,1,0.95,2025-04-20T22:21:30.043+03:00,95,1.583333333333333,2025-04-19T12:19:17.059+03:00,0.05691595998002078,0
2025-04-20T22:29:17.206+03:00,1745177355.696831,40.98571032071658,29.13751301048976,128.3675,-1,-1,-1,-1,30.05240832,23.80645510177979,-9999,9339.924977541667,0.48779296875,-0.7381744384765625,-0.3133087158203125,9339.914901541668,1.891644459376346,0.6135078549374048,0.6881905178879815,-0.04050903022289276,0.1609271913766861,-2.464868783950806,0.115252822637558,-0.1210240125656128,-0.004464268684387207,XArbitraryZVertical,-0.04237355395096613,0.427125119987763,0.787401044053792,0.4424569373004842,0.4446988999843597,-0.635140597820282,-0.6315371990203857,0,0,0,-1,-1,9334.544369125,unknown,2,2025-04-20T22:29:11.819+03:00,2025-04-20T21:57:49.637+03:00,29,3.385239,0,0,23.86625,0,0,2025-04-20T22:29:16.978+03:00,766870157.0812269,0,0.7299995,99.72822,1,0.95,2025-04-20T22:21:30.043+03:00,95,1.583333333333333,2025-04-19T12:19:17.059+03:00,0.05691595998002078,0
2025-04-20T22:29:17.215+03:00,1745177355.696831,40.98571032071658,29.13751301048976,128.3675,-1,-1,-1,-1,30.05240832,23.80645510177979,-9999,9339.935053541667,0.49700927734375,-0.57928466796875,-0.1884002685546875,9339.924977541667,1.865521792505864,0.6312675344373586,0.6736603833721728,0.09316421300172806,0.09693209081888199,-2.508636713027954,0.05149877071380615,-0.1483811736106873,0.1443521976470947,XArbitraryZVertical,-0.04821205428304613,0.4268646212135696,0.7817837515556124,0.4519693496776144,0.4612422585487366,-0.6238508820533752,-0.63092440366745,0,0,0,-1,-1,9334.544369125,unknown,2,2025-04-20T22:29:11.819+03:00,2025-04-20T21:57:49.637+03:00,29,3.385239,0,0,23.86625,0,0,2025-04-20T22:29:16.978+03:00,766870157.0812269,0,0.7299995,99.72822,1,0.95,2025-04-20T22:21:30.043+03:00,95,1.583333333333333,2025-04-19T12:19:17.059+03:00,0.05691595998002078,0
2025-04-20T22:29:17.228+03:00,1745177355.696831,40.98571032071658,29.13751301048976,128.3675,-1,-1,-1,-1,30.05240832,23.80645510177979,-9999,9339.945129541667,0.5052490234375,-0.4731597900390625,-0.12274169921875,9339.935053541667,1.837346534309613,0.6493261549899867,0.660533647522064,0.4447174370288849,0.02022719010710716,-2.548629999160767,0.01032218337059021,-0.1246361136436462,0.31565260887146,XArbitraryZVertical,-0.05330473179984634,0.4274084206581892,0.7753447261321176,0.4618669488841339,0.477470725774765,-0.6135383248329163,-0.6289613246917725,0,0,0,-1,-1,9334.544369125,unknown,2,2025-04-20T22:29:11.819+03:00,2025-04-20T21:57:49.637+03:00,29,3.385239,0,0,23.86625,0,0,2025-04-20T22:29:16.978+03:00,766870157.0812269,0,0.7299995,99.72822,1,0.95,2025-04-20T22:21:30.043+03:00,95,1.583333333333333,2025-04-19T12:19:17.059+03:00,0.05691595998002078,0
2025-04-20T22:29:17.243+03:00,1745177355.696831,40.98571032071658,29.13751301048976,128.3675,-1,-1,-1,-1,30.05240832,23.80645510177979,-9999,9339.955205541668,0.5438385009765625,-0.500762939453125,-0.0814208984375,9339.945129541667,1.807625943664001,0.6668303719720483,0.6497671025470405,0.7257362604141235,-0.144035592675209,-2.457746744155884,0.004545509815216064,0.02571630477905273,0.4372619986534119,XArbitraryZVertical,-0.05709569064101062,0.428846089950368,0.768209578221547,0.4718951966848829,0.4924637377262115,-0.6050009727478027,-0.6256622076034546,0,0,0,-1,-1,9334.544369125,unknown,2,2025-04-20T22:29:11.819+03:00,2025-04-20T21:57:49.637+03:00,29,3.385239,0,0,23.86625,0,0,2025-04-20T22:29:16.978+03:00,766870157.0812269,0,0.7299995,99.72822,1,0.95,2025-04-20T22:21:30.043+03:00,95,1.583333333333333,2025-04-19T12:19:17.059+03:00,0.05691595998002078,0
2025-04-20T22:29:17.245+03:00,1745177355.696831,40.98571032071658,29.13751301048976,128.3675,-1,-1,-1,-1,30.05240832,23.80645510177979,-9999,9339.965281541667,0.5413055419921875,-0.53369140625,-0.082061767578125,9339.955205541668,1.777420952676513,0.6826514865272708,0.641214087107976,0.938499927520752,-0.3249915242195129,-2.334681749343872,-0.0002973675727844238,0.1250090003013611,0.4990435838699341,XArbitraryZVertical,-0.05939278350003264,0.430789846625632,0.7607075741225526,0.4818883699856505,0.5055463314056396,-0.5981687903404236,-0.6217852234840393,0,0,0,-1,-1,9334.544369125,unknown,2,2025-04-20T22:29:11.819+03:00,2025-04-20T21:57:49.637+03:00,29,3.385239,0,0,23.86625,0,0,2025-04-20T22:29:16.978+03:00,766870157.0812269,0,0.7299995,99.72822,1,0.95,2025-04-20T22:21:30.043+03:00,95,1.583333333333333,2025-04-19T12:19:17.059+03:00,0.05691595998002078,0
2025-04-20T22:29:17.256+03:00,1745177355.696831,40.98571032071658,29.13751301048976,128.3675,-1,-1,-1,-1,30.05240832,23.80645510177979,-9999,9339.975357541667,0.4818267822265625,-0.4897308349609375,-0.131622314453125,9339.965281541667,1.746808461275624,0.6968538168742898,0.6349785944739397,1.207651734352112,-0.46246337890625,-2.221129655838013,0.02712875604629517,0.09239733219146729,0.5359703898429871,XArbitraryZVertical,-0.06018270665759136,0.4332233086225963,0.7529044282805063,0.4917626428186334,0.5167097449302673,-0.5931602716445923,-0.6173912286758423,0,0,0,-1,-1,9334.544369125,unknown,2,2025-04-20T22:29:11.819+03:00,2025-04-20T21:57:49.637+03:00,29,3.385239,0,0,23.86625,0,0,2025-04-20T22:29:16.978+03:00,766870157.0812269,0,0.7299995,99.72822,1,0.95,2025-04-20T22:21:30.043+03:00,95,1.583333333333333,2025-04-19T12:19:17.059+03:00,0.05691595998002078,0
2025-04-20T22:29:17.265+03:00,1745177355.696831,40.98571032071658,29.13751301048976,128.3675,-1,-1,-1,-1,30.05240832,23.80645510177979,-9999,9339.985433541668,0.4172210693359375,-0.482421875,-0.200958251953125,9339.975357541667,1.715592014464035,0.7101059093304868,0.6310498856364359,1.401868104934692,-0.5847330689430237,-2.077649116516113,0.01494449377059937,0.05630135536193848,0.5301904082298279,XArbitraryZVertical,-0.05965557031508867,0.4362512478254709,0.7447763497005048,0.5014322546371643,0.5263609886169434,-0.5899927616119385,-0.6122521162033081,0,0,0,-1,-1,9334.544369125,unknown,2,2025-04-20T22:29:11.819+03:00,2025-04-20T21:57:49.637+03:00,29,3.385239,0,0,23.86625,0,0,2025-04-20T22:29:16.978+03:00,766870157.0812269,0,0.7299995,99.72822,1,0.95,2025-04-20T22:21:30.043+03:00,95,1.583333333333333,2025-04-19T12:19:17.059+03:00,0.05691595998002078,0
2025-04-20T22:29:17.275+03:00,1745177355.696831,40.98571032071658,29.13751301048976,128.3675,-1,-1,-1,-1,30.05240832,23.80645510177979,-9999,9339.995509541668,0.3892974853515625,-0.5396728515625,-0.23699951171875,9339.985433541668,1.685222319681706,0.7216629559067241,0.6285943369729748,1.402963280677795,-0.6710314154624939,-1.929620623588562,-0.05253022909164429,0.0982775092124939,0.4755915999412537,XArbitraryZVertical,-0.05811001631959292,0.4393361949326153,0.7367491434974909,0.510693100142251,0.534356951713562,-0.5880083441734314,-0.6072138547897339,0,0,0,-1,-1,9334.544369125,unknown,2,2025-04-20T22:29:11.819+03:00,2025-04-20T21:57:49.637+03:00,29,3.385239,0,0,23.86625,0,0,2025-04-20T22:29:16.978+03:00,766870157.0812269,0,0.7299995,99.72822,1,0.95,2025-04-20T22:21:30.043+03:00,95,1.583333333333333,2025-04-19T12:19:17.059+03:00,0.05691595998002078,0
2025-04-20T22:29:17.285+03:00,1745177355.696831,40.98571032071658,29.13751301048976,128.3675,-1,-1,-1,-1,30.05240832,23.80645510177979,-9999,9340.005586541667,0.3821563720703125,-0.593658447265625,-0.2687835693359375,9339.995509541668,1.656655223095627,0.7312824708647612,0.6262901959707184,1.306396484375,-0.7464824914932251,-1.801885843276978,-0.1238556504249573,0.1037212610244751,0.402094304561615,XArbitraryZVertical,-0.05612212033603953,0.4419548332061345,0.729101738981611,0.5195543888339721,0.5410766005516052,-0.5861430764198303,-0.6030524373054504,0,0,0,-1,-1,9334.544369125,unknown,2,2025-04-20T22:29:11.819+03:00,2025-04-20T21:57:49.637+03:00,29,3.385239,0,0,23.86625,0,0,2025-04-20T22:29:16.978+03:00,766870157.0812269,0,0.7299995,99.72822,1,0.95,2025-04-20T22:21:30.043+03:00,95,1.583333333333333,2025-04-19T12:19:17.059+03:00,0.05691595998002078,0
2025-04-20T22:29:17.295+03:00,1745177355.696831,40.98571032071658,29.13751301048976,128.3675,-1,-1,-1,-1,30.05240832,23.80645510177979,-9999,9340.015662541668,0.386077880859375,-0.6029052734375,-0.3158721923828125,9340.005586541667,1.630129397181837,0.7390635677828631,0.624204544254249,1.246294498443604,-0.7770370244979858,-1.637279272079468,-0.1572774648666382,0.04477912187576294,0.3627268671989441,XArbitraryZVertical,-0.05378380147555462,0.4441217640970254,0.7219178915586901,0.5279181731410006,0.5465748906135559,-0.5844519734382629,-0.5997263193130493,0,0,0,-1,-1,9334.544369125,unknown,2,2025-04-20T22:29:11.819+03:00,2025-04-20T21:57:49.637+03:00,29,3.385239,0,0,23.86625,0,0,2025-04-20T22:29:16.978+03:00,766870157.0812269,0,0.7299995,99.72822,1,0.95,2025-04-20T22:21:30.043+03:00,95,1.583333333333333,2025-04-19T12:19:17.059+03:00,0.05691595998002078,0
2025-04-20T22:29:17.305+03:00,1745177355.696831,40.98571032071658,29.13751301048976,128.3675,-1,-1,-1,-1,30.05240832,23.80645510177979,-9999,9340.025738541668,0.383270263671875,-0.6083984375,-0.356597900390625,9340.015662541668,1.605887913871245,0.7454752488463313,0.6226121092792686,1.158136606216431,-0.758108913898468,-1.466471314430237,-0.1688831448554993,-0.01049935817718506,0.3281091451644897,XArbitraryZVertical,-0.05124454549521765,0.4460130910224177,0.7152793392325292,0.5355573182067257,0.551039457321167,-0.5831590890884399,-0.5968926548957825,0,0,0,-1,-1,9334.544369125,unknown,2,2025-04-20T22:29:11.819+03:00,2025-04-20T21:57:49.637+03:00,29,3.385239,0,0,23.86625,0,0,2025-04-20T22:29:16.978+03:00,766870157.0812269,0,0.7299995,99.72822,1,0.95,2025-04-20T22:21:30.043+03:00,95,1.583333333333333,2025-04-19T12:19:17.059+03:00,0.05691595998002078,0
2025-04-20T22:29:17.315+03:00,1745177355.696831,40.98571032071658,29.13751301048976,128.3675,-1,-1,-1,-1,30.05240832,23.80645510177979,-9999,9340.035814541667,0.373260498046875,-0.6239166259765625,-0.3866729736328125,9340.025738541668,1.583493939167852,0.7510316333954411,0.6211868703630206,1.10696542263031,-0.7204950451850891,-1.377826809883118,-0.1688362956047058,-0.02090460062026978,0.2785564661026001,XArbitraryZVertical,-0.0487180345469882,0.4476742827217974,0.7090762917242271,0.5426093415708172,0.554914116859436,-0.582000732421875,-0.5944285988807678,0,0,0,-1,-1,9334.544369125,unknown,2,2025-04-20T22:29:11.819+03:00,2025-04-20T21:57:49.637+03:00,29,3.385239,0,0,23.86625,0,0,2025-04-20T22:29:16.978+03:00,766870157.0812269,0,0.7299995,99.72822,1,0.95,2025-04-20T22:21:30.043+03:00,95,1.583333333333333,2025-04-19T12:19:17.059+03:00,0.05691595998002078,0
2025-04-20T22:29:17.326+03:00,1745177355.696831,40.98571032071658,29.13751301048976,128.3675,-1,-1,-1,-1,30.05240832,23.80645510177979,-9999,9340.045890541667,0.3590087890625,-0.6045989990234375,-0.4556884765625,9340.035814541667,1.561863589829062,0.7565492286095187,0.6201364084199215,1.136993646621704,-0.7043456435203552,-1.323970556259155,-0.175334632396698,-0.02725225687026978,0.23520427942276,XArbitraryZVertical,-0.04618513644122663,0.4494061834522627,0.7030165399424245,0.5492436435446636,0.5586048364639282,-0.5811461806297302,-0.5918020606040955,0,0,0,-1,-1,9334.544369125,unknown,2,2025-04-20T22:29:11.819+03:00,2025-04-20T21:57:49.637+03:00,29,3.385239,0,0,23.86625,0,0,2025-04-20T22:29:16.978+03:00,766870157.0812269,0,0.7299995,99.72822,1,0.95,2025-04-20T22:21:30.043+03:00,95,1.583333333333333,2025-04-19T12:19:17.059+03:00,0.05691595998002078,0
2025-04-20T22:29:17.336+03:00,1745177355.696831,40.98571032071658,29.13751301048976,128.3675,-1,-1,-1,-1,30.05240832,23.80645510177979,-9999,9340.055966541668,0.36651611328125,-0.5765228271484375,-0.5486602783203125,9340.045890541667,1.540189176624903,0.7625967748145195,0.6197837733300764,1.246330857276917,-0.596991240978241,-1.254430770874023,-0.1890546083450317,-0.04305750131607056,0.2018882632255554,XArbitraryZVertical,-0.04354547720102724,0.4514678325448757,0.6968849025227455,0.5555464233358048,0.562315046787262,-0.5808591842651367,-0.5885611772537231,0,0,0,-1,-1,9334.544369125,unknown,2,2025-04-20T22:29:11.819+03:00,2025-04-20T21:57:49.637+03:00,29,3.385239,0,0,23.86625,0,0,2025-04-20T22:29:16.978+03:00,766870157.0812269,0,0.7299995,99.72822,1,0.95,2025-04-20T22:21:30.043+03:00,95,1.583333333333333,2025-04-19T12:19:17.059+03:00,0.05691595998002078,0
2025-04-20T22:29:17.346+03:00,1745177355.696831,40.98571032071658,29.13751301048976,128.3675,-1,-1,-1,-1,30.05240832,23.80645510177979,-9999,9340.066042541668,0.3962554931640625,-0.56329345703125,-0.6589202880859375,9340.055966541668,1.517388384613058,0.7701505852006649,0.6213060174857732,1.516631364822388,-0.5535505414009094,-1.199735760688782,-0.207119882106781,-0.02250140905380249,0.1279730796813965,XArbitraryZVertical,-0.04045597504085316,0.4544585503865014,0.6904057743108929,0.5614005162073231,0.5661286115646362,-0.582097589969635,-0.5836614966392517,0,0,0,-1,-1,9334.544369125,unknown,2,2025-04-20T22:29:11.819+03:00,2025-04-20T21:57:49.637+03:00,29,3.385239,0,0,23.86625,0,0,2025-04-20T22:29:16.978+03:00,766870157.0812269,0,0.7299995,99.72822,1,0.95,2025-04-20T22:21:30.043+03:00,95,1.583333333333333,2025-04-19T12:19:17.059+03:00,0.05691595998002078,0
2025-04-20T22:29:17.357+03:00,1745177355.696831,40.98571032071658,29.13751301048976,128.3675,-1,-1,-1,-1,30.05240832,23.80645510177979,-9999,9340.076118541667,0.404388427734375,-0.56170654296875,-0.7469940185546875,9340.066042541668,1.49324127564535,0.7786493853305301,0.6240450660773847,1.568365573883057,-0.5560110211372375,-1.205167531967163,-0.2034305334091187,0.007799744606018066,0.02903163433074951,XArbitraryZVertical,-0.03687727244579146,0.4580328862456256,0.6835223566068289,0.5671358367262216,0.5699465870857239,-0.5843225717544556,-0.577691912651062,0,0,0,-1,-1,9334.544369125,unknown,2,2025-04-20T22:29:11.819+03:00,2025-04-20T21:57:49.637+03:00,29,3.385239,0,0,23.86625,0,0,2025-04-20T22:29:16.978+03:00,766870157.0812269,0,0.7299995,99.72822,1,0.95,2025-04-20T22:21:30.043+03:00,95,1.583333333333333,2025-04-19T12:19:17.059+03:00,0.05691595998002078,0
2025-04-20T22:29:17.366+03:00,1745177355.696831,40.98571032071658,29.13751301048976,128.3675,-1,-1,-1,-1,30.05240832,23.80645510177979,-9999,9340.086195541668,0.3944854736328125,-0.5654144287109375,-0.9019622802734375,9340.076118541667,1.468564218534413,0.7879468144137973,0.6269912329824003,1.680532574653625,-0.4374518692493439,-1.153161644935608,-0.1778146028518677,0.02341747283935547,-0.08776891231536865,XArbitraryZVertical,-0.03329022379548555,0.4618615779701117,0.6764393775883629,0.57271751123616,0.5740700364112854,-0.5867109298706055,-0.5711513161659241,0,0,0,-1,-1,9334.544369125,unknown,2,2025-04-20T22:29:11.819+03:00,2025-04-20T21:57:49.637+03:00,29,3.385239,0,0,23.86625,0,0,2025-04-20T22:29:16.978+03:00,766870157.0812269,0,0.7299995,99.72822,1,0.95,2025-04-20T22:21:30.043+03:00,95,1.583333333333333,2025-04-19T12:19:17.059+03:00,0.05691595998002078,0
2025-04-20T22:29:17.376+03:00,1745177355.696831,40.98571032071658,29.13751301048976,128.3675,-1,-1,-1,-1,30.05240832,23.80645510177979,-9999,9340.096271541668,0.4133453369140625,-0.43072509765625,-1.276748657226562,9340.086195541668,1.443566642666516,0.7998126701669085,0.6331554491537545,2.107399702072144,-0.1298563778400421,-0.7801955938339233,-0.1738133430480957,0.02998495101928711,-0.1852254867553711,XArbitraryZVertical,-0.02921326372628302,0.4671855394946122,0.6693286249283107,0.5769605096740936,0.5782017707824707,-0.5916914939880371,-0.5617685317993164,0,0,0,-1,-1,9334.544369125,unknown,2,2025-04-20T22:29:11.819+03:00,2025-04-20T21:57:49.637+03:00,29,3.385239,0,0,23.86625,0,0,2025-04-20T22:29:16.978+03:00,766870157.0812269,0,0.7299995,99.72822,1,0.95,2025-04-20T22:21:30.043+03:00,95,1.583333333333333,2025-04-19T12:19:17.059+03:00,0.05691595998002078,0
2025-04-20T22:29:17.386+03:00,1745177355.696831,40.98571032071658,29.13751301048976,128.3675,-1,-1,-1,-1,30.05240832,23.80645510177979,-9999,9340.106347541667,0.4177093505859375,-0.1108245849609375,-1.4342041015625,9340.096271541668,1.414700155012696,0.8162209384317248,0.6452574391846139,2.877554416656494,-0.04212972894310951,-0.6781339049339294,-0.1875958442687988,0.03598970174789429,-0.3547013998031616,XArbitraryZVertical,-0.02339092477275596,0.4752077957794194,0.6613241699627935,0.579897209898721,0.5820813179016113,-0.6014041304588318,-0.5472608208656311,0,0,0,-1,-1,9334.544369125,unknown,2,2025-04-20T22:29:11.819+03:00,2025-04-20T21:57:49.637+03:00,29,3.385239,0,0,23.86625,0,0,2025-04-20T22:29:16.978+03:00,766870157.0812269,0,0.7299995,99.72822,1,0.95,2025-04-20T22:21:30.043+03:00,95,1.583333333333333,2025-04-19T12:19:17.059+03:00,0.05691595998002078,0
2025-04-20T22:29:17.396+03:00,1745177355.696831,40.98571032071658,29.13751301048976,128.3675,-1,-1,-1,-1,30.05240832,23.80645510177979,-9999,9340.116423541667,0.4305419921875,0.02825927734375,-0.98638916015625,9340.106347541667,1.381295476993366,0.837342542131682,0.6621331338758579,3.152296304702759,0.2102485150098801,-0.4120543897151947,-0.1725407242774963,0.1840755343437195,-0.748773455619812,XArbitraryZVertical,-0.01600143219386348,0.4855475210729877,0.6522747887694749,0.5818291231433012,0.5858860611915588,-0.6148006319999695,-0.5279751420021057,0,0,0,-1,-1,9334.544369125,unknown,2,2025-04-20T22:29:11.819+03:00,2025-04-20T21:57:49.637+03:00,29,3.385239,0,0,23.86625,0,0,2025-04-20T22:29:16.978+03:00,766870157.0812269,0,0.7299995,99.72822,1,0.95,2025-04-20T22:21:30.043+03:00,95,1.583333333333333,2025-04-19T12:19:17.059+03:00,0.05691595998002078,0
2025-04-20T22:29:17.406+03:00,1745177355.696831,40.98571032071658,29.13751301048976,128.3675,-1,-1,-1,-1,30.05240832,23.80645510177979,-9999,9340.126499541668,0.4712066650390625,-0.4057769775390625,-0.421783447265625,9340.116423541667,1.350798427843236,0.8591902411744752,0.6778288105174824,2.329218149185181,0.3649901747703552,-0.4330619275569916,-0.1721898913383484,0.5162786841392517,-0.9255191087722778,XArbitraryZVertical,-0.009692257049345692,0.4955437293538114,0.6441377124098201,0.5826054159039943,0.5898992419242859,-0.6271032691001892,-0.5086849331855774,0,0,0,-1,-1,9334.544369125,unknown,2,2025-04-20T22:29:11.819+03:00,2025-04-20T21:57:49.637+03:00,29,3.385239,0,0,23.86625,0,0,2025-04-20T22:29:16.978+03:00,766870157.0812269,0,0.7299995,99.72822,1,0.95,2025-04-20T22:21:30.043+03:00,95,1.583333333333333,2025-04-19T12:19:17.059+03:00,0.05691595998002078,0
2025-04-20T22:29:17.416+03:00,1745177355.696831,40.98571032071658,29.13751301048976,128.3675,-1,-1,-1,-1,30.05240832,23.80645510177979,-9999,9340.136575541666,0.5204315185546875,-0.965118408203125,-0.2533111572265625,9340.126499541668,1.33088480180541,0.8757475147387078,0.6846579369795751,0.9525009989738464,0.4363863170146942,-0.4824594557285309,-0.1643953919410706,0.6606674194335938,-0.4902948439121246,XArbitraryZVertical,-0.00745043531968515,0.5018937895464055,0.638679384572902,0.5832114832504509,0.5949373245239258,-0.632408082485199,-0.4960942268371582,0,0,0,-1,-1,9334.544369125,unknown,2,2025-04-20T22:29:11.819+03:00,2025-04-20T21:57:49.637+03:00,29,3.385239,0,0,23.86625,0,0,2025-04-20T22:29:16.978+03:00,766870157.0812269,0,0.7299995,99.72822,1,0.95,2025-04-20T22:21:30.043+03:00,95,1.583333333333333,2025-04-19T12:19:17.059+03:00,0.05691595998002078,0
2025-04-20T22:29:17.427+03:00,1745177355.696831,40.98571032071658,29.13751301048976,128.3675,-1,-1,-1,-1,30.05240832,23.80645510177979,-9999,9340.146651541667,0.6146392822265625,-1.026123046875,-0.3823394775390625,9340.136575541666,1.322424105676578,0.8855620335747755,0.6849967422681805,0.1685662865638733,0.4062910079956055,-0.2924021482467651,-0.128404974937439,0.2268934845924377,0.06831240653991699,XArbitraryZVertical,-0.008320376452223549,0.504859263056548,0.636195084448673,0.583355475692376,0.5996115803718567,-0.6326704621315002,-0.4900957942008972,0,0,0,-1,-1,9334.544369125,unknown,2,2025-04-20T22:29:11.819+03:00,2025-04-20T21:57:49.637+03:00,29,3.385239,0,0,23.86625,0,0,2025-04-20T22:29:16.978+03:00,766870157.0812269,0,0.7299995,99.72822,1,0.95,2025-04-20T22:21:30.043+03:00,95,1.583333333333333,2025-04-19T12:19:17.059+03:00,0.05691595998002078,0
2025-04-20T22:29:17.437+03:00,1745177355.696831,40.98571032071658,29.13751301048976,128.3675,-1,-1,-1,-1,30.05240832,23.80645510177979,-9999,9340.156727541667,0.660003662109375,-0.7475433349609375,-0.5089263916015625,9340.146651541667,1.319005002716441,0.8907992042468845,0.6837042903703311,0.1878355294466019,0.2040129452943802,-0.250221312046051,-0.0823739767074585,-0.3334493041038513,0.2341515123844147,XArbitraryZVertical,-0.009611983593351544,0.5061386472625982,0.6350878047054914,0.5834334884977257,0.6028053760528564,-0.6316690444946289,-0.4874625504016876,0,0,0,-1,-1,9334.544369125,unknown,2,2025-04-20T22:29:11.819+03:00,2025-04-20T21:57:49.637+03:00,29,3.385239,0,0,23.86625,0,0,2025-04-20T22:29:16.978+03:00,766870157.0812269,0,0.7299995,99.72822,1,0.95,2025-04-20T22:21:30.043+03:00,95,1.583333333333333,2025-04-19T12:19:17.059+03:00,0.05691595998002078,0
2025-04-20T22:29:17.447+03:00,1745177355.696831,40.98571032071658,29.13751301048976,128.3675,-1,-1,-1,-1,30.05240832,23.80645510177979,-9999,9340.166803541668,0.66363525390625,-0.5694732666015625,-0.5616302490234375,9340.156727541667,1.312748419699797,0.8958273929708152,0.6847965089967466,0.700661301612854,0.0006145397201180458,-0.1767822653055191,0.009929418563842773,-0.3936076164245605,0.101654589176178,XArbitraryZVertical,-0.009204875807523653,0.5078565603463648,0.633313100372152,0.5838761255315503,0.604709804058075,-0.6325154304504395,-0.4839939773082733,0,0,0,-1,-1,9334.544369125,unknown,2,2025-04-20T22:29:11.819+03:00,2025-04-20T21:57:49.637+03:00,29,3.385239,0,0,23.86625,0,0,2025-04-20T22:29:16.978+03:00,766870157.0812269,0,0.7299995,99.72822,1,0.95,2025-04-20T22:21:30.043+03:00,95,1.583333333333333,2025-04-19T12:19:17.059+03:00,0.05691595998002078,0
2025-04-20T22:29:17.457+03:00,1745177355.696831,40.98571032071658,29.13751301048976,128.3675,-1,-1,-1,-1,30.05240832,23.80645510177979,-9999,9340.176880541667,0.6714630126953125,-0.6114044189453125,-0.512847900390625,9340.166803541668,1.302477037782923,0.901345509490408,0.6890955783697669,1.041089415550232,-0.1884610503911972,-0.1561712175607681,0.05477023124694824,-0.1117039322853088,-0.02996844053268433,XArbitraryZVertical,-0.006695448903194084,0.5103687120869783,0.6305917281689453,0.5846647497237063,0.605233371257782,-0.6358394026756287,-0.4789578914642334,0,0,0,-1,-1,9334.544369125,unknown,2,2025-04-20T22:29:11.819+03:00,2025-04-20T21:57:49.637+03:00,29,3.385239,0,0,23.86625,0,0,2025-04-20T22:29:16.978+03:00,766870157.0812269,0,0.7299995,99.72822,1,0.95,2025-04-20T22:21:30.043+03:00,95,1.583333333333333,2025-04-19T12:19:17.059+03:00,0.05691595998002078,0
2025-04-20T22:29:17.467+03:00,1745177355.696831,40.98571032071658,29.13751301048976,128.3675,-1,-1,-1,-1,30.05240832,23.80645510177979,-9999,9340.186956541667,0.691253662109375,-0.70928955078125,-0.44970703125,9340.176880541667,1.28955428488011,0.9069804832464278,0.6946458849885716,1.173489332199097,-0.3337255716323853,-0.2012777179479599,0.0585014820098877,0.0706402063369751,-0.08827200531959534,XArbitraryZVertical,-0.003040148354874355,0.5131390352077059,0.627194544601742,0.5859232104809282,0.6051336526870728,-0.6401134133338928,-0.4733581840991974,0,0,0,-1,-1,9334.544369125,unknown,2,2025-04-20T22:29:11.819+03:00,2025-04-20T21:57:49.637+03:00,29,3.385239,0,0,23.86625,0,0,2025-04-20T22:29:16.978+03:00,766870157.0812269,0,0.7299995,99.72822,1,0.95,2025-04-20T22:21:30.043+03:00,95,1.583333333333333,2025-04-19T12:19:17.059+03:00,0.05691595998002078,0
2025-04-20T22:29:17.477+03:00,1745177355.696831,40.98571032071658,29.13751301048976,128.3675,-1,-1,-1,-1,30.05240832,23.80645510177979,-9999,9340.197032541668,0.7251739501953125,-0.66973876953125,-0.4206695556640625,9340.186956541667,1.27537912150118,0.9117904378102516,0.7003349730715818,1.215849757194519,-0.5214380621910095,-0.2226923853158951,0.06694835424423218,0.03306949138641357,-0.04464331269264221,XArbitraryZVertical,0.001281769067872744,0.5156511383432979,0.6234517608692092,0.5877159450471157,0.6045145392417908,-0.6444738507270813,-0.468204528093338,0,0,0,-1,-1,9334.544369125,unknown,2,2025-04-20T22:29:11.819+03:00,2025-04-20T21:57:49.637+03:00,29,3.385239,0,0,23.86625,0,0,2025-04-20T22:29:16.978+03:00,766870157.0812269,0,0.7299995,99.72822,1,0.95,2025-04-20T22:21:30.043+03:00,95,1.583333333333333,2025-04-19T12:19:17.059+03:00,0.05691595998002078,0
2025-04-20T22:29:17.487+03:00,1745177355.696831,40.98571032071658,29.13751301048976,128.3675,-1,-1,-1,-1,30.05240832,23.80645510177979,-9999,9340.207108541666,0.7286529541015625,-0.6388397216796875,-0.4347991943359375,9340.197032541668,1.261124042084761,0.9150635463252741,0.7056618854015708,1.121292948722839,-0.6633014678955078,-0.2567398548126221,0.08793944120407104,-0.06075173616409302,0.01441657543182373,XArbitraryZVertical,0.005994440767147745,0.5175928000188119,0.619661377985292,0.5899842872910788,0.603314220905304,-0.648537814617157,-0.4641235172748566,0,0,0,-1,-1,9334.544369125,unknown,2,2025-04-20T22:29:11.819+03:00,2025-04-20T21:57:49.637+03:00,29,3.385239,0,0,23.86625,0,0,2025-04-20T22:29:16.978+03:00,766870157.0812269,0,0.7299995,99.72822,1,0.95,2025-04-20T22:21:30.043+03:00,95,1.583333333333333,2025-04-19T12:19:17.059+03:00,0.05691595998002078,0
2025-04-20T22:29:17.497+03:00,1745177355.696831,40.98571032071658,29.13751301048976,128.3675,-1,-1,-1,-1,30.05240832,23.80645510177979,-9999,9340.217184541667,0.68170166015625,-0.66229248046875,-0.478912353515625,9340.207108541666,1.248267010959489,0.9166148878473058,0.7099382786240767,0.9424484968185425,-0.6708047389984131,-0.2664368152618408,0.1233468055725098,-0.01795178651809692,0.04082566499710083,XArbitraryZVertical,0.01049511907417319,0.5187892531112823,0.6161946542962584,0.5924960739657539,0.6018271446228027,-0.6517869830131531,-0.4614951312541962,0,0,0,-1,-1,9334.544369125,unknown,2,2025-04-20T22:29:11.819+03:00,2025-04-20T21:57:49.637+03:00,29,3.385239,0,0,23.86625,0,0,2025-04-20T22:29:16.978+03:00,766870157.0812269,0,0.7299995,99.72822,1,0.95,2025-04-20T22:21:30.043+03:00,95,1.583333333333333,2025-04-19T12:19:17.059+03:00,0.05691595998002078,0
2025-04-20T22:29:17.507+03:00,1745177355.696831,40.98571032071658,29.13751301048976,128.3675,-1,-1,-1,-1,30.05240832,23.80645510177979,-9999,9340.227260541667,0.5990447998046875,-0.7046661376953125,-0.5195770263671875,9340.217184541667,1.237848752510333,0.9173758564133332,0.7127868666630407,0.6448479294776917,-0.5016822814941406,-0.2280231416225433,0.1279513835906982,0.01510494947433472,0.02510738372802734,XArbitraryZVertical,0.01406663595026126,0.5194698025020255,0.6133283858098232,0.5947953587413979,0.6007015109062195,-0.6539446711540222,-0.4599065184593201,0,0,0,-1,-1,9334.544369125,unknown,2,2025-04-20T22:29:11.819+03:00,2025-04-20T21:57:49.637+03:00,29,3.385239,0,0,23.86625,0,0,2025-04-20T22:29:16.978+03:00,766870157.0812269,0,0.7299995,99.72822,1,0.95,2025-04-20T22:21:30.043+03:00,95,1.583333333333333,2025-04-19T12:19:17.059+03:00,0.05691595998002078,0
2025-04-20T22:29:17.517+03:00,1745177355.696831,40.98571032071658,29.13751301048976,128.3675,-1,-1,-1,-1,30.05240832,23.80645510177979,-9999,9340.237336541668,0.531158447265625,-0.7263031005859375,-0.523468017578125,9340.227260541667,1.230662729766763,0.9179647381806338,0.714066313310167,0.3643786907196045,-0.3013111650943756,-0.2318061888217926,0.08139455318450928,-0.007380366325378418,-0.01986825466156006,XArbitraryZVertical,0.01624898936149567,0.519821073345741,0.6112932657220628,0.5965253300377373,0.6003071069717407,-0.6549121141433716,-0.4590440392494202,0,0,0,-1,-1,9334.544369125,unknown,2,2025-04-20T22:29:11.819+03:00,2025-04-20T21:57:49.637+03:00,29,3.385239,0,0,23.86625,0,0,2025-04-20T22:29:16.978+03:00,766870157.0812269,0,0.7299995,99.72822,1,0.95,2025-04-20T22:21:30.043+03:00,95,1.583333333333333,2025-04-19T12:19:17.059+03:00,0.05691595998002078,0
2025-04-20T22:29:17.528+03:00,1745177355.696831,40.98571032071658,29.13751301048976,128.3675,-1,-1,-1,-1,30.05240832,23.80645510177979,-9999,9340.247413541667,0.5117950439453125,-0.7229156494140625,-0.5357513427734375,9340.237336541668,1.225684664060468,0.9191210855510047,0.7137139273411272,0.1896279007196426,-0.1726469248533249,-0.2780005633831024,-0.001976191997528076,-0.05002039670944214,-0.06108742952346802,XArbitraryZVertical,0.01705351915608922,0.5200619059923494,0.6097884599359824,0.5978318129817016,0.6010210514068604,-0.6546457409858704,-0.4584895968437195,0,0,0,-1,-1,9334.544369125,unknown,2,2025-04-20T22:29:11.819+03:00,2025-04-20T21:57:49.637+03:00,29,3.385239,0,0,23.86625,0,0,2025-04-20T22:29:16.978+03:00,766870157.0812269,0,0.7299995,99.72822,1,0.95,2025-04-20T22:21:30.043+03:00,95,1.583333333333333,2025-04-19T12:19:17.059+03:00,0.05691595998002078,0
2025-04-20T22:29:17.537+03:00,1745177355.696831,40.98571032071658,29.13751301048976,128.3675,-1,-1,-1,-1,30.05240832,23.80645510177979,-9999,9340.257489541667,0.5511932373046875,-0.695220947265625,-0.5494842529296875,9340.247413541667,1.221582483124415,0.9203139202591133,0.7120950146550773,0.1246943026781082,-0.1233032196760178,-0.3393478989601135,-0.07125163078308105,-0.07288199663162231,-0.06505447626113892,XArbitraryZVertical,0.0171284539993159,0.5200960286206318,0.6084408688260555,0.5991714013859436,0.6024100184440613,-0.6534211039543152,-0.4584134817123413,0,0,0,-1,-1,9334.544369125,unknown,2,2025-04-20T22:29:11.819+03:00,2025-04-20T21:57:49.637+03:00,29,3.385239,0,0,23.86625,0,0,2025-04-20T22:29:16.978+03:00,766870157.0812269,0,0.7299995,99.72822,1,0.95,2025-04-20T22:21:30.043+03:00,95,1.583333333333333,2025-04-19T12:19:17.059+03:00,0.05691595998002078,0
2025-04-20T22:29:17.547+03:00,1745177355.696831,40.98571032071658,29.13751301048976,128.3675,-1,-1,-1,-1,30.05240832,23.80645510177979,-9999,9340.267565541668,0.5982208251953125,-0.670654296875,-0.53094482421875,9340.257489541667,1.217373419593562,0.9218075236658608,0.710100367099741,0.1346374750137329,-0.1617307662963867,-0.3469277918338776,-0.09233623743057251,-0.07100582122802734,-0.07745128870010376,XArbitraryZVertical,0.01699428486411139,0.5201549425510852,0.6070286223393269,0.6005550137583874,0.604131281375885,-0.6519098877906799,-0.4583000540733337,0,0,0,-1,-1,9334.544369125,unknown,2,2025-04-20T22:29:11.819+03:00,2025-04-20T21:57:49.637+03:00,29,3.385239,0,0,23.86625,0,0,2025-04-20T22:29:16.978+03:00,766870157.0812269,0,0.7299995,99.72822,1,0.95,2025-04-20T22:21:30.043+03:00,95,1.583333333333333,2025-04-19T12:19:17.059+03:00,0.05691595998002078,0
2025-04-20T22:29:17.558+03:00,1745177355.696831,40.98571032071658,29.13751301048976,128.3675,-1,-1,-1,-1,30.05240832,23.80645510177979,-9999,9340.277641541667,0.6072540283203125,-0.660430908203125,-0.4854736328125,9340.267565541668,1.213397491020261,0.9226638441531817,0.7083194928375515,0.127511128783226,-0.1427285671234131,-0.3331436514854431,-0.05425482988357544,-0.04466253519058228,-0.09100145101547241,XArbitraryZVertical,0.0170761301972997,0.5200644724513097,0.6056936886278168,0.6019771783719839,0.6054480671882629,-0.6505584120750427,-0.4584827125072479,0,0,0,-1,-1,9334.544369125,unknown,2,2025-04-20T22:29:11.819+03:00,2025-04-20T21:57:49.637+03:00,29,3.385239,0,0,23.86625,0,0,2025-04-20T22:29:16.978+03:00,766870157.0812269,0,0.7299995,99.72822,1,0.95,2025-04-20T22:21:30.043+03:00,95,1.583333333333333,2025-04-19T12:19:17.059+03:00,0.05691595998002078,0
2025-04-20T22:29:17.568+03:00,1745177355.696831,40.98571032071658,29.13751301048976,128.3675,-1,-1,-1,-1,30.05240832,23.80645510177979,-9999,9340.287717541667,0.580322265625,-0.66058349609375,-0.45867919921875,9340.277641541667,1.209204341208722,0.9239487464125605,0.7059810239490557,0.08751018345355988,-0.1947451680898666,-0.3690933883190155,-0.009028136730194092,-0.0218735933303833,-0.07232481241226196,XArbitraryZVertical,0.01686766224082512,0.5200053020287739,0.6042455995487238,0.6034874742872637,0.6072489619255066,-0.6487807035446167,-0.4586199223995209,0,0,0,-1,-1,9334.544369125,unknown,2,2025-04-20T22:29:11.819+03:00,2025-04-20T21:57:49.637+03:00,29,3.385239,0,0,23.86625,0,0,2025-04-20T22:29:16.978+03:00,766870157.0812269,0,0.7299995,99.72822,1,0.95,2025-04-20T22:21:30.043+03:00,95,1.583333333333333,2025-04-19T12:19:17.059+03:00,0.05691595998002078,0
2025-04-20T22:29:17.578+03:00,1745177355.696831,40.98571032071658,29.13751301048976,128.3675,-1,-1,-1,-1,30.05240832,23.80645510177979,-9999,9340.297793541667,0.5632476806640625,-0.631256103515625,-0.469482421875,9340.287717541667,1.205837511023121,0.9244751919005703,0.7036584868437411,0.04425885155797005,-0.1322013586759567,-0.3209151029586792,-0.001437544822692871,-0.01341933012008667,-0.02626711130142212,XArbitraryZVertical,0.01667933218120001,0.5197293501955709,0.6030365732723232,0.6049379508966473,0.6086915135383606,-0.6470115184783936,-0.4592064023017883,0,0,0,-1,-1,9334.544369125,unknown,2,2025-04-20T22:29:11.819+03:00,2025-04-20T21:57:49.637+03:00,29,3.385239,0,0,23.86625,0,0,2025-04-20T22:29:16.978+03:00,766870157.0812269,0,0.7299995,99.72822,1,0.95,2025-04-20T22:21:30.043+03:00,95,1.583333333333333,2025-04-19T12:19:17.059+03:00,0.05691595998002078,0
2025-04-20T22:29:17.588+03:00,1745177355.696831,40.98571032071658,29.13751301048976,128.3675,-1,-1,-1,-1,30.05240832,23.80645510177979,-9999,9340.307869541668,0.5319671630859375,-0.6202239990234375,-0.4999237060546875,9340.297793541667,1.203146675878933,0.9254293588442565,0.7012549074139578,-0.004683124832808971,-0.05910877883434296,-0.2987243235111237,-0.03004777431488037,-0.01540648937225342,0.0008804202079772949,XArbitraryZVertical,0.0161543314087609,0.5195760592178855,0.6020244656200877,0.6060909166642063,0.6103700399398804,-0.6451770067214966,-0.4595595002174377,0,0,0,-1,-1,9334.544369125,unknown,2,2025-04-20T22:29:11.819+03:00,2025-04-20T21:57:49.637+03:00,29,3.385239,0,0,23.86625,0,0,2025-04-20T22:29:16.978+03:00,766870157.0812269,0,0.7299995,99.72822,1,0.95,2025-04-20T22:21:30.043+03:00,95,1.583333333333333,2025-04-19T12:19:17.059+03:00,0.05691595998002078,0
2025-04-20T22:29:17.600+03:00,1745177355.696831,40.98571032071658,29.13751301048976,128.3675,-1,-1,-1,-1,30.05240832,23.80645510177979,-9999,9340.317945541667,0.528961181640625,-0.5963134765625,-0.5091552734375,9340.307869541668,1.200915413852286,0.926954031531007,0.6986928508984361,-0.0296507254242897,0.0194670557975769,-0.2880187630653381,-0.04914242029190063,0.01196128129959106,-0.00986325740814209,XArbitraryZVertical,0.01527644571656593,0.5195739531826031,0.6011386333482595,0.606994010317213,0.6123900413513184,-0.6432173848152161,-0.4596190750598907,0,0,0,-1,-1,9334.544369125,unknown,2,2025-04-20T22:29:11.819+03:00,2025-04-20T21:57:49.637+03:00,29,3.385239,0,0,23.86625,0,0,2025-04-20T22:29:16.978+03:00,766870157.0812269,0,0.7299995,99.72822,1,0.95,2025-04-20T22:21:30.043+03:00,95,1.583333333333333,2025-04-19T12:19:17.059+03:00,0.05691595998002078,0
2025-04-20T22:29:17.611+03:00,1745177355.696831,40.98571032071658,29.13751301048976,128.3675,-1,-1,-1,-1,30.05240832,23.80645510177979,-9999,9340.328022541667,0.5410308837890625,-0.5721588134765625,-0.5081634521484375,9340.317945541667,1.199067341295469,0.9286895945711234,0.6963112382816455,-0.01557352300733328,0.08784371614456177,-0.2585226595401764,-0.08244478702545166,0.02116799354553223,-0.04045194387435913,XArbitraryZVertical,0.01430647043013353,0.5196724562806724,0.6003824413908084,0.6076814743014798,0.6144119501113892,-0.6413919925689697,-0.459471732378006,0,0,0,-1,-1,9334.544369125,unknown,2,2025-04-20T22:29:11.819+03:00,2025-04-20T21:57:49.637+03:00,29,3.385239,0,0,23.86625,0,0,2025-04-20T22:29:16.978+03:00,766870157.0812269,0,0.7299995,99.72822,1,0.95,2025-04-20T22:21:30.043+03:00,95,1.583333333333333,2025-04-19T12:19:17.059+03:00,0.05691595998002078,0
2025-04-20T22:29:17.619+03:00,1745177355.696831,40.98571032071658,29.13751301048976,128.3675,-1,-1,-1,-1,30.05240832,23.80645510177979,-9999,9340.338098541668,0.5508880615234375,-0.577606201171875,-0.5012664794921875,9340.328022541667,1.197097880764615,0.9309580159986164,0.6944917533995889,0.03498818725347519,0.06763911247253418,-0.1952508836984634,-0.08742660284042358,0.0436815619468689,-0.05038240551948547,XArbitraryZVertical,0.01342803867873174,0.5200320256572714,0.5996391025946602,0.6081275968201418,0.6163877248764038,-0.6399949789047241,-0.458772748708725,0,0,0,-1,-1,9334.544369125,unknown,2,2025-04-20T22:29:11.819+03:00,2025-04-20T21:57:49.637+03:00,29,3.385239,0,0,23.86625,0,0,2025-04-20T22:29:16.978+03:00,766870157.0812269,0,0.7299995,99.72822,1,0.95,2025-04-20T22:21:30.043+03:00,95,1.583333333333333,2025-04-19T12:19:17.059+03:00,0.05691595998002078,0
2025-04-20T22:29:17.628+03:00,1745177355.696831,40.98571032071658,29.13751301048976,128.3675,-1,-1,-1,-1,30.05240832,23.80645510177979,-9999,9340.348174541667,0.56719970703125,-0.6035308837890625,-0.488494873046875,9340.338098541668,1.195006121921518,0.93338152890485,0.6932854609466639,0.07082714885473251,0.1070416420698166,-0.1873894929885864,-0.0770869255065918,0.06690889596939087,-0.05042669177055359,XArbitraryZVertical,0.01277536718856715,0.5205462877589911,0.5989112856538589,0.608418832096953,0.6181176900863647,-0.6390676498413086,-0.4577367007732391,0,0,0,-1,-1,9334.544369125,unknown,2,2025-04-20T22:29:11.819+03:00,2025-04-20T21:57:49.637+03:00,29,3.385239,0,0,23.86625,0,0,2025-04-20T22:29:16.978+03:00,766870157.0812269,0,0.7299995,99.72822,1,0.95,2025-04-20T22:21:30.043+03:00,95,1.583333333333333,2025-04-19T12:19:17.059+03:00,0.05691595998002078,0
2025-04-20T22:29:17.638+03:00,1745177355.696831,40.98571032071658,29.13751301048976,128.3675,-1,-1,-1,-1,30.05240832,23.80645510177979,-9999,9340.358250541667,0.585205078125,-0.6327972412109375,-0.4661102294921875,9340.348174541667,1.192998311630862,0.9355565203193742,0.6923922104046952,0.06687621027231216,0.1169585883617401,-0.1594192981719971,-0.06868308782577515,0.06077420711517334,-0.04453662037849426,XArbitraryZVertical,0.01229866200995976,0.5210411318512331,0.5982336212674537,0.6086717227059303,0.6195710897445679,-0.6383803486824036,-0.4567297697067261,0,0,0,-1,-1,9334.544369125,unknown,2,2025-04-20T22:29:11.819+03:00,2025-04-20T21:57:49.637+03:00,29,3.385239,0,0,23.86625,0,0,2025-04-20T22:29:16.978+03:00,766870157.0812269,0,0.7299995,99.72822,1,0.95,2025-04-20T22:21:30.043+03:00,95,1.583333333333333,2025-04-19T12:19:17.059+03:00,0.05691595998002078,0
