loggingTime(txt),locationTimestamp_since1970(s),locationLatitude(WGS84),locationLongitude(WGS84),locationAltitude(m),locationSpeed(m/s),locationSpeedAccuracy(m/s),locationCourse(°),locationCourseAccuracy(°),locationVerticalAccuracy(m),locationHorizontalAccuracy(m),locationFloor(Z),accelerometerTimestamp_sinceReboot(s),accelerometerAccelerationX(G),accelerometerAccelerationY(G),accelerometerAccelerationZ(G),motionTimestamp_sinceReboot(s),motionYaw(rad),motionRoll(rad),motionPitch(rad),motionRotationRateX(rad/s),motionRotationRateY(rad/s),motionRotationRateZ(rad/s),motionUserAccelerationX(G),motionUserAccelerationY(G),motionUserAccelerationZ(G),motionAttitudeReferenceFrame(txt),motionQuaternionX(R),motionQuaternionY(R),motionQuaternionZ(R),motionQuaternionW(R),motionGravityX(G),motionGravityY(G),motionGravityZ(G),motionMagneticFieldX(µT),motionMagneticFieldY(µT),motionMagneticFieldZ(µT),motionHeading(°),motionMagneticFieldCalibrationAccuracy(Z),activityTimestamp_sinceReboot(s),activity(txt),activityActivityConfidence(Z),activityActivityStartDate(txt),pedometerStartDate(txt),pedometerNumberofSteps(N),pedometerAverageActivePace(s/m),pedometerCurrentPace(s/m),pedometerCurrentCadence(steps/s),pedometerDistance(m),pedometerFloorAscended(N),pedometerFloorDescended(N),pedometerEndDate(txt),altimeterTimestamp_sinceReboot(s),altimeterReset(bool),altimeterRelativeAltitude(m),altimeterPressure(kPa),batteryState(N),batteryLevel(R),heartRateBPMTimestamp(txt),heartRateBPM(N),heartRateBPS(R),heartRateVariabilityTimestamp(txt),heartRateVariability(ms),label
2025-04-30T12:33:58.738+03:00,1746005637.835524,40.95221369014472,29.1402479840385,75.93256,-1,-1,-1,-1,30,25.63065180778049,-9999,12988.50950741667,-0.7228240966796875,0.57403564453125,-0.364776611328125,12988.49943141667,2.685757864151693,-1.093258230977178,-0.617254023812124,0.01416978146880865,0.01995426043868065,-0.01159889623522758,0.03799468278884888,0.01809519529342651,0.003676623106002808,XArbitraryZVertical,-0.4238113215795087,0.3646795336788752,-0.8285451903211292,-0.03009460118980837,-0.7242434620857239,0.5787980556488037,-0.3747856020927429,0,0,0,-1,-1,12987.96036541667,unknown,2,2025-04-30T12:33:58.160+03:00,2025-04-30T12:00:08.093+03:00,170,1.362274,0,0,138.1113,0,0,2025-04-30T12:24:30.518+03:00,767698438.2672752,0,-0.09000015,100.9661,1,0.75,2025-04-30T12:29:31.309+03:00,83,1.383333333333333,2025-04-22T14:20:19.516+03:00,0.02197104130929222,0
2025-04-30T12:33:58.739+03:00,1746005637.835524,40.95221369014472,29.1402479840385,75.93256,-1,-1,-1,-1,30,25.63065180778049,-9999,12988.51958341667,-0.7077178955078125,0.5869598388671875,-0.3677520751953125,12988.50950741667,2.685808933298833,-1.093066193842429,-0.6171438127620476,0.00511243799701333,0.006837724708020687,-0.008813195861876011,0.01466387510299683,-0.0135684609413147,0.01358011364936829,XArbitraryZVertical,-0.4237596813536926,0.3646240930759573,-0.8285944191217494,-0.03013827632931266,-0.7242280840873718,0.5787082314491272,-0.3749540150165558,0,0,0,-1,-1,12987.96036541667,unknown,2,2025-04-30T12:33:58.160+03:00,2025-04-30T12:00:08.093+03:00,170,1.362274,0,0,138.1113,0,0,2025-04-30T12:24:30.518+03:00,767698438.2672752,0,-0.09000015,100.9661,1,0.75,2025-04-30T12:29:31.309+03:00,83,1.383333333333333,2025-04-22T14:20:19.516+03:00,0.02197104130929222,0
2025-04-30T12:33:58.743+03:00,1746005637.835524,40.95221369014472,29.1402479840385,75.93256,-1,-1,-1,-1,30,25.63065180778049,-9999,12988.52965941667,-0.70159912109375,0.590179443359375,-0.3759307861328125,12988.51958341667,2.685726114484211,-1.093044946308629,-0.6171290141535845,-0.004453103989362717,0.009790104813873768,-0.007955658249557018,0.003280520439147949,0.004922032356262207,0.007999509572982788,XArbitraryZVertical,-0.4237382660903207,0.3646357172130479,-0.8285987517666857,-0.03018049902587532,-0.7242277860641479,0.5786961317062378,-0.3749733567237854,0,0,0,-1,-1,12987.96036541667,unknown,2,2025-04-30T12:33:58.160+03:00,2025-04-30T12:00:08.093+03:00,170,1.362274,0,0,138.1113,0,0,2025-04-30T12:24:30.518+03:00,767698438.2672752,0,-0.09000015,100.9661,1,0.75,2025-04-30T12:29:31.309+03:00,83,1.383333333333333,2025-04-22T14:20:19.516+03:00,0.02197104130929222,0
2025-04-30T12:33:58.747+03:00,1746005637.835524,40.95221369014472,29.1402479840385,75.93256,-1,-1,-1,-1,30,25.63065180778049,-9999,12988.53973541667,-0.7036590576171875,0.5941314697265625,-0.3823394775390625,12988.52965941667,2.685564977284817,-1.093092352339515,-0.617071902847667,-0.007759418804198503,0.008304061368107796,-0.003143326379358768,0.02491879463195801,0.009851455688476562,0.0042572021484375,XArbitraryZVertical,-0.4237381688135251,0.3646489496931063,-0.8285903015786393,-0.0302540700282907,-0.7242749333381653,0.5786495804786682,-0.3749542236328125,0,0,0,-1,-1,12987.96036541667,unknown,2,2025-04-30T12:33:58.160+03:00,2025-04-30T12:00:08.093+03:00,170,1.362274,0,0,138.1113,0,0,2025-04-30T12:24:30.518+03:00,767698438.2672752,0,-0.09000015,100.9661,1,0.75,2025-04-30T12:29:31.309+03:00,83,1.383333333333333,2025-04-22T14:20:19.516+03:00,0.02197104130929222,0
2025-04-30T12:33:58.755+03:00,1746005637.835524,40.95221369014472,29.1402479840385,75.93256,-1,-1,-1,-1,30,25.63065180778049,-9999,12988.54981141667,-0.6903533935546875,0.5992279052734375,-0.38287353515625,12988.53973541667,2.685438510011247,-1.093072075334089,-0.6171051101100875,-0.008358096703886986,0.00302461045794189,-0.009104812517762184,0.0188058614730835,0.01293718814849854,-0.004754900932312012,XArbitraryZVertical,-0.4237010992484176,0.3646880088756748,-0.8285903503113752,-0.03030118335629601,-0.7242502570152283,0.5786766409873962,-0.3749600648880005,0,0,0,-1,-1,12987.96036541667,unknown,2,2025-04-30T12:33:58.160+03:00,2025-04-30T12:00:08.093+03:00,170,1.362274,0,0,138.1113,0,0,2025-04-30T12:24:30.518+03:00,767698438.2672752,0,-0.09000015,100.9661,1,0.75,2025-04-30T12:29:31.309+03:00,83,1.383333333333333,2025-04-22T14:20:19.516+03:00,0.02197104130929222,0
2025-04-30T12:33:58.765+03:00,1746005637.835524,40.95221369014472,29.1402479840385,75.93256,-1,-1,-1,-1,30,25.63065180778049,-9999,12988.55988741667,-0.6945343017578125,0.60125732421875,-0.3773651123046875,12988.54981141667,2.685409877755905,-1.092998462005628,-0.6171498549230834,0.005781291052699089,0.003292657667770982,-0.01249694731086493,0.02835303544998169,0.01764613389968872,-0.008360326290130615,XArbitraryZVertical,-0.4236578153626156,0.364709900050011,-0.8286023851834232,-0.03031438722213789,-0.724199652671814,0.5787131190299988,-0.3750014901161194,0,0,0,-1,-1,12987.96036541667,unknown,2,2025-04-30T12:33:58.160+03:00,2025-04-30T12:00:08.093+03:00,170,1.362274,0,0,138.1113,0,0,2025-04-30T12:24:30.518+03:00,767698438.2672752,0,-0.09000015,100.9661,1,0.75,2025-04-30T12:29:31.309+03:00,83,1.383333333333333,2025-04-22T14:20:19.516+03:00,0.02197104130929222,0
2025-04-30T12:33:58.784+03:00,1746005637.835524,40.95221369014472,29.1402479840385,75.93256,-1,-1,-1,-1,30,25.63065180778049,-9999,12988.56996341667,-0.707977294921875,0.5994415283203125,-0.3747711181640625,12988.55988741667,2.685510116057174,-1.092807139505377,-0.6170379789017881,0.01387756690382957,0.01428219210356474,-0.006424141116440296,0.03450334072113037,0.02237606048583984,-0.005720078945159912,XArbitraryZVertical,-0.4236157206666794,0.3646434065109168,-0.8286523015361187,-0.03033799834175307,-0.7241854071617126,0.5786218643188477,-0.3751698136329651,0,0,0,-1,-1,12987.96036541667,unknown,2,2025-04-30T12:33:58.160+03:00,2025-04-30T12:00:08.093+03:00,170,1.362274,0,0,138.1113,0,0,2025-04-30T12:24:30.518+03:00,767698438.2672752,0,-0.09000015,100.9661,1,0.75,2025-04-30T12:29:31.309+03:00,83,1.383333333333333,2025-04-22T14:20:19.516+03:00,0.02197104130929222,0
2025-04-30T12:33:58.785+03:00,1746005637.835524,40.95221369014472,29.1402479840385,75.93256,-1,-1,-1,-1,30,25.63065180778049,-9999,12988.58003941667,-0.70751953125,0.5952606201171875,-0.382568359375,12988.56996341667,2.685616579048907,-1.092554668965361,-0.6170065244524415,0.0029254499822855,0.01686878688633442,0.001169795985333622,0.02175992727279663,0.02183717489242554,0.000940859317779541,XArbitraryZVertical,-0.4235358327634794,0.3646051173786115,-0.8287096007740411,-0.03034842027048336,-0.7241067886352539,0.5785962343215942,-0.3753610253334045,0,0,0,-1,-1,12987.96036541667,unknown,2,2025-04-30T12:33:58.160+03:00,2025-04-30T12:00:08.093+03:00,170,1.362274,0,0,138.1113,0,0,2025-04-30T12:24:30.518+03:00,767698438.2672752,0,-0.09000015,100.9661,1,0.75,2025-04-30T12:29:31.309+03:00,83,1.383333333333333,2025-04-22T14:20:19.516+03:00,0.02197104130929222,0
2025-04-30T12:33:58.797+03:00,1746005637.835524,40.95221369014472,29.1402479840385,75.93256,-1,-1,-1,-1,30,25.63065180778049,-9999,12988.59011541667,-0.704620361328125,0.5881500244140625,-0.38873291015625,12988.58003941667,2.685619317081215,-1.092409367229816,-0.6170848156114459,-0.005351920612156391,0.009082237258553505,0.0006701870588585734,0.01489031314849854,0.01934707164764404,-0.002102822065353394,XArbitraryZVertical,-0.4234629161424663,0.364631981659167,-0.828734864057706,-0.03035257787624624,-0.724012017250061,0.5786600708961487,-0.3754453659057617,0,0,0,-1,-1,12987.96036541667,unknown,2,2025-04-30T12:33:58.160+03:00,2025-04-30T12:00:08.093+03:00,170,1.362274,0,0,138.1113,0,0,2025-04-30T12:24:30.518+03:00,767698438.2672752,0,-0.09000015,100.9661,1,0.75,2025-04-30T12:29:31.309+03:00,83,1.383333333333333,2025-04-22T14:20:19.516+03:00,0.02197104130929222,0
2025-04-30T12:33:58.805+03:00,1746005637.835524,40.95221369014472,29.1402479840385,75.93256,-1,-1,-1,-1,30,25.63065180778049,-9999,12988.60019141667,-0.7027740478515625,0.587860107421875,-0.386260986328125,12988.59011541667,2.685547185735484,-1.092403924411736,-0.6171520763159768,-0.008198640309274197,0.002970481757074594,0.004723750986158848,0.01885151863098145,0.01271569728851318,-0.01182141900062561,XArbitraryZVertical,-0.4234361454017199,0.3646726436896587,-0.8287302054700334,-0.03036529415385561,-0.7239754199981689,0.5787149667739868,-0.3754313886165619,0,0,0,-1,-1,12987.96036541667,unknown,2,2025-04-30T12:33:58.160+03:00,2025-04-30T12:00:08.093+03:00,170,1.362274,0,0,138.1113,0,0,2025-04-30T12:24:30.518+03:00,767698438.2672752,0,-0.09000015,100.9661,1,0.75,2025-04-30T12:29:31.309+03:00,83,1.383333333333333,2025-04-22T14:20:19.516+03:00,0.02197104130929222,0
2025-04-30T12:33:58.815+03:00,1746005637.835524,40.95221369014472,29.1402479840385,75.93256,-1,-1,-1,-1,30,25.63065180778049,-9999,12988.61026741667,-0.700469970703125,0.5936126708984375,-0.3802337646484375,12988.60019141667,2.685485011994091,-1.092453185808643,-0.6172339706063876,-0.004682468716055155,-0.003405658062547445,0.0007431244011968374,0.02084213495254517,0.007766127586364746,-0.01346579194068909,XArbitraryZVertical,-0.4234313932174,0.3647175675422385,-0.8287130543622209,-0.03035992396616144,-0.7239518165588379,0.5787817239761353,-0.375373899936676,0,0,0,-1,-1,12987.96036541667,unknown,2,2025-04-30T12:33:58.160+03:00,2025-04-30T12:00:08.093+03:00,170,1.362274,0,0,138.1113,0,0,2025-04-30T12:24:30.518+03:00,767698438.2672752,0,-0.09000015,100.9661,1,0.75,2025-04-30T12:29:31.309+03:00,83,1.383333333333333,2025-04-22T14:20:19.516+03:00,0.02197104130929222,0
2025-04-30T12:33:58.825+03:00,1746005637.835524,40.95221369014472,29.1402479840385,75.93256,-1,-1,-1,-1,30,25.63065180778049,-9999,12988.62034341667,-0.701019287109375,0.5973358154296875,-0.3843231201171875,12988.61026741667,2.685450180614703,-1.092524531667439,-0.6173566236392313,-0.005788013339042664,-0.006887275725603104,0.003839681390672922,0.02275896072387695,0.01166391372680664,-0.006958335638046265,XArbitraryZVertical,-0.4234338958981389,0.3647724693197678,-0.8286887533799314,-0.03032815746133679,-0.7239155769348145,0.5788817405700684,-0.3752895593643188,0,0,0,-1,-1,12987.96036541667,unknown,2,2025-04-30T12:33:58.160+03:00,2025-04-30T12:00:08.093+03:00,170,1.362274,0,0,138.1113,0,0,2025-04-30T12:24:30.518+03:00,767698438.2672752,0,-0.09000015,100.9661,1,0.75,2025-04-30T12:29:31.309+03:00,83,1.383333333333333,2025-04-22T14:20:19.516+03:00,0.02197104130929222,0
2025-04-30T12:33:58.835+03:00,1746005637.835524,40.95221369014472,29.1402479840385,75.93256,-1,-1,-1,-1,30,25.63065180778049,-9999,12988.63041941667,-0.703338623046875,0.5948486328125,-0.3834381103515625,12988.62034341667,2.685371006408223,-1.092628794969315,-0.6174671437927947,-0.01459322310984135,-0.009086247533559799,-0.0008837008499540389,0.02393144369125366,0.01801300048828125,-0.00671231746673584,XArbitraryZVertical,-0.4234439742427851,0.3648326612274268,-0.8286577258205078,-0.03031209133969168,-0.7238979339599609,0.5789718627929688,-0.3751846551895142,0,0,0,-1,-1,12987.96036541667,unknown,2,2025-04-30T12:33:58.160+03:00,2025-04-30T12:00:08.093+03:00,170,1.362274,0,0,138.1113,0,0,2025-04-30T12:24:30.518+03:00,767698438.2672752,0,-0.09000015,100.9661,1,0.75,2025-04-30T12:29:31.309+03:00,83,1.383333333333333,2025-04-22T14:20:19.516+03:00,0.02197104130929222,0
2025-04-30T12:33:58.845+03:00,1746005637.835524,40.95221369014472,29.1402479840385,75.93256,-1,-1,-1,-1,30,25.63065180778049,-9999,12988.64049541667,-0.70245361328125,0.5895233154296875,-0.3770904541015625,12988.63041941667,2.685196898397359,-1.09274934399228,-0.6176235711856797,-0.02292825095355511,-0.004719062708318233,-0.001290165819227695,0.02105808258056641,0.01831275224685669,-0.01028972864151001,XArbitraryZVertical,-0.4234357305149363,0.3649305749474077,-0.8286185244833486,-0.03031991608571173,-0.7238627076148987,0.5790994167327881,-0.3750557005405426,0,0,0,-1,-1,12987.96036541667,unknown,2,2025-04-30T12:33:58.160+03:00,2025-04-30T12:00:08.093+03:00,170,1.362274,0,0,138.1113,0,0,2025-04-30T12:24:30.518+03:00,767698438.2672752,0,-0.09000015,100.9661,1,0.75,2025-04-30T12:29:31.309+03:00,83,1.383333333333333,2025-04-22T14:20:19.516+03:00,0.02197104130929222,0
2025-04-30T12:33:58.855+03:00,1746005637.835524,40.95221369014472,29.1402479840385,75.93256,-1,-1,-1,-1,30,25.63065180778049,-9999,12988.65057141667,-0.7090911865234375,0.5882415771484375,-0.3725433349609375,12988.64049541667,2.68490454056312,-1.092892838950027,-0.6178701581645507,-0.04058101400732994,0.00097291124984622,-0.0005351596046239138,0.02072566747665405,0.0126032829284668,-0.005408644676208496,XArbitraryZVertical,-0.423400147429266,0.3650879917067531,-0.8285663181485087,-0.03034814078895455,-0.7237896919250488,0.5793004035949707,-0.374886155128479,0,0,0,-1,-1,12987.96036541667,unknown,2,2025-04-30T12:33:58.160+03:00,2025-04-30T12:00:08.093+03:00,170,1.362274,0,0,138.1113,0,0,2025-04-30T12:24:30.518+03:00,767698438.2672752,0,-0.09000015,100.9661,1,0.75,2025-04-30T12:29:31.309+03:00,83,1.383333333333333,2025-04-22T14:20:19.516+03:00,0.02197104130929222,0
2025-04-30T12:33:58.865+03:00,1746005637.835524,40.95221369014472,29.1402479840385,75.93256,-1,-1,-1,-1,30,25.63065180778049,-9999,12988.66064741667,-0.7113494873046875,0.592437744140625,-0.371917724609375,12988.65057141667,2.684449326014334,-1.093090349767636,-0.6181423910755476,-0.04486058279871941,0.00772522296756506,-0.0005737087922170758,0.01954573392868042,0.008597254753112793,0.0003115534782409668,XArbitraryZVertical,-0.4233528073192251,0.3652903889575803,-0.8284984041105133,-0.03042700686133258,-0.7237236499786377,0.5795223116874695,-0.3746706545352936,0,0,0,-1,-1,12987.96036541667,unknown,2,2025-04-30T12:33:58.160+03:00,2025-04-30T12:00:08.093+03:00,170,1.362274,0,0,138.1113,0,0,2025-04-30T12:24:30.518+03:00,767698438.2672752,0,-0.09000015,100.9661,1,0.75,2025-04-30T12:29:31.309+03:00,83,1.383333333333333,2025-04-22T14:20:19.516+03:00,0.02197104130929222,0
2025-04-30T12:33:58.876+03:00,1746005637.835524,40.95221369014472,29.1402479840385,75.93256,-1,-1,-1,-1,30,25.63065180778049,-9999,12988.67072341667,-0.7058258056640625,0.5915069580078125,-0.3736572265625,12988.66064741667,2.683966567616506,-1.093258236102835,-0.6184155685566864,-0.04164854064583778,0.01238229312002659,0.0007837044540792704,0.01168596744537354,0.01006835699081421,0.002573907375335693,XArbitraryZVertical,-0.4232879229573244,0.3654984933488936,-0.8284362465791227,-0.03052237186784984,-0.7236458659172058,0.5797448754310608,-0.3744763731956482,0,0,0,-1,-1,12987.96036541667,unknown,2,2025-04-30T12:33:58.160+03:00,2025-04-30T12:00:08.093+03:00,170,1.362274,0,0,138.1113,0,0,2025-04-30T12:24:30.518+03:00,767698438.2672752,0,-0.09000015,100.9661,1,0.75,2025-04-30T12:29:31.309+03:00,83,1.383333333333333,2025-04-22T14:20:19.516+03:00,0.02197104130929222,0
2025-04-30T12:33:58.885+03:00,1746005637.835524,40.95221369014472,29.1402479840385,75.93256,-1,-1,-1,-1,30,25.63065180778049,-9999,12988.68079941667,-0.7074127197265625,0.59326171875,-0.3754119873046875,12988.67072341667,2.683633144873628,-1.09325659687123,-0.6186370041520441,-0.02881576679646969,0.01724901981651783,0.004610433708876371,0.01543182134628296,0.01268035173416138,0.001646339893341064,XArbitraryZVertical,-0.4231887943565853,0.3656527994718758,-0.8284159049870994,-0.03060085912491606,-0.7235312461853027,0.5799252986907959,-0.3744185566902161,0,0,0,-1,-1,12987.96036541667,unknown,2,2025-04-30T12:33:58.160+03:00,2025-04-30T12:00:08.093+03:00,170,1.362274,0,0,138.1113,0,0,2025-04-30T12:24:30.518+03:00,767698438.2672752,0,-0.09000015,100.9661,1,0.75,2025-04-30T12:29:31.309+03:00,83,1.383333333333333,2025-04-22T14:20:19.516+03:00,0.02197104130929222,0
2025-04-30T12:33:58.896+03:00,1746005637.835524,40.95221369014472,29.1402479840385,75.93256,-1,-1,-1,-1,30,25.63065180778049,-9999,12988.69087541667,-0.7069549560546875,0.59588623046875,-0.3767852783203125,12988.68079941667,2.68340730622915,-1.09313746801768,-0.61882739958452,-0.02637364901602268,0.01937635242938995,0.002728644292801619,0.01803576946258545,0.01138085126876831,0.0004611015319824219,XArbitraryZVertical,-0.4230658809711937,0.3657707777775264,-0.8284242789315978,-0.03066470230272373,-0.7233886122703552,0.5800803899765015,-0.374453991651535,0,0,0,-1,-1,12987.96036541667,unknown,2,2025-04-30T12:33:58.160+03:00,2025-04-30T12:00:08.093+03:00,170,1.362274,0,0,138.1113,0,0,2025-04-30T12:24:30.518+03:00,767698438.2672752,0,-0.09000015,100.9661,1,0.75,2025-04-30T12:29:31.309+03:00,83,1.383333333333333,2025-04-22T14:20:19.516+03:00,0.02197104130929222,0
2025-04-30T12:33:58.906+03:00,1746005637.835524,40.95221369014472,29.1402479840385,75.93256,-1,-1,-1,-1,30,25.63065180778049,-9999,12988.70095141667,-0.703033447265625,0.5959320068359375,-0.3785247802734375,12988.69087541667,2.683246074471326,-1.09301568892625,-0.6190226862268141,-0.01685617864131927,0.01485870033502579,0.007079916074872017,0.01491409540176392,0.01407516002655029,-0.001334011554718018,XArbitraryZVertical,-0.4229528502050504,0.3658768804380511,-0.828433794773054,-0.03070091192966641,-0.7232424020767212,0.580239474773407,-0.3744899928569794,0,0,0,-1,-1,12987.96036541667,unknown,2,2025-04-30T12:33:58.160+03:00,2025-04-30T12:00:08.093+03:00,170,1.362274,0,0,138.1113,0,0,2025-04-30T12:24:30.518+03:00,767698438.2672752,0,-0.09000015,100.9661,1,0.75,2025-04-30T12:29:31.309+03:00,83,1.383333333333333,2025-04-22T14:20:19.516+03:00,0.02197104130929222,0
2025-04-30T12:33:58.916+03:00,1746005637.835524,40.95221369014472,29.1402479840385,75.93256,-1,-1,-1,-1,30,25.63065180778049,-9999,12988.71102741667,-0.703765869140625,0.5958709716796875,-0.37823486328125,12988.70095141667,2.683158590218544,-1.092886624965073,-0.6192300946508743,-0.01099376194179058,0.01428691856563091,0.007325192913413048,0.0182531476020813,0.01553887128829956,-0.003432214260101318,XArbitraryZVertical,-0.4228482165761238,0.3659718504373691,-0.828445134403997,-0.03070465667470907,-0.7230871915817261,0.5804083943367004,-0.3745279908180237,0,0,0,-1,-1,12987.96036541667,unknown,2,2025-04-30T12:33:58.160+03:00,2025-04-30T12:00:08.093+03:00,170,1.362274,0,0,138.1113,0,0,2025-04-30T12:24:30.518+03:00,767698438.2672752,0,-0.09000015,100.9661,1,0.75,2025-04-30T12:29:31.309+03:00,83,1.383333333333333,2025-04-22T14:20:19.516+03:00,0.02197104130929222,0
2025-04-30T12:33:58.926+03:00,1746005637.835524,40.95221369014472,29.1402479840385,75.93256,-1,-1,-1,-1,30,25.63065180778049,-9999,12988.72110341667,-0.706634521484375,0.5965423583984375,-0.3743743896484375,12988.71102741667,2.683155842709992,-1.092709270577945,-0.6194397918208674,-0.009743340313434601,0.01366620324552059,0.01397101208567619,0.02064216136932373,0.01594799757003784,-0.003863513469696045,XArbitraryZVertical,-0.4227386726116865,0.3660490283242436,-0.8284678553427952,-0.03068157771453524,-0.7229127287864685,0.5805791020393372,-0.3746002614498138,0,0,0,-1,-1,12987.96036541667,unknown,2,2025-04-30T12:33:58.160+03:00,2025-04-30T12:00:08.093+03:00,170,1.362274,0,0,138.1113,0,0,2025-04-30T12:24:30.518+03:00,767698438.2672752,0,-0.09000015,100.9661,1,0.75,2025-04-30T12:29:31.309+03:00,83,1.383333333333333,2025-04-22T14:20:19.516+03:00,0.02197104130929222,0
2025-04-30T12:33:58.936+03:00,1746005637.835524,40.95221369014472,29.1402479840385,75.93256,-1,-1,-1,-1,30,25.63065180778049,-9999,12988.73117941667,-0.70928955078125,0.598297119140625,-0.37371826171875,12988.72110341667,2.683183313317381,-1.092506907531602,-0.6196391076965816,-0.006551541853696108,0.01815762370824814,0.01555213145911694,0.01783901453018188,0.01546531915664673,-0.001695305109024048,XArbitraryZVertical,-0.422626082910367,0.3661155119686711,-0.8284969495784208,-0.03065330150182452,-0.7227341532707214,0.5807414054870605,-0.3746932446956635,0,0,0,-1,-1,12987.96036541667,unknown,2,2025-04-30T12:33:58.160+03:00,2025-04-30T12:00:08.093+03:00,170,1.362274,0,0,138.1113,0,0,2025-04-30T12:24:30.518+03:00,767698438.2672752,0,-0.09000015,100.9661,1,0.75,2025-04-30T12:29:31.309+03:00,83,1.383333333333333,2025-04-22T14:20:19.516+03:00,0.02197104130929222,0
2025-04-30T12:33:58.946+03:00,1746005637.835524,40.95221369014472,29.1402479840385,75.93256,-1,-1,-1,-1,30,25.63065180778049,-9999,12988.74125541667,-0.7092437744140625,0.5978851318359375,-0.376007080078125,12988.73117941667,2.6832157822935,-1.092284590509616,-0.6198463510839518,-0.008201169781386852,0.01945877820253372,0.01409628055989742,0.01439875364303589,0.0173412561416626,0.001080214977264404,XArbitraryZVertical,-0.4225047973323819,0.3661836394495431,-0.8285297407099537,-0.03062446831077769,-0.7225439548492432,0.5809100866317749,-0.3747984766960144,0,0,0,-1,-1,12987.96036541667,unknown,2,2025-04-30T12:33:58.160+03:00,2025-04-30T12:00:08.093+03:00,170,1.362274,0,0,138.1113,0,0,2025-04-30T12:24:30.518+03:00,767698438.2672752,0,-0.09000015,100.9661,1,0.75,2025-04-30T12:29:31.309+03:00,83,1.383333333333333,2025-04-22T14:20:19.516+03:00,0.02197104130929222,0
2025-04-30T12:33:58.956+03:00,1746005637.835524,40.95221369014472,29.1402479840385,75.93256,-1,-1,-1,-1,30,25.63065180778049,-9999,12988.75133141667,-0.707061767578125,0.5996246337890625,-0.3752593994140625,12988.74125541667,2.68321021992535,-1.092074579362513,-0.6200478427868011,-0.004735332913696766,0.0217746626585722,0.01509470026940107,0.01278179883956909,0.01685678958892822,0.000186234712600708,XArbitraryZVertical,-0.4223826167024899,0.3662578193727611,-0.8285597298186426,-0.03061070770738522,-0.7223612666130066,0.5810741186141968,-0.3748962581157684,0,0,0,-1,-1,12987.96036541667,unknown,2,2025-04-30T12:33:58.160+03:00,2025-04-30T12:00:08.093+03:00,170,1.362274,0,0,138.1113,0,0,2025-04-30T12:24:30.518+03:00,767698438.2672752,0,-0.09000015,100.9661,1,0.75,2025-04-30T12:29:31.309+03:00,83,1.383333333333333,2025-04-22T14:20:19.516+03:00,0.02197104130929222,0
2025-04-30T12:33:58.966+03:00,1746005637.835524,40.95221369014472,29.1402479840385,75.93256,-1,-1,-1,-1,30,25.63065180778049,-9999,12988.76140741667,-0.706634521484375,0.59661865234375,-0.373809814453125,12988.75133141667,2.683263388319089,-1.091823431536613,-0.6202862596966148,-0.005506983492523432,0.02168398350477219,0.02026129886507988,0.01407521963119507,0.0173799991607666,-0.001451015472412109,XArbitraryZVertical,-0.4222478707111198,0.3663329429382408,-0.8285966963606516,-0.03057021365444271,-0.7221441268920898,0.5812681317329407,-0.3750138282775879,0,0,0,-1,-1,12987.96036541667,unknown,2,2025-04-30T12:33:58.160+03:00,2025-04-30T12:00:08.093+03:00,170,1.362274,0,0,138.1113,0,0,2025-04-30T12:24:30.518+03:00,767698438.2672752,0,-0.09000015,100.9661,1,0.75,2025-04-30T12:29:31.309+03:00,83,1.383333333333333,2025-04-22T14:20:19.516+03:00,0.02197104130929222,0
2025-04-30T12:33:58.976+03:00,1746005637.835524,40.95221369014472,29.1402479840385,75.93256,-1,-1,-1,-1,30,25.63065180778049,-9999,12988.77148341667,-0.704559326171875,0.594757080078125,-0.3819427490234375,12988.76140741667,2.683338011234435,-1.091524933175507,-0.6205274714351671,-0.0005436501232907176,0.0244962815195322,0.01836139895021915,0.01483064889907837,0.01710742712020874,0.0009581446647644043,XArbitraryZVertical,-0.4220969676601152,0.3664038852242097,-0.8286437215242185,-0.03052874424057273,-0.7219077348709106,0.5814643502235413,-0.3751646876335144,0,0,0,-1,-1,12987.96036541667,unknown,2,2025-04-30T12:33:58.160+03:00,2025-04-30T12:00:08.093+03:00,170,1.362274,0,0,138.1113,0,0,2025-04-30T12:24:30.518+03:00,767698438.2672752,0,-0.09000015,100.9661,1,0.75,2025-04-30T12:29:31.309+03:00,83,1.383333333333333,2025-04-22T14:20:19.516+03:00,0.02197104130929222,0
2025-04-30T12:33:58.986+03:00,1746005637.835524,40.95221369014472,29.1402479840385,75.93256,-1,-1,-1,-1,30,25.63065180778049,-9999,12988.78155941667,-0.6988372802734375,0.5992431640625,-0.381011962890625,12988.77148341667,2.683479796644693,-1.091174853945454,-0.6207188613172465,0.009031878784298897,0.02684212476015091,0.01765905879437923,0.01470738649368286,0.01321333646774292,-0.001937985420227051,XArbitraryZVertical,-0.4219454171224944,0.3664410402303232,-0.828706227458111,-0.0304824592569248,-0.7216776609420776,0.5816200971603394,-0.3753660619258881,0,0,0,-1,-1,12987.96036541667,unknown,2,2025-04-30T12:33:58.160+03:00,2025-04-30T12:00:08.093+03:00,170,1.362274,0,0,138.1113,0,0,2025-04-30T12:24:30.518+03:00,767698438.2672752,0,-0.09000015,100.9661,1,0.75,2025-04-30T12:29:31.309+03:00,83,1.383333333333333,2025-04-22T14:20:19.516+03:00,0.02197104130929222,0
2025-04-30T12:33:58.997+03:00,1746005637.835524,40.95221369014472,29.1402479840385,75.93256,-1,-1,-1,-1,30,25.63065180778049,-9999,12988.79163541667,-0.7017059326171875,0.5999908447265625,-0.37750244140625,12988.78155941667,2.683737978589138,-1.09072766350684,-0.6208971584856741,0.01645890064537525,0.03011381812393665,0.0209675021469593,0.02050518989562988,0.01541817188262939,-0.0072021484375,XArbitraryZVertical,-0.4217771844436305,0.3664472422684353,-0.8287918149371735,-0.03040923783394352,-0.7214177250862122,0.5817651152610779,-0.3756408393383026,0,0,0,-1,-1,12987.96036541667,unknown,2,2025-04-30T12:33:58.160+03:00,2025-04-30T12:00:08.093+03:00,170,1.362274,0,0,138.1113,0,0,2025-04-30T12:24:30.518+03:00,767698438.2672752,0,-0.09000015,100.9661,1,0.75,2025-04-30T12:29:31.309+03:00,83,1.383333333333333,2025-04-22T14:20:19.516+03:00,0.02197104130929222,0
2025-04-30T12:33:59.016+03:00,1746005637.835524,40.95221369014472,29.1402479840385,75.93256,-1,-1,-1,-1,30,25.63065180778049,-9999,12988.80171141667,-0.702911376953125,0.6001739501953125,-0.3793182373046875,12988.79163541667,2.684079989667544,-1.090187234178933,-0.6210474045325406,0.02415863238275051,0.03279269486665726,0.02029971405863762,0.02155208587646484,0.01909542083740234,-0.002046287059783936,XArbitraryZVertical,-0.4215903958397511,0.3664237920638781,-0.8289003125531111,-0.03032598718783897,-0.7211371660232544,0.5818873047828674,-0.3759902715682983,0,0,0,-1,-1,12987.96036541667,unknown,2,2025-04-30T12:33:58.160+03:00,2025-04-30T12:00:08.093+03:00,170,1.362274,0,0,138.1113,0,0,2025-04-30T12:24:30.518+03:00,767698438.2672752,0,-0.09000015,100.9661,1,0.75,2025-04-30T12:29:31.309+03:00,83,1.383333333333333,2025-04-22T14:20:19.516+03:00,0.02197104130929222,0
2025-04-30T12:33:59.018+03:00,1746005637.835524,40.95221369014472,29.1402479840385,75.93256,-1,-1,-1,-1,30,25.63065180778049,-9999,12988.81178741667,-0.70111083984375,0.60321044921875,-0.381439208984375,12988.80171141667,2.684521741964992,-1.089595912196119,-0.6211653370722073,0.03084077127277851,0.03308564051985741,0.02123794704675674,0.01730144023895264,0.01637494564056396,-0.001621127128601074,XArbitraryZVertical,-0.4214063094556253,0.366366386498958,-0.829023028188414,-0.03021921269041469,-0.7208536863327026,0.581983208656311,-0.3763847947120667,0,0,0,-1,-1,12987.96036541667,unknown,2,2025-04-30T12:33:58.160+03:00,2025-04-30T12:00:08.093+03:00,170,1.362274,0,0,138.1113,0,0,2025-04-30T12:24:30.518+03:00,767698438.2672752,0,-0.09000015,100.9661,1,0.75,2025-04-30T12:29:31.309+03:00,83,1.383333333333333,2025-04-22T14:20:19.516+03:00,0.02197104130929222,0
2025-04-30T12:33:59.027+03:00,1746005637.835524,40.95221369014472,29.1402479840385,75.93256,-1,-1,-1,-1,30,25.63065180778049,-9999,12988.82186341667,-0.704193115234375,0.595703125,-0.3807525634765625,12988.81178741667,2.684976477276723,-1.088988836003235,-0.6212618476448711,0.03071287274360657,0.03608322888612747,0.02161608077585697,0.01912885904312134,0.02131664752960205,-0.003605246543884277,XArbitraryZVertical,-0.4212215493912523,0.3662979857740217,-0.8291510354109536,-0.03011600437396022,-0.7205754518508911,0.5820617079734802,-0.3767963945865631,0,0,0,-1,-1,12987.96036541667,unknown,2,2025-04-30T12:33:58.160+03:00,2025-04-30T12:00:08.093+03:00,170,1.362274,0,0,138.1113,0,0,2025-04-30T12:24:30.518+03:00,767698438.2672752,0,-0.09000015,100.9661,1,0.75,2025-04-30T12:29:31.309+03:00,83,1.383333333333333,2025-04-22T14:20:19.516+03:00,0.02197104130929222,0
2025-04-30T12:33:59.037+03:00,1746005637.835524,40.95221369014472,29.1402479840385,75.93256,-1,-1,-1,-1,30,25.63065180778049,-9999,12988.831939875,-0.7040252685546875,0.593353271484375,-0.378173828125,12988.821863875,2.685446440822722,-1.08834950775614,-0.6213738284311279,0.02933495305478573,0.03754876554012299,0.02180010639131069,0.01840269565582275,0.01754820346832275,-0.004059910774230957,XArbitraryZVertical,-0.4210236320088088,0.3662318364234943,-0.829284579915702,-0.03000792128361329,-0.7202765345573425,0.5821527242660522,-0.3772266805171967,0,0,0,-1,-1,12987.96036541667,unknown,2,2025-04-30T12:33:58.160+03:00,2025-04-30T12:00:08.093+03:00,170,1.362274,0,0,138.1113,0,0,2025-04-30T12:24:30.518+03:00,767698438.2672752,0,-0.09000015,100.9661,1,0.75,2025-04-30T12:29:31.309+03:00,83,1.383333333333333,2025-04-22T14:20:19.516+03:00,0.02197104130929222,0
2025-04-30T12:33:59.047+03:00,1746005637.835524,40.95221369014472,29.1402479840385,75.93256,-1,-1,-1,-1,30,25.63065180778049,-9999,12988.842015875,-0.6944122314453125,0.5969085693359375,-0.381317138671875,12988.831939875,2.685916002930667,-1.087740837246883,-0.6214809793056516,0.02700648456811905,0.03103354200720787,0.02056330069899559,0.01424199342727661,0.01137286424636841,-0.001285433769226074,XArbitraryZVertical,-0.4208390767929061,0.3661644955697778,-0.8294120600877302,-0.02989579453797919,-0.7199915647506714,0.5822398662567139,-0.3776360750198364,0,0,0,-1,-1,12987.96036541667,unknown,2,2025-04-30T12:33:58.160+03:00,2025-04-30T12:00:08.093+03:00,170,1.362274,0,0,138.1113,0,0,2025-04-30T12:24:30.518+03:00,767698438.2672752,0,-0.09000015,100.9661,1,0.75,2025-04-30T12:29:31.309+03:00,83,1.383333333333333,2025-04-22T14:20:19.516+03:00,0.02197104130929222,0
2025-04-30T12:33:59.057+03:00,1746005637.835524,40.95221369014472,29.1402479840385,75.93256,-1,-1,-1,-1,30,25.63065180778049,-9999,12988.852091875,-0.693939208984375,0.5977935791015625,-0.384857177734375,12988.842015875,2.686345354721759,-1.087238228052636,-0.6216027455877575,0.02821476012468338,0.02179290354251862,0.02154068276286125,0.02042859792709351,0.01234197616577148,-0.0007887482643127441,XArbitraryZVertical,-0.4206886395792657,0.3661128212968104,-0.8295154785927837,-0.02977695163611007,-0.7197389006614685,0.5823388695716858,-0.3779649436473846,0,0,0,-1,-1,12987.96036541667,unknown,2,2025-04-30T12:33:58.160+03:00,2025-04-30T12:00:08.093+03:00,170,1.362274,0,0,138.1113,0,0,2025-04-30T12:24:30.518+03:00,767698438.2672752,0,-0.09000015,100.9661,1,0.75,2025-04-30T12:29:31.309+03:00,83,1.383333333333333,2025-04-22T14:20:19.516+03:00,0.02197104130929222,0
2025-04-30T12:33:59.067+03:00,1746005637.835524,40.95221369014472,29.1402479840385,75.93256,-1,-1,-1,-1,30,25.63065180778049,-9999,12988.862167875,-0.6967010498046875,0.594482421875,-0.3860321044921875,12988.852091875,2.686753208576567,-1.086790142816445,-0.6217099921666422,0.02084346488118172,0.01876628957688808,0.02083710767328739,0.02620059251785278,0.01617628335952759,-0.004386246204376221,XArbitraryZVertical,-0.4205593003531508,0.3660610447785486,-0.8296081124337343,-0.02966096412262926,-0.7195142507553101,0.5824260115623474,-0.3782583773136139,0,0,0,-1,-1,12987.96036541667,unknown,2,2025-04-30T12:33:58.160+03:00,2025-04-30T12:00:08.093+03:00,170,1.362274,0,0,138.1113,0,0,2025-04-30T12:24:30.518+03:00,767698438.2672752,0,-0.09000015,100.9661,1,0.75,2025-04-30T12:29:31.309+03:00,83,1.383333333333333,2025-04-22T14:20:19.516+03:00,0.02197104130929222,0
2025-04-30T12:33:59.077+03:00,1746005637.835524,40.95221369014472,29.1402479840385,75.93256,-1,-1,-1,-1,30,25.63065180778049,-9999,12988.872243875,-0.6959686279296875,0.592498779296875,-0.381011962890625,12988.862167875,2.687110609043015,-1.086372889295673,-0.6218512757026027,0.01916301064193249,0.0157270897179842,0.0192037895321846,0.02355897426605225,0.01421523094177246,-0.007893383502960205,XArbitraryZVertical,-0.4204277607735931,0.3660332984878982,-0.8296909619037558,-0.02955104767137568,-0.7192835807800293,0.5825408697128296,-0.3785202503204346,0,0,0,-1,-1,12987.96036541667,unknown,2,2025-04-30T12:33:58.160+03:00,2025-04-30T12:00:08.093+03:00,170,1.362274,0,0,138.1113,0,0,2025-04-30T12:24:30.518+03:00,767698438.2672752,0,-0.09000015,100.9661,1,0.75,2025-04-30T12:29:31.309+03:00,83,1.383333333333333,2025-04-22T14:20:19.516+03:00,0.02197104130929222,0
2025-04-30T12:33:59.087+03:00,1746005637.835524,40.95221369014472,29.1402479840385,75.93256,-1,-1,-1,-1,30,25.63065180778049,-9999,12988.882319875,-0.699798583984375,0.5942230224609375,-0.3811187744140625,12988.872243875,2.687411396277208,-1.086019886804216,-0.6220275456296186,0.01334773097187281,0.01755055598914623,0.02068410813808441,0.02360910177230835,0.01100492477416992,-0.005200207233428955,XArbitraryZVertical,-0.4203066088467746,0.366031721619176,-0.829756854736338,-0.02944340963683595,-0.7190590500831604,0.5826841592788696,-0.3787262737751007,0,0,0,-1,-1,12987.96036541667,unknown,2,2025-04-30T12:33:58.160+03:00,2025-04-30T12:00:08.093+03:00,170,1.362274,0,0,138.1113,0,0,2025-04-30T12:24:30.518+03:00,767698438.2672752,0,-0.09000015,100.9661,1,0.75,2025-04-30T12:29:31.309+03:00,83,1.383333333333333,2025-04-22T14:20:19.516+03:00,0.02197104130929222,0
2025-04-30T12:33:59.097+03:00,1746005637.835524,40.95221369014472,29.1402479840385,75.93256,-1,-1,-1,-1,30,25.63065180778049,-9999,12988.892395875,-0.7000885009765625,0.5956573486328125,-0.381256103515625,12988.882319875,2.687661181250124,-1.085687203812025,-0.6222168616695021,0.01011811569333076,0.0173641350120306,0.02200423739850521,0.02037948369979858,0.009737133979797363,-0.0007704496383666992,XArbitraryZVertical,-0.4201823532162126,0.3660461538766679,-0.8298167166762066,-0.02934969503395096,-0.7188353538513184,0.5828379988670349,-0.3789139986038208,0,0,0,-1,-1,12987.96036541667,unknown,2,2025-04-30T12:33:58.160+03:00,2025-04-30T12:00:08.093+03:00,170,1.362274,0,0,138.1113,0,0,2025-04-30T12:24:30.518+03:00,767698438.2672752,0,-0.09000015,100.9661,1,0.75,2025-04-30T12:29:31.309+03:00,83,1.383333333333333,2025-04-22T14:20:19.516+03:00,0.02197104130929222,0
2025-04-30T12:33:59.108+03:00,1746005637.835524,40.95221369014472,29.1402479840385,75.93256,-1,-1,-1,-1,30,25.63065180778049,-9999,12988.902471875,-0.6995086669921875,0.59466552734375,-0.379638671875,12988.892395875,2.687926861606946,-1.085369133518295,-0.6224459347999363,0.009412777610123158,0.01275566779077053,0.02544071339070797,0.01801985502243042,0.01191610097885132,-0.002816677093505859,XArbitraryZVertical,-0.4200603629188451,0.3660725843060083,-0.8298708070688999,-0.0292360217627708,-0.7185966968536377,0.5830240845680237,-0.3790802955627441,0,0,0,-1,-1,12987.96036541667,unknown,2,2025-04-30T12:33:58.160+03:00,2025-04-30T12:00:08.093+03:00,170,1.362274,0,0,138.1113,0,0,2025-04-30T12:24:30.518+03:00,767698438.2672752,0,-0.09000015,100.9661,1,0.75,2025-04-30T12:29:31.309+03:00,83,1.383333333333333,2025-04-22T14:20:19.516+03:00,0.02197104130929222,0
2025-04-30T12:33:59.117+03:00,1746005637.835524,40.95221369014472,29.1402479840385,75.93256,-1,-1,-1,-1,30,25.63065180778049,-9999,12988.912547875,-0.6998748779296875,0.5971221923828125,-0.3821868896484375,12988.902471875,2.688183952593176,-1.085046485927591,-0.6226892797554647,0.00778984697535634,0.01825908944010735,0.02469502948224545,0.01923686265945435,0.01271021366119385,-0.0007284581661224365,XArbitraryZVertical,-0.4199324962936017,0.3661062109503585,-0.8299246406938569,-0.02912292773822446,-0.7183488011360168,0.5832217931747437,-0.3792458772659302,0,0,0,-1,-1,12987.96036541667,unknown,2,2025-04-30T12:33:58.160+03:00,2025-04-30T12:00:08.093+03:00,170,1.362274,0,0,138.1113,0,0,2025-04-30T12:24:30.518+03:00,767698438.2672752,0,-0.09000015,100.9661,1,0.75,2025-04-30T12:29:31.309+03:00,83,1.383333333333333,2025-04-22T14:20:19.516+03:00,0.02197104130929222,0
2025-04-30T12:33:59.128+03:00,1746005637.835524,40.95221369014472,29.1402479840385,75.93256,-1,-1,-1,-1,30,25.63065180778049,-9999,12988.922623875,-0.698272705078125,0.6030731201171875,-0.3838653564453125,12988.912547875,2.688481228623858,-1.084711066353587,-0.6228837032045295,0.01675484515726566,0.01577675715088844,0.02373389340937138,0.01841425895690918,0.01223182678222656,-0.001898527145385742,XArbitraryZVertical,-0.419814914447816,0.3661126995545998,-0.8299853116183873,-0.02900873681050863,-0.718121349811554,0.5833797454833984,-0.3794338703155518,0,0,0,-1,-1,12987.96036541667,unknown,2,2025-04-30T12:33:58.160+03:00,2025-04-30T12:00:08.093+03:00,170,1.362274,0,0,138.1113,0,0,2025-04-30T12:24:30.518+03:00,767698438.2672752,0,-0.09000015,100.9661,1,0.75,2025-04-30T12:29:31.309+03:00,83,1.383333333333333,2025-04-22T14:20:19.516+03:00,0.02197104130929222,0
2025-04-30T12:33:59.138+03:00,1746005637.835524,40.95221369014472,29.1402479840385,75.93256,-1,-1,-1,-1,30,25.63065180778049,-9999,12988.932699875,-0.698455810546875,0.600494384765625,-0.3817596435546875,12988.922623875,2.688840731681015,-1.084309380282346,-0.6230737325449145,0.01943744719028473,0.02087617851793766,0.02641516551375389,0.01936924457550049,0.01703667640686035,-0.003142058849334717,XArbitraryZVertical,-0.4196819816420847,0.3661035514071114,-0.8300609880715578,-0.02888198178204389,-0.7178708910942078,0.5835340619087219,-0.3796704411506653,0,0,0,-1,-1,12987.96036541667,unknown,2,2025-04-30T12:33:58.160+03:00,2025-04-30T12:00:08.093+03:00,170,1.362274,0,0,138.1113,0,0,2025-04-30T12:24:30.518+03:00,767698438.2672752,0,-0.09000015,100.9661,1,0.75,2025-04-30T12:29:31.309+03:00,83,1.383333333333333,2025-04-22T14:20:19.516+03:00,0.02197104130929222,0
2025-04-30T12:33:59.148+03:00,1746005637.835524,40.95221369014472,29.1402479840385,75.93256,-1,-1,-1,-1,30,25.63065180778049,-9999,12988.942775875,-0.697357177734375,0.5991973876953125,-0.3817596435546875,12988.932699875,2.689199093328721,-1.083859829042192,-0.6232771752298299,0.01672868058085442,0.02135947532951832,0.02464013360440731,0.01956653594970703,0.01911455392837524,-0.003347992897033691,XArbitraryZVertical,-0.4195266985613634,0.3660991085256546,-0.8301456655510014,-0.0287608849820467,-0.7175952196121216,0.5836992859840393,-0.3799375891685486,0,0,0,-1,-1,12987.96036541667,unknown,2,2025-04-30T12:33:58.160+03:00,2025-04-30T12:00:08.093+03:00,170,1.362274,0,0,138.1113,0,0,2025-04-30T12:24:30.518+03:00,767698438.2672752,0,-0.09000015,100.9661,1,0.75,2025-04-30T12:29:31.309+03:00,83,1.383333333333333,2025-04-22T14:20:19.516+03:00,0.02197104130929222,0
2025-04-30T12:33:59.158+03:00,1746005637.835524,40.95221369014472,29.1402479840385,75.93256,-1,-1,-1,-1,30,25.63065180778049,-9999,12988.952852875,-0.69384765625,0.598114013671875,-0.384185791015625,12988.942775875,2.689561551691061,-1.083404255457008,-0.6234787528561014,0.01699339970946312,0.0197120439261198,0.0276993066072464,0.01831287145614624,0.01534980535507202,-8.547306060791016e-05,XArbitraryZVertical,-0.4193699863717659,0.3660930814842269,-0.8302316748209353,-0.02863965480307795,-0.717318058013916,0.5838629007339478,-0.3802093267440796,0,0,0,-1,-1,12987.96036541667,unknown,2,2025-04-30T12:33:58.160+03:00,2025-04-30T12:00:08.093+03:00,170,1.362274,0,0,138.1113,0,0,2025-04-30T12:24:30.518+03:00,767698438.2672752,0,-0.09000015,100.9661,1,0.75,2025-04-30T12:29:31.309+03:00,83,1.383333333333333,2025-04-22T14:20:19.516+03:00,0.02197104130929222,0
2025-04-30T12:33:59.168+03:00,1746005637.835524,40.95221369014472,29.1402479840385,75.93256,-1,-1,-1,-1,30,25.63065180778049,-9999,12988.962928875,-0.6972198486328125,0.5947265625,-0.3857269287109375,12988.952852875,2.689895204791556,-1.082947983189492,-0.6236934189203831,0.01270497683435678,0.02586188353598118,0.02617361582815647,0.02196532487869263,0.01532810926437378,-0.002761960029602051,XArbitraryZVertical,-0.4192054816000748,0.3660981238896474,-0.830316435439205,-0.02852705272195212,-0.7170338034629822,0.584037184715271,-0.3804778456687927,0,0,0,-1,-1,12987.96036541667,unknown,2,2025-04-30T12:33:58.160+03:00,2025-04-30T12:00:08.093+03:00,170,1.362274,0,0,138.1113,0,0,2025-04-30T12:24:30.518+03:00,767698438.2672752,0,-0.09000015,100.9661,1,0.75,2025-04-30T12:29:31.309+03:00,83,1.383333333333333,2025-04-22T14:20:19.516+03:00,0.02197104130929222,0
2025-04-30T12:33:59.178+03:00,1746005637.835524,40.95221369014472,29.1402479840385,75.93256,-1,-1,-1,-1,30,25.63065180778049,-9999,12988.973004875,-0.6991119384765625,0.5934600830078125,-0.3862152099609375,12988.962928875,2.690214200679501,-1.082494458183879,-0.6239334638491711,0.01127432659268379,0.02434840798377991,0.02943012863397598,0.02200454473495483,0.01215779781341553,-0.004654049873352051,XArbitraryZVertical,-0.4190351945031622,0.3661159824453962,-0.8303983478854861,-0.02841312063996288,-0.7167372703552246,0.5842320322990417,-0.3807371854782104,0,0,0,-1,-1,12987.96036541667,unknown,2,2025-04-30T12:33:58.160+03:00,2025-04-30T12:00:08.093+03:00,170,1.362274,0,0,138.1113,0,0,2025-04-30T12:24:30.518+03:00,767698438.2672752,0,-0.09000015,100.9661,1,0.75,2025-04-30T12:29:31.309+03:00,83,1.383333333333333,2025-04-22T14:20:19.516+03:00,0.02197104130929222,0
2025-04-30T12:33:59.188+03:00,1746005637.835524,40.95221369014472,29.1402479840385,75.93256,-1,-1,-1,-1,30,25.63065180778049,-9999,12988.983080875,-0.698455810546875,0.5946044921875,-0.384521484375,12988.973004875,2.690523160736954,-1.082084995361485,-0.6242077088035746,0.009376757778227329,0.01664674654603004,0.03196009993553162,0.01668697595596313,0.009646475315093994,-0.005244612693786621,XArbitraryZVertical,-0.4188755610667576,0.3661496280727127,-0.8304684366627275,-0.02828626231228425,-0.7164399027824402,0.5844545960426331,-0.3809554278850555,0,0,0,-1,-1,12987.96036541667,unknown,2,2025-04-30T12:33:58.160+03:00,2025-04-30T12:00:08.093+03:00,170,1.362274,0,0,138.1113,0,0,2025-04-30T12:24:30.518+03:00,767698438.2672752,0,-0.09000015,100.9661,1,0.75,2025-04-30T12:29:31.309+03:00,83,1.383333333333333,2025-04-22T14:20:19.516+03:00,0.02197104130929222,0
2025-04-30T12:33:59.198+03:00,1746005637.835524,40.95221369014472,29.1402479840385,75.93256,-1,-1,-1,-1,30,25.63065180778049,-9999,12988.993156875,-0.698822021484375,0.590667724609375,-0.3853302001953125,12988.983080875,2.690761436377204,-1.081733269061443,-0.6245577374877064,-0.002449274994432926,0.02157039754092693,0.03735672682523727,0.01789814233779907,0.009743928909301758,-0.004417359828948975,XArbitraryZVertical,-0.4187142481822921,0.3662277410979061,-0.8305196680322484,-0.02815777929682044,-0.7161251306533813,0.584738552570343,-0.3811112344264984,0,0,0,-1,-1,12987.96036541667,unknown,2,2025-04-30T12:33:58.160+03:00,2025-04-30T12:00:08.093+03:00,170,1.362274,0,0,138.1113,0,0,2025-04-30T12:24:30.518+03:00,767698438.2672752,0,-0.09000015,100.9661,1,0.75,2025-04-30T12:29:31.309+03:00,83,1.383333333333333,2025-04-22T14:20:19.516+03:00,0.02197104130929222,0
2025-04-30T12:33:59.208+03:00,1746005637.835524,40.95221369014472,29.1402479840385,75.93256,-1,-1,-1,-1,30,25.63065180778049,-9999,12989.003232875,-0.695098876953125,0.589141845703125,-0.3828277587890625,12988.993156875,2.69090073317344,-1.081445367595791,-0.6249750883398867,-0.01512518897652626,0.01746906340122223,0.03994328901171684,0.01632177829742432,0.008291482925415039,-0.00414276123046875,XArbitraryZVertical,-0.4185499650593293,0.366353095074525,-0.8305511839750351,-0.02804076618366176,-0.7157999873161316,0.5850770473480225,-0.3812026679515839,0,0,0,-1,-1,12987.96036541667,unknown,2,2025-04-30T12:33:58.160+03:00,2025-04-30T12:00:08.093+03:00,170,1.362274,0,0,138.1113,0,0,2025-04-30T12:24:30.518+03:00,767698438.2672752,0,-0.09000015,100.9661,1,0.75,2025-04-30T12:29:31.309+03:00,83,1.383333333333333,2025-04-22T14:20:19.516+03:00,0.02197104130929222,0
2025-04-30T12:33:59.218+03:00,1746005637.835524,40.95221369014472,29.1402479840385,75.93256,-1,-1,-1,-1,30,25.63065180778049,-9999,12989.013308875,-0.691864013671875,0.5912017822265625,-0.378997802734375,12989.003232875,2.690947979844103,-1.081265362652937,-0.6254875080132442,-0.02348804660141468,0.008557859808206558,0.04127566888928413,0.01804828643798828,0.004580080509185791,-0.00365149974822998,XArbitraryZVertical,-0.4183976739819563,0.3665353615289596,-0.8305515771499998,-0.02791661167736657,-0.7154665589332581,0.5854925513267517,-0.3811904191970825,0,0,0,-1,-1,12987.96036541667,unknown,2,2025-04-30T12:33:58.160+03:00,2025-04-30T12:00:08.093+03:00,170,1.362274,0,0,138.1113,0,0,2025-04-30T12:24:30.518+03:00,767698438.2672752,0,-0.09000015,100.9661,1,0.75,2025-04-30T12:29:31.309+03:00,83,1.383333333333333,2025-04-22T14:20:19.516+03:00,0.02197104130929222,0
2025-04-30T12:33:59.228+03:00,1746005637.835524,40.95221369014472,29.1402479840385,75.93256,-1,-1,-1,-1,30,25.63065180778049,-9999,12989.023384875,-0.69091796875,0.59716796875,-0.38214111328125,12989.013308875,2.690912950512087,-1.081212400004304,-0.6260493164630136,-0.02896204218268394,0.002921945648267865,0.04121235385537148,0.021506667137146,0.004384160041809082,0.0001684427261352539,XArbitraryZVertical,-0.4182746629873986,0.3667553674818377,-0.8305207095028539,-0.02779029004829085,-0.7151560187339783,0.5859479308128357,-0.3810736238956451,0,0,0,-1,-1,12987.96036541667,unknown,2,2025-04-30T12:33:58.160+03:00,2025-04-30T12:00:08.093+03:00,170,1.362274,0,0,138.1113,0,0,2025-04-30T12:24:30.518+03:00,767698438.2672752,0,-0.09000015,100.9661,1,0.75,2025-04-30T12:29:31.309+03:00,83,1.383333333333333,2025-04-22T14:20:19.516+03:00,0.02197104130929222,0
2025-04-30T12:33:59.238+03:00,1746005637.835524,40.95221369014472,29.1402479840385,75.93256,-1,-1,-1,-1,30,25.63065180778049,-9999,12989.033460875,-0.6919097900390625,0.6083221435546875,-0.3863067626953125,12989.023384875,2.690836625790676,-1.081243630261951,-0.6265763586169476,-0.02630580589175224,-0.002518360037356615,0.03589508682489395,0.02428245544433594,0.006459653377532959,0.001404643058776855,XArbitraryZVertical,-0.4181848544336301,0.3669719428360652,-0.8304741698627349,-0.02767499202489344,-0.7148953080177307,0.5863749384880066,-0.3809060454368591,0,0,0,-1,-1,12987.96036541667,unknown,2,2025-04-30T12:33:58.160+03:00,2025-04-30T12:00:08.093+03:00,170,1.362274,0,0,138.1113,0,0,2025-04-30T12:24:30.518+03:00,767698438.2672752,0,-0.09000015,100.9661,1,0.75,2025-04-30T12:29:31.309+03:00,83,1.383333333333333,2025-04-22T14:20:19.516+03:00,0.02197104130929222,0
2025-04-30T12:33:59.249+03:00,1746005637.835524,40.95221369014472,29.1402479840385,75.93256,-1,-1,-1,-1,30,25.63065180778049,-9999,12989.043536875,-0.690216064453125,0.6133880615234375,-0.3853912353515625,12989.033460875,2.690837485707243,-1.081258156312559,-0.6270278583672715,-0.01418369542807341,-0.006046315655112267,0.03114503994584084,0.02347445487976074,0.01569169759750366,-0.003338336944580078,XArbitraryZVertical,-0.4181149776410943,0.3671434292533413,-0.8304376954755109,-0.02755091384947503,-0.7146671414375305,0.5867406129837036,-0.38077113032341,0,0,0,-1,-1,12987.96036541667,unknown,2,2025-04-30T12:33:58.160+03:00,2025-04-30T12:00:08.093+03:00,170,1.362274,0,0,138.1113,0,0,2025-04-30T12:24:30.518+03:00,767698438.2672752,0,-0.09000015,100.9661,1,0.75,2025-04-30T12:29:31.309+03:00,83,1.383333333333333,2025-04-22T14:20:19.516+03:00,0.02197104130929222,0
2025-04-30T12:33:59.259+03:00,1746005637.835524,40.95221369014472,29.1402479840385,75.93256,-1,-1,-1,-1,30,25.63065180778049,-9999,12989.053612875,-0.694976806640625,0.6110076904296875,-0.3772125244140625,12989.043536875,2.69091760658967,-1.081230155594493,-0.6273838754866208,-0.004459695424884558,-0.004164259880781174,0.0273287296295166,0.02367603778839111,0.0247722864151001,-0.005980163812637329,XArbitraryZVertical,-0.4180581311791201,0.367261486677901,-0.8304180498830598,-0.02742715632158508,-0.7144719362258911,0.5870288610458374,-0.3806928098201752,0,0,0,-1,-1,12987.96036541667,unknown,2,2025-04-30T12:33:58.160+03:00,2025-04-30T12:00:08.093+03:00,170,1.362274,0,0,138.1113,0,0,2025-04-30T12:24:30.518+03:00,767698438.2672752,0,-0.09000015,100.9661,1,0.75,2025-04-30T12:29:31.309+03:00,83,1.383333333333333,2025-04-22T14:20:19.516+03:00,0.02197104130929222,0
2025-04-30T12:33:59.268+03:00,1746005637.835524,40.95221369014472,29.1402479840385,75.93256,-1,-1,-1,-1,30,25.63065180778049,-9999,12989.063688875,-0.703826904296875,0.60546875,-0.3740386962890625,12989.053612875,2.691017265574068,-1.081151497990431,-0.6276890194664702,-0.009313639253377914,0.002229923382401466,0.02643161080777645,0.02335065603256226,0.0254254937171936,-0.001064389944076538,XArbitraryZVertical,-0.4179923539781442,0.3673554495662943,-0.8304131836062423,-0.02731840188116204,-0.71428382396698,0.5872758626937866,-0.380664736032486,0,0,0,-1,-1,12987.96036541667,unknown,2,2025-04-30T12:33:58.160+03:00,2025-04-30T12:00:08.093+03:00,170,1.362274,0,0,138.1113,0,0,2025-04-30T12:24:30.518+03:00,767698438.2672752,0,-0.09000015,100.9661,1,0.75,2025-04-30T12:29:31.309+03:00,83,1.383333333333333,2025-04-22T14:20:19.516+03:00,0.02197104130929222,0
2025-04-30T12:33:59.279+03:00,1746005637.835524,40.95221369014472,29.1402479840385,75.93256,-1,-1,-1,-1,30,25.63065180778049,-9999,12989.073764875,-0.7029571533203125,0.6009368896484375,-0.3794097900390625,12989.063688875,2.691048957989242,-1.081071197159161,-0.6280046436614423,-0.01786691509187222,0.002155088586732745,0.02464755810797215,0.01432162523269653,0.02028727531433105,0.006184250116348267,XArbitraryZVertical,-0.4179116279404068,0.3674675768861664,-0.830406968086695,-0.02723541041294804,-0.7140896916389465,0.5875312685966492,-0.3806349039077759,0,0,0,-1,-1,12987.96036541667,unknown,2,2025-04-30T12:33:58.160+03:00,2025-04-30T12:00:08.093+03:00,170,1.362274,0,0,138.1113,0,0,2025-04-30T12:24:30.518+03:00,767698438.2672752,0,-0.09000015,100.9661,1,0.75,2025-04-30T12:29:31.309+03:00,83,1.383333333333333,2025-04-22T14:20:19.516+03:00,0.02197104130929222,0
2025-04-30T12:33:59.288+03:00,1746005637.835524,40.95221369014472,29.1402479840385,75.93256,-1,-1,-1,-1,30,25.63065180778049,-9999,12989.083840875,-0.699249267578125,0.600250244140625,-0.382293701171875,12989.073764875,2.690949579543878,-1.081084800912972,-0.628350231967119,-0.02280641160905361,0.003703050781041384,0.02404375374317169,0.009386837482452393,0.01504862308502197,0.003942787647247314,XArbitraryZVertical,-0.417840764768053,0.3676197384668122,-0.8303770246488439,-0.02718149152667659,-0.7139156460762024,0.5878108739852905,-0.3805296421051025,0,0,0,-1,-1,12987.96036541667,unknown,2,2025-04-30T12:33:58.160+03:00,2025-04-30T12:00:08.093+03:00,170,1.362274,0,0,138.1113,0,0,2025-04-30T12:24:30.518+03:00,767698438.2672752,0,-0.09000015,100.9661,1,0.75,2025-04-30T12:29:31.309+03:00,83,1.383333333333333,2025-04-22T14:20:19.516+03:00,0.02197104130929222,0
2025-04-30T12:33:59.299+03:00,1746005637.835524,40.95221369014472,29.1402479840385,75.93256,-1,-1,-1,-1,30,25.63065180778049,-9999,12989.093916875,-0.6972198486328125,0.6006317138671875,-0.3873443603515625,12989.083840875,2.690904270244287,-1.081049937765038,-0.6286839316337087,-0.01601614989340305,0.002109681721776724,0.02320139482617378,0.01324403285980225,0.01245933771133423,1.490116119384766e-05,XArbitraryZVertical,-0.4177616845104986,0.3677554174571031,-0.8303588552060567,-0.02711726220293201,-0.7137292623519897,0.5880808234214783,-0.380462259054184,0,0,0,-1,-1,12987.96036541667,unknown,2,2025-04-30T12:33:58.160+03:00,2025-04-30T12:00:08.093+03:00,170,1.362274,0,0,138.1113,0,0,2025-04-30T12:24:30.518+03:00,767698438.2672752,0,-0.09000015,100.9661,1,0.75,2025-04-30T12:29:31.309+03:00,83,1.383333333333333,2025-04-22T14:20:19.516+03:00,0.02197104130929222,0
2025-04-30T12:33:59.309+03:00,1746005637.835524,40.95221369014472,29.1402479840385,75.93256,-1,-1,-1,-1,30,25.63065180778049,-9999,12989.103992875,-0.694244384765625,0.599517822265625,-0.37921142578125,12989.093916875,2.690919169893681,-1.080972318164178,-0.629011752084512,-0.01226182468235493,0.007572956848889589,0.0286924671381712,0.01574516296386719,0.01175171136856079,-0.005193144083023071,XArbitraryZVertical,-0.4176769103079812,0.3678757016443365,-0.8303508221103595,-0.02703745784128314,-0.7135295867919922,0.5883459448814392,-0.3804269433021545,0,0,0,-1,-1,12987.96036541667,unknown,2,2025-04-30T12:33:58.160+03:00,2025-04-30T12:00:08.093+03:00,170,1.362274,0,0,138.1113,0,0,2025-04-30T12:24:30.518+03:00,767698438.2672752,0,-0.09000015,100.9661,1,0.75,2025-04-30T12:29:31.309+03:00,83,1.383333333333333,2025-04-22T14:20:19.516+03:00,0.02197104130929222,0
2025-04-30T12:33:59.319+03:00,1746005637.835524,40.95221369014472,29.1402479840385,75.93256,-1,-1,-1,-1,30,25.63065180778049,-9999,12989.114068875,-0.6963348388671875,0.6022186279296875,-0.38153076171875,12989.103992875,2.690955332098268,-1.080824832680999,-0.6293812476812471,-0.01419554650783539,0.01049604266881943,0.02796036377549171,0.01838111877441406,0.01146823167800903,-0.003816932439804077,XArbitraryZVertical,-0.4175599894575115,0.3680064225733054,-0.8303545641478386,-0.02695055741178032,-0.7132816314697266,0.5886446833610535,-0.3804298639297485,0,0,0,-1,-1,12987.96036541667,unknown,2,2025-04-30T12:33:58.160+03:00,2025-04-30T12:00:08.093+03:00,170,1.362274,0,0,138.1113,0,0,2025-04-30T12:24:30.518+03:00,767698438.2672752,0,-0.09000015,100.9661,1,0.75,2025-04-30T12:29:31.309+03:00,83,1.383333333333333,2025-04-22T14:20:19.516+03:00,0.02197104130929222,0
2025-04-30T12:33:59.329+03:00,1746005637.835524,40.95221369014472,29.1402479840385,75.93256,-1,-1,-1,-1,30,25.63065180778049,-9999,12989.124144875,-0.6948699951171875,0.5986480712890625,-0.390472412109375,12989.114068875,2.690905690243787,-1.080716012443867,-0.6297732415598424,-0.0261552706360817,0.00912877544760704,0.02472475729882717,0.01776981353759766,0.01180756092071533,0.002636969089508057,XArbitraryZVertical,-0.417439536351955,0.3681641161264667,-0.8303473145936534,-0.02688611477384273,-0.7130365967750549,0.5889615416526794,-0.3803988397121429,0,0,0,-1,-1,12987.96036541667,unknown,2,2025-04-30T12:33:58.160+03:00,2025-04-30T12:00:08.093+03:00,170,1.362274,0,0,138.1113,0,0,2025-04-30T12:24:30.518+03:00,767698438.2672752,0,-0.09000015,100.9661,1,0.75,2025-04-30T12:29:31.309+03:00,83,1.383333333333333,2025-04-22T14:20:19.516+03:00,0.02197104130929222,0
2025-04-30T12:33:59.339+03:00,1746005637.835524,40.95221369014472,29.1402479840385,75.93256,-1,-1,-1,-1,30,25.63065180778049,-9999,12989.134220875,-0.69134521484375,0.6056060791015625,-0.391082763671875,12989.124144875,2.690749670457315,-1.080758421722285,-0.6301893662827855,-0.03084003739058971,-0.002262363210320473,0.01898591220378876,0.01607429981231689,0.01079994440078735,-0.007320046424865723,XArbitraryZVertical,-0.4173581792519833,0.3683551849015322,-0.8303052434623882,-0.02683153647185275,-0.7128364443778992,0.5892977714538574,-0.3802532255649567,0,0,0,-1,-1,12987.96036541667,unknown,2,2025-04-30T12:33:58.160+03:00,2025-04-30T12:00:08.093+03:00,170,1.362274,0,0,138.1113,0,0,2025-04-30T12:24:30.518+03:00,767698438.2672752,0,-0.09000015,100.9661,1,0.75,2025-04-30T12:29:31.309+03:00,83,1.383333333333333,2025-04-22T14:20:19.516+03:00,0.02197104130929222,0
2025-04-30T12:33:59.349+03:00,1746005637.835524,40.95221369014472,29.1402479840385,75.93256,-1,-1,-1,-1,30,25.63065180778049,-9999,12989.144296875,-0.69378662109375,0.6127166748046875,-0.386260986328125,12989.134220875,2.690573182610806,-1.08092059795209,-0.6305555939237323,-0.02344643697142601,-0.0134885199368,0.01657927967607975,0.02041631937026978,0.01114499568939209,-0.01238948106765747,XArbitraryZVertical,-0.4173311457229164,0.3685331630919426,-0.8302416373842192,-0.02677675938842585,-0.7127076387405396,0.5895935893058777,-0.3800360560417175,0,0,0,-1,-1,12987.96036541667,unknown,2,2025-04-30T12:33:58.160+03:00,2025-04-30T12:00:08.093+03:00,170,1.362274,0,0,138.1113,0,0,2025-04-30T12:24:30.518+03:00,767698438.2672752,0,-0.09000015,100.9661,1,0.75,2025-04-30T12:29:31.309+03:00,83,1.383333333333333,2025-04-22T14:20:19.516+03:00,0.02197104130929222,0
2025-04-30T12:33:59.359+03:00,1746005637.835524,40.95221369014472,29.1402479840385,75.93256,-1,-1,-1,-1,30,25.63065180778049,-9999,12989.154372875,-0.6929779052734375,0.6122894287109375,-0.3819732666015625,12989.144296875,2.690373522702862,-1.081207439212049,-0.6308425581719549,-0.02689283341169357,-0.01758659072220325,0.009322697296738625,0.02014708518981934,0.0206483006477356,-0.009575963020324707,XArbitraryZVertical,-0.417364935114145,0.3686875395888365,-0.8301576254666493,-0.02672982803225306,-0.7126672863960266,0.5898253321647644,-0.3797520101070404,0,0,0,-1,-1,12987.96036541667,unknown,2,2025-04-30T12:33:58.160+03:00,2025-04-30T12:00:08.093+03:00,170,1.362274,0,0,138.1113,0,0,2025-04-30T12:24:30.518+03:00,767698438.2672752,0,-0.09000015,100.9661,1,0.75,2025-04-30T12:29:31.309+03:00,83,1.383333333333333,2025-04-22T14:20:19.516+03:00,0.02197104130929222,0
2025-04-30T12:33:59.369+03:00,1746005637.835524,40.95221369014472,29.1402479840385,75.93256,-1,-1,-1,-1,30,25.63065180778049,-9999,12989.164448875,-0.694244384765625,0.6092071533203125,-0.3806915283203125,12989.154372875,2.690139200795775,-1.081554231960973,-0.6310499120640854,-0.02266266755759716,-0.01961565390229225,0.003706623334437609,0.01856857538223267,0.0229986310005188,-0.004631638526916504,XArbitraryZVertical,-0.4174306180330402,0.3688197291431104,-0.8300666121675363,-0.026707546444399,-0.7126909494400024,0.5899927616119385,-0.3794473707675934,0,0,0,-1,-1,12987.96036541667,unknown,2,2025-04-30T12:33:58.160+03:00,2025-04-30T12:00:08.093+03:00,170,1.362274,0,0,138.1113,0,0,2025-04-30T12:24:30.518+03:00,767698438.2672752,0,-0.09000015,100.9661,1,0.75,2025-04-30T12:29:31.309+03:00,83,1.383333333333333,2025-04-22T14:20:19.516+03:00,0.02197104130929222,0
2025-04-30T12:33:59.380+03:00,1746005637.835524,40.95221369014472,29.1402479840385,75.93256,-1,-1,-1,-1,30,25.63065180778049,-9999,12989.174524875,-0.6959991455078125,0.602813720703125,-0.382965087890625,12989.164448875,2.689866628747623,-1.081894034008171,-0.6312476321409835,-0.02935119718313217,-0.01822681538760662,0.001996075036004186,0.01970839500427246,0.02019917964935303,-0.0018463134765625,XArbitraryZVertical,-0.417487939500406,0.3689561426443671,-0.8299772195071222,-0.0267049229817778,-0.7127168774604797,0.5901524424552917,-0.3791503608226776,0,0,0,-1,-1,12987.96036541667,unknown,2,2025-04-30T12:33:58.160+03:00,2025-04-30T12:00:08.093+03:00,170,1.362274,0,0,138.1113,0,0,2025-04-30T12:24:30.518+03:00,767698438.2672752,0,-0.09000015,100.9661,1,0.75,2025-04-30T12:29:31.309+03:00,83,1.383333333333333,2025-04-22T14:20:19.516+03:00,0.02197104130929222,0
