loggingTime(txt),locationTimestamp_since1970(s),locationLatitude(WGS84),locationLongitude(WGS84),locationAltitude(m),locationSpeed(m/s),locationSpeedAccuracy(m/s),locationCourse(°),locationCourseAccuracy(°),locationVerticalAccuracy(m),locationHorizontalAccuracy(m),locationFloor(Z),accelerometerTimestamp_sinceReboot(s),accelerometerAccelerationX(G),accelerometerAccelerationY(G),accelerometerAccelerationZ(G),motionTimestamp_sinceReboot(s),motionYaw(rad),motionRoll(rad),motionPitch(rad),motionRotationRateX(rad/s),motionRotationRateY(rad/s),motionRotationRateZ(rad/s),motionUserAccelerationX(G),motionUserAccelerationY(G),motionUserAccelerationZ(G),motionAttitudeReferenceFrame(txt),motionQuaternionX(R),motionQuaternionY(R),motionQuaternionZ(R),motionQuaternionW(R),motionGravityX(G),motionGravityY(G),motionGravityZ(G),motionMagneticFieldX(µT),motionMagneticFieldY(µT),motionMagneticFieldZ(µT),motionHeading(°),motionMagneticFieldCalibrationAccuracy(Z),activityTimestamp_sinceReboot(s),activity(txt),activityActivityConfidence(Z),activityActivityStartDate(txt),pedometerStartDate(txt),pedometerNumberofSteps(N),pedometerAverageActivePace(s/m),pedometerCurrentPace(s/m),pedometerCurrentCadence(steps/s),pedometerDistance(m),pedometerFloorAscended(N),pedometerFloorDescended(N),pedometerEndDate(txt),altimeterTimestamp_sinceReboot(s),altimeterReset(bool),altimeterRelativeAltitude(m),altimeterPressure(kPa),batteryState(N),batteryLevel(R),heartRateBPMTimestamp(txt),heartRateBPM(N),heartRateBPS(R),heartRateVariabilityTimestamp(txt),heartRateVariability(ms),label
2025-04-30T12:11:54.431+03:00,1746004311.644837,40.95225006229428,29.14029629289345,76.41664,-1,-1,-1,-1,30,20.44752438444682,-9999,11935.66724475,-0.677581787109375,0.6034088134765625,-0.4366455078125,11935.65463275,2.848574592430857,-0.9912304586661183,-0.6783727970728574,0.03499412909150124,0.03345735743641853,0.0181187316775322,0.01666980981826782,0.03916007280349731,-0.001465827226638794,XArbitraryZVertical,0.400944960684596,-0.3550214283610386,0.8437697262149487,-0.03543411126987448,-0.6514506936073303,0.6275269389152527,-0.4264058470726013,0,0,0,-1,-1,11912.735939625,unknown,2,2025-04-30T12:11:31.479+03:00,2025-04-30T12:00:08.093+03:00,94,1.480054,0,0,78.64606,0,0,2025-04-30T12:11:34.059+03:00,767697112.2173975,0,2.07,100.9399,1,0.8,2025-04-30T12:11:47.395+03:00,111,1.85,2025-04-22T14:20:19.516+03:00,0.02197104130929222,0
2025-04-30T12:11:54.433+03:00,1746004311.644837,40.95225006229428,29.14029629289345,76.41664,-1,-1,-1,-1,30,20.44752438444682,-9999,11935.67732141667,-0.675079345703125,0.60845947265625,-0.433624267578125,11935.66470875,2.849001304733235,-0.9904285763216472,-0.6782631328616646,0.02862571179866791,0.06128925457596779,0.004123021848499775,0.02758520841598511,0.03692615032196045,-0.001119494438171387,XArbitraryZVertical,0.4006975617517413,-0.3549063766367754,0.843935209502134,-0.0354451384570313,-0.6511661410331726,0.6274415254592896,-0.4269658625125885,0,0,0,-1,-1,11912.735939625,unknown,2,2025-04-30T12:11:31.479+03:00,2025-04-30T12:00:08.093+03:00,94,1.480054,0,0,78.64606,0,0,2025-04-30T12:11:34.059+03:00,767697112.2173975,0,2.07,100.9399,1,0.8,2025-04-30T12:11:47.395+03:00,111,1.85,2025-04-22T14:20:19.516+03:00,0.02197104130929222,0
2025-04-30T12:11:54.434+03:00,1746004311.644837,40.95225006229428,29.14029629289345,76.41664,-1,-1,-1,-1,30,20.44752438444682,-9999,11935.68739741667,-0.632232666015625,0.6439208984375,-0.4281768798828125,11935.67478541667,2.849333213424154,-0.989751916264316,-0.6781090676909869,0.0332891084253788,0.03272651880979538,0.003140681423246861,-0.03799164295196533,-0.03271704912185669,-0.009735345840454102,XArbitraryZVertical,0.4004922317136214,-0.3547904108906937,0.8440822174141138,-0.03542766578683695,-0.6509579420089722,0.6273215413093567,-0.4274594783782959,0,0,0,-1,-1,11912.735939625,unknown,2,2025-04-30T12:11:31.479+03:00,2025-04-30T12:00:08.093+03:00,94,1.480054,0,0,78.64606,0,0,2025-04-30T12:11:34.059+03:00,767697112.2173975,0,2.07,100.9399,1,0.8,2025-04-30T12:11:47.395+03:00,111,1.85,2025-04-22T14:20:19.516+03:00,0.02197104130929222,0
2025-04-30T12:11:54.443+03:00,1746004311.644837,40.95225006229428,29.14029629289345,76.41664,-1,-1,-1,-1,30,20.44752438444682,-9999,11935.69747441667,-0.6516571044921875,0.6322479248046875,-0.426910400390625,11935.68486141667,2.849732559595752,-0.9892068518807479,-0.6779664506302939,0.04010360315442085,0.0311917420476675,-0.002137969946488738,-0.008883655071258545,-0.007108569145202637,-0.003670454025268555,XArbitraryZVertical,0.4003527540344009,-0.354663199023894,0.8442002829711684,-0.03546490717055967,-0.6507996320724487,0.6272104978561401,-0.4278633892536163,0,0,0,-1,-1,11912.735939625,unknown,2,2025-04-30T12:11:31.479+03:00,2025-04-30T12:00:08.093+03:00,94,1.480054,0,0,78.64606,0,0,2025-04-30T12:11:34.059+03:00,767697112.2173975,0,2.07,100.9399,1,0.8,2025-04-30T12:11:47.395+03:00,111,1.85,2025-04-22T14:20:19.516+03:00,0.02197104130929222,0
2025-04-30T12:11:54.453+03:00,1746004311.644837,40.95225006229428,29.14029629289345,76.41664,-1,-1,-1,-1,30,20.44752438444682,-9999,11935.70755041667,-0.6527862548828125,0.60968017578125,-0.4205780029296875,11935.69493841667,2.850067032239779,-0.9886428308254669,-0.6778272327266637,0.02745871618390083,0.03758658841252327,-0.005381267517805099,0.0175897479057312,0.01828372478485107,0.0006355643272399902,XArbitraryZVertical,0.4001932224779607,-0.3545506834335216,0.8443228928744883,-0.03547228881359167,-0.6506311297416687,0.6271020770072937,-0.428278386592865,0,0,0,-1,-1,11912.735939625,unknown,2,2025-04-30T12:11:31.479+03:00,2025-04-30T12:00:08.093+03:00,94,1.480054,0,0,78.64606,0,0,2025-04-30T12:11:34.059+03:00,767697112.2173975,0,2.07,100.9399,1,0.8,2025-04-30T12:11:47.395+03:00,111,1.85,2025-04-22T14:20:19.516+03:00,0.02197104130929222,0
2025-04-30T12:11:54.465+03:00,1746004311.644837,40.95225006229428,29.14029629289345,76.41664,-1,-1,-1,-1,30,20.44752438444682,-9999,11935.71762741667,-0.635406494140625,0.6166229248046875,-0.4123382568359375,11935.70501441667,2.850211833695989,-0.9882296148185836,-0.6775812169766983,0.0158233642578125,0.02740585803985596,-0.01052835863083601,-0.005606174468994141,-0.001452624797821045,0.002698183059692383,XArbitraryZVertical,0.4000785007894801,-0.354430814438626,0.8444304522591216,-0.03540062870609847,-0.6505827903747559,0.626910388469696,-0.428631991147995,0,0,0,-1,-1,11912.735939625,unknown,2,2025-04-30T12:11:31.479+03:00,2025-04-30T12:00:08.093+03:00,94,1.480054,0,0,78.64606,0,0,2025-04-30T12:11:34.059+03:00,767697112.2173975,0,2.07,100.9399,1,0.8,2025-04-30T12:11:47.395+03:00,111,1.85,2025-04-22T14:20:19.516+03:00,0.02197104130929222,0
2025-04-30T12:11:54.473+03:00,1746004311.644837,40.95225006229428,29.14029629289345,76.41664,-1,-1,-1,-1,30,20.44752438444682,-9999,11935.72770341667,-0.63787841796875,0.628204345703125,-0.413421630859375,11935.71509141667,2.850351834667652,-0.9878748452307429,-0.6772893284267394,0.0225256085395813,0.02723315171897411,-0.01133203413337469,0.003259837627410889,-0.01822352409362793,0.01012501120567322,XArbitraryZVertical,0.3999938436478228,-0.354292510951764,0.8445317276035065,-0.03532609311231685,-0.6505834460258484,0.6266829967498779,-0.4289634823799133,0,0,0,-1,-1,11912.735939625,unknown,2,2025-04-30T12:11:31.479+03:00,2025-04-30T12:00:08.093+03:00,94,1.480054,0,0,78.64606,0,0,2025-04-30T12:11:34.059+03:00,767697112.2173975,0,2.07,100.9399,1,0.8,2025-04-30T12:11:47.395+03:00,111,1.85,2025-04-22T14:20:19.516+03:00,0.02197104130929222,0
2025-04-30T12:11:54.483+03:00,1746004311.644837,40.95225006229428,29.14029629289345,76.41664,-1,-1,-1,-1,30,20.44752438444682,-9999,11935.73777941667,-0.6455535888671875,0.62152099609375,-0.4247283935546875,11935.72516741667,2.850457987706212,-0.9875416621156042,-0.6770202328221588,0.01105484087020159,0.03143402189016342,-0.01129102148115635,0.01677685976028442,-0.005364298820495605,0.0180029571056366,XArbitraryZVertical,0.3999091289824828,-0.3541696747642074,0.844626646106635,-0.03524670870507463,-0.6505811810493469,0.6264732480049133,-0.4292730689048767,0,0,0,-1,-1,11912.735939625,unknown,2,2025-04-30T12:11:31.479+03:00,2025-04-30T12:00:08.093+03:00,94,1.480054,0,0,78.64606,0,0,2025-04-30T12:11:34.059+03:00,767697112.2173975,0,2.07,100.9399,1,0.8,2025-04-30T12:11:47.395+03:00,111,1.85,2025-04-22T14:20:19.516+03:00,0.02197104130929222,0
2025-04-30T12:11:54.493+03:00,1746004311.644837,40.95225006229428,29.14029629289345,76.41664,-1,-1,-1,-1,30,20.44752438444682,-9999,11935.74785641667,-0.642059326171875,0.6123199462890625,-0.4323883056640625,11935.73524341667,2.850431487171824,-0.9872635941589543,-0.6769989441093635,-0.005646840669214725,0.02596528828144073,-0.009430371224880219,0.01056510210037231,0.001457750797271729,0.01343044638633728,XArbitraryZVertical,0.3997899284377472,-0.3541713610399998,0.8446851364630911,-0.03518108625413922,-0.6504729390144348,0.6264566779136658,-0.4294613301753998,0,0,0,-1,-1,11912.735939625,unknown,2,2025-04-30T12:11:31.479+03:00,2025-04-30T12:00:08.093+03:00,94,1.480054,0,0,78.64606,0,0,2025-04-30T12:11:34.059+03:00,767697112.2173975,0,2.07,100.9399,1,0.8,2025-04-30T12:11:47.395+03:00,111,1.85,2025-04-22T14:20:19.516+03:00,0.02197104130929222,0
2025-04-30T12:11:54.503+03:00,1746004311.644837,40.95225006229428,29.14029629289345,76.41664,-1,-1,-1,-1,30,20.44752438444682,-9999,11935.75793241667,-0.63787841796875,0.6133880615234375,-0.430877685546875,11935.74532041667,2.850279217246139,-0.9871204352607341,-0.6770735164357748,-0.0159588661044836,0.01788232661783695,-0.004272360354661942,0.004330635070800781,-0.008594870567321777,0.001504451036453247,XArbitraryZVertical,0.3996921851893724,-0.3542341003373167,0.8447081053537158,-0.03510945478029609,-0.6503725051879883,0.6265147924423218,-0.4295287132263184,0,0,0,-1,-1,11912.735939625,unknown,2,2025-04-30T12:11:31.479+03:00,2025-04-30T12:00:08.093+03:00,94,1.480054,0,0,78.64606,0,0,2025-04-30T12:11:34.059+03:00,767697112.2173975,0,2.07,100.9399,1,0.8,2025-04-30T12:11:47.395+03:00,111,1.85,2025-04-22T14:20:19.516+03:00,0.02197104130929222,0
2025-04-30T12:11:54.513+03:00,1746004311.644837,40.95225006229428,29.14029629289345,76.41664,-1,-1,-1,-1,30,20.44752438444682,-9999,11935.76800941667,-0.6397857666015625,0.6134796142578125,-0.427337646484375,11935.75539641667,2.850097718334066,-0.9871325681939124,-0.6770621189653506,-0.0130640110000968,0.007660582661628723,-0.001794422278180718,0.009865462779998779,-0.01543718576431274,-0.003092437982559204,XArbitraryZVertical,0.3996667491227572,-0.3542656081367809,0.844710096192463,-0.03503221842811975,-0.6503836512565613,0.6265059113502502,-0.4295247495174408,0,0,0,-1,-1,11912.735939625,unknown,2,2025-04-30T12:11:31.479+03:00,2025-04-30T12:00:08.093+03:00,94,1.480054,0,0,78.64606,0,0,2025-04-30T12:11:34.059+03:00,767697112.2173975,0,2.07,100.9399,1,0.8,2025-04-30T12:11:47.395+03:00,111,1.85,2025-04-22T14:20:19.516+03:00,0.02197104130929222,0
2025-04-30T12:11:54.523+03:00,1746004311.644837,40.95225006229428,29.14029629289345,76.41664,-1,-1,-1,-1,30,20.44752438444682,-9999,11935.77808541667,-0.6421966552734375,0.612518310546875,-0.4244384765625,11935.76547341667,2.849988769777284,-0.9871543025635572,-0.6771165908957707,-0.010012561455369,0.002677009208127856,0.004462408367544413,0.01305067539215088,-0.01312977075576782,0.0001704990863800049,XArbitraryZVertical,0.3996491186560109,-0.354308763989338,0.8447014909354829,-0.03500329322678161,-0.6503644585609436,0.6265483498573303,-0.4294917583465576,0,0,0,-1,-1,11912.735939625,unknown,2,2025-04-30T12:11:31.479+03:00,2025-04-30T12:00:08.093+03:00,94,1.480054,0,0,78.64606,0,0,2025-04-30T12:11:34.059+03:00,767697112.2173975,0,2.07,100.9399,1,0.8,2025-04-30T12:11:47.395+03:00,111,1.85,2025-04-22T14:20:19.516+03:00,0.02197104130929222,0
2025-04-30T12:11:54.533+03:00,1746004311.644837,40.95225006229428,29.14029629289345,76.41664,-1,-1,-1,-1,30,20.44752438444682,-9999,11935.78816241667,-0.641082763671875,0.6135711669921875,-0.4227294921875,11935.77554941667,2.849877236344316,-0.9871891782307046,-0.6772859852287982,-0.0208034235984087,0.002475940622389317,0.00263894209638238,0.009635388851165771,-0.01361274719238281,0.002256095409393311,XArbitraryZVertical,0.3996206683013433,-0.3543981069433195,0.844677489083846,-0.0350033956720846,-0.6502909064292908,0.6266803741455078,-0.4294106066226959,0,0,0,-1,-1,11912.735939625,unknown,2,2025-04-30T12:11:31.479+03:00,2025-04-30T12:00:08.093+03:00,94,1.480054,0,0,78.64606,0,0,2025-04-30T12:11:34.059+03:00,767697112.2173975,0,2.07,100.9399,1,0.8,2025-04-30T12:11:47.395+03:00,111,1.85,2025-04-22T14:20:19.516+03:00,0.02197104130929222,0
2025-04-30T12:11:54.544+03:00,1746004311.644837,40.95225006229428,29.14029629289345,76.41664,-1,-1,-1,-1,30,20.44752438444682,-9999,11935.79823841667,-0.6441650390625,0.6160888671875,-0.4225921630859375,11935.78562641667,2.84958305317722,-0.9873756106644218,-0.6774468405661962,-0.03139028698205948,0.000267914030700922,0.001537192380055785,0.00780022144317627,-0.01450103521347046,0.004566490650177002,XArbitraryZVertical,0.3996250295077525,-0.3545178798939354,0.8446273111004204,-0.03495119211185813,-0.6502867937088013,0.6268057227134705,-0.4292338192462921,0,0,0,-1,-1,11912.735939625,unknown,2,2025-04-30T12:11:31.479+03:00,2025-04-30T12:00:08.093+03:00,94,1.480054,0,0,78.64606,0,0,2025-04-30T12:11:34.059+03:00,767697112.2173975,0,2.07,100.9399,1,0.8,2025-04-30T12:11:47.395+03:00,111,1.85,2025-04-22T14:20:19.516+03:00,0.02197104130929222,0
2025-04-30T12:11:54.553+03:00,1746004311.644837,40.95225006229428,29.14029629289345,76.41664,-1,-1,-1,-1,30,20.44752438444682,-9999,11935.80831441667,-0.6500396728515625,0.6207122802734375,-0.42694091796875,11935.79570241667,2.84917148306923,-0.9876711384846886,-0.677610631253698,-0.03998643904924393,-0.001528921071439981,-0.001429968629963696,0.009168863296508789,-0.01284331083297729,0.006606578826904297,XArbitraryZVertical,0.399654185308066,-0.3546603706908164,0.8445571052166118,-0.03486945956332964,-0.6503279209136963,0.6269333362579346,-0.4289851188659668,0,0,0,-1,-1,11912.735939625,unknown,2,2025-04-30T12:11:31.479+03:00,2025-04-30T12:00:08.093+03:00,94,1.480054,0,0,78.64606,0,0,2025-04-30T12:11:34.059+03:00,767697112.2173975,0,2.07,100.9399,1,0.8,2025-04-30T12:11:47.395+03:00,111,1.85,2025-04-22T14:20:19.516+03:00,0.02197104130929222,0
2025-04-30T12:11:54.564+03:00,1746004311.644837,40.95225006229428,29.14029629289345,76.41664,-1,-1,-1,-1,30,20.44752438444682,-9999,11935.81839141667,-0.65093994140625,0.623779296875,-0.431610107421875,11935.80577841667,2.848689418565709,-0.988003980653716,-0.6778835482354822,-0.04145490750670433,0.0004615252837538719,-9.439326822757721e-05,0.004911541938781738,-0.01038569211959839,0.004785269498825073,XArbitraryZVertical,0.3996714261490298,-0.3548598761001613,0.8444683607133493,-0.03479113625752005,-0.6503278017044067,0.6271459460258484,-0.4286744296550751,0,0,0,-1,-1,11912.735939625,unknown,2,2025-04-30T12:11:31.479+03:00,2025-04-30T12:00:08.093+03:00,94,1.480054,0,0,78.64606,0,0,2025-04-30T12:11:34.059+03:00,767697112.2173975,0,2.07,100.9399,1,0.8,2025-04-30T12:11:47.395+03:00,111,1.85,2025-04-22T14:20:19.516+03:00,0.02197104130929222,0
2025-04-30T12:11:54.574+03:00,1746004311.644837,40.95225006229428,29.14029629289345,76.41664,-1,-1,-1,-1,30,20.44752438444682,-9999,11935.82846741667,-0.64862060546875,0.624603271484375,-0.4311065673828125,11935.81585541667,2.848199046157119,-0.9883543608033288,-0.6781126936306187,-0.03852662816643715,-0.002195643726736307,-0.008238006383180618,-0.0006888508796691895,-0.005254030227661133,-0.0006638765335083008,XArbitraryZVertical,0.399700567689861,-0.3550432576381978,0.8443811442334161,-0.03470188067892062,-0.6503579020500183,0.6273244023323059,-0.4283674955368042,0,0,0,-1,-1,11912.735939625,unknown,2,2025-04-30T12:11:31.479+03:00,2025-04-30T12:00:08.093+03:00,94,1.480054,0,0,78.64606,0,0,2025-04-30T12:11:34.059+03:00,767697112.2173975,0,2.07,100.9399,1,0.8,2025-04-30T12:11:47.395+03:00,111,1.85,2025-04-22T14:20:19.516+03:00,0.02197104130929222,0
2025-04-30T12:11:54.584+03:00,1746004311.644837,40.95225006229428,29.14029629289345,76.41664,-1,-1,-1,-1,30,20.44752438444682,-9999,11935.83854441667,-0.6496734619140625,0.6329803466796875,-0.427886962890625,11935.82593141667,2.847786785086481,-0.9886371352107747,-0.6782023136176095,-0.02517566829919815,-0.002715492155402899,-0.01268069259822369,8.720159530639648e-05,-0.003111302852630615,-0.004357695579528809,XArbitraryZVertical,0.3997343005196944,-0.3551565157387308,0.8443217771136942,-0.03459975260569443,-0.6504321098327637,0.6273941993713379,-0.4281526803970337,0,0,0,-1,-1,11912.735939625,unknown,2,2025-04-30T12:11:31.479+03:00,2025-04-30T12:00:08.093+03:00,94,1.480054,0,0,78.64606,0,0,2025-04-30T12:11:34.059+03:00,767697112.2173975,0,2.07,100.9399,1,0.8,2025-04-30T12:11:47.395+03:00,111,1.85,2025-04-22T14:20:19.516+03:00,0.02197104130929222,0
2025-04-30T12:11:54.594+03:00,1746004311.644837,40.95225006229428,29.14029629289345,76.41664,-1,-1,-1,-1,30,20.44752438444682,-9999,11935.84862041667,-0.650604248046875,0.6366729736328125,-0.4297027587890625,11935.83600841667,2.847526393259073,-0.9887435950894164,-0.6781340373214911,-0.01231879182159901,0.005944241769611835,-0.01795032247900963,0.00212174654006958,-0.001150786876678467,-0.001534759998321533,XArbitraryZVertical,0.3997424718162631,-0.3551794732341843,0.8443126824565603,-0.03449213288707428,-0.6505134701728821,0.6273410320281982,-0.4281069934368134,0,0,0,-1,-1,11912.735939625,unknown,2,2025-04-30T12:11:31.479+03:00,2025-04-30T12:00:08.093+03:00,94,1.480054,0,0,78.64606,0,0,2025-04-30T12:11:34.059+03:00,767697112.2173975,0,2.07,100.9399,1,0.8,2025-04-30T12:11:47.395+03:00,111,1.85,2025-04-22T14:20:19.516+03:00,0.02197104130929222,0
2025-04-30T12:11:54.604+03:00,1746004311.644837,40.95225006229428,29.14029629289345,76.41664,-1,-1,-1,-1,30,20.44752438444682,-9999,11935.85869741667,-0.649200439453125,0.6345977783203125,-0.429290771484375,11935.84608441667,2.847362115664017,-0.9887326795469005,-0.6779679678205401,0.0004334887198638171,0.01290707662701607,-0.02154345996677876,-0.0004051923751831055,0.007676005363464355,0.0004979968070983887,XArbitraryZVertical,0.3997317556039475,-0.3551462275065004,0.8443362872067358,-0.03438053075105449,-0.6505958437919617,0.6272116899490356,-0.4281713664531708,0,0,0,-1,-1,11912.735939625,unknown,2,2025-04-30T12:11:31.479+03:00,2025-04-30T12:00:08.093+03:00,94,1.480054,0,0,78.64606,0,0,2025-04-30T12:11:34.059+03:00,767697112.2173975,0,2.07,100.9399,1,0.8,2025-04-30T12:11:47.395+03:00,111,1.85,2025-04-22T14:20:19.516+03:00,0.02197104130929222,0
2025-04-30T12:11:54.614+03:00,1746004311.644837,40.95225006229428,29.14029629289345,76.41664,-1,-1,-1,-1,30,20.44752438444682,-9999,11935.86877341667,-0.652557373046875,0.626983642578125,-0.427825927734375,11935.85616141667,2.847310291927563,-0.9885818052453629,-0.6777486860969495,0.007182071916759014,0.02122452855110168,-0.01632546074688435,0.0004995465278625488,0.0089455246925354,-0.001418650150299072,XArbitraryZVertical,0.399689305196097,-0.3550716673579489,0.8443918962889779,-0.03427861884194239,-0.6506460905075073,0.6270408630371094,-0.4283451437950134,0,0,0,-1,-1,11912.735939625,unknown,2,2025-04-30T12:11:31.479+03:00,2025-04-30T12:00:08.093+03:00,94,1.480054,0,0,78.64606,0,0,2025-04-30T12:11:34.059+03:00,767697112.2173975,0,2.07,100.9399,1,0.8,2025-04-30T12:11:47.395+03:00,111,1.85,2025-04-22T14:20:19.516+03:00,0.02197104130929222,0
2025-04-30T12:11:54.624+03:00,1746004311.644837,40.95225006229428,29.14029629289345,76.41664,-1,-1,-1,-1,30,20.44752438444682,-9999,11935.87884941667,-0.653228759765625,0.6177215576171875,-0.426544189453125,11935.86623741667,2.847249234032696,-0.9883850277321958,-0.6775821999088026,-5.213872282183729e-05,0.02335345931351185,-0.01053361874073744,0.001128077507019043,0.006389617919921875,-0.0005617737770080566,XArbitraryZVertical,0.3996184848040885,-0.3550207885976341,0.8444509562801094,-0.0341774526862182,-0.6506490111351013,0.6269111633300781,-0.4285306036472321,0,0,0,-1,-1,11912.735939625,unknown,2,2025-04-30T12:11:31.479+03:00,2025-04-30T12:00:08.093+03:00,94,1.480054,0,0,78.64606,0,0,2025-04-30T12:11:34.059+03:00,767697112.2173975,0,2.07,100.9399,1,0.8,2025-04-30T12:11:47.395+03:00,111,1.85,2025-04-22T14:20:19.516+03:00,0.02197104130929222,0
2025-04-30T12:11:54.634+03:00,1746004311.644837,40.95225006229428,29.14029629289345,76.41664,-1,-1,-1,-1,30,20.44752438444682,-9999,11935.88892641667,-0.650909423828125,0.6114654541015625,-0.4319000244140625,11935.87631341667,2.84707103980876,-0.9882714146443078,-0.6775647997487849,-0.01888954266905785,0.02073337510228157,-0.00569495465606451,-0.002527832984924316,-0.002233266830444336,0.001013457775115967,XArbitraryZVertical,0.3995412982263986,-0.3550513843666561,0.8444786390672249,-0.03407782444479825,-0.6506094336509705,0.6268976330757141,-0.4286105334758759,0,0,0,-1,-1,11912.735939625,unknown,2,2025-04-30T12:11:31.479+03:00,2025-04-30T12:00:08.093+03:00,94,1.480054,0,0,78.64606,0,0,2025-04-30T12:11:34.059+03:00,767697112.2173975,0,2.07,100.9399,1,0.8,2025-04-30T12:11:47.395+03:00,111,1.85,2025-04-22T14:20:19.516+03:00,0.02197104130929222,0
2025-04-30T12:11:54.644+03:00,1746004311.644837,40.95225006229428,29.14029629289345,76.41664,-1,-1,-1,-1,30,20.44752438444682,-9999,11935.89900241667,-0.6464996337890625,0.612701416015625,-0.4362945556640625,11935.88639041667,2.846785803631437,-0.9882815480978469,-0.677662423163191,-0.03144288435578346,0.01392766647040844,-4.425935912877321e-05,-0.001750707626342773,-0.01176983118057251,0.001247823238372803,XArbitraryZVertical,0.3994814229209533,-0.3551471630456467,0.8444703682694702,-0.03398300779513776,-0.6505625247955322,0.6269736886024475,-0.4285701811313629,0,0,0,-1,-1,11912.735939625,unknown,2,2025-04-30T12:11:31.479+03:00,2025-04-30T12:00:08.093+03:00,94,1.480054,0,0,78.64606,0,0,2025-04-30T12:11:34.059+03:00,767697112.2173975,0,2.07,100.9399,1,0.8,2025-04-30T12:11:47.395+03:00,111,1.85,2025-04-22T14:20:19.516+03:00,0.02197104130929222,0
2025-04-30T12:11:54.655+03:00,1746004311.644837,40.95225006229428,29.14029629289345,76.41664,-1,-1,-1,-1,30,20.44752438444682,-9999,11935.90907941667,-0.6480865478515625,0.6207122802734375,-0.4337310791015625,11935.89646641667,2.846352688524631,-0.9884704239993662,-0.6778637230265435,-0.04484624043107033,0.005286840721964836,0.0002029151655733585,0.000834047794342041,-0.01575660705566406,-0.005322664976119995,XArbitraryZVertical,0.3994562624211758,-0.3553107945831561,0.8444174729584338,-0.03388254957597864,-0.6505380272865295,0.6271305084228516,-0.4283778667449951,0,0,0,-1,-1,11912.735939625,unknown,2,2025-04-30T12:11:31.479+03:00,2025-04-30T12:00:08.093+03:00,94,1.480054,0,0,78.64606,0,0,2025-04-30T12:11:34.059+03:00,767697112.2173975,0,2.07,100.9399,1,0.8,2025-04-30T12:11:47.395+03:00,111,1.85,2025-04-22T14:20:19.516+03:00,0.02197104130929222,0
2025-04-30T12:11:54.666+03:00,1746004311.644837,40.95225006229428,29.14029629289345,76.41664,-1,-1,-1,-1,30,20.44752438444682,-9999,11935.91915541667,-0.648406982421875,0.6319580078125,-0.4319305419921875,11935.90654341667,2.845893921506506,-0.9887049916849416,-0.678054043595409,-0.03596699610352516,0.0005807685665786266,-0.006091466173529625,0.004573225975036621,-0.01302093267440796,-0.0073414146900177,XArbitraryZVertical,0.3994472876042997,-0.3554743850222177,0.8443571312009852,-0.03377673194144827,-0.6505388021469116,0.6272786855697632,-0.4281596541404724,0,0,0,-1,-1,11912.735939625,unknown,2,2025-04-30T12:11:31.479+03:00,2025-04-30T12:00:08.093+03:00,94,1.480054,0,0,78.64606,0,0,2025-04-30T12:11:34.059+03:00,767697112.2173975,0,2.07,100.9399,1,0.8,2025-04-30T12:11:47.395+03:00,111,1.85,2025-04-22T14:20:19.516+03:00,0.02197104130929222,0
2025-04-30T12:11:54.675+03:00,1746004311.644837,40.95225006229428,29.14029629289345,76.41664,-1,-1,-1,-1,30,20.44752438444682,-9999,11935.92923241667,-0.65032958984375,0.638153076171875,-0.4285888671875,11935.91661941667,2.845529096225934,-0.9888965038657345,-0.6781432898099837,-0.02409009635448456,0.004020507447421551,-0.009407501667737961,0.002334892749786377,-0.003767251968383789,-0.004551827907562256,XArbitraryZVertical,0.3994508393083038,-0.3555796158074893,0.8443151280284057,-0.03367838226720546,-0.6505740880966187,0.6273481845855713,-0.4280043244361877,0,0,0,-1,-1,11912.735939625,unknown,2,2025-04-30T12:11:31.479+03:00,2025-04-30T12:00:08.093+03:00,94,1.480054,0,0,78.64606,0,0,2025-04-30T12:11:34.059+03:00,767697112.2173975,0,2.07,100.9399,1,0.8,2025-04-30T12:11:47.395+03:00,111,1.85,2025-04-22T14:20:19.516+03:00,0.02197104130929222,0
2025-04-30T12:11:54.685+03:00,1746004311.644837,40.95225006229428,29.14029629289345,76.41664,-1,-1,-1,-1,30,20.44752438444682,-9999,11935.93930841667,-0.6598358154296875,0.6353302001953125,-0.4273223876953125,11935.92669641667,2.845263707551606,-0.9890018270483987,-0.6781614298944596,-0.009608360007405281,0.01175006665289402,-0.01420145761221647,0.001897454261779785,0.007189691066741943,-0.003039658069610596,XArbitraryZVertical,0.3994455876426881,-0.3556380845186406,0.8442965275910899,-0.03358948159047109,-0.6506096720695496,0.6273623108863831,-0.427929550409317,0,0,0,-1,-1,11912.735939625,unknown,2,2025-04-30T12:11:31.479+03:00,2025-04-30T12:00:08.093+03:00,94,1.480054,0,0,78.64606,0,0,2025-04-30T12:11:34.059+03:00,767697112.2173975,0,2.07,100.9399,1,0.8,2025-04-30T12:11:47.395+03:00,111,1.85,2025-04-22T14:20:19.516+03:00,0.02197104130929222,0
2025-04-30T12:11:54.699+03:00,1746004311.644837,40.95225006229428,29.14029629289345,76.41664,-1,-1,-1,-1,30,20.44752438444682,-9999,11935.94938441667,-0.6667633056640625,0.6296844482421875,-0.432373046875,11935.93677241667,2.845165850620903,-0.9888448759288698,-0.6780717178441641,0.007018420845270157,0.02859442681074142,-0.01302720233798027,-0.001800119876861572,0.0113641619682312,0.0005265474319458008,XArbitraryZVertical,0.3993744394753236,-0.3556244799244609,0.8443394996891571,-0.03349849512113415,-0.6505894660949707,0.6272924542427063,-0.4280625581741333,0,0,0,-1,-1,11912.735939625,unknown,2,2025-04-30T12:11:31.479+03:00,2025-04-30T12:00:08.093+03:00,94,1.480054,0,0,78.64606,0,0,2025-04-30T12:11:34.059+03:00,767697112.2173975,0,2.07,100.9399,1,0.8,2025-04-30T12:11:47.395+03:00,111,1.85,2025-04-22T14:20:19.516+03:00,0.02197104130929222,0
2025-04-30T12:11:54.707+03:00,1746004311.644837,40.95225006229428,29.14029629289345,76.41664,-1,-1,-1,-1,30,20.44752438444682,-9999,11935.95946141667,-0.6599578857421875,0.6226043701171875,-0.4375762939453125,11935.94684841667,2.84522218129725,-0.988471896880629,-0.6779224280705899,0.01812087185680866,0.03486989811062813,-0.009981878101825714,-0.01149457693099976,0.006628155708312988,0.0004239678382873535,XArbitraryZVertical,0.3992477712756876,-0.3555599187563135,0.8444297493777345,-0.03341967150208386,-0.6505079865455627,0.6271762251853943,-0.4283567368984222,0,0,0,-1,-1,11912.735939625,unknown,2,2025-04-30T12:11:31.479+03:00,2025-04-30T12:00:08.093+03:00,94,1.480054,0,0,78.64606,0,0,2025-04-30T12:11:34.059+03:00,767697112.2173975,0,2.07,100.9399,1,0.8,2025-04-30T12:11:47.395+03:00,111,1.85,2025-04-22T14:20:19.516+03:00,0.02197104130929222,0
2025-04-30T12:11:54.715+03:00,1746004311.644837,40.95225006229428,29.14029629289345,76.41664,-1,-1,-1,-1,30,20.44752438444682,-9999,11935.96953741667,-0.65020751953125,0.618927001953125,-0.4399261474609375,11935.95692541667,2.845384506246691,-0.9879921677054653,-0.6777332063181238,0.01933187805116177,0.03789957612752914,-0.006050353404134512,-0.01611769199371338,0.0009619593620300293,-0.004905462265014648,XArbitraryZVertical,0.3991004086767708,-0.3554600347393012,0.844543942115068,-0.03335698803745055,-0.6504015326499939,0.6270288228988647,-0.4287340641021729,0,0,0,-1,-1,11912.735939625,unknown,2,2025-04-30T12:11:31.479+03:00,2025-04-30T12:00:08.093+03:00,94,1.480054,0,0,78.64606,0,0,2025-04-30T12:11:34.059+03:00,767697112.2173975,0,2.07,100.9399,1,0.8,2025-04-30T12:11:47.395+03:00,111,1.85,2025-04-22T14:20:19.516+03:00,0.02197104130929222,0
2025-04-30T12:11:54.725+03:00,1746004311.644837,40.95225006229428,29.14029629289345,76.41664,-1,-1,-1,-1,30,20.44752438444682,-9999,11935.97961441667,-0.6421966552734375,0.6177520751953125,-0.4333953857421875,11935.96700141667,2.845512918613332,-0.9875576942707537,-0.6775570126395148,0.01135624386370182,0.0326014868915081,-0.005402672570198774,-0.007483839988708496,-0.004943311214447021,-0.009689062833786011,XArbitraryZVertical,0.3989643013090751,-0.3553713499250298,0.8446480780486791,-0.03329131667327992,-0.650307297706604,0.626891553401947,-0.4290773868560791,0,0,0,-1,-1,11912.735939625,unknown,2,2025-04-30T12:11:31.479+03:00,2025-04-30T12:00:08.093+03:00,94,1.480054,0,0,78.64606,0,0,2025-04-30T12:11:34.059+03:00,767697112.2173975,0,2.07,100.9399,1,0.8,2025-04-30T12:11:47.395+03:00,111,1.85,2025-04-22T14:20:19.516+03:00,0.02197104130929222,0
2025-04-30T12:11:54.735+03:00,1746004311.644837,40.95225006229428,29.14029629289345,76.41664,-1,-1,-1,-1,30,20.44752438444682,-9999,11935.98969041667,-0.63568115234375,0.6179962158203125,-0.42877197265625,11935.97707841667,2.845578020653485,-0.987186287788936,-0.6774103054948204,0.003318024799227715,0.02624824829399586,-0.005264987237751484,0.002367019653320312,-0.008231699466705322,-0.01034292578697205,XArbitraryZVertical,0.3988394120168373,-0.3553059857085449,0.8447374805390113,-0.03321722326517437,-0.6502246260643005,0.6267772316932678,-0.4293695688247681,0,0,0,-1,-1,11912.735939625,unknown,2,2025-04-30T12:11:31.479+03:00,2025-04-30T12:00:08.093+03:00,94,1.480054,0,0,78.64606,0,0,2025-04-30T12:11:34.059+03:00,767697112.2173975,0,2.07,100.9399,1,0.8,2025-04-30T12:11:47.395+03:00,111,1.85,2025-04-22T14:20:19.516+03:00,0.02197104130929222,0
2025-04-30T12:11:54.745+03:00,1746004311.644837,40.95225006229428,29.14029629289345,76.41664,-1,-1,-1,-1,30,20.44752438444682,-9999,11935.99976641667,-0.634552001953125,0.622100830078125,-0.4273223876953125,11935.98715441667,2.845578345544383,-0.9869329233547827,-0.6773194212582931,-0.002539065200835466,0.01805210299789906,-0.006704692263156176,0.009324729442596436,-0.009488403797149658,-0.002883613109588623,XArbitraryZVertical,0.3987450816512385,-0.3552738433417239,0.8447981923824148,-0.03315027874191354,-0.6501634120941162,0.6267064213752747,-0.4295656979084015,0,0,0,-1,-1,11912.735939625,unknown,2,2025-04-30T12:11:31.479+03:00,2025-04-30T12:00:08.093+03:00,94,1.480054,0,0,78.64606,0,0,2025-04-30T12:11:34.059+03:00,767697112.2173975,0,2.07,100.9399,1,0.8,2025-04-30T12:11:47.395+03:00,111,1.85,2025-04-22T14:20:19.516+03:00,0.02197104130929222,0
2025-04-30T12:11:54.755+03:00,1746004311.644837,40.95225006229428,29.14029629289345,76.41664,-1,-1,-1,-1,30,20.44752438444682,-9999,11936.00984341667,-0.6365203857421875,0.6254730224609375,-0.423919677734375,11935.99723041667,2.845538832267154,-0.9867821437566408,-0.6772507299758341,0.0001339496520813555,0.01304802484810352,-0.007294049486517906,0.01570463180541992,-0.007741093635559082,0.0010986328125,XArbitraryZVertical,0.3986839099951237,-0.3552567920550069,0.8448366347166253,-0.03309010848289472,-0.6501345634460449,0.6266528964042664,-0.4296875,0,0,0,-1,-1,11912.735939625,unknown,2,2025-04-30T12:11:31.479+03:00,2025-04-30T12:00:08.093+03:00,94,1.480054,0,0,78.64606,0,0,2025-04-30T12:11:34.059+03:00,767697112.2173975,0,2.07,100.9399,1,0.8,2025-04-30T12:11:47.395+03:00,111,1.85,2025-04-22T14:20:19.516+03:00,0.02197104130929222,0
2025-04-30T12:11:54.765+03:00,1746004311.644837,40.95225006229428,29.14029629289345,76.41664,-1,-1,-1,-1,30,20.44752438444682,-9999,11936.01991941667,-0.6440887451171875,0.6237030029296875,-0.42413330078125,11936.00730741667,2.845463783912451,-0.9866956257189861,-0.677215925661095,-0.004351346287876368,0.0121390875428915,-0.009788366034626961,0.0151667594909668,-0.003533065319061279,0.004020273685455322,XArbitraryZVertical,0.3986388682333322,-0.3552592862706703,0.8448590237204544,-0.03303458872261039,-0.6501156091690063,0.6266257762908936,-0.4297557771205902,0,0,0,-1,-1,11912.735939625,unknown,2,2025-04-30T12:11:31.479+03:00,2025-04-30T12:00:08.093+03:00,94,1.480054,0,0,78.64606,0,0,2025-04-30T12:11:34.059+03:00,767697112.2173975,0,2.07,100.9399,1,0.8,2025-04-30T12:11:47.395+03:00,111,1.85,2025-04-22T14:20:19.516+03:00,0.02197104130929222,0
2025-04-30T12:11:54.775+03:00,1746004311.644837,40.95225006229428,29.14029629289345,76.41664,-1,-1,-1,-1,30,20.44752438444682,-9999,11936.02999641667,-0.6470794677734375,0.617919921875,-0.42938232421875,11936.01738341667,2.845291388006778,-0.9866818054213347,-0.677234631469421,-0.011684893630445,0.01298277638852596,-0.005161390174180269,0.01183998584747314,-0.00109100341796875,0.006189584732055664,XArbitraryZVertical,0.3985997964449635,-0.3553013403107079,0.8448625590782086,-0.03296382531781468,-0.6500999331474304,0.6266403198242188,-0.4297583103179932,0,0,0,-1,-1,11912.735939625,unknown,2,2025-04-30T12:11:31.479+03:00,2025-04-30T12:00:08.093+03:00,94,1.480054,0,0,78.64606,0,0,2025-04-30T12:11:34.059+03:00,767697112.2173975,0,2.07,100.9399,1,0.8,2025-04-30T12:11:47.395+03:00,111,1.85,2025-04-22T14:20:19.516+03:00,0.02197104130929222,0
2025-04-30T12:11:54.785+03:00,1746004311.644837,40.95225006229428,29.14029629289345,76.41664,-1,-1,-1,-1,30,20.44752438444682,-9999,11936.04007241667,-0.6480712890625,0.614501953125,-0.4330902099609375,11936.02746041667,2.845054316299031,-0.9867106460222396,-0.6772673423961478,-0.01856277324259281,0.01407413929700851,-0.005411727353930473,0.004831433296203613,-0.004244625568389893,0.004023224115371704,XArbitraryZVertical,0.3985653523201423,-0.3553611807603776,0.8448569066286478,-0.03287684560783494,-0.6500950455665588,0.6266658306121826,-0.4297281801700592,0,0,0,-1,-1,11912.735939625,unknown,2,2025-04-30T12:11:31.479+03:00,2025-04-30T12:00:08.093+03:00,94,1.480054,0,0,78.64606,0,0,2025-04-30T12:11:34.059+03:00,767697112.2173975,0,2.07,100.9399,1,0.8,2025-04-30T12:11:47.395+03:00,111,1.85,2025-04-22T14:20:19.516+03:00,0.02197104130929222,0
2025-04-30T12:11:54.796+03:00,1746004311.644837,40.95225006229428,29.14029629289345,76.41664,-1,-1,-1,-1,30,20.44752438444682,-9999,11936.05014941667,-0.6441650390625,0.6166534423828125,-0.4358673095703125,11936.03753641667,2.844833288250784,-0.9867330398665173,-0.6772808473015557,-0.01747913286089897,0.01115451660007238,-0.003753643250092864,0.00222468376159668,-0.01020604372024536,-0.0006957054138183594,XArbitraryZVertical,0.3985336423845098,-0.3554102456190472,0.8448546171907437,-0.03279069354605359,-0.650097668170929,0.6266763806343079,-0.4297089874744415,0,0,0,-1,-1,11912.735939625,unknown,2,2025-04-30T12:11:31.479+03:00,2025-04-30T12:00:08.093+03:00,94,1.480054,0,0,78.64606,0,0,2025-04-30T12:11:34.059+03:00,767697112.2173975,0,2.07,100.9399,1,0.8,2025-04-30T12:11:47.395+03:00,111,1.85,2025-04-22T14:20:19.516+03:00,0.02197104130929222,0
2025-04-30T12:11:54.806+03:00,1746004311.644837,40.95225006229428,29.14029629289345,76.41664,-1,-1,-1,-1,30,20.44752438444682,-9999,11936.06022541667,-0.6439208984375,0.61932373046875,-0.4369964599609375,11936.04761341667,2.84463517330193,-0.9867450860166074,-0.6772938679287985,-0.01571105979382992,0.00899282842874527,-0.004537944216281176,0.003504812717437744,-0.01197093725204468,-0.003988653421401978,XArbitraryZVertical,0.3985017233131154,-0.3554547251059277,0.8448539602243008,-0.03271233704339577,-0.6500959992408752,0.6266865134239197,-0.4296966195106506,0,0,0,-1,-1,11912.735939625,unknown,2,2025-04-30T12:11:31.479+03:00,2025-04-30T12:00:08.093+03:00,94,1.480054,0,0,78.64606,0,0,2025-04-30T12:11:34.059+03:00,767697114.7967689,0,2.14,100.9397,1,0.8,2025-04-30T12:11:47.395+03:00,111,1.85,2025-04-22T14:20:19.516+03:00,0.02197104130929222,0
2025-04-30T12:11:54.816+03:00,1746004311.644837,40.95225006229428,29.14029629289345,76.41664,-1,-1,-1,-1,30,20.44752438444682,-9999,11936.07030141667,-0.6421661376953125,0.6200408935546875,-0.434600830078125,11936.05768941667,2.844514342155191,-0.9867086112720489,-0.6772717707921138,-0.01038174144923687,0.007408580742776394,-0.006641541607677937,0.005820035934448242,-0.00906980037689209,-0.007085353136062622,XArbitraryZVertical,0.3984679215203282,-0.3554705768254627,0.8448656529195114,-0.03264946379639201,-0.6500918865203857,0.6266692876815796,-0.4297279715538025,0,0,0,-1,-1,11912.735939625,unknown,2,2025-04-30T12:11:31.479+03:00,2025-04-30T12:00:08.093+03:00,94,1.480054,0,0,78.64606,0,0,2025-04-30T12:11:34.059+03:00,767697114.7967689,0,2.14,100.9397,1,0.8,2025-04-30T12:11:47.395+03:00,111,1.85,2025-04-22T14:20:19.516+03:00,0.02197104130929222,0
2025-04-30T12:11:54.826+03:00,1746004311.644837,40.95225006229428,29.14029629289345,76.41664,-1,-1,-1,-1,30,20.44752438444682,-9999,11936.08037841667,-0.64227294921875,0.621337890625,-0.435150146484375,11936.06776541667,2.844388782669464,-0.9866870426532182,-0.6772533814636881,-0.009515082463622093,0.00697641633450985,-0.008062970824539661,0.00553053617477417,-0.006369888782501221,-0.006027340888977051,XArbitraryZVertical,0.3984390060170065,-0.3554885914659436,0.844874221097492,-0.0325880062477201,-0.6500923633575439,0.6266549825668335,-0.4297484457492828,0,0,0,-1,-1,11912.735939625,unknown,2,2025-04-30T12:11:31.479+03:00,2025-04-30T12:00:08.093+03:00,94,1.480054,0,0,78.64606,0,0,2025-04-30T12:11:34.059+03:00,767697114.7967689,0,2.14,100.9397,1,0.8,2025-04-30T12:11:47.395+03:00,111,1.85,2025-04-22T14:20:19.516+03:00,0.02197104130929222,0
2025-04-30T12:11:54.836+03:00,1746004311.644837,40.95225006229428,29.14029629289345,76.41664,-1,-1,-1,-1,30,20.44752438444682,-9999,11936.09045441667,-0.644683837890625,0.6195526123046875,-0.4331207275390625,11936.07784241667,2.844271394245088,-0.986669186482015,-0.6772471042399439,-0.008344090543687344,0.006921289023011923,-0.005115251056849957,0.008074343204498291,-0.005876719951629639,-0.005555808544158936,XArbitraryZVertical,0.3984114784562331,-0.3555097636178308,0.8448803656591829,-0.032533737968976,-0.6500879526138306,0.6266500949859619,-0.429762214422226,0,0,0,-1,-1,11912.735939625,unknown,2,2025-04-30T12:11:31.479+03:00,2025-04-30T12:00:08.093+03:00,94,1.480054,0,0,78.64606,0,0,2025-04-30T12:11:34.059+03:00,767697114.7967689,0,2.14,100.9397,1,0.8,2025-04-30T12:11:47.395+03:00,111,1.85,2025-04-22T14:20:19.516+03:00,0.02197104130929222,0
2025-04-30T12:11:54.846+03:00,1746004311.644837,40.95225006229428,29.14029629289345,76.41664,-1,-1,-1,-1,30,20.44752438444682,-9999,11936.10053141667,-0.64697265625,0.6205596923828125,-0.4319610595703125,11936.08791841667,2.844120288785642,-0.9866512929820729,-0.6772826654580995,-0.01282326132059097,0.01001268625259399,-0.00596453296020627,0.007590353488922119,-0.005461931228637695,-0.004412055015563965,XArbitraryZVertical,0.3983721011305068,-0.3555543471523279,0.8448824255374506,-0.03247534327798626,-0.6500616669654846,0.6266777515411377,-0.4297615587711334,0,0,0,-1,-1,11912.735939625,unknown,2,2025-04-30T12:11:31.479+03:00,2025-04-30T12:00:08.093+03:00,94,1.480054,0,0,78.64606,0,0,2025-04-30T12:11:34.059+03:00,767697114.7967689,0,2.14,100.9397,1,0.8,2025-04-30T12:11:47.395+03:00,111,1.85,2025-04-22T14:20:19.516+03:00,0.02197104130929222,0
2025-04-30T12:11:54.856+03:00,1746004311.644837,40.95225006229428,29.14029629289345,76.41664,-1,-1,-1,-1,30,20.44752438444682,-9999,11936.11060741667,-0.6468963623046875,0.6252593994140625,-0.4324493408203125,11936.09799541667,2.843937450924947,-0.9866204505389414,-0.6773471353772632,-0.01226206682622433,0.01624162122607231,-0.005838665645569563,0.004827260971069336,-0.007495760917663574,-0.003025710582733154,XArbitraryZVertical,0.3983175884211189,-0.3556169970921694,0.8448843105380659,-0.03240827997502594,-0.6500146985054016,0.6267279982566833,-0.429759293794632,0,0,0,-1,-1,11912.735939625,unknown,2,2025-04-30T12:11:31.479+03:00,2025-04-30T12:00:08.093+03:00,94,1.480054,0,0,78.64606,0,0,2025-04-30T12:11:34.059+03:00,767697114.7967689,0,2.14,100.9397,1,0.8,2025-04-30T12:11:47.395+03:00,111,1.85,2025-04-22T14:20:19.516+03:00,0.02197104130929222,0
2025-04-30T12:11:54.866+03:00,1746004311.644837,40.95225006229428,29.14029629289345,76.41664,-1,-1,-1,-1,30,20.44752438444682,-9999,11936.12068441667,-0.6447906494140625,0.6253814697265625,-0.434234619140625,11936.10807141667,2.843757829357539,-0.9865706982288409,-0.6773910069245171,-0.01439073123037815,0.01524506509304047,-0.00117094290908426,0.002722978591918945,-0.004600286483764648,-0.002352476119995117,XArbitraryZVertical,0.3982585071276319,-0.3556710806773383,0.8448922559589351,-0.03233417555104174,-0.6499704122543335,0.6267622113227844,-0.4297764897346497,0,0,0,-1,-1,11912.735939625,unknown,2,2025-04-30T12:11:31.479+03:00,2025-04-30T12:00:08.093+03:00,94,1.480054,0,0,78.64606,0,0,2025-04-30T12:11:34.059+03:00,767697114.7967689,0,2.14,100.9397,1,0.8,2025-04-30T12:11:47.395+03:00,111,1.85,2025-04-22T14:20:19.516+03:00,0.02197104130929222,0
2025-04-30T12:11:54.897+03:00,1746004311.644837,40.95225006229428,29.14029629289345,76.41664,-1,-1,-1,-1,30,20.44752438444682,-9999,11936.13076041667,-0.6441650390625,0.624114990234375,-0.4358978271484375,11936.11814841667,2.843586883893227,-0.9865238443553682,-0.6774222757426768,-0.01717253588140011,0.01458819676190615,-0.0003275864874012768,0.003342688083648682,-0.0007794499397277832,-0.003187298774719238,XArbitraryZVertical,0.398203955816783,-0.3557183556413034,0.8449008420227184,-0.03226122234330644,-0.6499338746070862,0.6267865896224976,-0.4297961294651031,0,0,0,-1,-1,11912.735939625,unknown,2,2025-04-30T12:11:31.479+03:00,2025-04-30T12:00:08.093+03:00,94,1.480054,0,0,78.64606,0,0,2025-04-30T12:11:34.059+03:00,767697114.7967689,0,2.14,100.9397,1,0.8,2025-04-30T12:11:47.395+03:00,111,1.85,2025-04-22T14:20:19.516+03:00,0.02197104130929222,0
2025-04-30T12:11:54.900+03:00,1746004311.644837,40.95225006229428,29.14029629289345,76.41664,-1,-1,-1,-1,30,20.44752438444682,-9999,11936.14083641667,-0.641845703125,0.6271820068359375,-0.4344635009765625,11936.12822441667,2.843431418976928,-0.9864903886775028,-0.6774523459250961,-0.01217458117753267,0.00937372725456953,-0.001791792456060648,0.005799770355224609,-0.002282977104187012,-0.005113780498504639,XArbitraryZVertical,0.3981579645062657,-0.3557618442710421,0.8449066933961319,-0.03219685976418665,-0.6499038338661194,0.6268100142478943,-0.4298074841499329,0,0,0,-1,-1,11912.735939625,unknown,2,2025-04-30T12:11:31.479+03:00,2025-04-30T12:00:08.093+03:00,94,1.480054,0,0,78.64606,0,0,2025-04-30T12:11:34.059+03:00,767697114.7967689,0,2.14,100.9397,1,0.8,2025-04-30T12:11:47.395+03:00,111,1.85,2025-04-22T14:20:19.516+03:00,0.02197104130929222,0
2025-04-30T12:11:54.902+03:00,1746004311.644837,40.95225006229428,29.14029629289345,76.41664,-1,-1,-1,-1,30,20.44752438444682,-9999,11936.15091341667,-0.6416015625,0.6315155029296875,-0.43463134765625,11936.13830041667,2.843318049552262,-0.9864608030202062,-0.6774763278680825,-0.01112775970250368,0.005730723030865192,-0.005784969311207533,0.006140708923339844,-0.002103328704833984,-0.005514800548553467,XArbitraryZVertical,0.398121948734706,-0.3557944583118815,0.8449117473808346,-0.03214950878123873,-0.6498785614967346,0.626828670501709,-0.4298184216022491,0,0,0,-1,-1,11912.735939625,unknown,2,2025-04-30T12:11:31.479+03:00,2025-04-30T12:00:08.093+03:00,94,1.480054,0,0,78.64606,0,0,2025-04-30T12:11:34.059+03:00,767697114.7967689,0,2.14,100.9397,1,0.8,2025-04-30T12:11:47.395+03:00,111,1.85,2025-04-22T14:20:19.516+03:00,0.02197104130929222,0
2025-04-30T12:11:54.907+03:00,1746004311.644837,40.95225006229428,29.14029629289345,76.41664,-1,-1,-1,-1,30,20.44752438444682,-9999,11936.16098941667,-0.6478118896484375,0.6309814453125,-0.432464599609375,11936.14837741667,2.843280933899214,-0.9864267822530502,-0.6774240305673347,0.004719380289316177,0.003736547892913222,-0.005684035364538431,0.008854210376739502,0.001797854900360107,-0.004482895135879517,XArbitraryZVertical,0.3981083152019194,-0.3557815332601367,0.8449247894293972,-0.0321152075233277,-0.649891197681427,0.6267879605293274,-0.429858535528183,0,0,0,-1,-1,11912.735939625,unknown,2,2025-04-30T12:11:31.479+03:00,2025-04-30T12:00:08.093+03:00,94,1.480054,0,0,78.64606,0,0,2025-04-30T12:11:34.059+03:00,767697114.7967689,0,2.14,100.9397,1,0.8,2025-04-30T12:11:47.395+03:00,111,1.85,2025-04-22T14:20:19.516+03:00,0.02197104130929222,0
2025-04-30T12:11:54.917+03:00,1746004311.644837,40.95225006229428,29.14029629289345,76.41664,-1,-1,-1,-1,30,20.44752438444682,-9999,11936.17106641667,-0.6557159423828125,0.6268310546875,-0.4321136474609375,11936.15845341667,2.843399361474588,-0.9862476365921705,-0.6772688594039221,0.01944579556584358,0.01174886710941792,-0.01150294207036495,0.007454454898834229,0.0058402419090271,-0.004892617464065552,XArbitraryZVertical,0.3980753406462674,-0.3556989068865196,0.8449758499148893,-0.03209574443291608,-0.6498952507972717,0.6266670227050781,-0.4300286173820496,0,0,0,-1,-1,11912.735939625,unknown,2,2025-04-30T12:11:31.479+03:00,2025-04-30T12:00:08.093+03:00,94,1.480054,0,0,78.64606,0,0,2025-04-30T12:11:34.059+03:00,767697114.7967689,0,2.14,100.9397,1,0.8,2025-04-30T12:11:47.395+03:00,111,1.85,2025-04-22T14:20:19.516+03:00,0.02197104130929222,0
2025-04-30T12:11:54.927+03:00,1746004311.644837,40.95225006229428,29.14029629289345,76.41664,-1,-1,-1,-1,30,20.44752438444682,-9999,11936.18114241667,-0.6510772705078125,0.6255035400390625,-0.434051513671875,11936.16853041667,2.843643398420556,-0.9859096600299485,-0.6770424048700208,0.03170885518193245,0.01791541650891304,-0.009441123344004154,-0.0005682110786437988,0.003712773323059082,-0.001420795917510986,XArbitraryZVertical,0.3980074887290081,-0.3555653633280801,0.8450645219305655,-0.03208379881810866,-0.6498682498931885,0.6264905333518982,-0.4303266108036041,0,0,0,-1,-1,11912.735939625,unknown,2,2025-04-30T12:11:31.479+03:00,2025-04-30T12:00:08.093+03:00,94,1.480054,0,0,78.64606,0,0,2025-04-30T12:11:34.059+03:00,767697114.7967689,0,2.14,100.9397,1,0.8,2025-04-30T12:11:47.395+03:00,111,1.85,2025-04-22T14:20:19.516+03:00,0.02197104130929222,0
2025-04-30T12:11:54.937+03:00,1746004311.644837,40.95225006229428,29.14029629289345,76.41664,-1,-1,-1,-1,30,20.44752438444682,-9999,11936.19121941667,-0.646209716796875,0.6184844970703125,-0.428802490234375,11936.17860641667,2.843905797788568,-0.9855564249413145,-0.6767681721383897,0.02617873251438141,0.01458693109452724,-0.009834905155003071,-0.006390690803527832,0.0003711581230163574,-0.002210289239883423,XArbitraryZVertical,0.3979430974308503,-0.3554093325911356,0.8451611059916889,-0.0320654816957061,-0.6498593091964722,0.6262767910957336,-0.4306510090827942,0,0,0,-1,-1,11912.735939625,unknown,2,2025-04-30T12:11:31.479+03:00,2025-04-30T12:00:08.093+03:00,94,1.480054,0,0,78.64606,0,0,2025-04-30T12:11:34.059+03:00,767697114.7967689,0,2.14,100.9397,1,0.8,2025-04-30T12:11:47.395+03:00,111,1.85,2025-04-22T14:20:19.516+03:00,0.02197104130929222,0
2025-04-30T12:11:54.947+03:00,1746004311.644837,40.95225006229428,29.14029629289345,76.41664,-1,-1,-1,-1,30,20.44752438444682,-9999,11936.20129541667,-0.6449737548828125,0.613677978515625,-0.4291839599609375,11936.18868341667,2.844100311807425,-0.9852847204835756,-0.6765835705759466,0.01463579293340445,0.01104199886322021,-0.002915213583037257,0.0006229281425476074,-0.001422762870788574,-0.002839654684066772,XArbitraryZVertical,0.397888540861453,-0.3553012724404902,0.8452326311594602,-0.03205467851327929,-0.6498386263847351,0.6261328458786011,-0.4308914244174957,0,0,0,-1,-1,11912.735939625,unknown,2,2025-04-30T12:11:31.479+03:00,2025-04-30T12:00:08.093+03:00,94,1.480054,0,0,78.64606,0,0,2025-04-30T12:11:34.059+03:00,767697114.7967689,0,2.14,100.9397,1,0.8,2025-04-30T12:11:47.395+03:00,111,1.85,2025-04-22T14:20:19.516+03:00,0.02197104130929222,0
2025-04-30T12:11:54.957+03:00,1746004311.644837,40.95225006229428,29.14029629289345,76.41664,-1,-1,-1,-1,30,20.44752438444682,-9999,11936.21137141667,-0.6434173583984375,0.6170196533203125,-0.4331817626953125,11936.19875941667,2.844264415914866,-0.9850662289844161,-0.6765112958189015,0.01355268619954586,0.009704824537038803,0.002730687614530325,0.004121780395507812,-0.00988084077835083,0.002912074327468872,XArbitraryZVertical,0.3978354159176083,-0.3552432662256165,0.8452815055359572,-0.03206772820870666,-0.649782121181488,0.6260764598846436,-0.431058406829834,0,0,0,-1,-1,11912.735939625,unknown,2,2025-04-30T12:11:31.479+03:00,2025-04-30T12:00:08.093+03:00,94,1.480054,0,0,78.64606,0,0,2025-04-30T12:11:34.059+03:00,767697114.7967689,0,2.14,100.9397,1,0.8,2025-04-30T12:11:47.395+03:00,111,1.85,2025-04-22T14:20:19.516+03:00,0.02197104130929222,0
2025-04-30T12:11:54.967+03:00,1746004311.644837,40.95225006229428,29.14029629289345,76.41664,-1,-1,-1,-1,30,20.44752438444682,-9999,11936.22144841667,-0.6390838623046875,0.6241455078125,-0.435089111328125,11936.20883541667,2.84446041856573,-0.9848199560256865,-0.6764587959839048,0.01452021207660437,0.01080977078527212,0.002740807831287384,0.004378736019134521,-0.01238805055618286,0.0006183981895446777,XArbitraryZVertical,0.3977733901937621,-0.3551872484841452,0.8453333892810706,-0.03209397991377242,-0.6497035026550293,0.6260355710983276,-0.4312366843223572,0,0,0,-1,-1,11912.735939625,unknown,2,2025-04-30T12:11:31.479+03:00,2025-04-30T12:00:08.093+03:00,94,1.480054,0,0,78.64606,0,0,2025-04-30T12:11:34.059+03:00,767697114.7967689,0,2.14,100.9397,1,0.8,2025-04-30T12:11:47.395+03:00,111,1.85,2025-04-22T14:20:19.516+03:00,0.02197104130929222,0
2025-04-30T12:11:54.977+03:00,1746004311.644837,40.95225006229428,29.14029629289345,76.41664,-1,-1,-1,-1,30,20.44752438444682,-9999,11936.23152441667,-0.636474609375,0.6271514892578125,-0.43328857421875,11936.21891241667,2.844732187268164,-0.9845087899021818,-0.6763860845472138,0.02715031988918781,0.01241385936737061,0.002487574471160769,0.00684589147567749,-0.006960213184356689,-0.001931369304656982,XArbitraryZVertical,0.3977002532171644,-0.355109156563409,0.8453989582800319,-0.03213603670191515,-0.6496071815490723,0.6259788274765015,-0.4314639866352081,0,0,0,-1,-1,11912.735939625,unknown,2,2025-04-30T12:11:31.479+03:00,2025-04-30T12:00:08.093+03:00,94,1.480054,0,0,78.64606,0,0,2025-04-30T12:11:34.059+03:00,767697114.7967689,0,2.14,100.9397,1,0.8,2025-04-30T12:11:47.395+03:00,111,1.85,2025-04-22T14:20:19.516+03:00,0.02197104130929222,0
2025-04-30T12:11:54.987+03:00,1746004311.644837,40.95225006229428,29.14029629289345,76.41664,-1,-1,-1,-1,30,20.44752438444682,-9999,11936.24160141667,-0.6348876953125,0.6285247802734375,-0.42803955078125,11936.22898841667,2.845126512503013,-0.9841185226671085,-0.6762367581374331,0.03495364636182785,0.01005110237747431,0.0008436052594333887,0.0117449164390564,-0.0005877017974853516,-0.003625065088272095,XArbitraryZVertical,0.3976260502732418,-0.3549773701278265,0.8454868129914991,-0.03219735417173292,-0.6495165228843689,0.6258623600006104,-0.4317691922187805,0,0,0,-1,-1,11912.735939625,unknown,2,2025-04-30T12:11:31.479+03:00,2025-04-30T12:00:08.093+03:00,94,1.480054,0,0,78.64606,0,0,2025-04-30T12:11:34.059+03:00,767697114.7967689,0,2.14,100.9397,1,0.8,2025-04-30T12:11:47.395+03:00,111,1.85,2025-04-22T14:20:19.516+03:00,0.02197104130929222,0
2025-04-30T12:11:54.997+03:00,1746004311.644837,40.95225006229428,29.14029629289345,76.41664,-1,-1,-1,-1,30,20.44752438444682,-9999,11936.25167741667,-0.63836669921875,0.621551513671875,-0.432708740234375,11936.23906541667,2.845492720544828,-0.9838264591527256,-0.6760929673981954,0.02693380415439606,-0.000577839557081461,-0.0002569460193626583,0.01361632347106934,0.002423584461212158,0.0001849830150604248,XArbitraryZVertical,0.3975875226151424,-0.3548518083180104,0.8455550535469758,-0.03226553844404109,-0.6494653224945068,0.6257502436637878,-0.4320087134838104,0,0,0,-1,-1,11912.735939625,unknown,2,2025-04-30T12:11:31.479+03:00,2025-04-30T12:00:08.093+03:00,94,1.480054,0,0,78.64606,0,0,2025-04-30T12:11:34.059+03:00,767697114.7967689,0,2.14,100.9397,1,0.8,2025-04-30T12:11:47.395+03:00,111,1.85,2025-04-22T14:20:19.516+03:00,0.02197104130929222,0
2025-04-30T12:11:55.007+03:00,1746004311.644837,40.95225006229428,29.14029629289345,76.41664,-1,-1,-1,-1,30,20.44752438444682,-9999,11936.26175341667,-0.6483612060546875,0.6121826171875,-0.4378509521484375,11936.24914141667,2.845674124444744,-0.9837285332277038,-0.6759862277644344,0.01296019926667213,-0.003887349739670753,-0.003272443311288953,0.01468247175216675,0.002033829689025879,0.004283398389816284,XArbitraryZVertical,0.3975931133371467,-0.3547746636405718,0.8455835225672147,-0.03229903526139306,-0.6494786143302917,0.6256669759750366,-0.4321092963218689,0,0,0,-1,-1,11912.735939625,unknown,2,2025-04-30T12:11:31.479+03:00,2025-04-30T12:00:08.093+03:00,94,1.480054,0,0,78.64606,0,0,2025-04-30T12:11:34.059+03:00,767697114.7967689,0,2.14,100.9397,1,0.8,2025-04-30T12:11:47.395+03:00,111,1.85,2025-04-22T14:20:19.516+03:00,0.02197104130929222,0
2025-04-30T12:11:55.017+03:00,1746004311.644837,40.95225006229428,29.14029629289345,76.41664,-1,-1,-1,-1,30,20.44752438444682,-9999,11936.27183041667,-0.653228759765625,0.611328125,-0.439971923828125,11936.25921741667,2.845746927776841,-0.9837096642840251,-0.6759204920000552,0.003822094760835171,0.001921537099406123,-0.0003774541546590626,0.008528769016265869,-0.00664287805557251,-0.002120792865753174,XArbitraryZVertical,0.3976071543266348,-0.3547342161161809,0.8455934918059386,-0.0323105321076677,-0.6495047211647034,0.6256157159805298,-0.4321443736553192,0,0,0,-1,-1,11912.735939625,unknown,2,2025-04-30T12:11:31.479+03:00,2025-04-30T12:00:08.093+03:00,94,1.480054,0,0,78.64606,0,0,2025-04-30T12:11:34.059+03:00,767697114.7967689,0,2.14,100.9397,1,0.8,2025-04-30T12:11:47.395+03:00,111,1.85,2025-04-22T14:20:19.516+03:00,0.02197104130929222,0
2025-04-30T12:11:55.027+03:00,1746004311.644837,40.95225006229428,29.14029629289345,76.41664,-1,-1,-1,-1,30,20.44752438444682,-9999,11936.28190641667,-0.6481781005859375,0.61358642578125,-0.437042236328125,11936.26929441667,2.845806258187197,-0.9836650652427997,-0.67588494360963,0.006523072719573975,-0.001372526865452528,-0.0004653384676203132,-0.001054525375366211,-0.01473277807235718,-0.006092548370361328,XArbitraryZVertical,0.3976037525044642,-0.3547089322970106,0.8456053675452793,-0.03231911077728211,-0.6495040059089661,0.6255879402160645,-0.4321856498718262,0,0,0,-1,-1,11912.735939625,unknown,2,2025-04-30T12:11:31.479+03:00,2025-04-30T12:00:08.093+03:00,94,1.480054,0,0,78.64606,0,0,2025-04-30T12:11:34.059+03:00,767697114.7967689,0,2.14,100.9397,1,0.8,2025-04-30T12:11:47.395+03:00,111,1.85,2025-04-22T14:20:19.516+03:00,0.02197104130929222,0
2025-04-30T12:11:55.037+03:00,1746004311.644837,40.95225006229428,29.14029629289345,76.41664,-1,-1,-1,-1,30,20.44752438444682,-9999,11936.29198341667,-0.6421966552734375,0.61566162109375,-0.4341583251953125,11936.27937041667,2.845906361360321,-0.9836312322299199,-0.6758163572029015,0.01201251428574324,-0.004077366553246975,0.000779489753767848,-0.002803504467010498,-0.01329076290130615,-0.007603228092193604,XArbitraryZVertical,0.3976167332474753,-0.3546621666551245,0.8456180632866412,-0.03233889955522653,-0.649524986743927,0.6255344152450562,-0.4322313666343689,0,0,0,-1,-1,11912.735939625,unknown,2,2025-04-30T12:11:31.479+03:00,2025-04-30T12:00:08.093+03:00,94,1.480054,0,0,78.64606,0,0,2025-04-30T12:11:34.059+03:00,767697114.7967689,0,2.14,100.9397,1,0.8,2025-04-30T12:11:47.395+03:00,111,1.85,2025-04-22T14:20:19.516+03:00,0.02197104130929222,0
2025-04-30T12:11:55.048+03:00,1746004311.644837,40.95225006229428,29.14029629289345,76.41664,-1,-1,-1,-1,30,20.44752438444682,-9999,11936.30205941667,-0.6407318115234375,0.61920166015625,-0.4378509521484375,11936.28944741667,2.846037418470387,-0.9836102131495854,-0.675744461629386,0.00899355486035347,-0.008779976516962051,0.003502305364236236,0.003786206245422363,-0.01134258508682251,-0.00349050760269165,XArbitraryZVertical,0.3976410205571584,-0.3546077016402424,0.8456282692974156,-0.03237311357546323,-0.6495534777641296,0.6254783272743225,-0.4322699904441833,0,0,0,-1,-1,11912.735939625,unknown,2,2025-04-30T12:11:31.479+03:00,2025-04-30T12:00:08.093+03:00,94,1.480054,0,0,78.64606,0,0,2025-04-30T12:11:34.059+03:00,767697114.7967689,0,2.14,100.9397,1,0.8,2025-04-30T12:11:47.395+03:00,111,1.85,2025-04-22T14:20:19.516+03:00,0.02197104130929222,0
2025-04-30T12:11:55.058+03:00,1746004311.644837,40.95225006229428,29.14029629289345,76.41664,-1,-1,-1,-1,30,20.44752438444682,-9999,11936.31213641667,-0.6363372802734375,0.622833251953125,-0.44140625,11936.29952341667,2.846148485064163,-0.9836247915854169,-0.6757142075731475,0.006566349416971207,-0.01197683438658714,-0.0001751204254105687,0.007836580276489258,-0.00962519645690918,-0.002543449401855469,XArbitraryZVertical,0.3976710775139165,-0.354573289517585,0.8456269252653341,-0.03241536081620564,-0.6495754718780518,0.6254547238349915,-0.4322710037231445,0,0,0,-1,-1,11912.735939625,unknown,2,2025-04-30T12:11:31.479+03:00,2025-04-30T12:00:08.093+03:00,94,1.480054,0,0,78.64606,0,0,2025-04-30T12:11:34.059+03:00,767697114.7967689,0,2.14,100.9397,1,0.8,2025-04-30T12:11:47.395+03:00,111,1.85,2025-04-22T14:20:19.516+03:00,0.02197104130929222,0
2025-04-30T12:11:55.068+03:00,1746004311.644837,40.95225006229428,29.14029629289345,76.41664,-1,-1,-1,-1,30,20.44752438444682,-9999,11936.32221241667,-0.63446044921875,0.6223602294921875,-0.4402618408203125,11936.30960041667,2.846207986495239,-0.9837257723771314,-0.6757254933722282,-0.001643377472646534,-0.01967550069093704,-0.001101634232327342,0.009842753410339355,-0.004613935947418213,-0.007282137870788574,XArbitraryZVertical,0.3977227537941542,-0.3545643307768532,0.8456046319987828,-0.03246114133910964,-0.6496132612228394,0.6254635453224182,-0.4322015047073364,0,0,0,-1,-1,11912.735939625,unknown,2,2025-04-30T12:11:31.479+03:00,2025-04-30T12:00:08.093+03:00,94,1.480054,0,0,78.64606,0,0,2025-04-30T12:11:34.059+03:00,767697114.7967689,0,2.14,100.9397,1,0.8,2025-04-30T12:11:47.395+03:00,111,1.85,2025-04-22T14:20:19.516+03:00,0.02197104130929222,0
2025-04-30T12:11:55.078+03:00,1746004311.644837,40.95225006229428,29.14029629289345,76.41664,-1,-1,-1,-1,30,20.44752438444682,-9999,11936.33228841667,-0.6360015869140625,0.62158203125,-0.4328155517578125,11936.31967641667,2.846167573760457,-0.9839602477730521,-0.6757779992896602,-0.01071710046380758,-0.02774308063089848,-0.001815261435694993,0.01344150304794312,-0.003281533718109131,-0.009756743907928467,XArbitraryZVertical,0.3978074394227231,-0.354589548239169,0.8455528070354991,-0.03249831290156927,-0.6496872901916504,0.6255044937133789,-0.432030975818634,0,0,0,-1,-1,11912.735939625,unknown,2,2025-04-30T12:11:31.479+03:00,2025-04-30T12:00:08.093+03:00,94,1.480054,0,0,78.64606,0,0,2025-04-30T12:11:34.059+03:00,767697114.7967689,0,2.14,100.9397,1,0.8,2025-04-30T12:11:47.395+03:00,111,1.85,2025-04-22T14:20:19.516+03:00,0.02197104130929222,0
2025-04-30T12:11:55.088+03:00,1746004311.644837,40.95225006229428,29.14029629289345,76.41664,-1,-1,-1,-1,30,20.44752438444682,-9999,11936.34236541667,-0.6420745849609375,0.6241607666015625,-0.4284515380859375,11936.32975241667,2.846062076594526,-0.984339383812594,-0.6758669350799047,-0.007170568220317364,-0.03639569133520126,-0.002215800806879997,0.01505428552627563,-0.003061056137084961,-0.006798982620239258,XArbitraryZVertical,0.3979366844835474,-0.3546399183443306,0.8454691630509598,-0.0325424560900656,-0.6498047113418579,0.6255739331245422,-0.4317538440227509,0,0,0,-1,-1,11912.735939625,unknown,2,2025-04-30T12:11:31.479+03:00,2025-04-30T12:00:08.093+03:00,94,1.480054,0,0,78.64606,0,0,2025-04-30T12:11:34.059+03:00,767697114.7967689,0,2.14,100.9397,1,0.8,2025-04-30T12:11:47.395+03:00,111,1.85,2025-04-22T14:20:19.516+03:00,0.02197104130929222,0
