loggingTime(txt),locationTimestamp_since1970(s),locationLatitude(WGS84),locationLongitude(WGS84),locationAltitude(m),locationSpeed(m/s),locationSpeedAccuracy(m/s),locationCourse(°),locationCourseAccuracy(°),locationVerticalAccuracy(m),locationHorizontalAccuracy(m),locationFloor(Z),accelerometerTimestamp_sinceReboot(s),accelerometerAccelerationX(G),accelerometerAccelerationY(G),accelerometerAccelerationZ(G),motionTimestamp_sinceReboot(s),motionYaw(rad),motionRoll(rad),motionPitch(rad),motionRotationRateX(rad/s),motionRotationRateY(rad/s),motionRotationRateZ(rad/s),motionUserAccelerationX(G),motionUserAccelerationY(G),motionUserAccelerationZ(G),motionAttitudeReferenceFrame(txt),motionQuaternionX(R),motionQuaternionY(R),motionQuaternionZ(R),motionQuaternionW(R),motionGravityX(G),motionGravityY(G),motionGravityZ(G),motionMagneticFieldX(µT),motionMagneticFieldY(µT),motionMagneticFieldZ(µT),motionHeading(°),motionMagneticFieldCalibrationAccuracy(Z),activityTimestamp_sinceReboot(s),activity(txt),activityActivityConfidence(Z),activityActivityStartDate(txt),pedometerStartDate(txt),pedometerNumberofSteps(N),pedometerAverageActivePace(s/m),pedometerCurrentPace(s/m),pedometerCurrentCadence(steps/s),pedometerDistance(m),pedometerFloorAscended(N),pedometerFloorDescended(N),pedometerEndDate(txt),altimeterTimestamp_sinceReboot(s),altimeterReset(bool),altimeterRelativeAltitude(m),altimeterPressure(kPa),batteryState(N),batteryLevel(R),heartRateBPMTimestamp(txt),heartRateBPM(N),heartRateBPS(R),heartRateVariabilityTimestamp(txt),heartRateVariability(ms),label
2025-04-22T16:47:32.175+03:00,1745329650.22196,40.95223626562538,29.14017881431385,76.20023,-1,-1,-1,-1,30,18.19813875302852,-9999,38411.40336704167,-0.760467529296875,0.5316619873046875,-0.2932891845703125,38411.39582704167,-2.857107347009482,-1.180610385248282,-0.5833945888187316,-0.00135101331397891,-0.01807647570967674,-0.01157625950872898,-0.04012864828109741,-0.02887243032455444,0.01744455099105835,XArbitraryZVertical,-0.5615865307056135,0.160924418114099,-0.7649486274521952,0.2712515155000789,-0.7718676924705505,0.5508602261543274,-0.3174478113651276,0,0,0,-1,-1,38400.244848625,unknown,2,2025-04-22T16:47:20.987+03:00,2025-04-21T17:08:51.449+03:00,8628,1.066148,0,0,7163.833,7,22,2025-04-22T16:43:03.021+03:00,767022451.4019172,0,-12.79,100.3566,1,0.45,2025-04-22T16:45:05.666+03:00,83,1.383333333333333,2025-04-22T14:20:19.516+03:00,0.02197104130929222,0
2025-04-22T16:47:32.177+03:00,1745329650.22196,40.95223626562538,29.14017881431385,76.20023,-1,-1,-1,-1,30,18.19813875302852,-9999,38411.41344404167,-0.7546844482421875,0.5623779296875,-0.3122406005859375,38411.40590304167,-2.857062546274777,-1.180668977188978,-0.5833071055869314,0.01251320354640484,0.005132242105901241,-0.0005800342769362032,-0.0137593150138855,-0.04471433162689209,0.02936530113220215,XArbitraryZVertical,-0.5616145354191225,0.1608684391589141,-0.7649397899054425,0.2712517624457967,-0.7719309329986572,0.5507872104644775,-0.3174209296703339,0,0,0,-1,-1,38400.244848625,unknown,2,2025-04-22T16:47:20.987+03:00,2025-04-21T17:08:51.449+03:00,8628,1.066148,0,0,7163.833,7,22,2025-04-22T16:43:03.021+03:00,767022451.4019172,0,-12.79,100.3566,1,0.45,2025-04-22T16:45:05.666+03:00,83,1.383333333333333,2025-04-22T14:20:19.516+03:00,0.02197104130929222,0
2025-04-22T16:47:32.178+03:00,1745329650.22196,40.95223626562538,29.14017881431385,76.20023,-1,-1,-1,-1,30,18.19813875302852,-9999,38411.42352104167,-0.7900848388671875,0.5368194580078125,-0.31744384765625,38411.41598004167,-2.856960035712671,-1.180526939769358,-0.5832636594308187,0.009678801521658897,0.008903544396162033,-0.004521778784692287,0.02972054481506348,0.01344269514083862,0.01152443885803223,XArbitraryZVertical,-0.5615694404907488,0.1608413112310795,-0.7649725756410186,0.2712688194205872,-0.7719079852104187,0.5507509708404541,-0.3175396621227264,0,0,0,-1,-1,38400.244848625,unknown,2,2025-04-22T16:47:20.987+03:00,2025-04-21T17:08:51.449+03:00,8628,1.066148,0,0,7163.833,7,22,2025-04-22T16:43:03.021+03:00,767022451.4019172,0,-12.79,100.3566,1,0.45,2025-04-22T16:45:05.666+03:00,83,1.383333333333333,2025-04-22T14:20:19.516+03:00,0.02197104130929222,0
2025-04-22T16:47:32.180+03:00,1745329650.22196,40.95223626562538,29.14017881431385,76.20023,-1,-1,-1,-1,30,18.19813875302852,-9999,38411.43359704167,-0.7646331787109375,0.5391845703125,-0.3135223388671875,38411.42605704167,-2.856984993895444,-1.18051928211893,-0.5831533798518491,-0.002609090646728873,0.005603555124253035,-0.007037966512143612,-0.0143083930015564,-0.006988286972045898,0.001085966825485229,XArbitraryZVertical,-0.5615670143089484,0.1608046725000545,-0.7649953243718896,0.2712314284910439,-0.7719616889953613,0.5506588816642761,-0.3175686895847321,0,0,0,-1,-1,38400.244848625,unknown,2,2025-04-22T16:47:20.987+03:00,2025-04-21T17:08:51.449+03:00,8628,1.066148,0,0,7163.833,7,22,2025-04-22T16:43:03.021+03:00,767022451.4019172,0,-12.79,100.3566,1,0.45,2025-04-22T16:45:05.666+03:00,83,1.383333333333333,2025-04-22T14:20:19.516+03:00,0.02197104130929222,0
2025-04-22T16:47:32.190+03:00,1745329650.22196,40.95223626562538,29.14017881431385,76.20023,-1,-1,-1,-1,30,18.19813875302852,-9999,38411.44367404167,-0.7715911865234375,0.544891357421875,-0.3175201416015625,38411.43613304167,-2.857055780862606,-1.180492564414805,-0.5830849983796579,-0.00340803898870945,0.01137462537735701,-0.00166583841200918,-0.001846075057983398,-0.01387399435043335,0.002906203269958496,XArbitraryZVertical,-0.561552658099478,0.1608004611687858,-0.7650231057787104,0.2711853198170117,-0.7719880938529968,0.5506018400192261,-0.3176036477088928,0,0,0,-1,-1,38400.244848625,unknown,2,2025-04-22T16:47:20.987+03:00,2025-04-21T17:08:51.449+03:00,8628,1.066148,0,0,7163.833,7,22,2025-04-22T16:43:03.021+03:00,767022451.4019172,0,-12.79,100.3566,1,0.45,2025-04-22T16:45:05.666+03:00,83,1.383333333333333,2025-04-22T14:20:19.516+03:00,0.02197104130929222,0
2025-04-22T16:47:32.202+03:00,1745329650.22196,40.95223626562538,29.14017881431385,76.20023,-1,-1,-1,-1,30,18.19813875302852,-9999,38411.45375104167,-0.772491455078125,0.5470123291015625,-0.3162384033203125,38411.44621004167,-2.857050784889016,-1.180361370031408,-0.5831301728104219,0.001082849455997348,0.008259791880846024,0.0002116902032867074,0.005840718746185303,-0.008098065853118896,0.002280831336975098,XArbitraryZVertical,-0.5615018482552763,0.160835153634938,-0.765052208519979,0.2711878352244304,-0.7719233632087708,0.5506395101547241,-0.3176954686641693,0,0,0,-1,-1,38400.244848625,unknown,2,2025-04-22T16:47:20.987+03:00,2025-04-21T17:08:51.449+03:00,8628,1.066148,0,0,7163.833,7,22,2025-04-22T16:43:03.021+03:00,767022451.4019172,0,-12.79,100.3566,1,0.45,2025-04-22T16:45:05.666+03:00,83,1.383333333333333,2025-04-22T14:20:19.516+03:00,0.02197104130929222,0
2025-04-22T16:47:32.211+03:00,1745329650.22196,40.95223626562538,29.14017881431385,76.20023,-1,-1,-1,-1,30,18.19813875302852,-9999,38411.46382704167,-0.7695465087890625,0.5431060791015625,-0.3131866455078125,38411.45628704167,-2.857025605071014,-1.180241011547631,-0.5831774195676303,0.000176043133251369,0.0107842031866312,0.0005597652634605765,-0.00272071361541748,-0.003666698932647705,-0.0002759099006652832,XArbitraryZVertical,-0.5614567565711641,0.1608635491267192,-0.7650752179430543,0.2711994515261753,-0.7718610763549805,0.5506789684295654,-0.317778468132019,0,0,0,-1,-1,38400.244848625,unknown,2,2025-04-22T16:47:20.987+03:00,2025-04-21T17:08:51.449+03:00,8628,1.066148,0,0,7163.833,7,22,2025-04-22T16:43:03.021+03:00,767022451.4019172,0,-12.79,100.3566,1,0.45,2025-04-22T16:45:05.666+03:00,83,1.383333333333333,2025-04-22T14:20:19.516+03:00,0.02197104130929222,0
2025-04-22T16:47:32.221+03:00,1745329650.22196,40.95223626562538,29.14017881431385,76.20023,-1,-1,-1,-1,30,18.19813875302852,-9999,38411.47390404167,-0.774139404296875,0.5413970947265625,-0.3151702880859375,38411.46636304167,-2.857025071925543,-1.180131804783641,-0.5832135055620083,0.001234583090990782,0.009196891449391842,0.00305924192070961,0.002826213836669922,-0.006336569786071777,0.003798604011535645,XArbitraryZVertical,-0.5614141982023019,0.1608928258442893,-0.7651002011255034,0.2711997791272945,-0.7718080282211304,0.550709068775177,-0.317855179309845,0,0,0,-1,-1,38400.244848625,unknown,2,2025-04-22T16:47:20.987+03:00,2025-04-21T17:08:51.449+03:00,8628,1.066148,0,0,7163.833,7,22,2025-04-22T16:43:03.021+03:00,767022451.4019172,0,-12.79,100.3566,1,0.45,2025-04-22T16:45:05.666+03:00,83,1.383333333333333,2025-04-22T14:20:19.516+03:00,0.02197104130929222,0
2025-04-22T16:47:32.231+03:00,1745329650.22196,40.95223626562538,29.14017881431385,76.20023,-1,-1,-1,-1,30,18.19813875302852,-9999,38411.48398104167,-0.774932861328125,0.5468902587890625,-0.317840576171875,38411.47644004167,-2.857029629390707,-1.180099298542589,-0.5831762541347925,0.0007363056647591293,0.003547261701896787,0.000845622387714684,-0.0004153847694396973,-0.008579075336456299,0.003785669803619385,XArbitraryZVertical,-0.5614022562610183,0.1608834338355119,-0.7651156604287224,0.2711862243381102,-0.7718165516853333,0.550678014755249,-0.3178880512714386,0,0,0,-1,-1,38400.244848625,unknown,2,2025-04-22T16:47:20.987+03:00,2025-04-21T17:08:51.449+03:00,8628,1.066148,0,0,7163.833,7,22,2025-04-22T16:43:03.021+03:00,767022451.4019172,0,-12.79,100.3566,1,0.45,2025-04-22T16:45:05.666+03:00,83,1.383333333333333,2025-04-22T14:20:19.516+03:00,0.02197104130929222,0
2025-04-22T16:47:32.241+03:00,1745329650.22196,40.95223626562538,29.14017881431385,76.20023,-1,-1,-1,-1,30,18.19813875302852,-9999,38411.49405704167,-0.77313232421875,0.5494842529296875,-0.3184967041015625,38411.48651704167,-2.857037898233576,-1.180106135829543,-0.5831367259425507,-0.002476531779393554,0.0050029456615448,0.00126786669716239,-0.004436671733856201,-0.006547152996063232,0.0006759464740753174,XArbitraryZVertical,-0.5614050951936568,0.1608687958668798,-0.7651211068374145,0.2711738554533269,-0.7718389630317688,0.5506449937820435,-0.3178910911083221,0,0,0,-1,-1,38400.244848625,unknown,2,2025-04-22T16:47:20.987+03:00,2025-04-21T17:08:51.449+03:00,8628,1.066148,0,0,7163.833,7,22,2025-04-22T16:43:03.021+03:00,767022451.4019172,0,-12.79,100.3566,1,0.45,2025-04-22T16:45:05.666+03:00,83,1.383333333333333,2025-04-22T14:20:19.516+03:00,0.02197104130929222,0
2025-04-22T16:47:32.251+03:00,1745329650.22196,40.95223626562538,29.14017881431385,76.20023,-1,-1,-1,-1,30,18.19813875302852,-9999,38411.50413404167,-0.7748870849609375,0.54583740234375,-0.3197174072265625,38411.49659304167,-2.85703700306683,-1.180052446854749,-0.5831874311731776,-0.000246400770265609,0.008158791810274124,0.003121160436421633,-0.001641392707824707,-0.001386344432830811,-0.0005902945995330811,XArbitraryZVertical,-0.5613834918545184,0.1608963942585851,-0.7651280187350452,0.2711823924442521,-0.771795928478241,0.550687313079834,-0.3179218471050262,0,0,0,-1,-1,38400.244848625,unknown,2,2025-04-22T16:47:20.987+03:00,2025-04-21T17:08:51.449+03:00,8628,1.066148,0,0,7163.833,7,22,2025-04-22T16:43:03.021+03:00,767022451.4019172,0,-12.79,100.3566,1,0.45,2025-04-22T16:45:05.666+03:00,83,1.383333333333333,2025-04-22T14:20:19.516+03:00,0.02197104130929222,0
2025-04-22T16:47:32.261+03:00,1745329650.22196,40.95223626562538,29.14017881431385,76.20023,-1,-1,-1,-1,30,18.19813875302852,-9999,38411.51421104167,-0.774566650390625,0.54644775390625,-0.3156585693359375,38411.50667004167,-2.857023132639399,-1.179979213476157,-0.5831837944526365,0.001084314193576574,0.006206628400832415,0.001052250503562391,-0.002685189247131348,-0.00426715612411499,-0.000517725944519043,XArbitraryZVertical,-0.5613566652828659,0.1609009462437675,-0.7651473227138477,0.2711809106871297,-0.7717745900154114,0.5506842732429504,-0.3179791569709778,0,0,0,-1,-1,38400.244848625,unknown,2,2025-04-22T16:47:20.987+03:00,2025-04-21T17:08:51.449+03:00,8628,1.066148,0,0,7163.833,7,22,2025-04-22T16:43:03.021+03:00,767022451.4019172,0,-12.79,100.3566,1,0.45,2025-04-22T16:45:05.666+03:00,83,1.383333333333333,2025-04-22T14:20:19.516+03:00,0.02197104130929222,0
2025-04-22T16:47:32.271+03:00,1745329650.22196,40.95223626562538,29.14017881431385,76.20023,-1,-1,-1,-1,30,18.19813875302852,-9999,38411.52428704167,-0.7702789306640625,0.5455169677734375,-0.3122711181640625,38411.51674704167,-2.856966424326148,-1.179898055461779,-0.5831846388574604,0.004604214336723089,0.003552255686372519,0.006007594056427479,-0.00330650806427002,-0.004420340061187744,0.0003992021083831787,XArbitraryZVertical,-0.5613301461255059,0.1608963598625376,-0.7651623761914155,0.2711962868697254,-0.771748423576355,0.5506849884986877,-0.3180416524410248,0,0,0,-1,-1,38400.244848625,unknown,2,2025-04-22T16:47:20.987+03:00,2025-04-21T17:08:51.449+03:00,8628,1.066148,0,0,7163.833,7,22,2025-04-22T16:43:03.021+03:00,767022451.4019172,0,-12.79,100.3566,1,0.45,2025-04-22T16:45:05.666+03:00,83,1.383333333333333,2025-04-22T14:20:19.516+03:00,0.02197104130929222,0
2025-04-22T16:47:32.281+03:00,1745329650.22196,40.95223626562538,29.14017881431385,76.20023,-1,-1,-1,-1,30,18.19813875302852,-9999,38411.53436404167,-0.7660064697265625,0.5455322265625,-0.315582275390625,38411.52682304167,-2.856936482210311,-1.179879893385749,-0.5832201568668904,-0.002556293737143278,-0.001216733828186989,0.0060658841393888,8.755922317504883e-05,-0.004343211650848389,0.005563229322433472,XArbitraryZVertical,-0.5613248050970554,0.1609048200949296,-0.7651578323236525,0.2712150454330938,-0.7717245221138,0.5507146120071411,-0.3180482089519501,0,0,0,-1,-1,38400.244848625,unknown,2,2025-04-22T16:47:20.987+03:00,2025-04-21T17:08:51.449+03:00,8628,1.066148,0,0,7163.833,7,22,2025-04-22T16:43:03.021+03:00,767022451.4019172,0,-12.79,100.3566,1,0.45,2025-04-22T16:45:05.666+03:00,83,1.383333333333333,2025-04-22T14:20:19.516+03:00,0.02197104130929222,0
2025-04-22T16:47:32.291+03:00,1745329650.22196,40.95223626562538,29.14017881431385,76.20023,-1,-1,-1,-1,30,18.19813875302852,-9999,38411.54444104167,-0.7667083740234375,0.543792724609375,-0.3164215087890625,38411.53690004167,-2.856985717213427,-1.179927427800446,-0.5832927593837018,-0.007904186844825745,-0.002670553512871265,0.004819524474442005,0.004277169704437256,-0.005716085433959961,0.004107534885406494,XArbitraryZVertical,-0.5613373893465132,0.1609416287088472,-0.7651397638717103,0.271217949624326,-0.7717025876045227,0.5507752299308777,-0.3179962635040283,0,0,0,-1,-1,38400.244848625,unknown,2,2025-04-22T16:47:20.987+03:00,2025-04-21T17:08:51.449+03:00,8628,1.066148,0,0,7163.833,7,22,2025-04-22T16:43:03.021+03:00,767022451.4019172,0,-12.79,100.3566,1,0.45,2025-04-22T16:45:05.666+03:00,83,1.383333333333333,2025-04-22T14:20:19.516+03:00,0.02197104130929222,0
2025-04-22T16:47:32.301+03:00,1745329650.22196,40.95223626562538,29.14017881431385,76.20023,-1,-1,-1,-1,30,18.19813875302852,-9999,38411.55451704167,-0.7726593017578125,0.5432586669921875,-0.3142547607421875,38411.54697704167,-2.857067706424781,-1.180006847765121,-0.5833731509994552,-0.01361520309001207,-0.004516523331403732,0.004327040165662766,0.007191181182861328,-0.006378352642059326,0.001755803823471069,XArbitraryZVertical,-0.5613593509035847,0.160986457593967,-0.7651160011271066,0.2712128146517948,-0.771686851978302,0.5508423447608948,-0.3179180920124054,0,0,0,-1,-1,38400.244848625,unknown,2,2025-04-22T16:47:20.987+03:00,2025-04-21T17:08:51.449+03:00,8628,1.066148,0,0,7163.833,7,22,2025-04-22T16:43:03.021+03:00,767022451.4019172,0,-12.79,100.3566,1,0.45,2025-04-22T16:45:05.666+03:00,83,1.383333333333333,2025-04-22T14:20:19.516+03:00,0.02197104130929222,0
2025-04-22T16:47:32.312+03:00,1745329650.22196,40.95223626562538,29.14017881431385,76.20023,-1,-1,-1,-1,30,18.19813875302852,-9999,38411.56459404167,-0.77294921875,0.543792724609375,-0.310638427734375,38411.55705304167,-2.857208658348377,-1.180122176587367,-0.5834628176634534,-0.014798978343606,-0.001568936742842197,0.005601095966994762,0.001048147678375244,-0.006971955299377441,0.002471953630447388,XArbitraryZVertical,-0.5613900842715448,0.1610467258658129,-0.7650887070728511,0.2711903085996589,-0.7716777920722961,0.5509171485900879,-0.3178102374076843,0,0,0,-1,-1,38400.244848625,unknown,2,2025-04-22T16:47:20.987+03:00,2025-04-21T17:08:51.449+03:00,8628,1.066148,0,0,7163.833,7,22,2025-04-22T16:43:03.021+03:00,767022451.4019172,0,-12.79,100.3566,1,0.45,2025-04-22T16:45:05.666+03:00,83,1.383333333333333,2025-04-22T14:20:19.516+03:00,0.02197104130929222,0
2025-04-22T16:47:32.321+03:00,1745329650.22196,40.95223626562538,29.14017881431385,76.20023,-1,-1,-1,-1,30,18.19813875302852,-9999,38411.57467104167,-0.7740325927734375,0.5475311279296875,-0.3103485107421875,38411.56713004167,-2.857299794426302,-1.180170132627536,-0.5835513241392829,-0.005977923050522804,0.003089331090450287,0.007768043782562017,-0.001468896865844727,-0.007396817207336426,0.005361348390579224,XArbitraryZVertical,-0.5613990677845981,0.1611016686812753,-0.7650737964051201,0.2711811540857137,-0.7716479301452637,0.5509909987449646,-0.3177546858787537,0,0,0,-1,-1,38400.244848625,unknown,2,2025-04-22T16:47:20.987+03:00,2025-04-21T17:08:51.449+03:00,8628,1.066148,0,0,7163.833,7,22,2025-04-22T16:43:03.021+03:00,767022451.4019172,0,-12.79,100.3566,1,0.45,2025-04-22T16:45:05.666+03:00,83,1.383333333333333,2025-04-22T14:20:19.516+03:00,0.02197104130929222,0
2025-04-22T16:47:32.331+03:00,1745329650.22196,40.95223626562538,29.14017881431385,76.20023,-1,-1,-1,-1,30,18.19813875302852,-9999,38411.58474704167,-0.774566650390625,0.5516357421875,-0.310150146484375,38411.57720704167,-2.857307407898522,-1.18012480569151,-0.5836313783126776,0.0001468149421270937,0.005223588552325964,0.006796522531658411,-0.001157939434051514,-0.005327284336090088,0.007561534643173218,XArbitraryZVertical,-0.5613792638851585,0.161142363127955,-0.7650752175644997,0.2711943525578885,-0.771592915058136,0.5510578155517578,-0.3177729249000549,0,0,0,-1,-1,38400.244848625,unknown,2,2025-04-22T16:47:20.987+03:00,2025-04-21T17:08:51.449+03:00,8628,1.066148,0,0,7163.833,7,22,2025-04-22T16:43:03.021+03:00,767022451.4019172,0,-12.79,100.3566,1,0.45,2025-04-22T16:45:05.666+03:00,83,1.383333333333333,2025-04-22T14:20:19.516+03:00,0.02197104130929222,0
2025-04-22T16:47:32.341+03:00,1745329650.22196,40.95223626562538,29.14017881431385,76.20023,-1,-1,-1,-1,30,18.19813875302852,-9999,38411.59482404167,-0.7725830078125,0.5514068603515625,-0.312774658203125,38411.58728304167,-2.857227558487505,-1.179992698117049,-0.5836547906647011,0.008732646703720093,0.01048153452575207,0.005585083737969398,-0.003744721412658691,0.0001463890075683594,0.007597535848617554,XArbitraryZVertical,-0.5613346182701897,0.1611473430021594,-0.7650978704126097,0.2712200334196793,-0.7715390920639038,0.5510773658752441,-0.3178699612617493,0,0,0,-1,-1,38400.244848625,unknown,2,2025-04-22T16:47:20.987+03:00,2025-04-21T17:08:51.449+03:00,8628,1.066148,0,0,7163.833,7,22,2025-04-22T16:43:03.021+03:00,767022451.4019172,0,-12.79,100.3566,1,0.45,2025-04-22T16:45:05.666+03:00,83,1.383333333333333,2025-04-22T14:20:19.516+03:00,0.02197104130929222,0
2025-04-22T16:47:32.351+03:00,1745329650.22196,40.95223626562538,29.14017881431385,76.20023,-1,-1,-1,-1,30,18.19813875302852,-9999,38411.60490104167,-0.775604248046875,0.5469818115234375,-0.31561279296875,38411.59736004167,-2.857068091051373,-1.179780518332846,-0.5836478635644823,0.01401768997311592,0.01544513367116451,0.003350159153342247,-0.001092612743377686,0.001204907894134521,0.006114691495895386,XArbitraryZVertical,-0.5612664829735152,0.1611285957981515,-0.7651366519060951,0.2712622310495806,-0.7714748978614807,0.5510715842247009,-0.3180350065231323,0,0,0,-1,-1,38400.244848625,unknown,2,2025-04-22T16:47:20.987+03:00,2025-04-21T17:08:51.449+03:00,8628,1.066148,0,0,7163.833,7,22,2025-04-22T16:43:03.021+03:00,767022451.4019172,0,-12.79,100.3566,1,0.45,2025-04-22T16:45:05.666+03:00,83,1.383333333333333,2025-04-22T14:20:19.516+03:00,0.02197104130929222,0
2025-04-22T16:47:32.362+03:00,1745329650.22196,40.95223626562538,29.14017881431385,76.20023,-1,-1,-1,-1,30,18.19813875302852,-9999,38411.61497704167,-0.78021240234375,0.54010009765625,-0.3183135986328125,38411.60743704167,-2.856898729085707,-1.179538136378455,-0.5836470561626004,0.01464020367711782,0.01536963321268559,0.006331501062959433,-0.003168225288391113,-0.0008085966110229492,0.003616303205490112,XArbitraryZVertical,-0.5611874126185042,0.1611136177275709,-0.7651818374311878,0.2713073001230175,-0.7713982462882996,0.5510709285736084,-0.3182221949100494,0,0,0,-1,-1,38400.244848625,unknown,2,2025-04-22T16:47:20.987+03:00,2025-04-21T17:08:51.449+03:00,8628,1.066148,0,0,7163.833,7,22,2025-04-22T16:43:03.021+03:00,767022451.4019172,0,-12.79,100.3566,1,0.45,2025-04-22T16:45:05.666+03:00,83,1.383333333333333,2025-04-22T14:20:19.516+03:00,0.02197104130929222,0
2025-04-22T16:47:32.372+03:00,1745329650.22196,40.95223626562538,29.14017881431385,76.20023,-1,-1,-1,-1,30,18.19813875302852,-9999,38411.62505404167,-0.775604248046875,0.539306640625,-0.31500244140625,38411.61751304167,-2.856763301010814,-1.179311130507335,-0.5836690173091914,0.006274415645748377,0.01375469285994768,0.007220996543765068,-0.00766146183013916,-0.00851738452911377,-0.0002262890338897705,XArbitraryZVertical,-0.5611109716169286,0.161115318631901,-0.7652237210483795,0.2713462446006711,-0.771314799785614,0.5510892271995544,-0.3183926641941071,0,0,0,-1,-1,38400.244848625,unknown,2,2025-04-22T16:47:20.987+03:00,2025-04-21T17:08:51.449+03:00,8628,1.066148,0,0,7163.833,7,22,2025-04-22T16:43:03.021+03:00,767022451.4019172,0,-12.79,100.3566,1,0.45,2025-04-22T16:45:05.666+03:00,83,1.383333333333333,2025-04-22T14:20:19.516+03:00,0.02197104130929222,0
2025-04-22T16:47:32.382+03:00,1745329650.22196,40.95223626562538,29.14017881431385,76.20023,-1,-1,-1,-1,30,18.19813875302852,-9999,38411.63513104167,-0.7730865478515625,0.5402069091796875,-0.3111114501953125,38411.62759004167,-2.85669415100383,-1.179149902899052,-0.5837215925115343,-0.000597272242885083,0.010815161280334,0.005605024285614491,-0.006381511688232422,-0.01217746734619141,0.00177919864654541,XArbitraryZVertical,-0.561053640479832,0.1611390779270903,-0.76525151334724,0.2713726809288369,-0.7712368369102478,0.5511330962181091,-0.3185060322284698,0,0,0,-1,-1,38400.244848625,unknown,2,2025-04-22T16:47:20.987+03:00,2025-04-21T17:08:51.449+03:00,8628,1.066148,0,0,7163.833,7,22,2025-04-22T16:43:03.021+03:00,767022451.4019172,0,-12.79,100.3566,1,0.45,2025-04-22T16:45:05.666+03:00,83,1.383333333333333,2025-04-22T14:20:19.516+03:00,0.02197104130929222,0
2025-04-22T16:47:32.392+03:00,1745329650.22196,40.95223626562538,29.14017881431385,76.20023,-1,-1,-1,-1,30,18.19813875302852,-9999,38411.64520704167,-0.773223876953125,0.54205322265625,-0.311126708984375,38411.63766704167,-2.856699457948719,-1.17905716419453,-0.5837844771451929,-0.006544643547385931,0.008694486692547798,0.005069462582468987,-0.0021248459815979,-0.01042944192886353,0.006476104259490967,XArbitraryZVertical,-0.5610163017503222,0.1611786393933165,-0.7652684305938621,0.2713786825546863,-0.7711752653121948,0.5511856079101562,-0.3185643255710602,0,0,0,-1,-1,38400.244848625,unknown,2,2025-04-22T16:47:20.987+03:00,2025-04-21T17:08:51.449+03:00,8628,1.066148,0,0,7163.833,7,22,2025-04-22T16:43:03.021+03:00,767022451.4019172,0,-12.79,100.3566,1,0.45,2025-04-22T16:45:05.666+03:00,83,1.383333333333333,2025-04-22T14:20:19.516+03:00,0.02197104130929222,0
2025-04-22T16:47:32.402+03:00,1745329650.22196,40.95223626562538,29.14017881431385,76.20023,-1,-1,-1,-1,30,18.19813875302852,-9999,38411.65528404167,-0.7752227783203125,0.5441741943359375,-0.31146240234375,38411.64774304167,-2.856745308188208,-1.178986707378435,-0.5838451389882181,-0.004004853311926126,0.01038020104169846,0.004707372281700373,-0.00216299295425415,-0.01054114103317261,0.007341653108596802,XArbitraryZVertical,-0.5609842852884416,0.161225668834175,-0.7652848316787945,0.2713704136091095,-0.7711217999458313,0.5512362122535706,-0.3186058402061462,0,0,0,-1,-1,38400.244848625,unknown,2,2025-04-22T16:47:20.987+03:00,2025-04-21T17:08:51.449+03:00,8628,1.066148,0,0,7163.833,7,22,2025-04-22T16:43:03.021+03:00,767022451.4019172,0,-12.79,100.3566,1,0.45,2025-04-22T16:45:05.666+03:00,83,1.383333333333333,2025-04-22T14:20:19.516+03:00,0.02197104130929222,0
2025-04-22T16:47:32.412+03:00,1745329650.22196,40.95223626562538,29.14017881431385,76.20023,-1,-1,-1,-1,30,18.19813875302852,-9999,38411.66536104167,-0.7734222412109375,0.5427093505859375,-0.31109619140625,38411.65782004167,-2.856832119658189,-1.178953154825904,-0.5838951996173258,-0.01202736049890518,0.008089084178209305,-0.000329730479279533,-0.003374159336090088,-0.006951332092285156,0.006594032049179077,XArbitraryZVertical,-0.5609633151031624,0.1612748684146333,-0.7652981712140895,0.2713468315715687,-0.7710855603218079,0.5512779355049133,-0.3186211585998535,0,0,0,-1,-1,38400.244848625,unknown,2,2025-04-22T16:47:20.987+03:00,2025-04-21T17:08:51.449+03:00,8628,1.066148,0,0,7163.833,7,22,2025-04-22T16:43:03.021+03:00,767022451.4019172,0,-12.79,100.3566,1,0.45,2025-04-22T16:45:05.666+03:00,83,1.383333333333333,2025-04-22T14:20:19.516+03:00,0.02197104130929222,0
2025-04-22T16:47:32.422+03:00,1745329650.22196,40.95223626562538,29.14017881431385,76.20023,-1,-1,-1,-1,30,18.19813875302852,-9999,38411.67543704167,-0.7724456787109375,0.5401763916015625,-0.3124542236328125,38411.66789704167,-2.85695188817659,-1.178954376737174,-0.5839540945102087,-0.009721328504383564,0.008191348984837532,0.003827330889180303,-0.003907263278961182,-0.008389055728912354,0.00738939642906189,XArbitraryZVertical,-0.5609527769244556,0.1613321585411022,-0.7653049346637459,0.271315621233899,-0.7710559964179993,0.551327109336853,-0.3186078369617462,0,0,0,-1,-1,38400.244848625,unknown,2,2025-04-22T16:47:20.987+03:00,2025-04-21T17:08:51.449+03:00,8628,1.066148,0,0,7163.833,7,22,2025-04-22T16:43:03.021+03:00,767022451.4019172,0,-12.79,100.3566,1,0.45,2025-04-22T16:45:05.666+03:00,83,1.383333333333333,2025-04-22T14:20:19.516+03:00,0.02197104130929222,0
2025-04-22T16:47:32.432+03:00,1745329650.22196,40.95223626562538,29.14017881431385,76.20023,-1,-1,-1,-1,30,18.19813875302852,-9999,38411.68551404167,-0.771881103515625,0.5434112548828125,-0.318359375,38411.67797304167,-2.857018359860827,-1.178891306396865,-0.5840213463074786,-0.004695411305874586,0.0124761089682579,0.003966880030930042,-0.001031935214996338,-0.01071864366531372,0.007256001234054565,XArbitraryZVertical,-0.5609217569649988,0.1613866279430512,-0.7653210816286184,0.2713016757830137,-0.7710015773773193,0.5513831973075867,-0.3186422884464264,0,0,0,-1,-1,38400.244848625,unknown,2,2025-04-22T16:47:20.987+03:00,2025-04-21T17:08:51.449+03:00,8628,1.066148,0,0,7163.833,7,22,2025-04-22T16:43:03.021+03:00,767022451.4019172,0,-12.79,100.3566,1,0.45,2025-04-22T16:45:05.666+03:00,83,1.383333333333333,2025-04-22T14:20:19.516+03:00,0.02197104130929222,0
2025-04-22T16:47:32.442+03:00,1745329650.22196,40.95223626562538,29.14017881431385,76.20023,-1,-1,-1,-1,30,18.19813875302852,-9999,38411.69559104167,-0.769287109375,0.5487518310546875,-0.3160400390625,38411.68805004167,-2.857053842429606,-1.178808274727407,-0.5840818467064367,-0.004501000512391329,0.008581768721342087,0.003532119328156114,-0.001699507236480713,-0.009853541851043701,0.002195656299591064,XArbitraryZVertical,-0.5608857236662674,0.1614323421492611,-0.7653398715132977,0.2712963134452783,-0.7709444165229797,0.5514336824417114,-0.318693608045578,0,0,0,-1,-1,38400.244848625,unknown,2,2025-04-22T16:47:20.987+03:00,2025-04-21T17:08:51.449+03:00,8628,1.066148,0,0,7163.833,7,22,2025-04-22T16:43:03.021+03:00,767022451.4019172,0,-12.79,100.3566,1,0.45,2025-04-22T16:45:05.666+03:00,83,1.383333333333333,2025-04-22T14:20:19.516+03:00,0.02197104130929222,0
2025-04-22T16:47:32.452+03:00,1745329650.22196,40.95223626562538,29.14017881431385,76.20023,-1,-1,-1,-1,30,18.19813875302852,-9999,38411.70566704167,-0.76806640625,0.544342041015625,-0.314849853515625,38411.69812704167,-2.857106848231215,-1.178751149166098,-0.5841231520448437,-0.009774858132004738,0.01180952042341232,0.005783023312687874,0.0006110668182373047,-0.004135429859161377,0.0007813572883605957,XArbitraryZVertical,-0.5608586421448214,0.1614716977828514,-0.7653566387901245,0.2712816000215574,-0.7709051966667175,0.5514681339263916,-0.3187289535999298,0,0,0,-1,-1,38400.244848625,unknown,2,2025-04-22T16:47:20.987+03:00,2025-04-21T17:08:51.449+03:00,8628,1.066148,0,0,7163.833,7,22,2025-04-22T16:43:03.021+03:00,767022451.4019172,0,-12.79,100.3566,1,0.45,2025-04-22T16:45:05.666+03:00,83,1.383333333333333,2025-04-22T14:20:19.516+03:00,0.02197104130929222,0
2025-04-22T16:47:32.462+03:00,1745329650.22196,40.95223626562538,29.14017881431385,76.20023,-1,-1,-1,-1,30,18.19813875302852,-9999,38411.71574404167,-0.771942138671875,0.54010009765625,-0.3151092529296875,38411.70820304167,-2.857201838086184,-1.178671497099894,-0.584185614912228,-0.01096216216683388,0.01190639194101095,0.006415357813239098,0.00250697135925293,-0.003546714782714844,0.004064500331878662,XArbitraryZVertical,-0.5608190693286584,0.1615344630990905,-0.7653820777914091,0.2712542130211146,-0.7708479166030884,0.5515202283859253,-0.3187771737575531,0,0,0,-1,-1,38400.244848625,unknown,2,2025-04-22T16:47:20.987+03:00,2025-04-21T17:08:51.449+03:00,8628,1.066148,0,0,7163.833,7,22,2025-04-22T16:43:03.021+03:00,767022451.4019172,0,-12.79,100.3566,1,0.45,2025-04-22T16:45:05.666+03:00,83,1.383333333333333,2025-04-22T14:20:19.516+03:00,0.02197104130929222,0
2025-04-22T16:47:32.472+03:00,1745329650.22196,40.95223626562538,29.14017881431385,76.20023,-1,-1,-1,-1,30,18.19813875302852,-9999,38411.72582104167,-0.7718353271484375,0.5362548828125,-0.3125,38411.71828004167,-2.857373496090845,-1.178663136396658,-0.5842956354480672,-0.02187712863087654,0.01225846167653799,0.005402024835348129,-0.0002831220626831055,-0.01091688871383667,0.002735495567321777,XArbitraryZVertical,-0.5607994877985356,0.161628327539694,-0.7653905291790389,0.2712149640685971,-0.7707892060279846,0.5516120195388794,-0.3187604248523712,0,0,0,-1,-1,38400.244848625,unknown,2,2025-04-22T16:47:20.987+03:00,2025-04-21T17:08:51.449+03:00,8628,1.066148,0,0,7163.833,7,22,2025-04-22T16:43:03.021+03:00,767022451.4019172,0,-12.79,100.3566,1,0.45,2025-04-22T16:45:05.666+03:00,83,1.383333333333333,2025-04-22T14:20:19.516+03:00,0.02197104130929222,0
2025-04-22T16:47:32.483+03:00,1745329650.22196,40.95223626562538,29.14017881431385,76.20023,-1,-1,-1,-1,30,18.19813875302852,-9999,38411.73589704167,-0.7732086181640625,0.5323638916015625,-0.3164825439453125,38411.72835704167,-2.857588521103369,-1.178659148274024,-0.5844128777811908,-0.02210669219493866,0.01386408135294914,0.005925069563090801,-0.001335978507995605,-0.01218962669372559,0.005872368812561035,XArbitraryZVertical,-0.5607778985672858,0.1617366899648835,-0.7654024675627346,0.2711612510777577,-0.7707281112670898,0.551709771156311,-0.3187387883663177,0,0,0,-1,-1,38400.244848625,unknown,2,2025-04-22T16:47:20.987+03:00,2025-04-21T17:08:51.449+03:00,8628,1.066148,0,0,7163.833,7,22,2025-04-22T16:43:03.021+03:00,767022451.4019172,0,-12.79,100.3566,1,0.45,2025-04-22T16:45:05.666+03:00,83,1.383333333333333,2025-04-22T14:20:19.516+03:00,0.02197104130929222,0
2025-04-22T16:47:32.493+03:00,1745329650.22196,40.95223626562538,29.14017881431385,76.20023,-1,-1,-1,-1,30,18.19813875302852,-9999,38411.74597404167,-0.775421142578125,0.5402984619140625,-0.32000732421875,38411.73843304167,-2.857843295617646,-1.178683590143711,-0.584554796774101,-0.02787536568939686,0.01058306731283665,0.008831909857690334,-0.0004240274429321289,-0.01987630128860474,0.003855228424072266,XArbitraryZVertical,-0.560763388781595,0.1618623453532356,-0.7654079504132523,0.2711007087647141,-0.7706634998321533,0.551828145980835,-0.3186900019645691,0,0,0,-1,-1,38400.244848625,unknown,2,2025-04-22T16:47:20.987+03:00,2025-04-21T17:08:51.449+03:00,8628,1.066148,0,0,7163.833,7,22,2025-04-22T16:43:03.021+03:00,767022451.4019172,0,-12.79,100.3566,1,0.45,2025-04-22T16:45:05.666+03:00,83,1.383333333333333,2025-04-22T14:20:19.516+03:00,0.02197104130929222,0
2025-04-22T16:47:32.503+03:00,1745329650.22196,40.95223626562538,29.14017881431385,76.20023,-1,-1,-1,-1,30,18.19813875302852,-9999,38411.75605104167,-0.7732391357421875,0.5413055419921875,-0.319061279296875,38411.74851004167,-2.858141791429556,-1.178782627453989,-0.5847019347322069,-0.02863503247499466,0.006897651590406895,0.002778877504169941,-0.004495859146118164,-0.01366657018661499,0.0002078711986541748,XArbitraryZVertical,-0.5607737249352615,0.1619922448959068,-0.7653977247576806,0.2710307672492384,-0.7706201076507568,0.5519508719444275,-0.318582683801651,0,0,0,-1,-1,38400.244848625,unknown,2,2025-04-22T16:47:20.987+03:00,2025-04-21T17:08:51.449+03:00,8628,1.066148,0,0,7163.833,7,22,2025-04-22T16:43:03.021+03:00,767022451.4019172,0,-12.79,100.3566,1,0.45,2025-04-22T16:45:05.666+03:00,83,1.383333333333333,2025-04-22T14:20:19.516+03:00,0.02197104130929222,0
2025-04-22T16:47:32.513+03:00,1745329650.22196,40.95223626562538,29.14017881431385,76.20023,-1,-1,-1,-1,30,18.19813875302852,-9999,38411.76612804167,-0.771820068359375,0.54229736328125,-0.3174591064453125,38411.75858704167,-2.858492332669365,-1.178933992224832,-0.5848228661822572,-0.03509106859564781,0.004168444313108921,-0.0002914807409979403,-0.003090262413024902,-0.0111430287361145,-0.001658529043197632,XArbitraryZVertical,-0.5608004725447662,0.1621190686249802,-0.7653837332927363,0.2709386974302182,-0.7706064581871033,0.5520517230033875,-0.3184404671192169,0,0,0,-1,-1,38400.244848625,unknown,2,2025-04-22T16:47:20.987+03:00,2025-04-21T17:08:51.449+03:00,8628,1.066148,0,0,7163.833,7,22,2025-04-22T16:43:03.021+03:00,767022451.4019172,0,-12.79,100.3566,1,0.45,2025-04-22T16:45:05.666+03:00,83,1.383333333333333,2025-04-22T14:20:19.516+03:00,0.02197104130929222,0
2025-04-22T16:47:32.523+03:00,1745329650.22196,40.95223626562538,29.14017881431385,76.20023,-1,-1,-1,-1,30,18.19813875302852,-9999,38411.77620404167,-0.7682647705078125,0.542449951171875,-0.3152008056640625,38411.76866404167,-2.858923136807453,-1.179168017308617,-0.5849347150313214,-0.0396416112780571,-0.003236741758882999,-0.002840259112417698,-0.001546859741210938,-0.009786665439605713,0.0004416108131408691,XArbitraryZVertical,-0.5608524750141889,0.1622534783225729,-0.7653591501456812,0.2708204004307056,-0.770624041557312,0.5521449446678162,-0.3182366192340851,0,0,0,-1,-1,38400.244848625,unknown,2,2025-04-22T16:47:20.987+03:00,2025-04-21T17:08:51.449+03:00,8628,1.066148,0,0,7163.833,7,22,2025-04-22T16:43:03.021+03:00,767022451.4019172,0,-12.79,100.3566,1,0.45,2025-04-22T16:45:05.666+03:00,83,1.383333333333333,2025-04-22T14:20:19.516+03:00,0.02197104130929222,0
2025-04-22T16:47:32.533+03:00,1745329650.22196,40.95223626562538,29.14017881431385,76.20023,-1,-1,-1,-1,30,18.19813875302852,-9999,38411.78628104167,-0.76861572265625,0.5365142822265625,-0.3145294189453125,38411.77874004167,-2.859397700306894,-1.17944593769309,-0.5850640711622086,-0.04291010648012161,-0.00111899571493268,-0.0008322356734424829,0.0008710622787475586,-0.009467184543609619,0.002443224191665649,XArbitraryZVertical,-0.5609172806561362,0.1624013534632745,-0.7653253096903754,0.2706932700281616,-0.7706464529037476,0.5522527694702148,-0.3179952204227448,0,0,0,-1,-1,38400.244848625,unknown,2,2025-04-22T16:47:20.987+03:00,2025-04-21T17:08:51.449+03:00,8628,1.066148,0,0,7163.833,7,22,2025-04-22T16:43:03.021+03:00,767022451.4019172,0,-12.79,100.3566,1,0.45,2025-04-22T16:45:05.666+03:00,83,1.383333333333333,2025-04-22T14:20:19.516+03:00,0.02197104130929222,0
2025-04-22T16:47:32.543+03:00,1745329650.22196,40.95223626562538,29.14017881431385,76.20023,-1,-1,-1,-1,30,18.19813875302852,-9999,38411.79635804167,-0.7686004638671875,0.53607177734375,-0.3142242431640625,38411.78881704167,-2.859862736643119,-1.179713853720726,-0.5851969450574513,-0.03919193521142006,-0.0002075289376080036,-0.002247905591502786,0.002566874027252197,-0.01391154527664185,0.003582090139389038,XArbitraryZVertical,-0.5609789172964282,0.1625493947202027,-0.765292216511238,0.270569877564815,-0.7706636786460876,0.5523635745048523,-0.317760705947876,0,0,0,-1,-1,38400.244848625,unknown,2,2025-04-22T16:47:20.987+03:00,2025-04-21T17:08:51.449+03:00,8628,1.066148,0,0,7163.833,7,22,2025-04-22T16:43:03.021+03:00,767022451.4019172,0,-12.79,100.3566,1,0.45,2025-04-22T16:45:05.666+03:00,83,1.383333333333333,2025-04-22T14:20:19.516+03:00,0.02197104130929222,0
2025-04-22T16:47:32.553+03:00,1745329650.22196,40.95223626562538,29.14017881431385,76.20023,-1,-1,-1,-1,30,18.19813875302852,-9999,38411.80643404167,-0.76739501953125,0.5389556884765625,-0.317718505859375,38411.79889404167,-2.860273618713772,-1.179911847862397,-0.5853197295600704,-0.03485524281859398,0.005638908594846725,0.003437144681811333,0.001453161239624023,-0.01729452610015869,0.003098458051681519,XArbitraryZVertical,-0.5610183724266835,0.1626876185472138,-0.7652730659868077,0.2704590670526681,-0.7706637978553772,0.5524659156799316,-0.3175822496414185,0,0,0,-1,-1,38400.244848625,unknown,2,2025-04-22T16:47:20.987+03:00,2025-04-21T17:08:51.449+03:00,8628,1.066148,0,0,7163.833,7,22,2025-04-22T16:43:03.021+03:00,767022451.4019172,0,-12.79,100.3566,1,0.45,2025-04-22T16:45:05.666+03:00,83,1.383333333333333,2025-04-22T14:20:19.516+03:00,0.02197104130929222,0
2025-04-22T16:47:32.579+03:00,1745329650.22196,40.95223626562538,29.14017881431385,76.20023,-1,-1,-1,-1,30,18.19813875302852,-9999,38411.81651104167,-0.7697601318359375,0.540924072265625,-0.3202056884765625,38411.80897004167,-2.860663961274461,-1.180044055744558,-0.5854883206101165,-0.03749377280473709,0.009332313202321529,0.006228736601769924,0.003484189510345459,-0.01439851522445679,0.001374185085296631,XArbitraryZVertical,-0.5610331814250538,0.1628475293224699,-0.7652625139689589,0.2703620979548182,-0.7706197500228882,0.552606463432312,-0.3174448907375336,0,0,0,-1,-1,38400.244848625,unknown,2,2025-04-22T16:47:20.987+03:00,2025-04-21T17:08:51.449+03:00,8628,1.066148,0,0,7163.833,7,22,2025-04-22T16:43:03.021+03:00,767022451.4019172,0,-12.79,100.3566,1,0.45,2025-04-22T16:45:05.666+03:00,83,1.383333333333333,2025-04-22T14:20:19.516+03:00,0.02197104130929222,0
2025-04-22T16:47:32.581+03:00,1745329650.22196,40.95223626562538,29.14017881431385,76.20023,-1,-1,-1,-1,30,18.19813875302852,-9999,38411.82658804167,-0.770263671875,0.543060302734375,-0.323272705078125,38411.81904704167,-2.861083213907872,-1.180179531698975,-0.5856726062838112,-0.04308880865573883,0.01004204526543617,0.004979980178177357,0.001571536064147949,-0.01346868276596069,-0.001973330974578857,XArbitraryZVertical,-0.5610464600297611,0.1630214730368014,-0.7652524730331318,0.2702582300890074,-0.7705686092376709,0.5527600049972534,-0.3173017501831055,0,0,0,-1,-1,38400.244848625,unknown,2,2025-04-22T16:47:20.987+03:00,2025-04-21T17:08:51.449+03:00,8628,1.066148,0,0,7163.833,7,22,2025-04-22T16:43:03.021+03:00,767022451.4019172,0,-12.79,100.3566,1,0.45,2025-04-22T16:45:05.666+03:00,83,1.383333333333333,2025-04-22T14:20:19.516+03:00,0.02197104130929222,0
2025-04-22T16:47:32.583+03:00,1745329650.22196,40.95223626562538,29.14017881431385,76.20023,-1,-1,-1,-1,30,18.19813875302852,-9999,38411.83666404167,-0.77020263671875,0.5411529541015625,-0.3213958740234375,38411.82912404167,-2.861585339024371,-1.180370628481439,-0.5858836725608974,-0.0543053075671196,0.006563891656696796,0.007791046518832445,-4.750490188598633e-05,-0.01027244329452515,-0.004560679197311401,XArbitraryZVertical,-0.5610735770825794,0.1632220342824393,-0.7652336528590327,0.2701338295616371,-0.7705211639404297,0.5529358983039856,-0.3171100318431854,0,0,0,-1,-1,38400.244848625,unknown,2,2025-04-22T16:47:20.987+03:00,2025-04-21T17:08:51.449+03:00,8628,1.066148,0,0,7163.833,7,22,2025-04-22T16:43:03.021+03:00,767022451.4019172,0,-12.79,100.3566,1,0.45,2025-04-22T16:45:05.666+03:00,83,1.383333333333333,2025-04-22T14:20:19.516+03:00,0.02197104130929222,0
2025-04-22T16:47:32.593+03:00,1745329650.22196,40.95223626562538,29.14017881431385,76.20023,-1,-1,-1,-1,30,18.19813875302852,-9999,38411.84674104167,-0.7674713134765625,0.5420989990234375,-0.315765380859375,38411.83920004167,-2.862185455915779,-1.180669692327421,-0.5861456758154354,-0.05795170739293098,-0.001162204891443253,0.007485582027584314,-7.146596908569336e-05,-0.0107501745223999,-0.006387323141098022,XArbitraryZVertical,-0.5611326613163562,0.1634561313661269,-0.7651899189387384,0.2699933870924054,-0.7704819440841675,0.5531541705131531,-0.3168244659900665,0,0,0,-1,-1,38400.244848625,unknown,2,2025-04-22T16:47:20.987+03:00,2025-04-21T17:08:51.449+03:00,8628,1.066148,0,0,7163.833,7,22,2025-04-22T16:43:03.021+03:00,767022451.4019172,0,-12.79,100.3566,1,0.45,2025-04-22T16:45:05.666+03:00,83,1.383333333333333,2025-04-22T14:20:19.516+03:00,0.02197104130929222,0
2025-04-22T16:47:32.604+03:00,1745329650.22196,40.95223626562538,29.14017881431385,76.20023,-1,-1,-1,-1,30,18.19813875302852,-9999,38411.85681804167,-0.7669677734375,0.54559326171875,-0.3094024658203125,38411.84927704167,-2.862808236954912,-1.181022718826574,-0.5864469064367461,-0.05929400771856308,-0.002532468177378178,0.01044285669922829,0.001778304576873779,-0.01299995183944702,-0.001199036836624146,XArbitraryZVertical,-0.5612094396177563,0.1637051995773763,-0.7651280339323896,0.2698584618245485,-0.7704396843910217,0.5534051060676575,-0.3164891302585602,0,0,0,-1,-1,38400.244848625,unknown,2,2025-04-22T16:47:20.987+03:00,2025-04-21T17:08:51.449+03:00,8628,1.066148,0,0,7163.833,7,22,2025-04-22T16:43:03.021+03:00,767022451.4019172,0,-12.79,100.3566,1,0.45,2025-04-22T16:45:05.666+03:00,83,1.383333333333333,2025-04-22T14:20:19.516+03:00,0.02197104130929222,0
2025-04-22T16:47:32.614+03:00,1745329650.22196,40.95223626562538,29.14017881431385,76.20023,-1,-1,-1,-1,30,18.19813875302852,-9999,38411.86689404167,-0.767913818359375,0.5370941162109375,-0.3066864013671875,38411.85935404167,-2.863424045165122,-1.181363261326144,-0.5867371108683826,-0.05787427723407745,0.004223438445478678,0.009641245007514954,0.004041492938995361,-0.00750434398651123,0.00403180718421936,XArbitraryZVertical,-0.5612821600466361,0.1639495872526888,-0.7650702188698457,0.2697225452084282,-0.770398736000061,0.5536468029022217,-0.3161657452583313,0,0,0,-1,-1,38400.244848625,unknown,2,2025-04-22T16:47:20.987+03:00,2025-04-21T17:08:51.449+03:00,8628,1.066148,0,0,7163.833,7,22,2025-04-22T16:43:03.021+03:00,767022451.4019172,0,-12.79,100.3566,1,0.45,2025-04-22T16:45:05.666+03:00,83,1.383333333333333,2025-04-22T14:20:19.516+03:00,0.02197104130929222,0
2025-04-22T16:47:32.627+03:00,1745329650.22196,40.95223626562538,29.14017881431385,76.20023,-1,-1,-1,-1,30,18.19813875302852,-9999,38411.87697104167,-0.7749786376953125,0.539764404296875,-0.3109283447265625,38411.86943004167,-2.863982702881599,-1.181577750566894,-0.5870362099705786,-0.05047068744897842,0.0136994980275631,0.01561391539871693,0.003940761089324951,-0.01355171203613281,0.009373128414154053,XArbitraryZVertical,-0.561310975535793,0.1641985308853529,-0.7650387828697186,0.2696004300863971,-0.7703133225440979,0.5538958311080933,-0.3159376680850983,0,0,0,-1,-1,38400.244848625,unknown,2,2025-04-22T16:47:20.987+03:00,2025-04-21T17:08:51.449+03:00,8628,1.066148,0,0,7163.833,7,22,2025-04-22T16:43:03.021+03:00,767022451.4019172,0,-12.79,100.3566,1,0.45,2025-04-22T16:45:05.666+03:00,83,1.383333333333333,2025-04-22T14:20:19.516+03:00,0.02197104130929222,0
2025-04-22T16:47:32.634+03:00,1745329650.22196,40.95223626562538,29.14017881431385,76.20023,-1,-1,-1,-1,30,18.19813875302852,-9999,38411.88704804167,-0.7740936279296875,0.5529937744140625,-0.31219482421875,38411.87950704167,-2.864486311843087,-1.181718845347096,-0.5873391520808955,-0.0534941740334034,0.01200359687209129,0.01360402815043926,-0.001953005790710449,-0.01838153600692749,0.006820440292358398,XArbitraryZVertical,-0.5613160257254332,0.1644434800529562,-0.7650198775970187,0.2694943430864375,-0.77020263671875,0.5541480779647827,-0.3157653212547302,0,0,0,-1,-1,38400.244848625,unknown,2,2025-04-22T16:47:20.987+03:00,2025-04-21T17:08:51.449+03:00,8628,1.066148,0,0,7163.833,7,22,2025-04-22T16:43:03.021+03:00,767022451.4019172,0,-12.79,100.3566,1,0.45,2025-04-22T16:45:05.666+03:00,83,1.383333333333333,2025-04-22T14:20:19.516+03:00,0.02197104130929222,0
2025-04-22T16:47:32.645+03:00,1745329650.22196,40.95223626562538,29.14017881431385,76.20023,-1,-1,-1,-1,30,18.19813875302852,-9999,38411.89712504167,-0.7713623046875,0.5510406494140625,-0.3174591064453125,38411.88958404167,-2.865076689313735,-1.18194721998244,-0.5876564936622146,-0.05973409488797188,0.007511510513722897,0.01383392512798309,-0.005476891994476318,-0.005599379539489746,0.003816008567810059,XArbitraryZVertical,-0.5613468494063286,0.1647068608245233,-0.764985844519624,0.2693658550345849,-0.7701119780540466,0.5544121861457825,-0.3155227303504944,0,0,0,-1,-1,38400.244848625,unknown,2,2025-04-22T16:47:20.987+03:00,2025-04-21T17:08:51.449+03:00,8628,1.066148,0,0,7163.833,7,22,2025-04-22T16:43:03.021+03:00,767022451.4019172,0,-12.79,100.3566,1,0.45,2025-04-22T16:45:05.666+03:00,83,1.383333333333333,2025-04-22T14:20:19.516+03:00,0.02197104130929222,0
2025-04-22T16:47:32.656+03:00,1745329650.22196,40.95223626562538,29.14017881431385,76.20023,-1,-1,-1,-1,30,18.19813875302852,-9999,38411.90720104167,-0.7690277099609375,0.5425262451171875,-0.319732666015625,38411.89966104167,-2.865685884917326,-1.182236189095719,-0.5879832132884915,-0.06256210803985596,-0.0009813103824853897,0.01626219600439072,-0.001311540603637695,-0.0003324151039123535,0.0008392632007598877,XArbitraryZVertical,-0.5613989332746976,0.1649711874246508,-0.7649357363649453,0.2692375520055653,-0.7700353264808655,0.554684042930603,-0.3152315020561218,0,0,0,-1,-1,38400.244848625,unknown,2,2025-04-22T16:47:20.987+03:00,2025-04-21T17:08:51.449+03:00,8628,1.066148,0,0,7163.833,7,22,2025-04-22T16:43:03.021+03:00,767022451.4019172,0,-12.79,100.3566,1,0.45,2025-04-22T16:45:05.666+03:00,83,1.383333333333333,2025-04-22T14:20:19.516+03:00,0.02197104130929222,0
2025-04-22T16:47:32.664+03:00,1745329650.22196,40.95223626562538,29.14017881431385,76.20023,-1,-1,-1,-1,30,18.19813875302852,-9999,38411.91727804167,-0.759735107421875,0.5424346923828125,-0.310882568359375,38411.90973704167,-2.866370047483379,-1.182657104451934,-0.5884101549114661,-0.07947736978530884,-0.01048420090228319,0.0205196924507618,-0.001001417636871338,-0.01075839996337891,-0.004548937082290649,XArbitraryZVertical,-0.5614925581223139,0.165279353567838,-0.7648431231175706,0.2691163890507106,-0.7699486613273621,0.5550392270088196,-0.3148176968097687,0,0,0,-1,-1,38400.244848625,unknown,2,2025-04-22T16:47:20.987+03:00,2025-04-21T17:08:51.449+03:00,8628,1.066148,0,0,7163.833,7,22,2025-04-22T16:43:03.021+03:00,767022451.4019172,0,-12.79,100.3566,1,0.45,2025-04-22T16:45:05.666+03:00,83,1.383333333333333,2025-04-22T14:20:19.516+03:00,0.02197104130929222,0
2025-04-22T16:47:32.674+03:00,1745329650.22196,40.95223626562538,29.14017881431385,76.20023,-1,-1,-1,-1,30,18.19813875302852,-9999,38411.92735504167,-0.760650634765625,0.5367889404296875,-0.30157470703125,38411.91981404167,-2.867230728565213,-1.183254461647506,-0.5889327246017557,-0.0920107439160347,-0.01273830141872168,0.02301933616399765,0.007127106189727783,-0.012276291847229,-0.00221937894821167,XArbitraryZVertical,-0.5616363238004062,0.1656520461957011,-0.7647098461148715,0.2689661880429986,-0.7698680758476257,0.5554738640785217,-0.3142480850219727,0,0,0,-1,-1,38400.244848625,unknown,2,2025-04-22T16:47:20.987+03:00,2025-04-21T17:08:51.449+03:00,8628,1.066148,0,0,7163.833,7,22,2025-04-22T16:43:03.021+03:00,767022451.4019172,0,-12.79,100.3566,1,0.45,2025-04-22T16:45:05.666+03:00,83,1.383333333333333,2025-04-22T14:20:19.516+03:00,0.02197104130929222,0
2025-04-22T16:47:32.684+03:00,1745329650.22196,40.95223626562538,29.14017881431385,76.20023,-1,-1,-1,-1,30,18.19813875302852,-9999,38411.93743104167,-0.7678375244140625,0.5425567626953125,-0.304412841796875,38411.92989104167,-2.868190944461529,-1.183890743185865,-0.5894944754227244,-0.09998124837875366,-0.01168761681765318,0.02592181414365768,0.01173752546310425,-0.01773303747177124,0.01024970412254333,XArbitraryZVertical,-0.5617853453587996,0.1660633842292061,-0.7645726712425387,0.2687911342368684,-0.7697787284851074,0.5559408664703369,-0.3136403560638428,0,0,0,-1,-1,38400.244848625,unknown,2,2025-04-22T16:47:20.987+03:00,2025-04-21T17:08:51.449+03:00,8628,1.066148,0,0,7163.833,7,22,2025-04-22T16:43:03.021+03:00,767022451.4019172,0,-12.79,100.3566,1,0.45,2025-04-22T16:45:05.666+03:00,83,1.383333333333333,2025-04-22T14:20:19.516+03:00,0.02197104130929222,0
2025-04-22T16:47:32.694+03:00,1745329650.22196,40.95223626562538,29.14017881431385,76.20023,-1,-1,-1,-1,30,18.19813875302852,-9999,38411.947506,-0.7669677734375,0.5420379638671875,-0.30303955078125,38411.93996704167,-2.869242938335343,-1.184609413309369,-0.5900961036322963,-0.1091640964150429,-0.01386608276516199,0.0208777878433466,0.003672361373901367,-0.01701235771179199,0.009982317686080933,XArbitraryZVertical,-0.5619567358741185,0.1665056261236761,-0.7644183495324399,0.2685980482756118,-0.769693911075592,0.5564408898353577,-0.3129610121250153,0,0,0,-1,-1,38400.244848625,unknown,2,2025-04-22T16:47:20.987+03:00,2025-04-21T17:08:51.449+03:00,8628,1.066148,0,0,7163.833,7,22,2025-04-22T16:43:03.021+03:00,767022451.4019172,0,-12.79,100.3566,1,0.45,2025-04-22T16:45:05.666+03:00,83,1.383333333333333,2025-04-22T14:20:19.516+03:00,0.02197104130929222,0
2025-04-22T16:47:32.704+03:00,1745329650.22196,40.95223626562538,29.14017881431385,76.20023,-1,-1,-1,-1,30,18.19813875302852,-9999,38411.957583,-0.7772369384765625,0.5472869873046875,-0.30255126953125,38411.950042,-2.870363381284837,-1.185344870949241,-0.5906834620413931,-0.1065113916993141,-0.006051902659237385,0.02151451632380486,0.002165079116821289,-0.01334977149963379,0.007797896862030029,XArbitraryZVertical,-0.5621286866197371,0.1669591383271262,-0.764270751840754,0.2683770141673992,-0.7696210145950317,0.556928813457489,-0.3122719824314117,0,0,0,-1,-1,38400.244848625,unknown,2,2025-04-22T16:47:20.987+03:00,2025-04-21T17:08:51.449+03:00,8628,1.066148,0,0,7163.833,7,22,2025-04-22T16:43:03.021+03:00,767022451.4019172,0,-12.79,100.3566,1,0.45,2025-04-22T16:45:05.666+03:00,83,1.383333333333333,2025-04-22T14:20:19.516+03:00,0.02197104130929222,0
2025-04-22T16:47:32.714+03:00,1745329650.22196,40.95223626562538,29.14017881431385,76.20023,-1,-1,-1,-1,30,18.19813875302852,-9999,38411.967659,-0.7830657958984375,0.562164306640625,-0.31146240234375,38411.960119,-2.871442836697213,-1.185946220672049,-0.5912011840428962,-0.1026047989726067,0.005704355426132679,0.01351864077150822,-0.002950012683868408,-0.01454263925552368,0.009973347187042236,XArbitraryZVertical,-0.5622542256936811,0.167391103991344,-0.7641658709205472,0.2681434684483704,-0.769541323184967,0.5573587417602539,-0.3117008209228516,0,0,0,-1,-1,38400.244848625,unknown,2,2025-04-22T16:47:20.987+03:00,2025-04-21T17:08:51.449+03:00,8628,1.066148,0,0,7163.833,7,22,2025-04-22T16:43:03.021+03:00,767022451.4019172,0,-12.79,100.3566,1,0.45,2025-04-22T16:45:05.666+03:00,83,1.383333333333333,2025-04-22T14:20:19.516+03:00,0.02197104130929222,0
2025-04-22T16:47:32.724+03:00,1745329650.22196,40.95223626562538,29.14017881431385,76.20023,-1,-1,-1,-1,30,18.19813875302852,-9999,38411.977736,-0.782012939453125,0.559417724609375,-0.3138885498046875,38411.970195,-2.872633397447845,-1.186483547374254,-0.5917319761681679,-0.09752215445041656,0.02051872201263905,0.01402251049876213,-0.01346361637115479,0.0001381635665893555,0.003360509872436523,XArbitraryZVertical,-0.5623451898029264,0.1678682561835125,-0.7640916331751035,0.2678656300339011,-0.7694342136383057,0.5577993392944336,-0.3111762702465057,0,0,0,-1,-1,38400.244848625,unknown,2,2025-04-22T16:47:20.987+03:00,2025-04-21T17:08:51.449+03:00,8628,1.066148,0,0,7163.833,7,22,2025-04-22T16:43:03.021+03:00,767022451.4019172,0,-12.79,100.3566,1,0.45,2025-04-22T16:45:05.666+03:00,83,1.383333333333333,2025-04-22T14:20:19.516+03:00,0.02197104130929222,0
2025-04-22T16:47:32.735+03:00,1745329650.22196,40.95223626562538,29.14017881431385,76.20023,-1,-1,-1,-1,30,18.19813875302852,-9999,38411.987813,-0.77972412109375,0.563812255859375,-0.3121490478515625,38411.980272,-2.873597745615357,-1.186782657794356,-0.5921809422771152,-0.08270325511693954,0.02760699018836021,0.009242668747901917,-0.0122295618057251,0.003870248794555664,-0.003463715314865112,XArbitraryZVertical,-0.5623659590872757,0.1682806774910079,-0.7640668295580818,0.2676340554120548,-0.7692950963973999,0.5581719279289246,-0.3108522891998291,0,0,0,-1,-1,38400.244848625,unknown,2,2025-04-22T16:47:20.987+03:00,2025-04-21T17:08:51.449+03:00,8628,1.066148,0,0,7163.833,7,22,2025-04-22T16:43:03.021+03:00,767022451.4019172,0,-12.79,100.3566,1,0.45,2025-04-22T16:45:05.666+03:00,83,1.383333333333333,2025-04-22T14:20:19.516+03:00,0.02197104130929222,0
2025-04-22T16:47:32.745+03:00,1745329650.22196,40.95223626562538,29.14017881431385,76.20023,-1,-1,-1,-1,30,18.19813875302852,-9999,38411.99788900001,-0.7772979736328125,0.5777435302734375,-0.303192138671875,38411.990349,-2.874360834898407,-1.186908239227875,-0.5924846673764796,-0.06362038105726242,0.0318419486284256,0.00565539114177227,-0.01185941696166992,0.0004138350486755371,-0.003517001867294312,XArbitraryZVertical,-0.5623411861834985,0.1686011108051602,-0.7640862163036096,0.2674287001997442,-0.769176721572876,0.5584239363670349,-0.3106921017169952,0,0,0,-1,-1,38400.244848625,unknown,2,2025-04-22T16:47:20.987+03:00,2025-04-21T17:08:51.449+03:00,8628,1.066148,0,0,7163.833,7,22,2025-04-22T16:43:03.021+03:00,767022451.4019172,0,-12.79,100.3566,1,0.45,2025-04-22T16:45:05.666+03:00,83,1.383333333333333,2025-04-22T14:20:19.516+03:00,0.02197104130929222,0
2025-04-22T16:47:32.755+03:00,1745329650.22196,40.95223626562538,29.14017881431385,76.20023,-1,-1,-1,-1,30,18.19813875302852,-9999,38412.007966,-0.7833251953125,0.5681610107421875,-0.29925537109375,38412.00042500001,-2.874998407531007,-1.186868713749043,-0.5927216305030274,-0.05750922113656998,0.04317796230316162,0.003737116232514381,-0.008576452732086182,0.01582711935043335,0.0039101243019104,XArbitraryZVertical,-0.5622656075361412,0.1688813163655968,-0.7641457804488181,0.2672407652530479,-0.7690418362617493,0.5586204528808594,-0.3106729686260223,0,0,0,-1,-1,38400.244848625,unknown,2,2025-04-22T16:47:20.987+03:00,2025-04-21T17:08:51.449+03:00,8628,1.066148,0,0,7163.833,7,22,2025-04-22T16:43:03.021+03:00,767022451.4019172,0,-12.79,100.3566,1,0.45,2025-04-22T16:45:05.666+03:00,83,1.383333333333333,2025-04-22T14:20:19.516+03:00,0.02197104130929222,0
2025-04-22T16:47:32.765+03:00,1745329650.22196,40.95223626562538,29.14017881431385,76.20023,-1,-1,-1,-1,30,18.19813875302852,-9999,38412.018043,-0.790679931640625,0.5541229248046875,-0.2997283935546875,38412.010502,-2.875634994438555,-1.1867415586671,-0.5929231930869678,-0.0534171462059021,0.05111484974622726,-0.0007505098474211991,-0.01163476705551147,0.01514112949371338,0.01080167293548584,XArbitraryZVertical,-0.5621575121636306,0.1691586294265675,-0.7642352425466808,0.2670369634504495,-0.7688979506492615,0.5587876439094543,-0.3107285797595978,0,0,0,-1,-1,38400.244848625,unknown,2,2025-04-22T16:47:20.987+03:00,2025-04-21T17:08:51.449+03:00,8628,1.066148,0,0,7163.833,7,22,2025-04-22T16:43:03.021+03:00,767022451.4019172,0,-12.79,100.3566,1,0.45,2025-04-22T16:45:05.666+03:00,83,1.383333333333333,2025-04-22T14:20:19.516+03:00,0.02197104130929222,0
2025-04-22T16:47:32.775+03:00,1745329650.22196,40.95223626562538,29.14017881431385,76.20023,-1,-1,-1,-1,30,18.19813875302852,-9999,38412.02812,-0.7905731201171875,0.5552520751953125,-0.3025665283203125,38412.020579,-2.876208582747204,-1.186530702128313,-0.5930808269816792,-0.04497572407126427,0.05664889514446259,-0.0007209487957879901,-0.01962506771087646,-0.0009350180625915527,0.01109859347343445,XArbitraryZVertical,-0.5620238896844174,0.169411613965978,-0.7643466260752644,0.266839165896788,-0.7687508463859558,0.5589183568954468,-0.3108577132225037,0,0,0,-1,-1,38400.244848625,unknown,2,2025-04-22T16:47:20.987+03:00,2025-04-21T17:08:51.449+03:00,8628,1.066148,0,0,7163.833,7,22,2025-04-22T16:43:03.021+03:00,767022451.4019172,0,-12.79,100.3566,1,0.45,2025-04-22T16:45:05.666+03:00,83,1.383333333333333,2025-04-22T14:20:19.516+03:00,0.02197104130929222,0
2025-04-22T16:47:32.785+03:00,1745329650.22196,40.95223626562538,29.14017881431385,76.20023,-1,-1,-1,-1,30,18.19813875302852,-9999,38412.038196,-0.786865234375,0.5576934814453125,-0.3096771240234375,38412.030656,-2.876676202650463,-1.186176702006071,-0.5932134286764142,-0.04107991605997086,0.06727637350559235,-0.00299695273861289,-0.02316075563430786,-0.005134403705596924,0.009847491979598999,XArbitraryZVertical,-0.5618451843553449,0.1696437855642778,-0.7644876937800459,0.2666634421398085,-0.7685718536376953,0.5590283274650574,-0.3111019432544708,0,0,0,-1,-1,38400.244848625,unknown,2,2025-04-22T16:47:20.987+03:00,2025-04-21T17:08:51.449+03:00,8628,1.066148,0,0,7163.833,7,22,2025-04-22T16:43:03.021+03:00,767022451.4019172,0,-12.79,100.3566,1,0.45,2025-04-22T16:45:05.666+03:00,83,1.383333333333333,2025-04-22T14:20:19.516+03:00,0.02197104130929222,0
2025-04-22T16:47:32.795+03:00,1745329650.22196,40.95223626562538,29.14017881431385,76.20023,-1,-1,-1,-1,30,18.19813875302852,-9999,38412.048273,-0.7830810546875,0.5572967529296875,-0.31231689453125,38412.040732,-2.877138879188607,-1.185709124176842,-0.5933144926651552,-0.03465264290571213,0.07985101640224457,-0.002055525314062834,-0.01978814601898193,-0.001235544681549072,0.00367012619972229,XArbitraryZVertical,-0.5616242523008455,0.1698768497375882,-0.7646651091264393,0.2664720297376192,-0.7683740854263306,0.5591121315956116,-0.311440110206604,0,0,0,-1,-1,38400.244848625,unknown,2,2025-04-22T16:47:20.987+03:00,2025-04-21T17:08:51.449+03:00,8628,1.066148,0,0,7163.833,7,22,2025-04-22T16:43:03.021+03:00,767022451.4019172,0,-12.79,100.3566,1,0.45,2025-04-22T16:45:05.666+03:00,83,1.383333333333333,2025-04-22T14:20:19.516+03:00,0.02197104130929222,0
2025-04-22T16:47:32.805+03:00,1745329650.22196,40.95223626562538,29.14017881431385,76.20023,-1,-1,-1,-1,30,18.19813875302852,-9999,38412.05835,-0.77996826171875,0.5608978271484375,-0.320159912109375,38412.050809,-2.87760043594597,-1.185137593899454,-0.593425974607995,-0.0520254410803318,0.08672922849655151,-0.004144608974456787,-0.01724690198898315,-0.002121508121490479,0.0003321170806884766,XArbitraryZVertical,-0.5613632879211483,0.1701275929015476,-0.7648696259242387,0.2662746956154037,-0.7681381106376648,0.5592045187950134,-0.3118557333946228,0,0,0,-1,-1,38400.244848625,unknown,2,2025-04-22T16:47:20.987+03:00,2025-04-21T17:08:51.449+03:00,8628,1.066148,0,0,7163.833,7,22,2025-04-22T16:43:03.021+03:00,767022451.4019172,0,-12.79,100.3566,1,0.45,2025-04-22T16:45:05.666+03:00,83,1.383333333333333,2025-04-22T14:20:19.516+03:00,0.02197104130929222,0
2025-04-22T16:47:32.815+03:00,1745329650.22196,40.95223626562538,29.14017881431385,76.20023,-1,-1,-1,-1,30,18.19813875302852,-9999,38412.06842600001,-0.7806549072265625,0.5597076416015625,-0.3195648193359375,38412.060886,-2.878240236675662,-1.184546800428876,-0.5935961602234097,-0.05351174995303154,0.1047537699341774,-0.002865492599084973,-0.01310962438583374,7.200241088867188e-05,-0.004941493272781372,XArbitraryZVertical,-0.5610779393979035,0.1704544941906448,-0.7650941134577346,0.2660220029736509,-0.7678655385971069,0.5593456029891968,-0.3122736215591431,0,0,0,-1,-1,38400.244848625,unknown,2,2025-04-22T16:47:20.987+03:00,2025-04-21T17:08:51.449+03:00,8628,1.066148,0,0,7163.833,7,22,2025-04-22T16:43:03.021+03:00,767022451.4019172,0,-12.79,100.3566,1,0.45,2025-04-22T16:45:05.666+03:00,83,1.383333333333333,2025-04-22T14:20:19.516+03:00,0.02197104130929222,0
