loggingTime(txt),locationTimestamp_since1970(s),locationLatitude(WGS84),locationLongitude(WGS84),locationAltitude(m),locationSpeed(m/s),locationSpeedAccuracy(m/s),locationCourse(°),locationCourseAccuracy(°),locationVerticalAccuracy(m),locationHorizontalAccuracy(m),locationFloor(Z),accelerometerTimestamp_sinceReboot(s),accelerometerAccelerationX(G),accelerometerAccelerationY(G),accelerometerAccelerationZ(G),motionTimestamp_sinceReboot(s),motionYaw(rad),motionRoll(rad),motionPitch(rad),motionRotationRateX(rad/s),motionRotationRateY(rad/s),motionRotationRateZ(rad/s),motionUserAccelerationX(G),motionUserAccelerationY(G),motionUserAccelerationZ(G),motionAttitudeReferenceFrame(txt),motionQuaternionX(R),motionQuaternionY(R),motionQuaternionZ(R),motionQuaternionW(R),motionGravityX(G),motionGravityY(G),motionGravityZ(G),motionMagneticFieldX(µT),motionMagneticFieldY(µT),motionMagneticFieldZ(µT),motionHeading(°),motionMagneticFieldCalibrationAccuracy(Z),activityTimestamp_sinceReboot(s),activity(txt),activityActivityConfidence(Z),activityActivityStartDate(txt),pedometerStartDate(txt),pedometerNumberofSteps(N),pedometerAverageActivePace(s/m),pedometerCurrentPace(s/m),pedometerCurrentCadence(steps/s),pedometerDistance(m),pedometerFloorAscended(N),pedometerFloorDescended(N),pedometerEndDate(txt),altimeterTimestamp_sinceReboot(s),altimeterReset(bool),altimeterRelativeAltitude(m),altimeterPressure(kPa),batteryState(N),batteryLevel(R),heartRateBPMTimestamp(txt),heartRateBPM(N),heartRateBPS(R),heartRateVariabilityTimestamp(txt),heartRateVariability(ms),label
2025-04-22T16:28:34.892+03:00,1745328514.31086,40.95223118027651,29.14031871188165,76.03748,-1,-1,-1,-1,30.0056606849946,39.38603433184983,-9999,37445.698874125,-0.807525634765625,0.716583251953125,-0.1952362060546875,37445.688798125,-3.054355900775723,-1.33900795666432,-0.7304081806677154,-0.01356106530874968,0.06027542427182198,0.02733688242733479,0.03888505697250366,-0.05296182632446289,0.007741644978523254,XArbitraryZVertical,-0.5913291576737917,0.2545014301260642,-0.7220556258258886,0.2533659659186697,-0.7249810695648193,0.6671737432479858,-0.1711176931858063,0,0,0,-1,-1,37443.66748329167,unknown,2,2025-04-22T16:28:23.387+03:00,2025-04-21T17:08:51.449+03:00,8584,1.057491,0,0,7132.477,7,22,2025-04-22T16:28:23.387+03:00,767021264.8016557,0,-12.9,100.3591,1,0.5,2025-04-22T16:27:26.940+03:00,96,1.6,2025-04-22T14:20:19.516+03:00,0.02197104130929222,0
2025-04-22T16:28:34.894+03:00,1745328514.31086,40.95223118027651,29.14031871188165,76.03748,-1,-1,-1,-1,30.0056606849946,39.38603433184983,-9999,37445.708949125,-0.7363128662109375,0.674560546875,-0.178619384765625,37445.698874125,-3.054493806766482,-1.338690958788401,-0.7306904271899806,-0.01945623941719532,0.009486015886068344,0.01494439505040646,0.03352057933807373,-0.07732677459716797,0.003213182091712952,XArbitraryZVertical,-0.5911703993423717,0.254686980729225,-0.7221238079871054,0.2533558008671575,-0.7247436046600342,0.6673839688301086,-0.1713041961193085,0,0,0,-1,-1,37443.66748329167,unknown,2,2025-04-22T16:28:23.387+03:00,2025-04-21T17:08:51.449+03:00,8584,1.057491,0,0,7132.477,7,22,2025-04-22T16:28:23.387+03:00,767021264.8016557,0,-12.9,100.3591,1,0.5,2025-04-22T16:27:26.940+03:00,96,1.6,2025-04-22T14:20:19.516+03:00,0.02197104130929222,0
2025-04-22T16:28:34.895+03:00,1745328514.31086,40.95223118027651,29.14031871188165,76.03748,-1,-1,-1,-1,30.0056606849946,39.38603433184983,-9999,37445.719025125,-0.6847686767578125,0.6481781005859375,-0.16766357421875,37445.708949125,-3.054900073794822,-1.339070612173864,-0.7307286695142876,-0.03548647463321686,-0.01023642346262932,0.008155264891684055,-0.08924198150634766,0.05736470222473145,-0.02486932277679443,XArbitraryZVertical,-0.5912520964464814,0.2547731620573954,-0.7220572449581457,0.2532683018092267,-0.7247837781906128,0.6674124598503113,-0.1710231900215149,0,0,0,-1,-1,37443.66748329167,unknown,2,2025-04-22T16:28:23.387+03:00,2025-04-21T17:08:51.449+03:00,8584,1.057491,0,0,7132.477,7,22,2025-04-22T16:28:23.387+03:00,767021264.8016557,0,-12.9,100.3591,1,0.5,2025-04-22T16:27:26.940+03:00,96,1.6,2025-04-22T14:20:19.516+03:00,0.02197104130929222,0
2025-04-22T16:28:34.897+03:00,1745328514.31086,40.95223118027651,29.14031871188165,76.03748,-1,-1,-1,-1,30.0056606849946,39.38603433184983,-9999,37445.72910112501,-0.7510528564453125,0.6788787841796875,-0.1738433837890625,37445.719025125,-3.055133846792339,-1.339029140310228,-0.7309706840600751,-0.01707257702946663,0.03734494373202324,0.01795702800154686,0.005243957042694092,-0.003942251205444336,-0.004566952586174011,XArbitraryZVertical,-0.5911843628328745,0.2549372202704059,-0.7220621482187529,0.2532472394393406,-0.7246193885803223,0.6675926446914673,-0.171016126871109,0,0,0,-1,-1,37443.66748329167,unknown,2,2025-04-22T16:28:23.387+03:00,2025-04-21T17:08:51.449+03:00,8584,1.057491,0,0,7132.477,7,22,2025-04-22T16:28:23.387+03:00,767021264.8016557,0,-12.9,100.3591,1,0.5,2025-04-22T16:27:26.940+03:00,96,1.6,2025-04-22T14:20:19.516+03:00,0.02197104130929222,0
2025-04-22T16:28:34.908+03:00,1745328514.31086,40.95223118027651,29.14031871188165,76.03748,-1,-1,-1,-1,30.0056606849946,39.38603433184983,-9999,37445.739177125,-0.7263336181640625,0.6702117919921875,-0.170684814453125,37445.72910112501,-3.055230773028965,-1.338678157397911,-0.7312916763214217,-0.01318542659282684,0.03294327110052109,0.0166772473603487,0.03230375051498413,-0.01510655879974365,0.002870708703994751,XArbitraryZVertical,-0.5910147939603888,0.2551292843358451,-0.7221291316251597,0.2532584873636432,-0.7243506908416748,0.6678315997123718,-0.1712211221456528,0,0,0,-1,-1,37443.66748329167,unknown,2,2025-04-22T16:28:23.387+03:00,2025-04-21T17:08:51.449+03:00,8584,1.057491,0,0,7132.477,7,22,2025-04-22T16:28:23.387+03:00,767021264.8016557,0,-12.9,100.3591,1,0.5,2025-04-22T16:27:26.940+03:00,96,1.6,2025-04-22T14:20:19.516+03:00,0.02197104130929222,0
2025-04-22T16:28:34.919+03:00,1745328514.31086,40.95223118027651,29.14031871188165,76.03748,-1,-1,-1,-1,30.0056606849946,39.38603433184983,-9999,37445.749253125,-0.7049102783203125,0.6632232666015625,-0.1610565185546875,37445.739177125,-3.055398392727412,-1.338549889690929,-0.731436857343721,-0.01831148006021976,0.02086876519024372,0.01698910258710384,-0.02919858694076538,0.01193094253540039,-0.003223195672035217,XArbitraryZVertical,-0.5909332754647439,0.2552488462655742,-0.7221663289983886,0.2532226762312189,-0.7242346405982971,0.6679396629333496,-0.171291783452034,0,0,0,-1,-1,37443.66748329167,unknown,2,2025-04-22T16:28:23.387+03:00,2025-04-21T17:08:51.449+03:00,8584,1.057491,0,0,7132.477,7,22,2025-04-22T16:28:23.387+03:00,767021264.8016557,0,-12.9,100.3591,1,0.5,2025-04-22T16:27:26.940+03:00,96,1.6,2025-04-22T14:20:19.516+03:00,0.02197104130929222,0
2025-04-22T16:28:34.927+03:00,1745328514.31086,40.95223118027651,29.14031871188165,76.03748,-1,-1,-1,-1,30.0056606849946,39.38603433184983,-9999,37445.759329125,-0.725067138671875,0.665618896484375,-0.162139892578125,37445.749253125,-3.055542737359278,-1.338394131114219,-0.731662782157015,-0.01034276839345694,0.03133285790681839,0.02124962769448757,0.003830909729003906,0.0002880692481994629,0.001234069466590881,XArbitraryZVertical,-0.590837141752922,0.2553949665035026,-0.7221959473492453,0.2532147477944764,-0.7240608334541321,0.6681077480316162,-0.1713697612285614,0,0,0,-1,-1,37443.66748329167,unknown,2,2025-04-22T16:28:23.387+03:00,2025-04-21T17:08:51.449+03:00,8584,1.057491,0,0,7132.477,7,22,2025-04-22T16:28:23.387+03:00,767021264.8016557,0,-12.9,100.3591,1,0.5,2025-04-22T16:27:26.940+03:00,96,1.6,2025-04-22T14:20:19.516+03:00,0.02197104130929222,0
2025-04-22T16:28:34.937+03:00,1745328514.31086,40.95223118027651,29.14031871188165,76.03748,-1,-1,-1,-1,30.0056606849946,39.38603433184983,-9999,37445.769405125,-0.7220458984375,0.6553497314453125,-0.1704254150390625,37445.759329125,-3.055630875546818,-1.338132274754085,-0.7319333571560683,-0.01531622186303139,0.02925159782171249,0.01750522293150425,0.01722103357315063,-0.00424659252166748,0.01155965030193329,XArbitraryZVertical,-0.5907055656958689,0.2555544239263922,-0.722243389822572,0.2532260626662347,-0.7238402962684631,0.6683090925216675,-0.1715177446603775,0,0,0,-1,-1,37443.66748329167,unknown,2,2025-04-22T16:28:23.387+03:00,2025-04-21T17:08:51.449+03:00,8584,1.057491,0,0,7132.477,7,22,2025-04-22T16:28:23.387+03:00,767021264.8016557,0,-12.9,100.3591,1,0.5,2025-04-22T16:27:26.940+03:00,96,1.6,2025-04-22T14:20:19.516+03:00,0.02197104130929222,0
2025-04-22T16:28:34.948+03:00,1745328514.31086,40.95223118027651,29.14031871188165,76.03748,-1,-1,-1,-1,30.0056606849946,39.38603433184983,-9999,37445.779481125,-0.714080810546875,0.66180419921875,-0.1683349609375,37445.769405125,-3.055757497303031,-1.337957685791937,-0.732138144522287,-0.01140210777521133,0.02353465743362904,0.02000729739665985,-0.002641379833221436,-0.00365138053894043,0.008984103798866272,XArbitraryZVertical,-0.5906068661181576,0.2556898509666928,-0.7222794744662627,0.2532161026219094,-0.723676860332489,0.6684613823890686,-0.1716124564409256,0,0,0,-1,-1,37443.66748329167,unknown,2,2025-04-22T16:28:23.387+03:00,2025-04-21T17:08:51.449+03:00,8584,1.057491,0,0,7132.477,7,22,2025-04-22T16:28:23.387+03:00,767021264.8016557,0,-12.9,100.3591,1,0.5,2025-04-22T16:27:26.940+03:00,96,1.6,2025-04-22T14:20:19.516+03:00,0.02197104130929222,0
2025-04-22T16:28:34.958+03:00,1745328514.31086,40.95223118027651,29.14031871188165,76.03748,-1,-1,-1,-1,30.0056606849946,39.38603433184983,-9999,37445.789557125,-0.7204742431640625,0.6768646240234375,-0.170928955078125,37445.779481125,-3.055795856834736,-1.337778258002951,-0.7322881846504191,-0.007214819546788931,0.01564664021134377,0.01476779393851757,0.003410041332244873,-0.01349800825119019,0.001186743378639221,XArbitraryZVertical,-0.5905228808848816,0.2557795125932373,-0.7223143786603585,0.2532218095238852,-0.723548412322998,0.6685729622840881,-0.1717191338539124,0,0,0,-1,-1,37443.66748329167,unknown,2,2025-04-22T16:28:23.387+03:00,2025-04-21T17:08:51.449+03:00,8584,1.057491,0,0,7132.477,7,22,2025-04-22T16:28:23.387+03:00,767021264.8016557,0,-12.9,100.3591,1,0.5,2025-04-22T16:27:26.940+03:00,96,1.6,2025-04-22T14:20:19.516+03:00,0.02197104130929222,0
2025-04-22T16:28:34.968+03:00,1745328514.31086,40.95223118027651,29.14031871188165,76.03748,-1,-1,-1,-1,30.0056606849946,39.38603433184983,-9999,37445.799633125,-0.7198333740234375,0.662689208984375,-0.1767120361328125,37445.789557125,-3.055894497416887,-1.337715275568817,-0.7323982381983883,-0.0168400164693594,0.01042897440493107,0.008540524169802666,0.008668363094329834,-0.003768444061279297,0.003473639488220215,XArbitraryZVertical,-0.5904770228060756,0.2558573894146423,-0.7223288341056998,0.2532092444803135,-0.7234662175178528,0.6686547994613647,-0.1717477589845657,0,0,0,-1,-1,37443.66748329167,unknown,2,2025-04-22T16:28:23.387+03:00,2025-04-21T17:08:51.449+03:00,8584,1.057491,0,0,7132.477,7,22,2025-04-22T16:28:23.387+03:00,767021264.8016557,0,-12.9,100.3591,1,0.5,2025-04-22T16:27:26.940+03:00,96,1.6,2025-04-22T14:20:19.516+03:00,0.02197104130929222,0
2025-04-22T16:28:34.978+03:00,1745328514.31086,40.95223118027651,29.14031871188165,76.03748,-1,-1,-1,-1,30.0056606849946,39.38603433184983,-9999,37445.809709125,-0.7185516357421875,0.6579742431640625,-0.1726837158203125,37445.799633125,-3.056133895393607,-1.337792508004364,-0.7325385340786474,-0.02518103644251823,0.004528208635747433,0.008340520784258842,0.002700507640838623,0.007464587688446045,2.390146255493164e-05,XArbitraryZVertical,-0.5904609164852568,0.2559702906908927,-0.7223149367428702,0.2531723928529447,-0.7233882546424866,0.6687591075897217,-0.1716702282428741,0,0,0,-1,-1,37443.66748329167,unknown,2,2025-04-22T16:28:23.387+03:00,2025-04-21T17:08:51.449+03:00,8584,1.057491,0,0,7132.477,7,22,2025-04-22T16:28:23.387+03:00,767021264.8016557,0,-12.9,100.3591,1,0.5,2025-04-22T16:27:26.940+03:00,96,1.6,2025-04-22T14:20:19.516+03:00,0.02197104130929222,0
2025-04-22T16:28:34.988+03:00,1745328514.31086,40.95223118027651,29.14031871188165,76.03748,-1,-1,-1,-1,30.0056606849946,39.38603433184983,-9999,37445.819785125,-0.7196197509765625,0.667083740234375,-0.1686553955078125,37445.809709125,-3.056487091299045,-1.338004781479122,-0.7327197402848311,-0.03328510373830795,0.0005959849804639816,0.008619054220616817,0.003427624702453613,-0.008340895175933838,-0.005452468991279602,XArbitraryZVertical,-0.5904750862984661,0.2561148584770971,-0.7222692665512612,0.2531233509261895,-0.7233067154884338,0.6688938736915588,-0.1714887022972107,0,0,0,-1,-1,37443.66748329167,unknown,2,2025-04-22T16:28:23.387+03:00,2025-04-21T17:08:51.449+03:00,8584,1.057491,0,0,7132.477,7,22,2025-04-22T16:28:23.387+03:00,767021264.8016557,0,-12.9,100.3591,1,0.5,2025-04-22T16:27:26.940+03:00,96,1.6,2025-04-22T14:20:19.516+03:00,0.02197104130929222,0
2025-04-22T16:28:34.998+03:00,1745328514.31086,40.95223118027651,29.14031871188165,76.03748,-1,-1,-1,-1,30.0056606849946,39.38603433184983,-9999,37445.829861125,-0.719573974609375,0.6653594970703125,-0.1683502197265625,37445.819785125,-3.056896845179962,-1.338295020359213,-0.7328303984809081,-0.03067999891936779,-0.003247488755732775,0.006189718842506409,0.005297422409057617,-0.009216666221618652,-0.0006745457649230957,XArbitraryZVertical,-0.5905168496664905,0.2562401150985027,-0.7222185271104498,0.2530439094415928,-0.7232844233512878,0.6689761281013489,-0.1712617129087448,0,0,0,-1,-1,37443.66748329167,unknown,2,2025-04-22T16:28:23.387+03:00,2025-04-21T17:08:51.449+03:00,8584,1.057491,0,0,7132.477,7,22,2025-04-22T16:28:23.387+03:00,767021264.8016557,0,-12.9,100.3591,1,0.5,2025-04-22T16:27:26.940+03:00,96,1.6,2025-04-22T14:20:19.516+03:00,0.02197104130929222,0
2025-04-22T16:28:35.008+03:00,1745328514.31086,40.95223118027651,29.14031871188165,76.03748,-1,-1,-1,-1,30.0056606849946,39.38603433184983,-9999,37445.839936125,-0.7198028564453125,0.6610870361328125,-0.174224853515625,37445.829861125,-3.057286082364637,-1.338587230568377,-0.7329773209575076,-0.03056468442082405,-0.00315747456625104,0.007828894071280956,0.003878414630889893,-0.001864373683929443,0.002707809209823608,XArbitraryZVertical,-0.5905584540000852,0.2563725233148895,-0.7221589121890617,0.252982488229419,-0.7232385873794556,0.6690853238105774,-0.1710276901721954,0,0,0,-1,-1,37443.66748329167,unknown,2,2025-04-22T16:28:23.387+03:00,2025-04-21T17:08:51.449+03:00,8584,1.057491,0,0,7132.477,7,22,2025-04-22T16:28:23.387+03:00,767021264.8016557,0,-12.9,100.3591,1,0.5,2025-04-22T16:27:26.940+03:00,96,1.6,2025-04-22T14:20:19.516+03:00,0.02197104130929222,0
2025-04-22T16:28:35.018+03:00,1745328514.31086,40.95223118027651,29.14031871188165,76.03748,-1,-1,-1,-1,30.0056606849946,39.38603433184983,-9999,37445.850012125,-0.7225189208984375,0.663543701171875,-0.1739654541015625,37445.839936125,-3.057647079204469,-1.338853269474332,-0.7331536255686161,-0.02400957979261875,0.00388765218667686,0.006153766065835953,0.003687024116516113,-0.004284203052520752,0.002030506730079651,XArbitraryZVertical,-0.5905913488888331,0.2565107748753147,-0.7220991563288358,0.2529362209087479,-0.7231693267822266,0.6692163348197937,-0.1708081662654877,0,0,0,-1,-1,37443.66748329167,unknown,2,2025-04-22T16:28:23.387+03:00,2025-04-21T17:08:51.449+03:00,8584,1.057491,0,0,7132.477,7,22,2025-04-22T16:28:23.387+03:00,767021264.8016557,0,-12.9,100.3591,1,0.5,2025-04-22T16:27:26.940+03:00,96,1.6,2025-04-22T14:20:19.516+03:00,0.02197104130929222,0
2025-04-22T16:28:35.028+03:00,1745328514.31086,40.95223118027651,29.14031871188165,76.03748,-1,-1,-1,-1,30.0056606849946,39.38603433184983,-9999,37445.860088125,-0.720489501953125,0.6698455810546875,-0.1689300537109375,37445.850012125,-3.05797274015074,-1.339061420153214,-0.7332923534513885,-0.02225874923169613,0.005155649501830339,0.01147439610213041,0.003571212291717529,-0.009025931358337402,-0.0035124272108078,XArbitraryZVertical,-0.5906114304145935,0.2566319981658141,-0.7220577254985107,0.2528846756418458,-0.7231144905090332,0.6693193912506104,-0.170636311173439,0,0,0,-1,-1,37443.66748329167,unknown,2,2025-04-22T16:28:23.387+03:00,2025-04-21T17:08:51.449+03:00,8584,1.057491,0,0,7132.477,7,22,2025-04-22T16:28:23.387+03:00,767021264.8016557,0,-12.9,100.3591,1,0.5,2025-04-22T16:27:26.940+03:00,96,1.6,2025-04-22T14:20:19.516+03:00,0.02197104130929222,0
2025-04-22T16:28:35.038+03:00,1745328514.31086,40.95223118027651,29.14031871188165,76.03748,-1,-1,-1,-1,30.0056606849946,39.38603433184983,-9999,37445.870164125,-0.7189483642578125,0.663970947265625,-0.1666259765625,37445.860088125,-3.058241102060297,-1.339167281778129,-0.7334104900902256,-0.02073462307453156,0.009095796383917332,0.01151620782911777,-0.000363469123840332,-0.004627585411071777,-0.00305783748626709,XArbitraryZVertical,-0.5906038778022795,0.2567416082786968,-0.7220423907507885,0.252834872575924,-0.7230556011199951,0.6694071888923645,-0.1705416142940521,0,0,0,-1,-1,37443.66748329167,unknown,2,2025-04-22T16:28:23.387+03:00,2025-04-21T17:08:51.449+03:00,8584,1.057491,0,0,7132.477,7,22,2025-04-22T16:28:23.387+03:00,767021264.8016557,0,-12.9,100.3591,1,0.5,2025-04-22T16:27:26.940+03:00,96,1.6,2025-04-22T14:20:19.516+03:00,0.02197104130929222,0
2025-04-22T16:28:35.048+03:00,1745328514.31086,40.95223118027651,29.14031871188165,76.03748,-1,-1,-1,-1,30.0056606849946,39.38603433184983,-9999,37445.880240125,-0.7190399169921875,0.6650848388671875,-0.1656036376953125,37445.870164125,-3.058435247126717,-1.339188248218869,-0.7336119686364543,-0.01426999922841787,0.01514230482280254,0.01712698675692081,0.002469003200531006,0.0001360177993774414,0.001717820763587952,XArbitraryZVertical,-0.5905671905734214,0.2568708959328823,-0.722029954156902,0.2528246302594148,-0.7229278087615967,0.6695567965507507,-0.1704954653978348,0,0,0,-1,-1,37443.66748329167,unknown,2,2025-04-22T16:28:23.387+03:00,2025-04-21T17:08:51.449+03:00,8584,1.057491,0,0,7132.477,7,22,2025-04-22T16:28:23.387+03:00,767021264.8016557,0,-12.9,100.3591,1,0.5,2025-04-22T16:27:26.940+03:00,96,1.6,2025-04-22T14:20:19.516+03:00,0.02197104130929222,0
2025-04-22T16:28:35.059+03:00,1745328514.31086,40.95223118027651,29.14031871188165,76.03748,-1,-1,-1,-1,30.0056606849946,39.38603433184983,-9999,37445.89031612501,-0.7160797119140625,0.672454833984375,-0.166595458984375,37445.880240125,-3.058527715840953,-1.339084961978001,-0.733841473800693,-0.009097076021134853,0.01385626383125782,0.01413732394576073,0.004300594329833984,-0.006031155586242676,0.004381671547889709,XArbitraryZVertical,-0.5904959927753107,0.2569962378023821,-0.7220370839463935,0.2528430767007622,-0.7227605581283569,0.6697272658348083,-0.1705348342657089,0,0,0,-1,-1,37443.66748329167,unknown,2,2025-04-22T16:28:23.387+03:00,2025-04-21T17:08:51.449+03:00,8584,1.057491,0,0,7132.477,7,22,2025-04-22T16:28:23.387+03:00,767021264.8016557,0,-12.9,100.3591,1,0.5,2025-04-22T16:27:26.940+03:00,96,1.6,2025-04-22T14:20:19.516+03:00,0.02197104130929222,0
2025-04-22T16:28:35.069+03:00,1745328514.31086,40.95223118027651,29.14031871188165,76.03748,-1,-1,-1,-1,30.0056606849946,39.38603433184983,-9999,37445.900392125,-0.71588134765625,0.670440673828125,-0.169281005859375,37445.89031612501,-3.058519356929981,-1.33892663311817,-0.7339294260636965,-0.005507733207195997,0.008494720794260502,0.01158065628260374,0.003773808479309082,-0.003090441226959229,0.004818260669708252,XArbitraryZVertical,-0.5904314572347791,0.2570463502368379,-0.7220693820031824,0.2528506777953231,-0.7226762771606445,0.6697925925254822,-0.1706357300281525,0,0,0,-1,-1,37443.66748329167,unknown,2,2025-04-22T16:28:23.387+03:00,2025-04-21T17:08:51.449+03:00,8584,1.057491,0,0,7132.477,7,22,2025-04-22T16:28:23.387+03:00,767021264.8016557,0,-12.9,100.3591,1,0.5,2025-04-22T16:27:26.940+03:00,96,1.6,2025-04-22T14:20:19.516+03:00,0.02197104130929222,0
2025-04-22T16:28:35.078+03:00,1745328514.31086,40.95223118027651,29.14031871188165,76.03748,-1,-1,-1,-1,30.0056606849946,39.38603433184983,-9999,37445.910468125,-0.719390869140625,0.6695709228515625,-0.172027587890625,37445.900392125,-3.058554170360185,-1.338859776701801,-0.7340098250909644,-0.003835534676909447,0.004454705864191055,0.009831225499510765,0.006731212139129639,0.00283128023147583,0.003465667366981506,XArbitraryZVertical,-0.5903951237816085,0.2570948503721924,-0.7220812482818699,0.2528523118062547,-0.7226124405860901,0.6698522567749023,-0.170671671628952,0,0,0,-1,-1,37443.66748329167,unknown,2,2025-04-22T16:28:23.387+03:00,2025-04-21T17:08:51.449+03:00,8584,1.057491,0,0,7132.477,7,22,2025-04-22T16:28:23.387+03:00,767021264.8016557,0,-12.9,100.3591,1,0.5,2025-04-22T16:27:26.940+03:00,96,1.6,2025-04-22T14:20:19.516+03:00,0.02197104130929222,0
2025-04-22T16:28:35.089+03:00,1745328514.31086,40.95223118027651,29.14031871188165,76.03748,-1,-1,-1,-1,30.0056606849946,39.38603433184983,-9999,37445.920544125,-0.718017578125,0.669464111328125,-0.1737060546875,37445.910468125,-3.058570653274416,-1.338859729021822,-0.7341215193824396,0.0005952997598797083,-0.0004842597991228104,0.009797337464988232,0.006048202514648438,-0.0005168914794921875,0.0007172077894210815,XArbitraryZVertical,-0.5903822415071963,0.257141063753423,-0.7220664977615894,0.2528779639402245,-0.7225398421287537,0.6699352264404297,-0.1706545650959015,0,0,0,-1,-1,37443.66748329167,unknown,2,2025-04-22T16:28:23.387+03:00,2025-04-21T17:08:51.449+03:00,8584,1.057491,0,0,7132.477,7,22,2025-04-22T16:28:23.387+03:00,767021264.8016557,0,-12.9,100.3591,1,0.5,2025-04-22T16:27:26.940+03:00,96,1.6,2025-04-22T14:20:19.516+03:00,0.02197104130929222,0
2025-04-22T16:28:35.099+03:00,1745328514.31086,40.95223118027651,29.14031871188165,76.03748,-1,-1,-1,-1,30.0056606849946,39.38603433184983,-9999,37445.930620125,-0.7176513671875,0.664581298828125,-0.17474365234375,37445.920544125,-3.058610491735285,-1.338948900970295,-0.7342026346578576,-0.008297261781990528,-0.006887298543006182,0.009332881309092045,0.003111422061920166,-0.000882267951965332,-0.001114442944526672,XArbitraryZVertical,-0.5904015146628466,0.2571715785990631,-0.7220328832205536,0.2528980297461622,-0.7225022315979004,0.6699954271316528,-0.17057766020298,0,0,0,-1,-1,37443.66748329167,unknown,2,2025-04-22T16:28:23.387+03:00,2025-04-21T17:08:51.449+03:00,8584,1.057491,0,0,7132.477,7,22,2025-04-22T16:28:23.387+03:00,767021264.8016557,0,-12.9,100.3591,1,0.5,2025-04-22T16:27:26.940+03:00,96,1.6,2025-04-22T14:20:19.516+03:00,0.02197104130929222,0
2025-04-22T16:28:35.109+03:00,1745328514.31086,40.95223118027651,29.14031871188165,76.03748,-1,-1,-1,-1,30.0056606849946,39.38603433184983,-9999,37445.940696125,-0.722198486328125,0.6659393310546875,-0.1756744384765625,37445.930620125,-3.058684777842011,-1.339071398898336,-0.7342918385144105,-0.0127599872648716,-0.01120328344404697,0.0131242573261261,0.004432082176208496,-0.001146972179412842,-0.003597021102905273,XArbitraryZVertical,-0.5904276175682447,0.2572110513533203,-0.7219924275264011,0.2529122791459133,-0.7224648594856262,0.6700616478919983,-0.1704754084348679,0,0,0,-1,-1,37443.66748329167,unknown,2,2025-04-22T16:28:23.387+03:00,2025-04-21T17:08:51.449+03:00,8584,1.057491,0,0,7132.477,7,22,2025-04-22T16:28:23.387+03:00,767021264.8016557,0,-12.9,100.3591,1,0.5,2025-04-22T16:27:26.940+03:00,96,1.6,2025-04-22T14:20:19.516+03:00,0.02197104130929222,0
2025-04-22T16:28:35.119+03:00,1745328514.31086,40.95223118027651,29.14031871188165,76.03748,-1,-1,-1,-1,30.0056606849946,39.38603433184983,-9999,37445.950772125,-0.7229766845703125,0.671875,-0.172821044921875,37445.940696125,-3.058779204487207,-1.339228666409689,-0.7344015247189241,-0.01145876664668322,-0.009846935048699379,0.01171624381095171,0.003654956817626953,-0.006813108921051025,-0.005055069923400879,XArbitraryZVertical,-0.5904616979315399,0.2572596477519681,-0.7219411937347037,0.2529295251948284,-0.7224200963973999,0.6701430678367615,-0.1703449189662933,0,0,0,-1,-1,37443.66748329167,unknown,2,2025-04-22T16:28:23.387+03:00,2025-04-21T17:08:51.449+03:00,8584,1.057491,0,0,7132.477,7,22,2025-04-22T16:28:23.387+03:00,767021264.8016557,0,-12.9,100.3591,1,0.5,2025-04-22T16:27:26.940+03:00,96,1.6,2025-04-22T14:20:19.516+03:00,0.02197104130929222,0
2025-04-22T16:28:35.129+03:00,1745328514.31086,40.95223118027651,29.14031871188165,76.03748,-1,-1,-1,-1,30.0056606849946,39.38603433184983,-9999,37445.96084854167,-0.724395751953125,0.6783905029296875,-0.168914794921875,37445.950772125,-3.058837538665971,-1.339385588294161,-0.7345363857666016,-0.00193809880875051,-0.01441865041851997,0.008712531998753548,0.0004808306694030762,-0.003846168518066406,-0.005784273147583008,XArbitraryZVertical,-0.5904978686376225,0.2573069518330265,-0.7218815940294712,0.2529669208526403,-0.722358763217926,0.6702431440353394,-0.1702107936143875,0,0,0,-1,-1,37443.66748329167,unknown,2,2025-04-22T16:28:23.387+03:00,2025-04-21T17:08:51.449+03:00,8584,1.057491,0,0,7132.477,7,22,2025-04-22T16:28:23.387+03:00,767021264.8016557,0,-12.9,100.3591,1,0.5,2025-04-22T16:27:26.940+03:00,96,1.6,2025-04-22T14:20:19.516+03:00,0.02197104130929222,0
2025-04-22T16:28:35.139+03:00,1745328514.31086,40.95223118027651,29.14031871188165,76.03748,-1,-1,-1,-1,30.0056606849946,39.38603433184983,-9999,37445.97092454167,-0.721343994140625,0.6742095947265625,-0.169891357421875,37445.96084854167,-3.05867461448512,-1.339435410862142,-0.734602755510281,0.02606717124581337,-0.01351157762110233,0.01037780661135912,-0.0007898807525634766,0.002055525779724121,-0.002153083682060242,XArbitraryZVertical,-0.5905304248662551,0.2572771114036045,-0.72183614863321,0.2530509551389716,-0.7223239541053772,0.6702924370765686,-0.1701646149158478,0,0,0,-1,-1,37443.66748329167,unknown,2,2025-04-22T16:28:23.387+03:00,2025-04-21T17:08:51.449+03:00,8584,1.057491,0,0,7132.477,7,22,2025-04-22T16:28:23.387+03:00,767021264.8016557,0,-12.9,100.3591,1,0.5,2025-04-22T16:27:26.940+03:00,96,1.6,2025-04-22T14:20:19.516+03:00,0.02197104130929222,0
2025-04-22T16:28:35.149+03:00,1745328514.31086,40.95223118027651,29.14031871188165,76.03748,-1,-1,-1,-1,30.0056606849946,39.38603433184983,-9999,37445.98100054167,-0.7159271240234375,0.664520263671875,-0.1705322265625,37445.97092454167,-3.058322103281055,-1.339340148508221,-0.7346324681573352,0.01981493271887302,-0.01332828588783741,0.00796514842659235,-0.002458155155181885,0.008518517017364502,0.001802146434783936,XArbitraryZVertical,-0.5905385198944548,0.257196075880721,-0.7218151915419385,0.2531743352076724,-0.7222884297370911,0.6703144907951355,-0.1702288687229156,0,0,0,-1,-1,37443.66748329167,unknown,2,2025-04-22T16:28:23.387+03:00,2025-04-21T17:08:51.449+03:00,8584,1.057491,0,0,7132.477,7,22,2025-04-22T16:28:23.387+03:00,767021264.8016557,0,-12.9,100.3591,1,0.5,2025-04-22T16:27:26.940+03:00,96,1.6,2025-04-22T14:20:19.516+03:00,0.02197104130929222,0
2025-04-22T16:28:35.159+03:00,1745328514.31086,40.95223118027651,29.14031871188165,76.03748,-1,-1,-1,-1,30.0056606849946,39.38603433184983,-9999,37445.99107654167,-0.7151031494140625,0.659393310546875,-0.1648712158203125,37445.98100054167,-3.058037844236123,-1.339298611553907,-0.7347413609705277,0.02040455676615238,-0.01425240188837051,0.01403795462101698,0.001476764678955078,0.002990245819091797,-0.0004276484251022339,XArbitraryZVertical,-0.5905496222726839,0.2571577187294204,-0.7217747599204526,0.2533024780188512,-0.7222102284431458,0.6703952550888062,-0.1702421009540558,0,0,0,-1,-1,37443.66748329167,unknown,2,2025-04-22T16:28:23.387+03:00,2025-04-21T17:08:51.449+03:00,8584,1.057491,0,0,7132.477,7,22,2025-04-22T16:28:23.387+03:00,767021264.8016557,0,-12.9,100.3591,1,0.5,2025-04-22T16:27:26.940+03:00,96,1.6,2025-04-22T14:20:19.516+03:00,0.02197104130929222,0
2025-04-22T16:28:35.169+03:00,1745328514.31086,40.95223118027651,29.14031871188165,76.03748,-1,-1,-1,-1,30.0056606849946,39.38603433184983,-9999,37446.00115154167,-0.7160491943359375,0.6588897705078125,-0.171539306640625,37445.99107654167,-3.057795904315674,-1.339306100530599,-0.7348571447219387,0.007049670442938805,-0.01845160871744156,0.01178721711039543,0.007017731666564941,-0.006433963775634766,0.0007850974798202515,XArbitraryZVertical,-0.590572297008272,0.2571281832718029,-0.7217243238993413,0.2534235413842625,-0.7221361398696899,0.6704811453819275,-0.1702189147472382,0,0,0,-1,-1,37443.66748329167,unknown,2,2025-04-22T16:28:23.387+03:00,2025-04-21T17:08:51.449+03:00,8584,1.057491,0,0,7132.477,7,22,2025-04-22T16:28:23.387+03:00,767021264.8016557,0,-12.9,100.3591,1,0.5,2025-04-22T16:27:26.940+03:00,96,1.6,2025-04-22T14:20:19.516+03:00,0.02197104130929222,0
2025-04-22T16:28:35.179+03:00,1745328514.31086,40.95223118027651,29.14031871188165,76.03748,-1,-1,-1,-1,30.0056606849946,39.38603433184983,-9999,37446.01122754167,-0.7162017822265625,0.6600494384765625,-0.17938232421875,37446.00115154167,-3.057726050203398,-1.339442151199613,-0.7349723471494132,-0.00472815940156579,-0.0217059925198555,0.01263303682208061,0.006721556186676025,-0.01186001300811768,0.004407569766044617,XArbitraryZVertical,-0.5906193038898715,0.2571329608402733,-0.7216576839770882,0.2534988999564079,-0.7220840454101562,0.6705666184425354,-0.1701029539108276,0,0,0,-1,-1,37443.66748329167,unknown,2,2025-04-22T16:28:23.387+03:00,2025-04-21T17:08:51.449+03:00,8584,1.057491,0,0,7132.477,7,22,2025-04-22T16:28:23.387+03:00,767021264.8016557,0,-12.9,100.3591,1,0.5,2025-04-22T16:27:26.940+03:00,96,1.6,2025-04-22T14:20:19.516+03:00,0.02197104130929222,0
2025-04-22T16:28:35.189+03:00,1745328514.31086,40.95223118027651,29.14031871188165,76.03748,-1,-1,-1,-1,30.0056606849946,39.38603433184983,-9999,37446.02130354167,-0.7138214111328125,0.66131591796875,-0.183013916015625,37446.01122754167,-3.05781431101069,-1.339723671169475,-0.7351320661540323,-0.01465882081538439,-0.02842141687870026,0.01579966954886913,0.005810678005218506,-0.01214635372161865,-0.002839326858520508,XArbitraryZVertical,-0.590694183208003,0.2571824651322656,-0.7215612672483794,0.2535485519660805,-0.722027599811554,0.6706851124763489,-0.1698751300573349,0,0,0,-1,-1,37443.66748329167,unknown,2,2025-04-22T16:28:23.387+03:00,2025-04-21T17:08:51.449+03:00,8584,1.057491,0,0,7132.477,7,22,2025-04-22T16:28:23.387+03:00,767021264.8016557,0,-12.9,100.3591,1,0.5,2025-04-22T16:27:26.940+03:00,96,1.6,2025-04-22T14:20:19.516+03:00,0.02197104130929222,0
2025-04-22T16:28:35.200+03:00,1745328514.31086,40.95223118027651,29.14031871188165,76.03748,-1,-1,-1,-1,30.0056606849946,39.38603433184983,-9999,37446.03137954167,-0.719573974609375,0.6603240966796875,-0.1795806884765625,37446.02130354167,-3.057976857046471,-1.34010910070206,-0.7352888135924589,-0.02178890258073807,-0.03355279564857483,0.01544999610632658,0.006399333477020264,-0.01038575172424316,-0.01147294044494629,XArbitraryZVertical,-0.5907972477346134,0.2572396217981628,-0.7214440633132222,0.2535839356313492,-0.7219906449317932,0.6708014011383057,-0.1695727854967117,0,0,0,-1,-1,37443.66748329167,unknown,2,2025-04-22T16:28:23.387+03:00,2025-04-21T17:08:51.449+03:00,8584,1.057491,0,0,7132.477,7,22,2025-04-22T16:28:23.387+03:00,767021264.8016557,0,-12.9,100.3591,1,0.5,2025-04-22T16:27:26.940+03:00,96,1.6,2025-04-22T14:20:19.516+03:00,0.02197104130929222,0
2025-04-22T16:28:35.210+03:00,1745328514.31086,40.95223118027651,29.14031871188165,76.03748,-1,-1,-1,-1,30.0056606849946,39.38603433184983,-9999,37446.04145554167,-0.7208251953125,0.6628265380859375,-0.173675537109375,37446.03137954167,-3.058210142833907,-1.340577566706611,-0.7354615577500603,-0.02600967884063721,-0.03776958212256432,0.01467824541032314,0.007678031921386719,-0.009842514991760254,-0.0132719874382019,XArbitraryZVertical,-0.590919582105082,0.2573130613384343,-0.7213087935763868,0.2536090724655614,-0.7219571471214294,0.670929491519928,-0.1692080646753311,0,0,0,-1,-1,37443.66748329167,unknown,2,2025-04-22T16:28:23.387+03:00,2025-04-21T17:08:51.449+03:00,8584,1.057491,0,0,7132.477,7,22,2025-04-22T16:28:23.387+03:00,767021264.8016557,0,-12.9,100.3591,1,0.5,2025-04-22T16:27:26.940+03:00,96,1.6,2025-04-22T14:20:19.516+03:00,0.02197104130929222,0
2025-04-22T16:28:35.220+03:00,1745328514.31086,40.95223118027651,29.14031871188165,76.03748,-1,-1,-1,-1,30.0056606849946,39.38603433184983,-9999,37446.05153154167,-0.7160491943359375,0.66619873046875,-0.1712188720703125,37446.04145554167,-3.058517744558971,-1.341159038332308,-0.735680716281287,-0.03113706223666668,-0.0413544625043869,0.01440953277051449,0.00145334005355835,-0.009974539279937744,-0.009620651602745056,XArbitraryZVertical,-0.5910685592188455,0.2574112868975116,-0.7211425022425776,0.2536351602112912,-0.7219122052192688,0.6710919737815857,-0.1687547713518143,0,0,0,-1,-1,37443.66748329167,unknown,2,2025-04-22T16:28:23.387+03:00,2025-04-21T17:08:51.449+03:00,8584,1.057491,0,0,7132.477,7,22,2025-04-22T16:28:23.387+03:00,767021264.8016557,0,-12.9,100.3591,1,0.5,2025-04-22T16:27:26.940+03:00,96,1.6,2025-04-22T14:20:19.516+03:00,0.02197104130929222,0
2025-04-22T16:28:35.230+03:00,1745328514.31086,40.95223118027651,29.14031871188165,76.03748,-1,-1,-1,-1,30.0056606849946,39.38603433184983,-9999,37446.06160754167,-0.716094970703125,0.6734619140625,-0.16790771484375,37446.05153154167,-3.058855426027755,-1.34181748869525,-0.735919599052886,-0.0246203076094389,-0.04246766120195389,0.01521407347172499,0.002140581607818604,-0.008381545543670654,-0.004944443702697754,XArbitraryZVertical,-0.5912394134393703,0.2575159234564555,-0.720954239664764,0.2536659925255042,-0.7218670845031738,0.6712690591812134,-0.1682430058717728,0,0,0,-1,-1,37443.66748329167,unknown,2,2025-04-22T16:28:23.387+03:00,2025-04-21T17:08:51.449+03:00,8584,1.057491,0,0,7132.477,7,22,2025-04-22T16:28:23.387+03:00,767021264.8016557,0,-12.9,100.3591,1,0.5,2025-04-22T16:27:26.940+03:00,96,1.6,2025-04-22T14:20:19.516+03:00,0.02197104130929222,0
2025-04-22T16:28:35.240+03:00,1745328514.31086,40.95223118027651,29.14031871188165,76.03748,-1,-1,-1,-1,30.0056606849946,39.38603433184983,-9999,37446.07168354167,-0.7194671630859375,0.6742095947265625,-0.1690521240234375,37446.06160754167,-3.05909862416254,-1.342389545579853,-0.7361477394174185,-0.01843458414077759,-0.04194754734635353,0.01803995296359062,0.006176948547363281,-0.003744125366210938,-0.003652632236480713,XArbitraryZVertical,-0.591392227399006,0.257599599430872,-0.7207811292307233,0.2537167956612218,-0.7218140363693237,0.6714381575584412,-0.1677953600883484,0,0,0,-1,-1,37443.66748329167,unknown,2,2025-04-22T16:28:23.387+03:00,2025-04-21T17:08:51.449+03:00,8584,1.057491,0,0,7132.477,7,22,2025-04-22T16:28:23.387+03:00,767021264.8016557,0,-12.9,100.3591,1,0.5,2025-04-22T16:27:26.940+03:00,96,1.6,2025-04-22T14:20:19.516+03:00,0.02197104130929222,0
2025-04-22T16:28:35.250+03:00,1745328514.31086,40.95223118027651,29.14031871188165,76.03748,-1,-1,-1,-1,30.0056606849946,39.38603433184983,-9999,37446.08175954167,-0.725433349609375,0.6695709228515625,-0.169830322265625,37446.07168354167,-3.059237341111884,-1.342854798365641,-0.736356252462703,-0.01299387868493795,-0.03637395054101944,0.02182916551828384,0.005355596542358398,0.002204954624176025,-0.0003274232149124146,XArbitraryZVertical,-0.5915218273070243,0.2576586471021286,-0.7206293782038756,0.2537859578543071,-0.7217557430267334,0.671592652797699,-0.1674278974533081,0,0,0,-1,-1,37443.66748329167,unknown,2,2025-04-22T16:28:23.387+03:00,2025-04-21T17:08:51.449+03:00,8584,1.057491,0,0,7132.477,7,22,2025-04-22T16:28:23.387+03:00,767021264.8016557,0,-12.9,100.3591,1,0.5,2025-04-22T16:27:26.940+03:00,96,1.6,2025-04-22T14:20:19.516+03:00,0.02197104130929222,0
2025-04-22T16:28:35.260+03:00,1745328514.31086,40.95223118027651,29.14031871188165,76.03748,-1,-1,-1,-1,30.0056606849946,39.38603433184983,-9999,37446.09183554167,-0.727569580078125,0.6652679443359375,-0.1700439453125,37446.08175954167,-3.059313238551584,-1.34325430635473,-0.7365785529396368,-0.008176486939191818,-0.03162287175655365,0.02707292884588242,0.001202821731567383,0.001719772815704346,-0.001656606793403625,XArbitraryZVertical,-0.5916344537379286,0.2577125351449557,-0.7204868520295379,0.2538732747270315,-0.7216770648956299,0.6717573404312134,-0.1671058386564255,0,0,0,-1,-1,37443.66748329167,unknown,2,2025-04-22T16:28:23.387+03:00,2025-04-21T17:08:51.449+03:00,8584,1.057491,0,0,7132.477,7,22,2025-04-22T16:28:23.387+03:00,767021264.8016557,0,-12.9,100.3591,1,0.5,2025-04-22T16:27:26.940+03:00,96,1.6,2025-04-22T14:20:19.516+03:00,0.02197104130929222,0
2025-04-22T16:28:35.270+03:00,1745328514.31086,40.95223118027651,29.14031871188165,76.03748,-1,-1,-1,-1,30.0056606849946,39.38603433184983,-9999,37446.10191154167,-0.72637939453125,0.6657562255859375,-0.16778564453125,37446.09183554167,-3.059300342351974,-1.343520998940799,-0.736828171840314,-0.009880910627543926,-0.03022018261253834,0.03129390627145767,-0.004363536834716797,-0.003012299537658691,-0.003214403986930847,XArbitraryZVertical,-0.5917080043344398,0.2577670928577104,-0.7203679891638851,0.2539833004144742,-0.7215579152107239,0.6719422340393066,-0.1668755263090134,0,0,0,-1,-1,37443.66748329167,unknown,2,2025-04-22T16:28:23.387+03:00,2025-04-21T17:08:51.449+03:00,8584,1.057491,0,0,7132.477,7,22,2025-04-22T16:28:23.387+03:00,767021264.8016557,0,-12.9,100.3591,1,0.5,2025-04-22T16:27:26.940+03:00,96,1.6,2025-04-22T14:20:19.516+03:00,0.02197104130929222,0
2025-04-22T16:28:35.281+03:00,1745328514.31086,40.95223118027651,29.14031871188165,76.03748,-1,-1,-1,-1,30.0056606849946,39.38603433184983,-9999,37446.11198754167,-0.723663330078125,0.6644134521484375,-0.1658172607421875,37446.10191154167,-3.059236506491213,-1.343684494062978,-0.7371169400309996,-0.0150658180937171,-0.02881057374179363,0.03410327434539795,-0.005761325359344482,-0.007010340690612793,-0.003116652369499207,XArbitraryZVertical,-0.5917471137047838,0.2578341053962045,-0.7202673811316002,0.2541094535164738,-0.7213961482048035,0.672156035900116,-0.1667138487100601,0,0,0,-1,-1,37443.66748329167,unknown,2,2025-04-22T16:28:23.387+03:00,2025-04-21T17:08:51.449+03:00,8584,1.057491,0,0,7132.477,7,22,2025-04-22T16:28:23.387+03:00,767021264.8016557,0,-12.9,100.3591,1,0.5,2025-04-22T16:27:26.940+03:00,96,1.6,2025-04-22T14:20:19.516+03:00,0.02197104130929222,0
2025-04-22T16:28:35.291+03:00,1745328514.31086,40.95223118027651,29.14031871188165,76.03748,-1,-1,-1,-1,30.0056606849946,39.38603433184983,-9999,37446.12206354167,-0.71966552734375,0.669189453125,-0.1633148193359375,37446.11198754167,-3.059276393749116,-1.343896273636161,-0.7374723011663293,-0.02305663377046585,-0.02869525738060474,0.03733448684215546,-0.004661798477172852,-0.006601989269256592,-0.0006833672523498535,XArbitraryZVertical,-0.5917837460136998,0.2579502376995234,-0.7201555250612482,0.2542234031333469,-0.7211986780166626,0.6724191308021545,-0.1665073484182358,0,0,0,-1,-1,37443.66748329167,unknown,2,2025-04-22T16:28:23.387+03:00,2025-04-21T17:08:51.449+03:00,8584,1.057491,0,0,7132.477,7,22,2025-04-22T16:28:23.387+03:00,767021264.8016557,0,-12.9,100.3591,1,0.5,2025-04-22T16:27:26.940+03:00,96,1.6,2025-04-22T14:20:19.516+03:00,0.02197104130929222,0
2025-04-22T16:28:35.300+03:00,1745328514.31086,40.95223118027651,29.14031871188165,76.03748,-1,-1,-1,-1,30.0056606849946,39.38603433184983,-9999,37446.13213954167,-0.713775634765625,0.6791534423828125,-0.1642608642578125,37446.12206354167,-3.059352152441063,-1.344211080151568,-0.7377889802410129,-0.01640485599637032,-0.03752150759100914,0.03648387268185616,-0.002024531364440918,-0.008316516876220703,0.001162663102149963,XArbitraryZVertical,-0.5918565631337076,0.258049574034743,-0.7200235824625028,0.2543267722899175,-0.7210435271263123,0.6726534962654114,-0.1662324517965317,0,0,0,-1,-1,37443.66748329167,unknown,2,2025-04-22T16:28:23.387+03:00,2025-04-21T17:08:51.449+03:00,8584,1.057491,0,0,7132.477,7,22,2025-04-22T16:28:23.387+03:00,767021264.8016557,0,-12.9,100.3591,1,0.5,2025-04-22T16:27:26.940+03:00,96,1.6,2025-04-22T14:20:19.516+03:00,0.02197104130929222,0
2025-04-22T16:28:35.310+03:00,1745328514.31086,40.95223118027651,29.14031871188165,76.03748,-1,-1,-1,-1,30.0056606849946,39.38603433184983,-9999,37446.14221554167,-0.7182159423828125,0.6719207763671875,-0.1640777587890625,37446.13213954167,-3.059369114215138,-1.344561797476295,-0.738114167032532,-0.01010168623179197,-0.03477925062179565,0.03510169312357903,0.002367615699768066,-0.002560317516326904,0.002951145172119141,XArbitraryZVertical,-0.5919490132433717,0.2581300422729206,-0.7198722470085027,0.2544583834507494,-0.720888614654541,0.6728940606117249,-0.1659304946660995,0,0,0,-1,-1,37443.66748329167,unknown,2,2025-04-22T16:28:23.387+03:00,2025-04-21T17:08:51.449+03:00,8584,1.057491,0,0,7132.477,7,22,2025-04-22T16:28:23.387+03:00,767021264.8016557,0,-12.9,100.3591,1,0.5,2025-04-22T16:27:26.940+03:00,96,1.6,2025-04-22T14:20:19.516+03:00,0.02197104130929222,0
2025-04-22T16:28:35.324+03:00,1745328514.31086,40.95223118027651,29.14031871188165,76.03748,-1,-1,-1,-1,30.0056606849946,39.38603433184983,-9999,37446.15229154167,-0.7264556884765625,0.6693267822265625,-0.161834716796875,37446.14221554167,-3.059362130217826,-1.34485342880508,-0.7384695452333231,-0.01010035444051027,-0.0300124567002058,0.03576082736253738,0.007630288600921631,0.005859017372131348,0.001451388001441956,XArbitraryZVertical,-0.5920203046727424,0.2582220448605999,-0.7197306697517323,0.2545996114411254,-0.7207038998603821,0.6731569170951843,-0.1656666696071625,0,0,0,-1,-1,37443.66748329167,unknown,2,2025-04-22T16:28:23.387+03:00,2025-04-21T17:08:51.449+03:00,8584,1.057491,0,0,7132.477,7,22,2025-04-22T16:28:23.387+03:00,767021264.8016557,0,-12.9,100.3591,1,0.5,2025-04-22T16:27:26.940+03:00,96,1.6,2025-04-22T14:20:19.516+03:00,0.02197104130929222,0
2025-04-22T16:28:35.331+03:00,1745328514.31086,40.95223118027651,29.14031871188165,76.03748,-1,-1,-1,-1,30.0056606849946,39.38603433184983,-9999,37446.16236754167,-0.721588134765625,0.6720733642578125,-0.1616058349609375,37446.15229154167,-3.059328335094492,-1.345093215342023,-0.7388673664372865,-0.005306331440806389,-0.02701659873127937,0.03864559531211853,0.0005729794502258301,-0.00217127799987793,0.002179920673370361,XArbitraryZVertical,-0.5920722207242924,0.2583283288618689,-0.71959455963685,0.2547558679219212,-0.7204825878143311,0.6734510660171509,-0.1654339134693146,0,0,0,-1,-1,37443.66748329167,unknown,2,2025-04-22T16:28:23.387+03:00,2025-04-21T17:08:51.449+03:00,8584,1.057491,0,0,7132.477,7,22,2025-04-22T16:28:23.387+03:00,767021264.8016557,0,-12.9,100.3591,1,0.5,2025-04-22T16:27:26.940+03:00,96,1.6,2025-04-22T14:20:19.516+03:00,0.02197104130929222,0
2025-04-22T16:28:35.341+03:00,1745328514.31086,40.95223118027651,29.14031871188165,76.03748,-1,-1,-1,-1,30.0056606849946,39.38603433184983,-9999,37446.17244354167,-0.7214813232421875,0.6746826171875,-0.161590576171875,37446.16236754167,-3.059248596055654,-1.345308219159338,-0.739224820010714,-0.002352619776502252,-0.0275614820420742,0.03348492458462715,-0.005638062953948975,-0.004724264144897461,0.002703607082366943,XArbitraryZVertical,-0.5921250513781785,0.258409233493095,-0.7194660492764926,0.2549139930041496,-0.7202835083007812,0.6737152338027954,-0.1652251780033112,0,0,0,-1,-1,37443.66748329167,unknown,2,2025-04-22T16:28:23.387+03:00,2025-04-21T17:08:51.449+03:00,8584,1.057491,0,0,7132.477,7,22,2025-04-22T16:28:23.387+03:00,767021264.8016557,0,-12.9,100.3591,1,0.5,2025-04-22T16:27:26.940+03:00,96,1.6,2025-04-22T14:20:19.516+03:00,0.02197104130929222,0
2025-04-22T16:28:35.367+03:00,1745328514.31086,40.95223118027651,29.14031871188165,76.03748,-1,-1,-1,-1,30.0056606849946,39.38603433184983,-9999,37446.18251954167,-0.723297119140625,0.67156982421875,-0.1621551513671875,37446.17244354167,-3.059141053704161,-1.345456354730854,-0.7395244667094537,-0.0004950649454258382,-0.02031049504876137,0.03704157471656799,-0.0009275078773498535,-0.002061724662780762,0.003589391708374023,XArbitraryZVertical,-0.592163028883524,0.2584690682117897,-0.7193626185151542,0.2550570390726664,-0.7201111912727356,0.673936665058136,-0.1650733798742294,0,0,0,-1,-1,37443.66748329167,unknown,2,2025-04-22T16:28:23.387+03:00,2025-04-21T17:08:51.449+03:00,8584,1.057491,0,0,7132.477,7,22,2025-04-22T16:28:23.387+03:00,767021264.8016557,0,-12.9,100.3591,1,0.5,2025-04-22T16:27:26.940+03:00,96,1.6,2025-04-22T14:20:19.516+03:00,0.02197104130929222,0
2025-04-22T16:28:35.369+03:00,1745328514.31086,40.95223118027651,29.14031871188165,76.03748,-1,-1,-1,-1,30.0056606849946,39.38603433184983,-9999,37446.19259554167,-0.720550537109375,0.6704559326171875,-0.1631011962890625,37446.18251954167,-3.058994647972773,-1.345551233981641,-0.7397747525732286,0.003625910496339202,-0.02219521254301071,0.03243483603000641,-0.002342939376831055,0.0003778338432312012,0.003361299633979797,XArbitraryZVertical,-0.5921916911395853,0.2585059729291505,-0.7192773386526052,0.255193195408806,-0.7199621796607971,0.6741215586662292,-0.1649673283100128,0,0,0,-1,-1,37443.66748329167,unknown,2,2025-04-22T16:28:23.387+03:00,2025-04-21T17:08:51.449+03:00,8584,1.057491,0,0,7132.477,7,22,2025-04-22T16:28:23.387+03:00,767021264.8016557,0,-12.9,100.3591,1,0.5,2025-04-22T16:27:26.940+03:00,96,1.6,2025-04-22T14:20:19.516+03:00,0.02197104130929222,0
2025-04-22T16:28:35.371+03:00,1745328514.31086,40.95223118027651,29.14031871188165,76.03748,-1,-1,-1,-1,30.0056606849946,39.38603433184983,-9999,37446.20267154167,-0.719329833984375,0.67120361328125,-0.160797119140625,37446.19259554167,-3.058826329466014,-1.345649050497714,-0.739994158064057,0.006379552651196718,-0.01914303191006184,0.03171521797776222,-0.003966271877288818,-0.002805352210998535,0.003593608736991882,XArbitraryZVertical,-0.5922272173686332,0.258524578555488,-0.7191934501519559,0.2553287162936773,-0.7198343873023987,0.6742836236953735,-0.1648639291524887,0,0,0,-1,-1,37443.66748329167,unknown,2,2025-04-22T16:28:23.387+03:00,2025-04-21T17:08:51.449+03:00,8584,1.057491,0,0,7132.477,7,22,2025-04-22T16:28:23.387+03:00,767021264.8016557,0,-12.9,100.3591,1,0.5,2025-04-22T16:27:26.940+03:00,96,1.6,2025-04-22T14:20:19.516+03:00,0.02197104130929222,0
2025-04-22T16:28:35.384+03:00,1745328514.31086,40.95223118027651,29.14031871188165,76.03748,-1,-1,-1,-1,30.0056606849946,39.38603433184983,-9999,37446.21274654167,-0.720489501953125,0.671478271484375,-0.1570281982421875,37446.20267154167,-3.058710146707627,-1.345758425819892,-0.740190661664863,0.0012489726068452,-0.01792383566498756,0.02638437040150166,-0.001101911067962646,-0.003591358661651611,0.001028597354888916,XArbitraryZVertical,-0.5922624078820102,0.2585487029346084,-0.719116058709948,0.2554405315209574,-0.7197231650352478,0.6744287014007568,-0.1647556126117706,0,0,0,-1,-1,37443.66748329167,unknown,2,2025-04-22T16:28:23.387+03:00,2025-04-21T17:08:51.449+03:00,8584,1.057491,0,0,7132.477,7,22,2025-04-22T16:28:23.387+03:00,767021264.8016557,0,-12.9,100.3591,1,0.5,2025-04-22T16:27:26.940+03:00,96,1.6,2025-04-22T14:20:19.516+03:00,0.02197104130929222,0
2025-04-22T16:28:35.391+03:00,1745328514.31086,40.95223118027651,29.14031871188165,76.03748,-1,-1,-1,-1,30.0056606849946,39.38603433184983,-9999,37446.22282254167,-0.72216796875,0.6660308837890625,-0.156341552734375,37446.21274654167,-3.058659095465142,-1.345897983147316,-0.7404438889167551,-0.003359361086040735,-0.01188937947154045,0.02641366422176361,-0.0004367828369140625,-0.003061115741729736,0.004735276103019714,XArbitraryZVertical,-0.5922944864874778,0.2586091677807015,-0.7190293641110103,0.2555489534150377,-0.7195796370506287,0.6746156215667725,-0.1646170765161514,0,0,0,-1,-1,37443.66748329167,unknown,2,2025-04-22T16:28:23.387+03:00,2025-04-21T17:08:51.449+03:00,8584,1.057491,0,0,7132.477,7,22,2025-04-22T16:28:23.387+03:00,767021264.8016557,0,-12.9,100.3591,1,0.5,2025-04-22T16:27:26.940+03:00,96,1.6,2025-04-22T14:20:19.516+03:00,0.02197104130929222,0
2025-04-22T16:28:35.401+03:00,1745328514.31086,40.95223118027651,29.14031871188165,76.03748,-1,-1,-1,-1,30.0056606849946,39.38603433184983,-9999,37446.23289854167,-0.7202301025390625,0.6703643798828125,-0.1589202880859375,37446.22282254167,-3.058615447070189,-1.346038402429335,-0.7407511247199099,-0.003733801655471325,-0.02070071361958981,0.02271906100213528,-0.00111919641494751,-0.004386544227600098,0.0077313631772995,XArbitraryZVertical,-0.592320624043192,0.2586916100978669,-0.7189351503050719,0.2556701623087636,-0.7194007635116577,0.6748424172401428,-0.1644698530435562,0,0,0,-1,-1,37443.66748329167,unknown,2,2025-04-22T16:28:23.387+03:00,2025-04-21T17:08:51.449+03:00,8584,1.057491,0,0,7132.477,7,22,2025-04-22T16:28:23.387+03:00,767021264.8016557,0,-12.9,100.3591,1,0.5,2025-04-22T16:27:26.940+03:00,96,1.6,2025-04-22T14:20:19.516+03:00,0.02197104130929222,0
2025-04-22T16:28:35.411+03:00,1745328514.31086,40.95223118027651,29.14031871188165,76.03748,-1,-1,-1,-1,30.0056606849946,39.38603433184983,-9999,37446.24297454167,-0.71905517578125,0.6694183349609375,-0.161041259765625,37446.23289854167,-3.058598052263938,-1.346256745717568,-0.7409303869259055,-4.24435711465776e-06,-0.02505039051175117,0.01894832402467728,-0.003505527973175049,-0.009325385093688965,0.008172884583473206,XArbitraryZVertical,-0.5923838793068379,0.25872467652548,-0.7188404803469631,0.2557557272110161,-0.7193183898925781,0.6749746799468994,-0.1642857640981674,0,0,0,-1,-1,37443.66748329167,unknown,2,2025-04-22T16:28:23.387+03:00,2025-04-21T17:08:51.449+03:00,8584,1.057491,0,0,7132.477,7,22,2025-04-22T16:28:23.387+03:00,767021264.8016557,0,-12.9,100.3591,1,0.5,2025-04-22T16:27:26.940+03:00,96,1.6,2025-04-22T14:20:19.516+03:00,0.02197104130929222,0
2025-04-22T16:28:35.421+03:00,1745328514.31086,40.95223118027651,29.14031871188165,76.03748,-1,-1,-1,-1,30.0056606849946,39.38603433184983,-9999,37446.25305054167,-0.7229766845703125,0.674224853515625,-0.1595306396484375,37446.24297454167,-3.058519011358722,-1.346415891748442,-0.7410465633552464,0.004797435365617275,-0.01438149902969599,0.01704416424036026,-0.0001683831214904785,-0.004207849502563477,0.004577234387397766,XArbitraryZVertical,-0.5924399520109646,0.2587237473376073,-0.7187654581070999,0.2558377517941348,-0.7192681431770325,0.6750603914260864,-0.1641538590192795,0,0,0,-1,-1,37443.66748329167,unknown,2,2025-04-22T16:28:23.387+03:00,2025-04-21T17:08:51.449+03:00,8584,1.057491,0,0,7132.477,7,22,2025-04-22T16:28:23.387+03:00,767021264.8016557,0,-12.9,100.3591,1,0.5,2025-04-22T16:27:26.940+03:00,96,1.6,2025-04-22T14:20:19.516+03:00,0.02197104130929222,0
2025-04-22T16:28:35.431+03:00,1745328514.31086,40.95223118027651,29.14031871188165,76.03748,-1,-1,-1,-1,30.0056606849946,39.38603433184983,-9999,37446.26312654167,-0.7182159423828125,0.678466796875,-0.158966064453125,37446.25305054167,-3.058411671141236,-1.34653187243742,-0.7411764273607976,0.00482360040768981,-0.01811518520116806,0.01734313741326332,-0.001165509223937988,-0.005615949630737305,0.002734854817390442,XArbitraryZVertical,-0.5924828295193024,0.2587249933033375,-0.7186974919009782,0.2559282537622914,-0.7192018032073975,0.6751561760902405,-0.1640509516000748,0,0,0,-1,-1,37443.66748329167,unknown,2,2025-04-22T16:28:23.387+03:00,2025-04-21T17:08:51.449+03:00,8584,1.057491,0,0,7132.477,7,22,2025-04-22T16:28:23.387+03:00,767021264.8016557,0,-12.9,100.3591,1,0.5,2025-04-22T16:27:26.940+03:00,96,1.6,2025-04-22T14:20:19.516+03:00,0.02197104130929222,0
2025-04-22T16:28:35.441+03:00,1745328514.31086,40.95223118027651,29.14031871188165,76.03748,-1,-1,-1,-1,30.0056606849946,39.38603433184983,-9999,37446.27320254167,-0.718414306640625,0.6721038818359375,-0.158660888671875,37446.26312654167,-3.058293090288621,-1.346652730735863,-0.7412837568300014,0.007206596899777651,-0.01514709182083607,0.0124157564714551,-0.004176557064056396,0.0001032352447509766,0.004188194870948792,XArbitraryZVertical,-0.5925311164427587,0.2587139721773964,-0.7186300116822217,0.2560170358014129,-0.7191509008407593,0.675235390663147,-0.1639479100704193,0,0,0,-1,-1,37443.66748329167,unknown,2,2025-04-22T16:28:23.387+03:00,2025-04-21T17:08:51.449+03:00,8584,1.057491,0,0,7132.477,7,22,2025-04-22T16:28:23.387+03:00,767021264.8016557,0,-12.9,100.3591,1,0.5,2025-04-22T16:27:26.940+03:00,96,1.6,2025-04-22T14:20:19.516+03:00,0.02197104130929222,0
2025-04-22T16:28:35.451+03:00,1745328514.31086,40.95223118027651,29.14031871188165,76.03748,-1,-1,-1,-1,30.0056606849946,39.38603433184983,-9999,37446.28327854167,-0.7192230224609375,0.6676788330078125,-0.158294677734375,37446.27320254167,-3.0582124700279,-1.346775800222921,-0.7413779308625952,0.003859136952087283,-0.01604098081588745,0.01397403888404369,0.001381576061248779,0.001986920833587646,0.00434499979019165,XArbitraryZVertical,-0.592576562446363,0.2587090498379902,-0.7185688038246076,0.2560887014979156,-0.7191091179847717,0.6753048300743103,-0.1638452857732773,0,0,0,-1,-1,37443.66748329167,unknown,2,2025-04-22T16:28:23.387+03:00,2025-04-21T17:08:51.449+03:00,8584,1.057491,0,0,7132.477,7,22,2025-04-22T16:28:23.387+03:00,767021264.8016557,0,-12.9,100.3591,1,0.5,2025-04-22T16:27:26.940+03:00,96,1.6,2025-04-22T14:20:19.516+03:00,0.02197104130929222,0
2025-04-22T16:28:35.462+03:00,1745328514.31086,40.95223118027651,29.14031871188165,76.03748,-1,-1,-1,-1,30.0056606849946,39.38603433184983,-9999,37446.29335454167,-0.7167816162109375,0.66314697265625,-0.15814208984375,37446.28327854167,-3.05814159812412,-1.346881482874464,-0.7414934414852395,0.001518218195997179,-0.01399860344827175,0.01476206816732883,-0.0001267194747924805,-0.003331959247589111,0.005518138408660889,XArbitraryZVertical,-0.5926124144812941,0.2587171035740941,-0.7185106828068847,0.2561606928405488,-0.719050407409668,0.6753900051116943,-0.1637519747018814,0,0,0,-1,-1,37443.66748329167,unknown,2,2025-04-22T16:28:23.387+03:00,2025-04-21T17:08:51.449+03:00,8584,1.057491,0,0,7132.477,7,22,2025-04-22T16:28:23.387+03:00,767021264.8016557,0,-12.9,100.3591,1,0.5,2025-04-22T16:27:26.940+03:00,96,1.6,2025-04-22T14:20:19.516+03:00,0.02197104130929222,0
2025-04-22T16:28:35.472+03:00,1745328514.31086,40.95223118027651,29.14031871188165,76.03748,-1,-1,-1,-1,30.0056606849946,39.38603433184983,-9999,37446.30343054167,-0.72125244140625,0.666778564453125,-0.158477783203125,37446.29335454167,-3.058100775772758,-1.347010310346098,-0.7416249204344025,-0.0005318831535987556,-0.01245796587318182,0.01776131987571716,-0.0004516839981079102,-0.008861064910888672,0.005588889122009277,XArbitraryZVertical,-0.5926511287662879,0.2587369759539755,-0.7184470946385683,0.2562294253119657,-0.7189849019050598,0.6754869818687439,-0.163639634847641,0,0,0,-1,-1,37443.66748329167,unknown,2,2025-04-22T16:28:23.387+03:00,2025-04-21T17:08:51.449+03:00,8584,1.057491,0,0,7132.477,7,22,2025-04-22T16:28:23.387+03:00,767021264.8016557,0,-12.9,100.3591,1,0.5,2025-04-22T16:27:26.940+03:00,96,1.6,2025-04-22T14:20:19.516+03:00,0.02197104130929222,0
2025-04-22T16:28:35.482+03:00,1745328514.31086,40.95223118027651,29.14031871188165,76.03748,-1,-1,-1,-1,30.0056606849946,39.38603433184983,-9999,37446.31350654167,-0.7220611572265625,0.67279052734375,-0.157745361328125,37446.30343054167,-3.058093116221305,-1.347160146615266,-0.7417692052235358,-0.0002764860109891742,-0.00839691050350666,0.01660657301545143,0.001064777374267578,-0.01275163888931274,0.00498652458190918,XArbitraryZVertical,-0.5926918378465963,0.2587686933906173,-0.7183795857599988,0.2562926002667732,-0.7189144492149353,0.675593376159668,-0.1635102927684784,0,0,0,-1,-1,37443.66748329167,unknown,2,2025-04-22T16:28:23.387+03:00,2025-04-21T17:08:51.449+03:00,8584,1.057491,0,0,7132.477,7,22,2025-04-22T16:28:23.387+03:00,767021264.8016557,0,-12.9,100.3591,1,0.5,2025-04-22T16:27:26.940+03:00,96,1.6,2025-04-22T14:20:19.516+03:00,0.02197104130929222,0
2025-04-22T16:28:35.492+03:00,1745328514.31086,40.95223118027651,29.14031871188165,76.03748,-1,-1,-1,-1,30.0056606849946,39.38603433184983,-9999,37446.32358254167,-0.718109130859375,0.6755523681640625,-0.1611175537109375,37446.31350654167,-3.058063545254095,-1.347260129088196,-0.7418602426427489,0.003386625554412603,-0.008963165804743767,0.01399091631174088,-0.002961516380310059,-0.007981777191162109,0.004977300763130188,XArbitraryZVertical,-0.5927226904165828,0.258780687748883,-0.7183320134432954,0.2563421097448849,-0.7188705801963806,0.6756604909896851,-0.1634247303009033,0,0,0,-1,-1,37443.66748329167,unknown,2,2025-04-22T16:28:23.387+03:00,2025-04-21T17:08:51.449+03:00,8584,1.057491,0,0,7132.477,7,22,2025-04-22T16:28:23.387+03:00,767021264.8016557,0,-12.9,100.3591,1,0.5,2025-04-22T16:27:26.940+03:00,96,1.6,2025-04-22T14:20:19.516+03:00,0.02197104130929222,0
2025-04-22T16:28:35.502+03:00,1745328514.31086,40.95223118027651,29.14031871188165,76.03748,-1,-1,-1,-1,30.0056606849946,39.38603433184983,-9999,37446.33365854167,-0.71917724609375,0.6691741943359375,-0.163299560546875,37446.32358254167,-3.058013105825429,-1.347332129645728,-0.7419863083769254,0.001704573049210012,-0.005893073510378599,0.0166586060076952,-0.002697110176086426,-0.001986443996429443,0.00608159601688385,XArbitraryZVertical,-0.5927427492385561,0.2588029752611841,-0.7182848620154172,0.2564054038743351,-0.718799352645874,0.6757534146308899,-0.1633541136980057,0,0,0,-1,-1,37443.66748329167,unknown,2,2025-04-22T16:28:23.387+03:00,2025-04-21T17:08:51.449+03:00,8584,1.057491,0,0,7132.477,7,22,2025-04-22T16:28:23.387+03:00,767021264.8016557,0,-12.9,100.3591,1,0.5,2025-04-22T16:27:26.940+03:00,96,1.6,2025-04-22T14:20:19.516+03:00,0.02197104130929222,0
2025-04-22T16:28:35.512+03:00,1745328514.31086,40.95223118027651,29.14031871188165,76.03748,-1,-1,-1,-1,30.0056606849946,39.38603433184983,-9999,37446.34373454167,-0.7173919677734375,0.67352294921875,-0.1635284423828125,37446.33365854167,-3.057955387528798,-1.347387348272875,-0.7421089576755736,0.0009578891331329942,-0.01106353383511305,0.0176587887108326,0.0008016228675842285,-0.0006577372550964355,0.001491665840148926,XArbitraryZVertical,-0.5927580554529805,0.2588239945156446,-0.7182422578385937,0.2564681717007884,-0.7187275290489197,0.6758438348770142,-0.1632960587739944,0,0,0,-1,-1,37443.66748329167,unknown,2,2025-04-22T16:28:23.387+03:00,2025-04-21T17:08:51.449+03:00,8584,1.057491,0,0,7132.477,7,22,2025-04-22T16:28:23.387+03:00,767021264.8016557,0,-12.9,100.3591,1,0.5,2025-04-22T16:27:26.940+03:00,96,1.6,2025-04-22T14:20:19.516+03:00,0.02197104130929222,0
2025-04-22T16:28:35.522+03:00,1745328514.31086,40.95223118027651,29.14031871188165,76.03748,-1,-1,-1,-1,30.0056606849946,39.38603433184983,-9999,37446.35381054167,-0.7107696533203125,0.66827392578125,-0.1604156494140625,37446.34373454167,-3.057962623739911,-1.347569675497374,-0.7422550590984566,-0.003562560304999352,-0.01860906928777695,0.01742842420935631,-0.0008518695831298828,-0.006426453590393066,-0.0003092139959335327,XArbitraryZVertical,-0.5928083099316479,0.2588566090202057,-0.7181666139793222,0.2565307638881508,-0.7186608910560608,0.6759514808654785,-0.163143128156662,0,0,0,-1,-1,37443.66748329167,unknown,2,2025-04-22T16:28:23.387+03:00,2025-04-21T17:08:51.449+03:00,8584,1.057491,0,0,7132.477,7,22,2025-04-22T16:28:23.387+03:00,767021264.8016557,0,-12.9,100.3591,1,0.5,2025-04-22T16:27:26.940+03:00,96,1.6,2025-04-22T14:20:19.516+03:00,0.02197104130929222,0
2025-04-22T16:28:35.532+03:00,1745328514.31086,40.95223118027651,29.14031871188165,76.03748,-1,-1,-1,-1,30.0056606849946,39.38603433184983,-9999,37446.36388654167,-0.71337890625,0.6626129150390625,-0.160736083984375,37446.35381054167,-3.058002984268459,-1.347815256433388,-0.7424844730026274,-0.007871821522712708,-0.02078993245959282,0.02055604197084904,0.002119362354278564,-0.002170383930206299,0.0001361817121505737,XArbitraryZVertical,-0.5928687936254672,0.2589215905373587,-0.718063972420216,0.2566132721613042,-0.7185500264167786,0.6761205196380615,-0.1629324108362198,0,0,0,-1,-1,37443.66748329167,unknown,2,2025-04-22T16:28:23.387+03:00,2025-04-21T17:08:51.449+03:00,8584,1.057491,0,0,7132.477,7,22,2025-04-22T16:28:23.387+03:00,767021264.8016557,0,-12.9,100.3591,1,0.5,2025-04-22T16:27:26.940+03:00,96,1.6,2025-04-22T14:20:19.516+03:00,0.02197104130929222,0
