loggingTime(txt),locationTimestamp_since1970(s),locationLatitude(WGS84),locationLongitude(WGS84),locationAltitude(m),locationSpeed(m/s),locationSpeedAccuracy(m/s),locationCourse(°),locationCourseAccuracy(°),locationVerticalAccuracy(m),locationHorizontalAccuracy(m),locationFloor(Z),accelerometerTimestamp_sinceReboot(s),accelerometerAccelerationX(G),accelerometerAccelerationY(G),accelerometerAccelerationZ(G),motionTimestamp_sinceReboot(s),motionYaw(rad),motionRoll(rad),motionPitch(rad),motionRotationRateX(rad/s),motionRotationRateY(rad/s),motionRotationRateZ(rad/s),motionUserAccelerationX(G),motionUserAccelerationY(G),motionUserAccelerationZ(G),motionAttitudeReferenceFrame(txt),motionQuaternionX(R),motionQuaternionY(R),motionQuaternionZ(R),motionQuaternionW(R),motionGravityX(G),motionGravityY(G),motionGravityZ(G),motionMagneticFieldX(µT),motionMagneticFieldY(µT),motionMagneticFieldZ(µT),motionHeading(°),motionMagneticFieldCalibrationAccuracy(Z),activityTimestamp_sinceReboot(s),activity(txt),activityActivityConfidence(Z),activityActivityStartDate(txt),pedometerStartDate(txt),pedometerNumberofSteps(N),pedometerAverageActivePace(s/m),pedometerCurrentPace(s/m),pedometerCurrentCadence(steps/s),pedometerDistance(m),pedometerFloorAscended(N),pedometerFloorDescended(N),pedometerEndDate(txt),altimeterTimestamp_sinceReboot(s),altimeterReset(bool),altimeterRelativeAltitude(m),altimeterPressure(kPa),batteryState(N),batteryLevel(R),heartRateBPMTimestamp(txt),heartRateBPM(N),heartRateBPS(R),heartRateVariabilityTimestamp(txt),heartRateVariability(ms),label
2025-04-21T15:27:54.445+03:00,1745238473.757574,40.95228509088264,29.14029757623211,76.50295,-1,-1,-1,-1,30,26.32010262020495,-9999,18637.02072925,-0.6361236572265625,0.3979339599609375,-0.619354248046875,18637.01569125,2.912716945479003,-0.7644350118399056,-0.4412987255434178,0.01239841431379318,0.009177864529192448,-0.0144001105800271,0.007917046546936035,-0.01798033714294434,0.009559512138366699,XArbitraryZVertical,0.3383675302388901,-0.243299056802109,0.9087444476091561,0.0222822862562632,-0.6258217692375183,0.4271141290664673,-0.6526259779930115,0,0,0,-1,-1,18632.579920125,unknown,2,2025-04-21T15:27:14.835+03:00,2025-04-20T21:57:49.637+03:00,6713,0.9734122,0,0,5510.912,5,6,2025-04-21T15:27:25.154+03:00,766931273.6357998,0,-43.9,100.2611,1,0.4,2025-04-21T15:26:28.730+03:00,90,1.5,2025-04-21T12:30:07.995+03:00,0.02023345852159405,0
2025-04-21T15:27:54.446+03:00,1745238473.757574,40.95228509088264,29.14029757623211,76.50295,-1,-1,-1,-1,30,26.32010262020495,-9999,18637.03080525,-0.6556243896484375,0.42669677734375,-0.6375274658203125,18637.02576725,2.912697558639913,-0.7641955853697411,-0.4410054041533443,0.02423803135752678,0.04260559380054474,-0.01704755984246731,-0.007670760154724121,-0.03639191389083862,0.0307043194770813,XArbitraryZVertical,0.3382834617723913,-0.2431691245313501,0.9088081027157952,0.02237657527588612,-0.6257520914077759,0.4268488883972168,-0.6528661251068115,0,0,0,-1,-1,18632.579920125,unknown,2,2025-04-21T15:27:14.835+03:00,2025-04-20T21:57:49.637+03:00,6713,0.9734122,0,0,5510.912,5,6,2025-04-21T15:27:25.154+03:00,766931273.6357998,0,-43.9,100.2611,1,0.4,2025-04-21T15:26:28.730+03:00,90,1.5,2025-04-21T12:30:07.995+03:00,0.02023345852159405,0
2025-04-21T15:27:54.447+03:00,1745238473.757574,40.95228509088264,29.14029757623211,76.50295,-1,-1,-1,-1,30,26.32010262020495,-9999,18637.04088125,-0.6285552978515625,0.430023193359375,-0.651336669921875,18637.03584325,2.912770541445572,-0.7638993817903722,-0.440588089300564,0.03600167855620384,0.0179917961359024,-0.01340358890593052,-0.02319812774658203,-0.008335024118423462,0.02515888214111328,XArbitraryZVertical,0.3381961923350041,-0.2429677053193336,0.9088924128921012,0.02245965814612039,-0.6256818771362305,0.426471471786499,-0.6531800627708435,0,0,0,-1,-1,18632.579920125,unknown,2,2025-04-21T15:27:14.835+03:00,2025-04-20T21:57:49.637+03:00,6713,0.9734122,0,0,5510.912,5,6,2025-04-21T15:27:25.154+03:00,766931273.6357998,0,-43.9,100.2611,1,0.4,2025-04-21T15:26:28.730+03:00,90,1.5,2025-04-21T12:30:07.995+03:00,0.02023345852159405,0
2025-04-21T15:27:54.454+03:00,1745238473.757574,40.95228509088264,29.14029757623211,76.50295,-1,-1,-1,-1,30,26.32010262020495,-9999,18637.05095725,-0.597198486328125,0.4319000244140625,-0.6492156982421875,18637.04591925,2.912973896371472,-0.7637221350443647,-0.4402044911921576,0.03805417940020561,0.00504244165495038,-0.01030659861862659,-0.0194014310836792,0.004386872053146362,0.004193365573883057,XArbitraryZVertical,0.3381756550908364,-0.2427605582084866,0.9089553650171177,0.02246251831312222,-0.6256791949272156,0.4261244833469391,-0.6534090638160706,0,0,0,-1,-1,18632.579920125,unknown,2,2025-04-21T15:27:14.835+03:00,2025-04-20T21:57:49.637+03:00,6713,0.9734122,0,0,5510.912,5,6,2025-04-21T15:27:25.154+03:00,766931273.6357998,0,-43.9,100.2611,1,0.4,2025-04-21T15:26:28.730+03:00,90,1.5,2025-04-21T12:30:07.995+03:00,0.02023345852159405,0
2025-04-21T15:27:54.464+03:00,1745238473.757574,40.95228509088264,29.14029757623211,76.50295,-1,-1,-1,-1,30,26.32010262020495,-9999,18637.06103325,-0.612548828125,0.4299163818359375,-0.6446990966796875,18637.05599525,2.913208021301264,-0.7634860423313716,-0.4399380599043176,0.04020488262176514,0.0119564738124609,-0.01981158740818501,0.02314060926437378,0.004383772611618042,0.002576768398284912,XArbitraryZVertical,0.3381212630376061,-0.2425996975959563,0.9090192497074382,0.02243598375798597,-0.6256033778190613,0.425883412361145,-0.6536387801170349,0,0,0,-1,-1,18632.579920125,unknown,2,2025-04-21T15:27:14.835+03:00,2025-04-20T21:57:49.637+03:00,6713,0.9734122,0,0,5510.912,5,6,2025-04-21T15:27:25.154+03:00,766931273.6357998,0,-43.9,100.2611,1,0.4,2025-04-21T15:26:28.730+03:00,90,1.5,2025-04-21T12:30:07.995+03:00,0.02023345852159405,0
2025-04-21T15:27:54.474+03:00,1745238473.757574,40.95228509088264,29.14029757623211,76.50295,-1,-1,-1,-1,30,26.32010262020495,-9999,18637.07110925,-0.6241455078125,0.422821044921875,-0.6480255126953125,18637.06607125,2.913371478652033,-0.7632287782913501,-0.4396329529858604,0.03393793106079102,0.01107443496584892,-0.01847095228731632,0.02179574966430664,0.006490916013717651,0.007912755012512207,XArbitraryZVertical,0.3380521854150911,-0.242433318077194,0.9090889973388857,0.02245152490454734,-0.6255250573158264,0.4256073534488678,-0.6538935899734497,0,0,0,-1,-1,18632.579920125,unknown,2,2025-04-21T15:27:14.835+03:00,2025-04-20T21:57:49.637+03:00,6713,0.9734122,0,0,5510.912,5,6,2025-04-21T15:27:25.154+03:00,766931273.6357998,0,-43.9,100.2611,1,0.4,2025-04-21T15:26:28.730+03:00,90,1.5,2025-04-21T12:30:07.995+03:00,0.02023345852159405,0
2025-04-21T15:27:54.484+03:00,1745238473.757574,40.95228509088264,29.14029757623211,76.50295,-1,-1,-1,-1,30,26.32010262020495,-9999,18637.08118625,-0.617431640625,0.4203948974609375,-0.6487579345703125,18637.07614725,2.913453410832081,-0.763148120251483,-0.4393328465897008,0.02322289906442165,0.0009522256441414356,-0.01580316387116909,0.003398656845092773,4.863739013671875e-05,0.007078886032104492,XArbitraryZVertical,0.3380530361483159,-0.2422849259517094,0.9091274566587991,0.02248167187900775,-0.6255605220794678,0.4253357648849487,-0.6540363430976868,0,0,0,-1,-1,18632.579920125,unknown,2,2025-04-21T15:27:14.835+03:00,2025-04-20T21:57:49.637+03:00,6713,0.9734122,0,0,5510.912,5,6,2025-04-21T15:27:25.154+03:00,766931273.6357998,0,-43.9,100.2611,1,0.4,2025-04-21T15:26:28.730+03:00,90,1.5,2025-04-21T12:30:07.995+03:00,0.02023345852159405,0
2025-04-21T15:27:54.494+03:00,1745238473.757574,40.95228509088264,29.14029757623211,76.50295,-1,-1,-1,-1,30,26.32010262020495,-9999,18637.09126225,-0.620452880859375,0.417205810546875,-0.64666748046875,18637.08622425,2.913466007151824,-0.7631084816202099,-0.4390936584098627,0.01437348127365112,0.006111035123467445,-0.01936141401529312,0.004877328872680664,-0.004037857055664062,0.004308581352233887,XArbitraryZVertical,0.3380585038100167,-0.2421758289123937,0.9091534019949032,0.0225266945359072,-0.6256049275398254,0.4251192808151245,-0.6541346311569214,0,0,0,-1,-1,18632.579920125,unknown,2,2025-04-21T15:27:14.835+03:00,2025-04-20T21:57:49.637+03:00,6713,0.9734122,0,0,5510.912,5,6,2025-04-21T15:27:25.154+03:00,766931273.6357998,0,-43.9,100.2611,1,0.4,2025-04-21T15:26:28.730+03:00,90,1.5,2025-04-21T12:30:07.995+03:00,0.02023345852159405,0
2025-04-21T15:27:54.504+03:00,1745238473.757574,40.95228509088264,29.14029757623211,76.50295,-1,-1,-1,-1,30,26.32010262020495,-9999,18637.10133825,-0.627044677734375,0.4165802001953125,-0.6493988037109375,18637.09630025,2.913386620515333,-0.7630653273540001,-0.438848359352309,0.009745573624968529,0.006534077692776918,-0.02144393883645535,0.008003473281860352,-0.006577670574188232,0.007386386394500732,XArbitraryZVertical,0.3380518049646204,-0.2420795165520207,0.9091793363990718,0.0226151053719609,-0.6256487369537354,0.4248972237110138,-0.6542369723320007,0,0,0,-1,-1,18632.579920125,unknown,2,2025-04-21T15:27:14.835+03:00,2025-04-20T21:57:49.637+03:00,6713,0.9734122,0,0,5510.912,5,6,2025-04-21T15:27:25.154+03:00,766931273.6357998,0,-43.9,100.2611,1,0.4,2025-04-21T15:26:28.730+03:00,90,1.5,2025-04-21T12:30:07.995+03:00,0.02023345852159405,0
2025-04-21T15:27:54.514+03:00,1745238473.757574,40.95228509088264,29.14029757623211,76.50295,-1,-1,-1,-1,30,26.32010262020495,-9999,18637.11141425,-0.62176513671875,0.41455078125,-0.6468048095703125,18637.10637625,2.91326467735417,-0.7631493396959625,-0.4386166789224066,0.003374227089807391,-0.00592418946325779,-0.01793895289301872,-0.000464320182800293,-0.007786989212036133,0.005528092384338379,XArbitraryZVertical,0.338096539988405,-0.2419979079731057,0.9091821070490999,0.0227048165887351,-0.625771701335907,0.4246875047683716,-0.6542555093765259,0,0,0,-1,-1,18632.579920125,unknown,2,2025-04-21T15:27:14.835+03:00,2025-04-20T21:57:49.637+03:00,6713,0.9734122,0,0,5510.912,5,6,2025-04-21T15:27:25.154+03:00,766931273.6357998,0,-43.9,100.2611,1,0.4,2025-04-21T15:26:28.730+03:00,90,1.5,2025-04-21T12:30:07.995+03:00,0.02023345852159405,0
2025-04-21T15:27:54.524+03:00,1745238473.757574,40.95228509088264,29.14029757623211,76.50295,-1,-1,-1,-1,30,26.32010262020495,-9999,18637.12149025,-0.61639404296875,0.4166107177734375,-0.6473236083984375,18637.11645225,2.913078621695993,-0.763384241457685,-0.4384972011777105,-0.007243795786052942,-0.01187555491924286,-0.01689632423222065,0.001372396945953369,-0.009540379047393799,0.005997538566589355,XArbitraryZVertical,0.3381917883137303,-0.2419788274975333,0.9091497728412656,0.02278391694286874,-0.6259604096412659,0.4245793223381042,-0.6541451215744019,0,0,0,-1,-1,18632.579920125,unknown,2,2025-04-21T15:27:14.835+03:00,2025-04-20T21:57:49.637+03:00,6713,0.9734122,0,0,5510.912,5,6,2025-04-21T15:27:25.154+03:00,766931273.6357998,0,-43.9,100.2611,1,0.4,2025-04-21T15:26:28.730+03:00,90,1.5,2025-04-21T12:30:07.995+03:00,0.02023345852159405,0
2025-04-21T15:27:54.535+03:00,1745238473.757574,40.95228509088264,29.14029757623211,76.50295,-1,-1,-1,-1,30,26.32010262020495,-9999,18637.13156625,-0.62274169921875,0.4178466796875,-0.646759033203125,18637.12652825,2.912771097362532,-0.7636611595990798,-0.4384942412223143,-0.02531787194311619,-0.00962624978274107,-0.01982127502560616,0.008878648281097412,-0.008759528398513794,0.00721365213394165,XArbitraryZVertical,0.3382807237159846,-0.2420326787125736,0.9090996720230907,0.02289077034709022,-0.6261424422264099,0.4245766401290894,-0.6539726853370667,0,0,0,-1,-1,18632.579920125,unknown,2,2025-04-21T15:27:14.835+03:00,2025-04-20T21:57:49.637+03:00,6713,0.9734122,0,0,5510.912,5,6,2025-04-21T15:27:25.154+03:00,766931273.6357998,0,-43.9,100.2611,1,0.4,2025-04-21T15:26:28.730+03:00,90,1.5,2025-04-21T12:30:07.995+03:00,0.02023345852159405,0
2025-04-21T15:27:54.544+03:00,1745238473.757574,40.95228509088264,29.14029757623211,76.50295,-1,-1,-1,-1,30,26.32010262020495,-9999,18637.14164225,-0.6264495849609375,0.4186859130859375,-0.645782470703125,18637.13660425,2.912456228233878,-0.7638402395306844,-0.4386110294424335,-0.02514010667800903,-0.01063625421375036,-0.01566135138273239,0.00598597526550293,-0.007339358329772949,0.006531655788421631,XArbitraryZVertical,0.3383132471463298,-0.2421399898455452,0.9090565527711612,0.02298979993663466,-0.6262252330780029,0.4246823787689209,-0.6538247466087341,0,0,0,-1,-1,18632.579920125,unknown,2,2025-04-21T15:27:14.835+03:00,2025-04-20T21:57:49.637+03:00,6713,0.9734122,0,0,5510.912,5,6,2025-04-21T15:27:25.154+03:00,766931273.6357998,0,-43.9,100.2611,1,0.4,2025-04-21T15:26:28.730+03:00,90,1.5,2025-04-21T12:30:07.995+03:00,0.02023345852159405,0
2025-04-21T15:27:54.554+03:00,1745238473.757574,40.95228509088264,29.14029757623211,76.50295,-1,-1,-1,-1,30,26.32010262020495,-9999,18637.15171925,-0.625274658203125,0.423187255859375,-0.64862060546875,18637.14668025,2.912209245478957,-0.7639851075354853,-0.4387519355636288,-0.01542995404452085,-0.01117607671767473,-0.01690211705863476,-1.847743988037109e-05,-0.007085472345352173,0.008182942867279053,XArbitraryZVertical,0.3383362278039728,-0.2422461813343607,0.9090179320307141,0.02305738946424597,-0.6262785196304321,0.4248099327087402,-0.6536907553672791,0,0,0,-1,-1,18632.579920125,unknown,2,2025-04-21T15:27:14.835+03:00,2025-04-20T21:57:49.637+03:00,6713,0.9734122,0,0,5510.912,5,6,2025-04-21T15:27:25.154+03:00,766931273.6357998,0,-43.9,100.2611,1,0.4,2025-04-21T15:26:28.730+03:00,90,1.5,2025-04-21T12:30:07.995+03:00,0.02023345852159405,0
2025-04-21T15:27:54.564+03:00,1745238473.757574,40.95228509088264,29.14029757623211,76.50295,-1,-1,-1,-1,30,26.32010262020495,-9999,18637.16179525,-0.6206512451171875,0.429412841796875,-0.6507110595703125,18637.15675725,2.911931575933354,-0.764213983793554,-0.4387723491538744,-0.0166840348392725,-0.01069723907858133,-0.01890947483479977,-0.0001342892646789551,-0.004143744707107544,0.006415963172912598,XArbitraryZVertical,0.3384047177604528,-0.2423048858882839,0.9089744408793661,0.02315196907002084,-0.6264221668243408,0.424828439950943,-0.6535412073135376,0,0,0,-1,-1,18632.579920125,unknown,2,2025-04-21T15:27:14.835+03:00,2025-04-20T21:57:49.637+03:00,6713,0.9734122,0,0,5510.912,5,6,2025-04-21T15:27:25.154+03:00,766931273.6357998,0,-43.9,100.2611,1,0.4,2025-04-21T15:26:28.730+03:00,90,1.5,2025-04-21T12:30:07.995+03:00,0.02023345852159405,0
2025-04-21T15:27:54.574+03:00,1745238473.757574,40.95228509088264,29.14029757623211,76.50295,-1,-1,-1,-1,30,26.32010262020495,-9999,18637.17187125,-0.620574951171875,0.4283599853515625,-0.6492462158203125,18637.16683325,2.911680510612228,-0.7643903085297854,-0.4387458492800669,-0.01676872372627258,-0.006864950992166996,-0.01806418597698212,0.003559350967407227,0.002014279365539551,0.002758324146270752,XArbitraryZVertical,0.3384568588812293,-0.242337611984127,0.9089438693624242,0.02324984353239698,-0.6265451908111572,0.4248044490814209,-0.6534388661384583,0,0,0,-1,-1,18632.579920125,unknown,2,2025-04-21T15:27:14.835+03:00,2025-04-20T21:57:49.637+03:00,6713,0.9734122,0,0,5510.912,5,6,2025-04-21T15:27:25.154+03:00,766931273.6357998,0,-43.9,100.2611,1,0.4,2025-04-21T15:26:28.730+03:00,90,1.5,2025-04-21T12:30:07.995+03:00,0.02023345852159405,0
2025-04-21T15:27:54.584+03:00,1745238473.757574,40.95228509088264,29.14029757623211,76.50295,-1,-1,-1,-1,30,26.32010262020495,-9999,18637.18194725,-0.6262664794921875,0.41741943359375,-0.6454620361328125,18637.17690925,2.911385969578325,-0.7645812283520047,-0.4387625788225004,-0.02718002162873745,-0.00664650509133935,-0.01711793430149555,0.007081866264343262,0.006195306777954102,0.003655910491943359,XArbitraryZVertical,0.3385063997381911,-0.2423971360571456,0.9089067512024341,0.02335732278548442,-0.6266649961471558,0.4248195886611938,-0.6533141136169434,0,0,0,-1,-1,18632.579920125,unknown,2,2025-04-21T15:27:14.835+03:00,2025-04-20T21:57:49.637+03:00,6713,0.9734122,0,0,5510.912,5,6,2025-04-21T15:27:25.154+03:00,766931273.6357998,0,-43.9,100.2611,1,0.4,2025-04-21T15:26:28.730+03:00,90,1.5,2025-04-21T12:30:07.995+03:00,0.02023345852159405,0
2025-04-21T15:27:54.595+03:00,1745238473.757574,40.95228509088264,29.14029757623211,76.50295,-1,-1,-1,-1,30,26.32010262020495,-9999,18637.192023125,-0.625244140625,0.415924072265625,-0.645294189453125,18637.18698525,2.911026731474718,-0.7648541789323186,-0.4388548554231413,-0.03627365082502365,-0.01368657313287258,-0.009025918319821358,0.002472281455993652,-0.003104567527770996,0.006264150142669678,XArbitraryZVertical,0.3385783854284705,-0.2425022190579,0.9088489483126888,0.0234696892060085,-0.6268160939216614,0.4249031245708466,-0.6531146764755249,0,0,0,-1,-1,18632.579920125,unknown,2,2025-04-21T15:27:14.835+03:00,2025-04-20T21:57:49.637+03:00,6713,0.9734122,0,0,5510.912,5,6,2025-04-21T15:27:25.154+03:00,766931273.6357998,0,-43.9,100.2611,1,0.4,2025-04-21T15:26:28.730+03:00,90,1.5,2025-04-21T12:30:07.995+03:00,0.02023345852159405,0
2025-04-21T15:27:54.604+03:00,1745238473.757574,40.95228509088264,29.14029757623211,76.50295,-1,-1,-1,-1,30,26.32010262020495,-9999,18637.202099125,-0.623504638671875,0.4170379638671875,-0.64898681640625,18637.197061125,2.910683292344128,-0.7651567429125402,-0.439009712694399,-0.03396795317530632,-0.01588587835431099,-0.007125253323465586,0.0007321834564208984,-0.009760230779647827,0.008529424667358398,XArbitraryZVertical,0.3386598740148785,-0.2426328356683024,0.9087814879394575,0.02355928144246675,-0.6269681453704834,0.4250432848930359,-0.6528775691986084,0,0,0,-1,-1,18632.579920125,unknown,2,2025-04-21T15:27:14.835+03:00,2025-04-20T21:57:49.637+03:00,6713,0.9734122,0,0,5510.912,5,6,2025-04-21T15:27:25.154+03:00,766931273.6357998,0,-43.9,100.2611,1,0.4,2025-04-21T15:26:28.730+03:00,90,1.5,2025-04-21T12:30:07.995+03:00,0.02023345852159405,0
2025-04-21T15:27:54.615+03:00,1745238473.757574,40.95228509088264,29.14029757623211,76.50295,-1,-1,-1,-1,30,26.32010262020495,-9999,18637.212176125,-0.6251983642578125,0.42181396484375,-0.6514892578125,18637.207137125,2.910430901574783,-0.7653933672197795,-0.4391704170282564,-0.02230570279061794,-0.01307624112814665,-0.004055693745613098,0.00286865234375,-0.00842556357383728,0.004547595977783203,XArbitraryZVertical,0.3387219183607775,-0.2427498913860203,0.9087255772774745,0.02361423558570976,-0.6270752549171448,0.4251887500286102,-0.6526799201965332,0,0,0,-1,-1,18632.579920125,unknown,2,2025-04-21T15:27:14.835+03:00,2025-04-20T21:57:49.637+03:00,6713,0.9734122,0,0,5510.912,5,6,2025-04-21T15:27:25.154+03:00,766931273.6357998,0,-43.9,100.2611,1,0.4,2025-04-21T15:26:28.730+03:00,90,1.5,2025-04-21T12:30:07.995+03:00,0.02023345852159405,0
2025-04-21T15:27:54.625+03:00,1745238473.757574,40.95228509088264,29.14029757623211,76.50295,-1,-1,-1,-1,30,26.32010262020495,-9999,18637.222252125,-0.63153076171875,0.429229736328125,-0.6522369384765625,18637.217214125,2.910292617916266,-0.7655078341466793,-0.4392146799090321,-0.006689126137644053,0.0005650683306157589,-0.005204948130995035,0.002747237682342529,-0.00654304027557373,0.0009374618530273438,XArbitraryZVertical,0.338753034059792,-0.2427943582888159,0.9087010724488307,0.02365465660163272,-0.6271369457244873,0.4252288043498993,-0.6525945663452148,0,0,0,-1,-1,18632.579920125,unknown,2,2025-04-21T15:27:14.835+03:00,2025-04-20T21:57:49.637+03:00,6713,0.9734122,0,0,5510.912,5,6,2025-04-21T15:27:25.154+03:00,766931273.6357998,0,-43.9,100.2611,1,0.4,2025-04-21T15:26:28.730+03:00,90,1.5,2025-04-21T12:30:07.995+03:00,0.02023345852159405,0
2025-04-21T15:27:54.635+03:00,1745238473.757574,40.95228509088264,29.14029757623211,76.50295,-1,-1,-1,-1,30,26.32010262020495,-9999,18637.232328125,-0.63433837890625,0.431060791015625,-0.6516876220703125,18637.227290125,2.910199672042941,-0.7655132544107659,-0.4391510619070388,-0.000755603308789432,0.01288991142064333,-0.01008758693933487,-0.001487672328948975,0.001021862030029297,0.0003126859664916992,XArbitraryZVertical,0.3387501096657708,-0.2427818582025552,0.9087040941749278,0.02370848466393942,-0.6271591782569885,0.4251712262630463,-0.6526106595993042,0,0,0,-1,-1,18632.579920125,unknown,2,2025-04-21T15:27:14.835+03:00,2025-04-20T21:57:49.637+03:00,6713,0.9734122,0,0,5510.912,5,6,2025-04-21T15:27:25.154+03:00,766931273.6357998,0,-43.9,100.2611,1,0.4,2025-04-21T15:26:28.730+03:00,90,1.5,2025-04-21T12:30:07.995+03:00,0.02023345852159405,0
2025-04-21T15:27:54.645+03:00,1745238473.757574,40.95228509088264,29.14029757623211,76.50295,-1,-1,-1,-1,30,26.32010262020495,-9999,18637.242404125,-0.6361541748046875,0.42987060546875,-0.6495513916015625,18637.237366125,2.910101223819086,-0.7653906417647933,-0.4390601555831364,-0.001777524827048182,0.02305566146969795,-0.01357862539589405,-0.006591558456420898,0.005422383546829224,0.0002801418304443359,XArbitraryZVertical,0.3386908755256763,-0.2427566259468767,0.9087308912498313,0.02378561100576444,-0.6271059513092041,0.4250889420509338,-0.6527154445648193,0,0,0,-1,-1,18632.579920125,unknown,2,2025-04-21T15:27:14.835+03:00,2025-04-20T21:57:49.637+03:00,6713,0.9734122,0,0,5510.912,5,6,2025-04-21T15:27:25.154+03:00,766931273.6357998,0,-43.9,100.2611,1,0.4,2025-04-21T15:26:28.730+03:00,90,1.5,2025-04-21T12:30:07.995+03:00,0.02023345852159405,0
2025-04-21T15:27:54.656+03:00,1745238473.757574,40.95228509088264,29.14029757623211,76.50295,-1,-1,-1,-1,30,26.32010262020495,-9999,18637.252480125,-0.6391143798828125,0.4209747314453125,-0.649139404296875,18637.247442125,2.909911874485359,-0.7651540837012116,-0.4390204775169606,-0.01505391579121351,0.03890706226229668,-0.02124693244695663,-0.007588803768157959,0.006160199642181396,0.002454757690429688,XArbitraryZVertical,0.3385640857037395,-0.2427682095376771,0.9087718229914261,0.02390800013976895,-0.626963198184967,0.4250530302524567,-0.6528759002685547,0,0,0,-1,-1,18632.579920125,unknown,2,2025-04-21T15:27:14.835+03:00,2025-04-20T21:57:49.637+03:00,6713,0.9734122,0,0,5510.912,5,6,2025-04-21T15:27:25.154+03:00,766931273.6357998,0,-43.9,100.2611,1,0.4,2025-04-21T15:26:28.730+03:00,90,1.5,2025-04-21T12:30:07.995+03:00,0.02023345852159405,0
2025-04-21T15:27:54.665+03:00,1745238473.757574,40.95228509088264,29.14029757623211,76.50295,-1,-1,-1,-1,30,26.32010262020495,-9999,18637.262556125,-0.6366729736328125,0.416595458984375,-0.65020751953125,18637.257518125,2.909612661881074,-0.7649066065213761,-0.4390412896486302,-0.0216313898563385,0.03423268347978592,-0.01928431540727615,-0.01070147752761841,-0.000862419605255127,0.004480361938476562,XArbitraryZVertical,0.3384133604717864,-0.2428251363234543,0.9088085395284958,0.02407003127051524,-0.6267955303192139,0.4250718653202057,-0.6530246734619141,0,0,0,-1,-1,18632.579920125,unknown,2,2025-04-21T15:27:14.835+03:00,2025-04-20T21:57:49.637+03:00,6713,0.9734122,0,0,5510.912,5,6,2025-04-21T15:27:25.154+03:00,766931273.6357998,0,-43.9,100.2611,1,0.4,2025-04-21T15:26:28.730+03:00,90,1.5,2025-04-21T12:30:07.995+03:00,0.02023345852159405,0
2025-04-21T15:27:54.675+03:00,1745238473.757574,40.95228509088264,29.14029757623211,76.50295,-1,-1,-1,-1,30,26.32010262020495,-9999,18637.272633125,-0.624176025390625,0.4135894775390625,-0.6496429443359375,18637.267594125,2.909217654936869,-0.7648229937402538,-0.4391004074925825,-0.03185366839170456,0.01848727650940418,-0.02011681906878948,-0.01294022798538208,-0.00770607590675354,0.002500474452972412,XArbitraryZVertical,0.338321931993902,-0.2429172684938288,0.9088131551943476,0.02424825573125848,-0.6267234683036804,0.425125390291214,-0.6530589461326599,0,0,0,-1,-1,18632.579920125,unknown,2,2025-04-21T15:27:14.835+03:00,2025-04-20T21:57:49.637+03:00,6713,0.9734122,0,0,5510.912,5,6,2025-04-21T15:27:25.154+03:00,766931273.6357998,0,-43.9,100.2611,1,0.4,2025-04-21T15:26:28.730+03:00,90,1.5,2025-04-21T12:30:07.995+03:00,0.02023345852159405,0
2025-04-21T15:27:54.685+03:00,1745238473.757574,40.95228509088264,29.14029757623211,76.50295,-1,-1,-1,-1,30,26.32010262020495,-9999,18637.282709125,-0.61737060546875,0.413665771484375,-0.648162841796875,18637.277671125,2.908780608582624,-0.7648939218555411,-0.4391541429569029,-0.02967766486108303,0.009357094764709473,-0.02236402779817581,-0.00247269868850708,-0.01044028997421265,0.003248274326324463,XArbitraryZVertical,0.3382960807801345,-0.2430159721854752,0.908791564191117,0.02442787501006471,-0.6267539858818054,0.4251740276813507,-0.6529979705810547,0,0,0,-1,-1,18632.579920125,unknown,2,2025-04-21T15:27:14.835+03:00,2025-04-20T21:57:49.637+03:00,6713,0.9734122,0,0,5510.912,5,6,2025-04-21T15:27:25.154+03:00,766931273.6357998,0,-43.9,100.2611,1,0.4,2025-04-21T15:26:28.730+03:00,90,1.5,2025-04-21T12:30:07.995+03:00,0.02023345852159405,0
2025-04-21T15:27:54.696+03:00,1745238473.757574,40.95228509088264,29.14029757623211,76.50295,-1,-1,-1,-1,30,26.32010262020495,-9999,18637.292785125,-0.620361328125,0.4232330322265625,-0.648773193359375,18637.287747125,2.90838426288763,-0.7649776546513338,-0.4391799453817452,-0.02623366564512253,0.008668933995068073,-0.01961324922740459,0.008362352848052979,-0.01310339570045471,0.003935575485229492,XArbitraryZVertical,0.3382835305285466,-0.243095508698817,0.9087706163057929,0.02459288270308044,-0.6268011331558228,0.4251973628997803,-0.652937650680542,0,0,0,-1,-1,18632.579920125,unknown,2,2025-04-21T15:27:14.835+03:00,2025-04-20T21:57:49.637+03:00,6713,0.9734122,0,0,5510.912,5,6,2025-04-21T15:27:25.154+03:00,766931273.6357998,0,-43.9,100.2611,1,0.4,2025-04-21T15:26:28.730+03:00,90,1.5,2025-04-21T12:30:07.995+03:00,0.02023345852159405,0
2025-04-21T15:27:54.706+03:00,1745238473.757574,40.95228509088264,29.14029757623211,76.50295,-1,-1,-1,-1,30,26.32010262020495,-9999,18637.302861125,-0.624053955078125,0.426605224609375,-0.6468505859375,18637.297823125,2.908051556341567,-0.7650285634278332,-0.4391651021291932,-0.01833932474255562,0.01006755977869034,-0.02013499476015568,0.00804901123046875,-0.006513416767120361,0.004549026489257812,XArbitraryZVertical,0.3382676163197801,-0.2431458109879912,0.9087590175153762,0.02474069987828338,-0.6268386840820312,0.4251839518547058,-0.6529102921485901,0,0,0,-1,-1,18632.579920125,unknown,2,2025-04-21T15:27:14.835+03:00,2025-04-20T21:57:49.637+03:00,6713,0.9734122,0,0,5510.912,5,6,2025-04-21T15:27:25.154+03:00,766931273.6357998,0,-43.9,100.2611,1,0.4,2025-04-21T15:26:28.730+03:00,90,1.5,2025-04-21T12:30:07.995+03:00,0.02023345852159405,0
2025-04-21T15:27:54.716+03:00,1745238473.757574,40.95228509088264,29.14029757623211,76.50295,-1,-1,-1,-1,30,26.32010262020495,-9999,18637.312937125,-0.6291961669921875,0.4213104248046875,-0.6452178955078125,18637.307899125,2.907731435965815,-0.7650343023476256,-0.4391512824195773,-0.02212287671864033,0.0172040332108736,-0.02211132645606995,0.004120051860809326,0.001555740833282471,0.005099058151245117,XArbitraryZVertical,0.3382325867691978,-0.2431938732821745,0.9087551787235838,0.0248881259636205,-0.6268464922904968,0.425171434879303,-0.6529108881950378,0,0,0,-1,-1,18632.579920125,unknown,2,2025-04-21T15:27:14.835+03:00,2025-04-20T21:57:49.637+03:00,6713,0.9734122,0,0,5510.912,5,6,2025-04-21T15:27:25.154+03:00,766931273.6357998,0,-43.9,100.2611,1,0.4,2025-04-21T15:26:28.730+03:00,90,1.5,2025-04-21T12:30:07.995+03:00,0.02023345852159405,0
2025-04-21T15:27:54.729+03:00,1745238473.757574,40.95228509088264,29.14029757623211,76.50295,-1,-1,-1,-1,30,26.32010262020495,-9999,18637.323013125,-0.6290130615234375,0.4141845703125,-0.642333984375,18637.317975125,2.907325778388101,-0.7650234695987387,-0.4392514332643714,-0.04120622575283051,0.02534378319978714,-0.01809045299887657,-0.0008909106254577637,-0.001067876815795898,0.00725710391998291,XArbitraryZVertical,0.3381689852783383,-0.2433068890236477,0.9087440367664087,0.02505447121767971,-0.6268099546432495,0.4252620935440063,-0.6528869867324829,0,0,0,-1,-1,18632.579920125,unknown,2,2025-04-21T15:27:14.835+03:00,2025-04-20T21:57:49.637+03:00,6713,0.9734122,0,0,5510.912,5,6,2025-04-21T15:27:25.154+03:00,766931273.6357998,0,-43.9,100.2611,1,0.4,2025-04-21T15:26:28.730+03:00,90,1.5,2025-04-21T12:30:07.995+03:00,0.02023345852159405,0
2025-04-21T15:27:54.736+03:00,1745238473.757574,40.95228509088264,29.14029757623211,76.50295,-1,-1,-1,-1,30,26.32010262020495,-9999,18637.333090125,-0.625030517578125,0.4080963134765625,-0.633392333984375,18637.328051125,2.90667776563696,-0.7650708106592693,-0.4395714576715442,-0.08097521215677261,0.02897447347640991,-0.02170436270534992,-0.002800583839416504,-0.009383618831634521,0.008319377899169922,XArbitraryZVertical,0.3380817294038044,-0.2435593965581384,0.9087026056524569,0.02528148299425519,-0.6267465949058533,0.42555171251297,-0.6527591347694397,0,0,0,-1,-1,18632.579920125,unknown,2,2025-04-21T15:27:14.835+03:00,2025-04-20T21:57:49.637+03:00,6713,0.9734122,0,0,5510.912,5,6,2025-04-21T15:27:25.154+03:00,766931273.6357998,0,-43.9,100.2611,1,0.4,2025-04-21T15:26:28.730+03:00,90,1.5,2025-04-21T12:30:07.995+03:00,0.02023345852159405,0
2025-04-21T15:27:54.763+03:00,1745238473.757574,40.95228509088264,29.14029757623211,76.50295,-1,-1,-1,-1,30,26.32010262020495,-9999,18637.343166125,-0.6265411376953125,0.403472900390625,-0.6312713623046875,18637.338128125,2.905751765029417,-0.7652610876389003,-0.4400774643916534,-0.1104966104030609,0.02368170581758022,-0.02059648744761944,0.000882267951965332,-0.01519730687141418,0.01521635055541992,XArbitraryZVertical,0.338007973369318,-0.2439433896148363,0.9086186116905343,0.02558143526660542,-0.6267215013504028,0.4260095357894897,-0.6524844765663147,0,0,0,-1,-1,18632.579920125,unknown,2,2025-04-21T15:27:14.835+03:00,2025-04-20T21:57:49.637+03:00,6713,0.9734122,0,0,5510.912,5,6,2025-04-21T15:27:25.154+03:00,766931273.6357998,0,-43.9,100.2611,1,0.4,2025-04-21T15:26:28.730+03:00,90,1.5,2025-04-21T12:30:07.995+03:00,0.02023345852159405,0
2025-04-21T15:27:54.764+03:00,1745238473.757574,40.95228509088264,29.14029757623211,76.50295,-1,-1,-1,-1,30,26.32010262020495,-9999,18637.353242125,-0.621002197265625,0.4001617431640625,-0.6384124755859375,18637.348204125,2.904604258421142,-0.7656559493235476,-0.440786247404407,-0.1371995955705643,0.006345060188323259,-0.01539027318358421,0.0006252527236938477,-0.02168256044387817,0.02212107181549072,XArbitraryZVertical,0.3379806888091277,-0.2444575599879532,0.90848105278967,0.02591779873188129,-0.6267697215080261,0.4266507029533386,-0.6520190834999084,0,0,0,-1,-1,18632.579920125,unknown,2,2025-04-21T15:27:14.835+03:00,2025-04-20T21:57:49.637+03:00,6713,0.9734122,0,0,5510.912,5,6,2025-04-21T15:27:25.154+03:00,766931273.6357998,0,-43.9,100.2611,1,0.4,2025-04-21T15:26:28.730+03:00,90,1.5,2025-04-21T12:30:07.995+03:00,0.02023345852159405,0
2025-04-21T15:27:54.766+03:00,1745238473.757574,40.95228509088264,29.14029757623211,76.50295,-1,-1,-1,-1,30,26.32010262020495,-9999,18637.363318125,-0.6174163818359375,0.4059295654296875,-0.6435089111328125,18637.358280125,2.903397751756139,-0.7661815653797295,-0.4416487802786555,-0.1398140341043472,-0.004586683120578527,-0.01261286251246929,0.002680838108062744,-0.02649080753326416,0.01581931114196777,XArbitraryZVertical,0.3379905080706447,-0.2450517089704309,0.9083081750998524,0.02623493648510633,-0.6268569231033325,0.4274306297302246,-0.6514241695404053,0,0,0,-1,-1,18632.579920125,unknown,2,2025-04-21T15:27:14.835+03:00,2025-04-20T21:57:49.637+03:00,6713,0.9734122,0,0,5510.912,5,6,2025-04-21T15:27:25.154+03:00,766931273.6357998,0,-43.9,100.2611,1,0.4,2025-04-21T15:26:28.730+03:00,90,1.5,2025-04-21T12:30:07.995+03:00,0.02023345852159405,0
2025-04-21T15:27:54.776+03:00,1745238473.757574,40.95228509088264,29.14029757623211,76.50295,-1,-1,-1,-1,30,26.32010262020495,-9999,18637.373394125,-0.621429443359375,0.417205810546875,-0.65057373046875,18637.368356125,2.90231178688155,-0.7667140690216488,-0.4424398892311318,-0.1177385449409485,-0.01250319555401802,-0.01179101131856441,0.009644091129302979,-0.02493232488632202,0.009412765502929688,XArbitraryZVertical,0.3380243022066785,-0.2455937933932858,0.9081411819761365,0.02650990864340528,-0.6269689202308655,0.4281456768512726,-0.650846540927887,0,0,0,-1,-1,18632.579920125,unknown,2,2025-04-21T15:27:14.835+03:00,2025-04-20T21:57:49.637+03:00,6713,0.9734122,0,0,5510.912,5,6,2025-04-21T15:27:25.154+03:00,766931273.6357998,0,-43.9,100.2611,1,0.4,2025-04-21T15:26:28.730+03:00,90,1.5,2025-04-21T12:30:07.995+03:00,0.02023345852159405,0
2025-04-21T15:27:54.786+03:00,1745238473.757574,40.95228509088264,29.14029757623211,76.50295,-1,-1,-1,-1,30,26.32010262020495,-9999,18637.383470125,-0.6264190673828125,0.4344329833984375,-0.6527557373046875,18637.378432125,2.901440478278142,-0.7671538512541002,-0.4430563228851396,-0.08551563322544098,-0.002074523828923702,-0.01461396273225546,0.008282124996185303,-0.01613566279411316,0.002355098724365234,XArbitraryZVertical,0.3380584003192137,-0.2460207414454719,0.9080064337892378,0.02673228580701599,-0.6270717978477478,0.4287026822566986,-0.6503806114196777,0,0,0,-1,-1,18632.579920125,unknown,2,2025-04-21T15:27:14.835+03:00,2025-04-20T21:57:49.637+03:00,6713,0.9734122,0,0,5510.912,5,6,2025-04-21T15:27:25.154+03:00,766931273.6357998,0,-43.9,100.2611,1,0.4,2025-04-21T15:26:28.730+03:00,90,1.5,2025-04-21T12:30:07.995+03:00,0.02023345852159405,0
2025-04-21T15:27:54.796+03:00,1745238473.757574,40.95228509088264,29.14029757623211,76.50295,-1,-1,-1,-1,30,26.32010262020495,-9999,18637.393547125,-0.628753662109375,0.443817138671875,-0.6524505615234375,18637.388508125,2.900749472704321,-0.7673864528992036,-0.4434862321389918,-0.06141775101423264,0.0120253162458539,-0.0174062866717577,0.002201855182647705,-0.001097410917282104,-0.002562165260314941,XArbitraryZVertical,0.3380380630614278,-0.2463315885200234,0.9079237418295154,0.02693417182667377,-0.6270950436592102,0.4290910363197327,-0.6501020193099976,0,0,0,-1,-1,18632.579920125,unknown,2,2025-04-21T15:27:14.835+03:00,2025-04-20T21:57:49.637+03:00,6713,0.9734122,0,0,5510.912,5,6,2025-04-21T15:27:25.154+03:00,766931273.6357998,0,-43.9,100.2611,1,0.4,2025-04-21T15:26:28.730+03:00,90,1.5,2025-04-21T12:30:07.995+03:00,0.02023345852159405,0
2025-04-21T15:27:54.806+03:00,1745238473.757574,40.95228509088264,29.14029757623211,76.50295,-1,-1,-1,-1,30,26.32010262020495,-9999,18637.403623125,-0.62835693359375,0.4373779296875,-0.6495361328125,18637.398585125,2.900187213736749,-0.7674697435090435,-0.4437494182041493,-0.0508042573928833,0.02142467722296715,-0.01455883495509624,-0.0004317164421081543,0.01320651173591614,-0.002970337867736816,XArbitraryZVertical,0.3379815204387244,-0.2465446067296907,0.907881181592797,0.02712820245675859,-0.6270707249641418,0.4293287694454193,-0.6499685049057007,0,0,0,-1,-1,18632.579920125,unknown,2,2025-04-21T15:27:14.835+03:00,2025-04-20T21:57:49.637+03:00,6713,0.9734122,0,0,5510.912,5,6,2025-04-21T15:27:25.154+03:00,766931273.6357998,0,-43.9,100.2611,1,0.4,2025-04-21T15:26:28.730+03:00,90,1.5,2025-04-21T12:30:07.995+03:00,0.02023345852159405,0
2025-04-21T15:27:54.816+03:00,1745238473.757574,40.95228509088264,29.14029757623211,76.50295,-1,-1,-1,-1,30,26.32010262020495,-9999,18637.413699125,-0.6326446533203125,0.422088623046875,-0.6443328857421875,18637.408661125,2.899575336120899,-0.7675018336860316,-0.4439728960264956,-0.06851241737604141,0.03036943450570107,-0.02199225127696991,-0.001881301403045654,0.01118889451026917,-0.0007249116897583008,XArbitraryZVertical,0.3378993077155769,-0.2467476582700446,0.9078496839411473,0.0273587253900448,-0.6270249485969543,0.4295305907726288,-0.6498792767524719,0,0,0,-1,-1,18632.579920125,unknown,2,2025-04-21T15:27:14.835+03:00,2025-04-20T21:57:49.637+03:00,6713,0.9734122,0,0,5510.912,5,6,2025-04-21T15:27:25.154+03:00,766931273.6357998,0,-43.9,100.2611,1,0.4,2025-04-21T15:26:28.730+03:00,90,1.5,2025-04-21T12:30:07.995+03:00,0.02023345852159405,0
2025-04-21T15:27:54.826+03:00,1745238473.757574,40.95228509088264,29.14029757623211,76.50295,-1,-1,-1,-1,30,26.32010262020495,-9999,18637.423775125,-0.6403045654296875,0.408203125,-0.6456756591796875,18637.418737125,2.898720052288061,-0.7676122668582411,-0.4443093432203823,-0.09154769033193588,0.03350690752267838,-0.02599391713738441,-0.003069579601287842,-0.001077830791473389,0.003130137920379639,XArbitraryZVertical,0.3378116956652762,-0.247043025073541,0.9077925345411305,0.02766814245170595,-0.6269963383674622,0.429834395647049,-0.6497060060501099,0,0,0,-1,-1,18632.579920125,unknown,2,2025-04-21T15:27:14.835+03:00,2025-04-20T21:57:49.637+03:00,6713,0.9734122,0,0,5510.912,5,6,2025-04-21T15:27:25.154+03:00,766931273.6357998,0,-43.9,100.2611,1,0.4,2025-04-21T15:26:28.730+03:00,90,1.5,2025-04-21T12:30:07.995+03:00,0.02023345852159405,0
2025-04-21T15:27:54.836+03:00,1745238473.757574,40.95228509088264,29.14029757623211,76.50295,-1,-1,-1,-1,30,26.32010262020495,-9999,18637.433851125,-0.6387176513671875,0.4105682373046875,-0.649139404296875,18637.428813125,2.897707995031602,-0.7678347647990899,-0.4447474675696577,-0.1038320511579514,0.02302337251603603,-0.02515102550387383,-0.009800314903259277,-0.01787653565406799,0.004747152328491211,XArbitraryZVertical,0.3377455499702971,-0.2474115025299989,0.9077062365431418,0.02801517231983055,-0.6270100474357605,0.4302299320697784,-0.6494309902191162,0,0,0,-1,-1,18632.579920125,unknown,2,2025-04-21T15:27:14.835+03:00,2025-04-20T21:57:49.637+03:00,6713,0.9734122,0,0,5510.912,5,6,2025-04-21T15:27:25.154+03:00,766931273.6357998,0,-43.9,100.2611,1,0.4,2025-04-21T15:26:28.730+03:00,90,1.5,2025-04-21T12:30:07.995+03:00,0.02023345852159405,0
2025-04-21T15:27:54.846+03:00,1745238473.757574,40.95228509088264,29.14029757623211,76.50295,-1,-1,-1,-1,30,26.32010262020495,-9999,18637.443927125,-0.6289215087890625,0.418975830078125,-0.6497802734375,18637.438889125,2.896569856779064,-0.7681976744222222,-0.4453081650885494,-0.1371902674436569,0.01221360173076391,-0.0242877621203661,-0.01432526111602783,-0.02257883548736572,0.001538336277008057,XArbitraryZVertical,0.3377154304447231,-0.2478576228245588,0.9075843880067891,0.02837804134398959,-0.6270779371261597,0.4307360053062439,-0.6490297913551331,0,0,0,-1,-1,18632.579920125,unknown,2,2025-04-21T15:27:14.835+03:00,2025-04-20T21:57:49.637+03:00,6713,0.9734122,0,0,5510.912,5,6,2025-04-21T15:27:25.154+03:00,766931273.6357998,0,-43.9,100.2611,1,0.4,2025-04-21T15:26:28.730+03:00,90,1.5,2025-04-21T12:30:07.995+03:00,0.02023345852159405,0
2025-04-21T15:27:54.857+03:00,1745238473.757574,40.95228509088264,29.14029757623211,76.50295,-1,-1,-1,-1,30,26.32010262020495,-9999,18637.454004125,-0.62396240234375,0.41632080078125,-0.65313720703125,18637.448966125,2.895319005258141,-0.7685911844593019,-0.4460190266565718,-0.1431442946195602,0.0164371095597744,-0.02202141098678112,-0.006211042404174805,-0.01466003060340881,-0.00161433219909668,XArbitraryZVertical,0.3376702220289826,-0.2483897929401654,0.9074436913136759,0.0287589176365146,-0.6271202564239502,0.4313774406909943,-0.6485626697540283,0,0,0,-1,-1,18632.579920125,unknown,2,2025-04-21T15:27:14.835+03:00,2025-04-20T21:57:49.637+03:00,6713,0.9734122,0,0,5510.912,5,6,2025-04-21T15:27:25.154+03:00,766931273.6357998,0,-43.9,100.2611,1,0.4,2025-04-21T15:26:28.730+03:00,90,1.5,2025-04-21T12:30:07.995+03:00,0.02023345852159405,0
2025-04-21T15:27:54.867+03:00,1745238473.757574,40.95228509088264,29.14029757623211,76.50295,-1,-1,-1,-1,30,26.32010262020495,-9999,18637.464080125,-0.6285552978515625,0.4077301025390625,-0.6673126220703125,18637.459042125,2.89393726800952,-0.7688781595724022,-0.4467433309510824,-0.1370687633752823,0.04858685657382011,-0.05580703914165497,0.002134740352630615,-0.01285672187805176,-0.001668095588684082,XArbitraryZVertical,0.3375584483041899,-0.2489483983768691,0.9073178618489618,0.02920958231342499,-0.6270889639854431,0.4320307672023773,-0.6481579542160034,0,0,0,-1,-1,18632.579920125,unknown,2,2025-04-21T15:27:14.835+03:00,2025-04-20T21:57:49.637+03:00,6713,0.9734122,0,0,5510.912,5,6,2025-04-21T15:27:25.154+03:00,766931273.6357998,0,-43.9,100.2611,1,0.4,2025-04-21T15:26:28.730+03:00,90,1.5,2025-04-21T12:30:07.995+03:00,0.02023345852159405,0
2025-04-21T15:27:54.877+03:00,1745238473.757574,40.95228509088264,29.14029757623211,76.50295,-1,-1,-1,-1,30,26.32010262020495,-9999,18637.474156125,-0.6298675537109375,0.40869140625,-0.676788330078125,18637.469118125,2.892226763034872,-0.7692238629851829,-0.4474339160478734,-0.2029066383838654,0.01612185686826706,-0.03953512385487556,0.0003505349159240723,-0.02167338132858276,-0.01395547389984131,XArbitraryZVertical,0.3374349378955406,-0.2495482975969377,0.9071794747270953,0.02980827278946152,-0.6271052956581116,0.4326534867286682,-0.6477265954017639,0,0,0,-1,-1,18632.579920125,unknown,2,2025-04-21T15:27:14.835+03:00,2025-04-20T21:57:49.637+03:00,6713,0.9734122,0,0,5510.912,5,6,2025-04-21T15:27:25.154+03:00,766931273.6357998,0,-43.9,100.2611,1,0.4,2025-04-21T15:26:28.730+03:00,90,1.5,2025-04-21T12:30:07.995+03:00,0.02023345852159405,0
2025-04-21T15:27:54.887+03:00,1745238473.757574,40.95228509088264,29.14029757623211,76.50295,-1,-1,-1,-1,30,26.32010262020495,-9999,18637.484232125,-0.6303863525390625,0.3916168212890625,-0.663482666015625,18637.479194125,2.890086248231301,-0.7697894623858357,-0.449113557230972,-0.3082055747509003,0.04195751622319221,-0.01969121210277081,-0.003421425819396973,-0.02733749151229858,-0.02896261215209961,XArbitraryZVertical,0.3372594657568478,-0.2506621124401975,0.9069186232368714,0.03038181193611078,-0.6269649267196655,0.4341671764850616,-0.6468490958213806,0,0,0,-1,-1,18632.579920125,unknown,2,2025-04-21T15:27:14.835+03:00,2025-04-20T21:57:49.637+03:00,6713,0.9734122,0,0,5510.912,5,6,2025-04-21T15:27:25.154+03:00,766931273.6357998,0,-43.9,100.2611,1,0.4,2025-04-21T15:26:28.730+03:00,90,1.5,2025-04-21T12:30:07.995+03:00,0.02023345852159405,0
2025-04-21T15:27:54.897+03:00,1745238473.757574,40.95228509088264,29.14029757623211,76.50295,-1,-1,-1,-1,30,26.32010262020495,-9999,18637.494308125,-0.6485595703125,0.3623046875,-0.6502532958984375,18637.489270125,2.887174752397842,-0.77051882241268,-0.4514853211620036,-0.3781857192516327,0.06488732993602753,-0.0294349193572998,-0.002448081970214844,-0.03292131423950195,-0.02410304546356201,XArbitraryZVertical,0.3369903218775571,-0.252214301645586,0.9065622315924647,0.03114839205429099,-0.6267175078392029,0.43630251288414,-0.6456509232521057,0,0,0,-1,-1,18632.579920125,unknown,2,2025-04-21T15:27:14.835+03:00,2025-04-20T21:57:49.637+03:00,6713,0.9734122,0,0,5510.912,5,6,2025-04-21T15:27:25.154+03:00,766931273.6357998,0,-43.9,100.2611,1,0.4,2025-04-21T15:26:28.730+03:00,90,1.5,2025-04-21T12:30:07.995+03:00,0.02023345852159405,0
2025-04-21T15:27:54.907+03:00,1745238473.757574,40.95228509088264,29.14029757623211,76.50295,-1,-1,-1,-1,30,26.32010262020495,-9999,18637.504385125,-0.6537628173828125,0.3921966552734375,-0.651397705078125,18637.499346125,2.883986846799911,-0.7712078306295543,-0.4539640705179719,-0.3688160479068756,0.07884109765291214,-0.02789581194519997,-0.01417267322540283,-0.07119157910346985,-0.009016156196594238,XArbitraryZVertical,0.3366526422312891,-0.2538587015100509,0.9061982279322592,0.03202272181511336,-0.6264065504074097,0.4385315477848053,-0.644441545009613,0,0,0,-1,-1,18632.579920125,unknown,2,2025-04-21T15:27:14.835+03:00,2025-04-20T21:57:49.637+03:00,6713,0.9734122,0,0,5510.912,5,6,2025-04-21T15:27:25.154+03:00,766931273.6357998,0,-43.9,100.2611,1,0.4,2025-04-21T15:26:28.730+03:00,90,1.5,2025-04-21T12:30:07.995+03:00,0.02023345852159405,0
2025-04-21T15:27:54.917+03:00,1745238473.757574,40.95228509088264,29.14029757623211,76.50295,-1,-1,-1,-1,30,26.32010262020495,-9999,18637.514461125,-0.6429901123046875,0.430633544921875,-0.6588287353515625,18637.509423125,2.881175773384191,-0.7715746933692119,-0.4559006142938317,-0.2612637579441071,0.1012414768338203,-0.04643487557768822,-0.02959007024765015,-0.06446254253387451,-0.005781829357147217,XArbitraryZVertical,0.3362667617818152,-0.2551936617282494,0.9059361239105935,0.03287150831582572,-0.6260496377944946,0.4402711093425751,-0.6436017155647278,0,0,0,-1,-1,18632.579920125,unknown,2,2025-04-21T15:27:14.835+03:00,2025-04-20T21:57:49.637+03:00,6713,0.9734122,0,0,5510.912,5,6,2025-04-21T15:27:25.154+03:00,766931273.6357998,0,-43.9,100.2611,1,0.4,2025-04-21T15:26:28.730+03:00,90,1.5,2025-04-21T12:30:07.995+03:00,0.02023345852159405,0
2025-04-21T15:27:54.927+03:00,1745238473.757574,40.95228509088264,29.14029757623211,76.50295,-1,-1,-1,-1,30,26.32010262020495,-9999,18637.524537125,-0.6299285888671875,0.4451904296875,-0.6871795654296875,18637.519499125,2.878538811559797,-0.771873522108841,-0.4574833928593055,-0.3467139303684235,0.09358782321214676,-0.03263344243168831,-0.02187371253967285,-0.0226396918296814,-0.01194703578948975,XArbitraryZVertical,0.3359048369390643,-0.2563410229094168,0.9057153244023942,0.03371832071324074,-0.6257550716400146,0.4416916966438293,-0.6429144144058228,0,0,0,-1,-1,18632.579920125,unknown,2,2025-04-21T15:27:14.835+03:00,2025-04-20T21:57:49.637+03:00,6713,0.9734122,0,0,5510.912,5,6,2025-04-21T15:27:25.154+03:00,766931273.6357998,0,-43.9,100.2611,1,0.4,2025-04-21T15:26:28.730+03:00,90,1.5,2025-04-21T12:30:07.995+03:00,0.02023345852159405,0
2025-04-21T15:27:54.937+03:00,1745238473.757574,40.95228509088264,29.14029757623211,76.50295,-1,-1,-1,-1,30,26.32010262020495,-9999,18637.534613125,-0.617462158203125,0.42694091796875,-0.722503662109375,18637.529575125,2.874959377104101,-0.7724188811997225,-0.4601312728434936,-0.5099561214447021,0.1100924983620644,-0.04199977964162827,-0.01048547029495239,-0.002369701862335205,-0.03323936462402344,XArbitraryZVertical,0.3354213051926186,-0.2581200318805241,0.9053502097425041,0.03475080315916559,-0.6252872347831726,0.4440657198429108,-0.6417331695556641,0,0,0,-1,-1,18632.579920125,unknown,2,2025-04-21T15:27:14.835+03:00,2025-04-20T21:57:49.637+03:00,6713,0.9734122,0,0,5510.912,5,6,2025-04-21T15:27:25.154+03:00,766931273.6357998,0,-43.9,100.2611,1,0.4,2025-04-21T15:26:28.730+03:00,90,1.5,2025-04-21T12:30:07.995+03:00,0.02023345852159405,0
2025-04-21T15:27:54.947+03:00,1745238473.757574,40.95228509088264,29.14029757623211,76.50295,-1,-1,-1,-1,30,26.32010262020495,-9999,18637.544689125,-0.61004638671875,0.3629608154296875,-0.7728118896484375,18637.539651125,2.869719949564297,-0.7736956028113483,-0.4642763201631535,-0.7495022416114807,0.08952450752258301,-0.0267975926399231,0.004193723201751709,-0.005957752466201782,-0.06767851114273071,XArbitraryZVertical,0.3348911224391565,-0.2608483319299625,0.904709785957601,0.03614343892452515,-0.6248144507408142,0.4477758407592773,-0.6396121382713318,0,0,0,-1,-1,18632.579920125,unknown,2,2025-04-21T15:27:14.835+03:00,2025-04-20T21:57:49.637+03:00,6713,0.9734122,0,0,5510.912,5,6,2025-04-21T15:27:25.154+03:00,766931273.6357998,0,-43.9,100.2611,1,0.4,2025-04-21T15:26:28.730+03:00,90,1.5,2025-04-21T12:30:07.995+03:00,0.02023345852159405,0
2025-04-21T15:27:54.958+03:00,1745238473.757574,40.95228509088264,29.14029757623211,76.50295,-1,-1,-1,-1,30,26.32010262020495,-9999,18637.554765125,-0.606689453125,0.330596923828125,-0.7717132568359375,18637.549727125,2.863005309270279,-0.7759796920019798,-0.4700029809209643,-0.9125193953514099,0.05295903235673904,-0.01326979883015156,0.01168966293334961,-0.0676199197769165,-0.1195319890975952,XArbitraryZVertical,0.3344400652320228,-0.2645345271485356,0.9037399714810407,0.03775251770860637,-0.6244673728942871,0.4528889358043671,-0.6363426446914673,0,0,0,-1,-1,18632.579920125,unknown,2,2025-04-21T15:27:14.835+03:00,2025-04-20T21:57:49.637+03:00,6713,0.9734122,0,0,5510.912,5,6,2025-04-21T15:27:25.154+03:00,766931273.6357998,0,-43.9,100.2611,1,0.4,2025-04-21T15:26:28.730+03:00,90,1.5,2025-04-21T12:30:07.995+03:00,0.02023345852159405,0
2025-04-21T15:27:54.968+03:00,1745238473.757574,40.95228509088264,29.14029757623211,76.50295,-1,-1,-1,-1,30,26.32010262020495,-9999,18637.564842125,-0.6258087158203125,0.32672119140625,-0.7465667724609375,18637.559804125,2.855272017358398,-0.7790159372437313,-0.477060450507408,-1.041505694389343,0.04718789830803871,0.01986708119511604,0.01769012212753296,-0.1208215951919556,-0.1458311676979065,XArbitraryZVertical,0.334022258057618,-0.2689840633402832,0.9025079522938317,0.03944451762881655,-0.6241353750228882,0.4591698050498962,-0.6321533918380737,0,0,0,-1,-1,18632.579920125,unknown,2,2025-04-21T15:27:14.835+03:00,2025-04-20T21:57:49.637+03:00,6713,0.9734122,0,0,5510.912,5,6,2025-04-21T15:27:25.154+03:00,766931273.6357998,0,-43.9,100.2611,1,0.4,2025-04-21T15:26:28.730+03:00,90,1.5,2025-04-21T12:30:07.995+03:00,0.02023345852159405,0
2025-04-21T15:27:54.978+03:00,1745238473.757574,40.95228509088264,29.14029757623211,76.50295,-1,-1,-1,-1,30,26.32010262020495,-9999,18637.574918125,-0.6546478271484375,0.3623504638671875,-0.7050323486328125,18637.569880125,2.846799199542623,-0.7824756302511168,-0.4851279560283804,-1.144551396369934,0.0486086942255497,0.0490979366004467,0.007613062858581543,-0.1428658664226532,-0.1296457052230835,XArbitraryZVertical,0.3335457436581208,-0.2739996288125074,0.901096364322222,0.04119162677824287,-0.623686671257019,0.4663215577602386,-0.6273428797721863,0,0,0,-1,-1,18632.579920125,unknown,2,2025-04-21T15:27:14.835+03:00,2025-04-20T21:57:49.637+03:00,6713,0.9734122,0,0,5510.912,5,6,2025-04-21T15:27:25.154+03:00,766931273.6357998,0,-43.9,100.2611,1,0.4,2025-04-21T15:26:28.730+03:00,90,1.5,2025-04-21T12:30:07.995+03:00,0.02023345852159405,0
2025-04-21T15:27:54.988+03:00,1745238473.757574,40.95228509088264,29.14029757623211,76.50295,-1,-1,-1,-1,30,26.32010262020495,-9999,18637.584994125,-0.6795654296875,0.3856048583984375,-0.6631317138671875,18637.579956125,2.837529801337491,-0.7861905091018068,-0.4942487550637497,-1.291656017303467,0.08061309903860092,0.08252027630805969,-0.02098971605300903,-0.1285606324672699,-0.101352334022522,XArbitraryZVertical,0.3329075421745877,-0.279602014451297,0.8995243088489243,0.04302571844385983,-0.6229770183563232,0.4743704497814178,-0.6219905614852905,0,0,0,-1,-1,18632.579920125,unknown,2,2025-04-21T15:27:14.835+03:00,2025-04-20T21:57:49.637+03:00,6713,0.9734122,0,0,5510.912,5,6,2025-04-21T15:27:25.154+03:00,766931273.6357998,0,-43.9,100.2611,1,0.4,2025-04-21T15:26:28.730+03:00,90,1.5,2025-04-21T12:30:07.995+03:00,0.02023345852159405,0
2025-04-21T15:27:54.998+03:00,1745238473.757574,40.95228509088264,29.14029757623211,76.50295,-1,-1,-1,-1,30,26.32010262020495,-9999,18637.595070125,-0.681488037109375,0.37982177734375,-0.668731689453125,18637.590032125,2.827068894419094,-0.7901866424051214,-0.5048613336844251,-1.474350452423096,0.1193583682179451,0.1218093633651733,-0.05001413822174072,-0.1024148464202881,-0.05824524164199829,XArbitraryZVertical,0.3319948878327906,-0.2860421267960048,0.8977372063735707,0.04502364685803598,-0.6218456625938416,0.483686089515686,-0.6159185767173767,0,0,0,-1,-1,18632.579920125,unknown,2,2025-04-21T15:27:14.835+03:00,2025-04-20T21:57:49.637+03:00,6713,0.9734122,0,0,5510.912,5,6,2025-04-21T15:27:25.154+03:00,766931273.6357998,0,-43.9,100.2611,1,0.4,2025-04-21T15:26:28.730+03:00,90,1.5,2025-04-21T12:30:07.995+03:00,0.02023345852159405,0
2025-04-21T15:27:55.008+03:00,1745238473.757574,40.95228509088264,29.14029757623211,76.50295,-1,-1,-1,-1,30,26.32010262020495,-9999,18637.605146125,-0.6584930419921875,0.3585205078125,-0.70172119140625,18637.600108125,2.815654678313306,-0.7944673327377929,-0.5165632776404865,-1.549278616905212,0.1409745812416077,0.1427731513977051,-0.06420540809631348,-0.1096785962581635,-0.05178266763687134,XArbitraryZVertical,0.3308659511517077,-0.2930973423297355,0.8957671279801698,0.04714775456338118,-0.6203954219818115,0.4938947558403015,-0.6092433333396912,0,0,0,-1,-1,18632.579920125,unknown,2,2025-04-21T15:27:14.835+03:00,2025-04-20T21:57:49.637+03:00,6713,0.9734122,0,0,5510.912,5,6,2025-04-21T15:27:25.154+03:00,766931273.6357998,0,-43.9,100.2611,1,0.4,2025-04-21T15:26:28.730+03:00,90,1.5,2025-04-21T12:30:07.995+03:00,0.02023345852159405,0
2025-04-21T15:27:55.018+03:00,1745238473.757574,40.95228509088264,29.14029757623211,76.50295,-1,-1,-1,-1,30,26.32010262020495,-9999,18637.615223125,-0.63653564453125,0.36370849609375,-0.71209716796875,18637.610185125,2.804342098352707,-0.7986892358205567,-0.5284762978739078,-1.470913052558899,0.1387662887573242,0.1944006681442261,-0.04862529039382935,-0.1375037431716919,-0.08805036544799805,XArbitraryZVertical,0.3296129329712119,-0.3001996800662145,0.8937673162179425,0.04914739019324706,-0.6187025904655457,0.5042181015014648,-0.6024709343910217,0,0,0,-1,-1,18632.579920125,unknown,2,2025-04-21T15:27:14.835+03:00,2025-04-20T21:57:49.637+03:00,6713,0.9734122,0,0,5510.912,5,6,2025-04-21T15:27:25.154+03:00,766931273.6357998,0,-43.9,100.2611,1,0.4,2025-04-21T15:26:28.730+03:00,90,1.5,2025-04-21T12:30:07.995+03:00,0.02023345852159405,0
2025-04-21T15:27:55.028+03:00,1745238473.757574,40.95228509088264,29.14029757623211,76.50295,-1,-1,-1,-1,30,26.32010262020495,-9999,18637.625299125,-0.6227264404296875,0.4265594482421875,-0.715362548828125,18637.620261125,2.794110206603374,-0.8024126067960179,-0.5402444528524054,-1.439671516418457,0.1569851636886597,0.2611964344978333,-0.02832645177841187,-0.1600519418716431,-0.114985466003418,XArbitraryZVertical,0.3282349581229145,-0.3070226035450156,0.8918664397218359,0.05072687449719943,-0.6166321039199829,0.514345645904541,-0.5959978699684143,0,0,0,-1,-1,18632.579920125,unknown,2,2025-04-21T15:27:14.835+03:00,2025-04-20T21:57:49.637+03:00,6713,0.9734122,0,0,5510.912,5,6,2025-04-21T15:27:25.154+03:00,766931273.6357998,0,-43.9,100.2611,1,0.4,2025-04-21T15:26:28.730+03:00,90,1.5,2025-04-21T12:30:07.995+03:00,0.02023345852159405,0
2025-04-21T15:27:55.038+03:00,1745238473.757574,40.95228509088264,29.14029757623211,76.50295,-1,-1,-1,-1,30,26.32010262020495,-9999,18637.635375125,-0.621490478515625,0.470245361328125,-0.73114013671875,18637.630337125,2.783736398191118,-0.8062912447983442,-0.5524179808285697,-1.508678793907166,0.1390817910432816,0.2503704130649567,-0.01225847005844116,-0.1256994009017944,-0.1229192018508911,XArbitraryZVertical,0.3267731319459611,-0.3140182373879135,0.8898789627657225,0.05222179629048745,-0.6143742799758911,0.5247470736503601,-0.5892237424850464,0,0,0,-1,-1,18632.579920125,unknown,2,2025-04-21T15:27:14.835+03:00,2025-04-20T21:57:49.637+03:00,6713,0.9734122,0,0,5510.912,5,6,2025-04-21T15:27:25.154+03:00,766931273.6357998,0,-43.9,100.2611,1,0.4,2025-04-21T15:26:28.730+03:00,90,1.5,2025-04-21T12:30:07.995+03:00,0.02023345852159405,0
2025-04-21T15:27:55.048+03:00,1745238473.757574,40.95228509088264,29.14029757623211,76.50295,-1,-1,-1,-1,30,26.32010262020495,-9999,18637.645451125,-0.624053955078125,0.4082183837890625,-0.7544403076171875,18637.640413125,2.771984852341803,-0.8111412525989022,-0.5656336756285127,-1.749340653419495,0.1246834248304367,0.2895504534244537,-0.009271442890167236,-0.07080209255218506,-0.1428635120391846,XArbitraryZVertical,0.3252991632811937,-0.3216758276163185,0.8875801752683079,0.05391232929388409,-0.6121427416801453,0.5359508991241455,-0.5814102292060852,0,0,0,-1,-1,18632.579920125,unknown,2,2025-04-21T15:27:14.835+03:00,2025-04-20T21:57:49.637+03:00,6713,0.9734122,0,0,5510.912,5,6,2025-04-21T15:27:25.154+03:00,766931273.6357998,0,-43.9,100.2611,1,0.4,2025-04-21T15:26:28.730+03:00,90,1.5,2025-04-21T12:30:07.995+03:00,0.02023345852159405,0
2025-04-21T15:27:55.058+03:00,1745238473.757574,40.95228509088264,29.14029757623211,76.50295,-1,-1,-1,-1,30,26.32010262020495,-9999,18637.655527125,-0.62579345703125,0.3507843017578125,-0.7540283203125,18637.650489125,2.75814481230882,-0.8174447180078194,-0.5809826417262806,-1.999528408050537,0.1145431697368622,0.3399251997470856,-0.01320195198059082,-0.1095757484436035,-0.1760038137435913,XArbitraryZVertical,0.3237262112689975,-0.3305737068388196,0.8847659454458084,0.05578031698430878,-0.6097228527069092,0.5488455891609192,-0.571844756603241,0,0,0,-1,-1,18632.579920125,unknown,2,2025-04-21T15:27:14.835+03:00,2025-04-20T21:57:49.637+03:00,6713,0.9734122,0,0,5510.912,5,6,2025-04-21T15:27:25.154+03:00,766931273.6357998,0,-43.9,100.2611,1,0.4,2025-04-21T15:26:28.730+03:00,90,1.5,2025-04-21T12:30:07.995+03:00,0.02023345852159405,0
2025-04-21T15:27:55.068+03:00,1745238473.757574,40.95228509088264,29.14029757623211,76.50295,-1,-1,-1,-1,30,26.32010262020495,-9999,18637.665604125,-0.6184844970703125,0.3805084228515625,-0.7701263427734375,18637.660565125,2.743115893993411,-0.8250114853187485,-0.5974589552619732,-2.005453824996948,0.04212382808327675,0.3664138317108154,-0.0183645486831665,-0.1988503336906433,-0.1937282085418701,XArbitraryZVertical,0.3222069890855986,-0.3401200434892193,0.8815776596466031,0.0576353510711345,-0.6073068380355835,0.5625434517860413,-0.5610020160675049,0,0,0,-1,-1,18632.579920125,unknown,2,2025-04-21T15:27:14.835+03:00,2025-04-20T21:57:49.637+03:00,6713,0.9734122,0,0,5510.912,5,6,2025-04-21T15:27:25.154+03:00,766931273.6357998,0,-43.9,100.2611,1,0.4,2025-04-21T15:26:28.730+03:00,90,1.5,2025-04-21T12:30:07.995+03:00,0.02023345852159405,0
2025-04-21T15:27:55.078+03:00,1745238473.757574,40.95228509088264,29.14029757623211,76.50295,-1,-1,-1,-1,30,26.32010262020495,-9999,18637.675680125,-0.6011505126953125,0.4806976318359375,-0.7903594970703125,18637.670642125,2.729375423437936,-0.8326604041310973,-0.6132521658909904,-1.745061993598938,-0.01075935829430819,0.4298282265663147,-0.01806902885437012,-0.2185661196708679,-0.2116395235061646,XArbitraryZVertical,0.3208877654975801,-0.3491197550296081,0.8784477676276607,0.05895656629641712,-0.6049320697784424,0.5755300521850586,-0.5502928495407104,0,0,0,-1,-1,18632.579920125,unknown,2,2025-04-21T15:27:14.835+03:00,2025-04-20T21:57:49.637+03:00,6713,0.9734122,0,0,5510.912,5,6,2025-04-21T15:27:25.154+03:00,766931273.6357998,0,-43.9,100.2611,1,0.4,2025-04-21T15:26:28.730+03:00,90,1.5,2025-04-21T12:30:07.995+03:00,0.02023345852159405,0
2025-04-21T15:27:55.089+03:00,1745238473.757574,40.95228509088264,29.14029757623211,76.50295,-1,-1,-1,-1,30,26.32010262020495,-9999,18637.685756125,-0.57708740234375,0.529296875,-0.8052978515625,18637.680718125,2.718398385751244,-0.8394649200789089,-0.6274507940817735,-1.47277843952179,-0.07494473457336426,0.4749909043312073,-0.00525355339050293,-0.1462415456771851,-0.2427805662155151,XArbitraryZVertical,0.3197925476396968,-0.3569411845328023,0.8756645994589751,0.05947371451515873,-0.6025192737579346,0.5870830416679382,-0.5406514406204224,0,0,0,-1,-1,18632.579920125,unknown,2,2025-04-21T15:27:14.835+03:00,2025-04-20T21:57:49.637+03:00,6713,0.9734122,0,0,5510.912,5,6,2025-04-21T15:27:25.154+03:00,766931273.6357998,0,-43.9,100.2611,1,0.4,2025-04-21T15:26:28.730+03:00,90,1.5,2025-04-21T12:30:07.995+03:00,0.02023345852159405,0
2025-04-21T15:27:55.099+03:00,1745238473.757574,40.95228509088264,29.14029757623211,76.50295,-1,-1,-1,-1,30,26.32010262020495,-9999,18637.695832125,-0.5796051025390625,0.4876708984375,-0.7777252197265625,18637.690794125,2.709270339397598,-0.8458095070281572,-0.6407330170037272,-1.398527264595032,-0.09648251533508301,0.531126856803894,0.01476591825485229,-0.07397967576980591,-0.2710583806037903,XArbitraryZVertical,0.318871384012147,-0.3640345748602858,0.8730816881374798,0.05939794776196284,-0.6000473499298096,0.5977832078933716,-0.531599760055542,0,0,0,-1,-1,18632.579920125,unknown,2,2025-04-21T15:27:14.835+03:00,2025-04-20T21:57:49.637+03:00,6713,0.9734122,0,0,5510.912,5,6,2025-04-21T15:27:25.154+03:00,766931273.6357998,0,-43.9,100.2611,1,0.4,2025-04-21T15:26:28.730+03:00,90,1.5,2025-04-21T12:30:07.995+03:00,0.02023345852159405,0
