loggingTime(txt),locationTimestamp_since1970(s),locationLatitude(WGS84),locationLongitude(WGS84),locationAltitude(m),locationSpeed(m/s),locationSpeedAccuracy(m/s),locationCourse(°),locationCourseAccuracy(°),locationVerticalAccuracy(m),locationHorizontalAccuracy(m),locationFloor(Z),accelerometerTimestamp_sinceReboot(s),accelerometerAccelerationX(G),accelerometerAccelerationY(G),accelerometerAccelerationZ(G),motionTimestamp_sinceReboot(s),motionYaw(rad),motionRoll(rad),motionPitch(rad),motionRotationRateX(rad/s),motionRotationRateY(rad/s),motionRotationRateZ(rad/s),motionUserAccelerationX(G),motionUserAccelerationY(G),motionUserAccelerationZ(G),motionAttitudeReferenceFrame(txt),motionQuaternionX(R),motionQuaternionY(R),motionQuaternionZ(R),motionQuaternionW(R),motionGravityX(G),motionGravityY(G),motionGravityZ(G),motionMagneticFieldX(µT),motionMagneticFieldY(µT),motionMagneticFieldZ(µT),motionHeading(°),motionMagneticFieldCalibrationAccuracy(Z),activityTimestamp_sinceReboot(s),activity(txt),activityActivityConfidence(Z),activityActivityStartDate(txt),pedometerStartDate(txt),pedometerNumberofSteps(N),pedometerAverageActivePace(s/m),pedometerCurrentPace(s/m),pedometerCurrentCadence(steps/s),pedometerDistance(m),pedometerFloorAscended(N),pedometerFloorDescended(N),pedometerEndDate(txt),altimeterTimestamp_sinceReboot(s),altimeterReset(bool),altimeterRelativeAltitude(m),altimeterPressure(kPa),batteryState(N),batteryLevel(R),heartRateBPMTimestamp(txt),heartRateBPM(N),heartRateBPS(R),heartRateVariabilityTimestamp(txt),heartRateVariability(ms),label
2025-04-21T15:54:32.812+03:00,1745240072.248771,40.95226103126694,29.14027780705777,76.23357,-1,-1,-1,-1,30,23.02324769301786,-9999,19385.18080325,-0.7096405029296875,0.5135040283203125,-0.5485992431640625,19385.17072825,2.378163416687224,-0.8809996708551664,-0.5187321007509262,0.0344308502972126,-0.1475582718849182,-0.03142790496349335,-0.06775587797164917,0.0003599226474761963,-0.01125562191009521,XArbitraryZVertical,-0.2960506536721093,0.368811966045598,-0.8520959933024344,-0.2241963731280947,-0.6698997616767883,0.495779424905777,-0.5526635050773621,0,0,0,-1,-1,19369.710663875,unknown,2,2025-04-21T15:54:17.318+03:00,2025-04-20T21:57:49.637+03:00,6727,0.976288,0,0,5522.566,5,6,2025-04-21T15:44:52.413+03:00,766932860.0002184,0,-40.25,100.2154,1,0.4,2025-04-21T15:54:20.605+03:00,83,1.383333333333333,2025-04-21T12:30:07.995+03:00,0.02023345852159405,0
2025-04-21T15:54:32.813+03:00,1745240072.248771,40.95226103126694,29.14027780705777,76.23357,-1,-1,-1,-1,30,23.02324769301786,-9999,19385.19087925,-0.65875244140625,0.4970855712890625,-0.542816162109375,19385.18080325,2.378301357904835,-0.8823330850790094,-0.518389408323588,0.02842502295970917,-0.1353304982185364,-0.007418377790600061,-0.06076955795288086,0.016450434923172,-0.0004447698593139648,XArbitraryZVertical,-0.2967172917895702,0.3688088964118358,-0.8519244501957478,-0.2239721860469703,-0.6707673072814941,0.4954817891120911,-0.5518776774406433,0,0,0,-1,-1,19369.710663875,unknown,2,2025-04-21T15:54:17.318+03:00,2025-04-20T21:57:49.637+03:00,6727,0.976288,0,0,5522.566,5,6,2025-04-21T15:44:52.413+03:00,766932860.0002184,0,-40.25,100.2154,1,0.4,2025-04-21T15:54:20.605+03:00,83,1.383333333333333,2025-04-21T12:30:07.995+03:00,0.02023345852159405,0
2025-04-21T15:54:32.814+03:00,1745240072.248771,40.95226103126694,29.14027780705777,76.23357,-1,-1,-1,-1,30,23.02324769301786,-9999,19385.20095525,-0.6828765869140625,0.4831085205078125,-0.5503387451171875,19385.19087925,2.378480999170228,-0.8832782108220356,-0.5182601539077476,0.01257788389921188,-0.07210306078195572,0.004998610820621252,0.0005617141723632812,0.009253740310668945,0.008361101150512695,XArbitraryZVertical,-0.2971805718001359,0.3688382286880298,-0.8518082066957695,-0.2237517491816302,-0.6713380813598633,0.4953695237636566,-0.55128413438797,0,0,0,-1,-1,19369.710663875,unknown,2,2025-04-21T15:54:17.318+03:00,2025-04-20T21:57:49.637+03:00,6727,0.976288,0,0,5522.566,5,6,2025-04-21T15:44:52.413+03:00,766932860.0002184,0,-40.25,100.2154,1,0.4,2025-04-21T15:54:20.605+03:00,83,1.383333333333333,2025-04-21T12:30:07.995+03:00,0.02023345852159405,0
2025-04-21T15:54:32.823+03:00,1745240072.248771,40.95226103126694,29.14027780705777,76.23357,-1,-1,-1,-1,30,23.02324769301786,-9999,19385.21103125,-0.7060394287109375,0.488525390625,-0.5496063232421875,19385.20095525,2.378656696112226,-0.8835678381517666,-0.5181999227864352,0.01906028389930725,-0.01217607408761978,-0.0002467512094881386,0.004482805728912354,-0.009050250053405762,0.003928303718566895,XArbitraryZVertical,-0.2973491925947452,0.3688213129681547,-0.8517866354148117,-0.2236376315375251,-0.6715207695960999,0.4953171908855438,-0.5511085987091064,0,0,0,-1,-1,19369.710663875,unknown,2,2025-04-21T15:54:17.318+03:00,2025-04-20T21:57:49.637+03:00,6727,0.976288,0,0,5522.566,5,6,2025-04-21T15:44:52.413+03:00,766932860.0002184,0,-40.25,100.2154,1,0.4,2025-04-21T15:54:20.605+03:00,83,1.383333333333333,2025-04-21T12:30:07.995+03:00,0.02023345852159405,0
2025-04-21T15:54:32.834+03:00,1745240072.248771,40.95226103126694,29.14027780705777,76.23357,-1,-1,-1,-1,30,23.02324769301786,-9999,19385.22110625,-0.67962646484375,0.5006103515625,-0.548370361328125,19385.21103125,2.378882470073783,-0.8834816783353768,-0.5180807404839277,0.02316181734204292,-0.003803095780313015,0.003742664353922009,-0.03244531154632568,-0.01054888963699341,-0.0001724958419799805,XArbitraryZVertical,-0.2973795867810646,0.3687322112242239,-0.851828294314891,-0.223585298888602,-0.6715189218521118,0.495213657617569,-0.5512038469314575,0,0,0,-1,-1,19369.710663875,unknown,2,2025-04-21T15:54:17.318+03:00,2025-04-20T21:57:49.637+03:00,6727,0.976288,0,0,5522.566,5,6,2025-04-21T15:44:52.413+03:00,766932860.0002184,0,-40.25,100.2154,1,0.4,2025-04-21T15:54:20.605+03:00,83,1.383333333333333,2025-04-21T12:30:07.995+03:00,0.02023345852159405,0
2025-04-21T15:54:32.843+03:00,1745240072.248771,40.95226103126694,29.14027780705777,76.23357,-1,-1,-1,-1,30,23.02324769301786,-9999,19385.23118225,-0.6573028564453125,0.500335693359375,-0.5489044189453125,19385.22110625,2.379156264947951,-0.8834715770188656,-0.5179714367537552,0.027372807264328,-0.02395949698984623,0.004578363616019487,-0.02053773403167725,0.001508951187133789,0.003729045391082764,XArbitraryZVertical,-0.2974490899962759,0.3686482660453743,-0.8518637264931869,-0.2234961968580821,-0.6715551614761353,0.4951186776161194,-0.5512449741363525,0,0,0,-1,-1,19369.710663875,unknown,2,2025-04-21T15:54:17.318+03:00,2025-04-20T21:57:49.637+03:00,6727,0.976288,0,0,5522.566,5,6,2025-04-21T15:44:52.413+03:00,766932860.0002184,0,-40.25,100.2154,1,0.4,2025-04-21T15:54:20.605+03:00,83,1.383333333333333,2025-04-21T12:30:07.995+03:00,0.02023345852159405,0
2025-04-21T15:54:32.853+03:00,1745240072.248771,40.95226103126694,29.14027780705777,76.23357,-1,-1,-1,-1,30,23.02324769301786,-9999,19385.24125825,-0.664306640625,0.492584228515625,-0.5468902587890625,19385.23118225,2.379441415001081,-0.8835732116589134,-0.5178713647200651,0.02594082616269588,-0.02494166977703571,0.00597918638959527,0.009646952152252197,0.007043302059173584,0.001586556434631348,XArbitraryZVertical,-0.2975662499253507,0.3685786522608871,-0.851883590562482,-0.2233796144654408,-0.6716495156288147,0.4950317442417145,-0.5512081980705261,0,0,0,-1,-1,19369.710663875,unknown,2,2025-04-21T15:54:17.318+03:00,2025-04-20T21:57:49.637+03:00,6727,0.976288,0,0,5522.566,5,6,2025-04-21T15:44:52.413+03:00,766932860.0002184,0,-40.25,100.2154,1,0.4,2025-04-21T15:54:20.605+03:00,83,1.383333333333333,2025-04-21T12:30:07.995+03:00,0.02023345852159405,0
2025-04-21T15:54:32.863+03:00,1745240072.248771,40.95226103126694,29.14027780705777,76.23357,-1,-1,-1,-1,30,23.02324769301786,-9999,19385.25133325,-0.6761016845703125,0.4918212890625,-0.54779052734375,19385.24125825,2.379739417492918,-0.8836073278472123,-0.5177225539638296,0.0289619155228138,-0.01203439384698868,0.004098196048289537,0.01202678680419922,0.0003061294555664062,0.003960192203521729,XArbitraryZVertical,-0.2976674425704758,0.3684807885138522,-0.8519163185493143,-0.2232813116258718,-0.6717252731323242,0.4949024319648743,-0.5512319803237915,0,0,0,-1,-1,19369.710663875,unknown,2,2025-04-21T15:54:17.318+03:00,2025-04-20T21:57:49.637+03:00,6727,0.976288,0,0,5522.566,5,6,2025-04-21T15:44:52.413+03:00,766932860.0002184,0,-40.25,100.2154,1,0.4,2025-04-21T15:54:20.605+03:00,83,1.383333333333333,2025-04-21T12:30:07.995+03:00,0.02023345852159405,0
2025-04-21T15:54:32.873+03:00,1745240072.248771,40.95226103126694,29.14027780705777,76.23357,-1,-1,-1,-1,30,23.02324769301786,-9999,19385.26140925,-0.6723480224609375,0.4933319091796875,-0.5438995361328125,19385.25133325,2.380029608608083,-0.8835932418720442,-0.517525844880789,0.03179046139121056,-0.0117209404706955,0.001058197813108563,-0.0009062290191650391,-0.003490209579467773,0.00368046760559082,XArbitraryZVertical,-0.2977568295281316,0.3683602284139121,-0.8519568383678031,-0.2232065195839207,-0.67179274559021,0.4947314858436584,-0.5513032078742981,0,0,0,-1,-1,19369.710663875,unknown,2,2025-04-21T15:54:17.318+03:00,2025-04-20T21:57:49.637+03:00,6727,0.976288,0,0,5522.566,5,6,2025-04-21T15:44:52.413+03:00,766932860.0002184,0,-40.25,100.2154,1,0.4,2025-04-21T15:54:20.605+03:00,83,1.383333333333333,2025-04-21T12:30:07.995+03:00,0.02023345852159405,0
2025-04-21T15:54:32.884+03:00,1745240072.248771,40.95226103126694,29.14027780705777,76.23357,-1,-1,-1,-1,30,23.02324769301786,-9999,19385.27148525,-0.6688690185546875,0.49462890625,-0.5439910888671875,19385.26140925,2.380293011833072,-0.883575049464505,-0.5173195144232189,0.03079070895910263,-0.009496667422354221,-0.001092837424948812,-0.002576828002929688,-0.001723974943161011,0.005588531494140625,XArbitraryZVertical,-0.2978415409350849,0.3682394684809646,-0.8519952878783751,-0.2231461815274615,-0.6718616485595703,0.4945521652698517,-0.5513802170753479,0,0,0,-1,-1,19369.710663875,unknown,2,2025-04-21T15:54:17.318+03:00,2025-04-20T21:57:49.637+03:00,6727,0.976288,0,0,5522.566,5,6,2025-04-21T15:44:52.413+03:00,766932860.0002184,0,-40.25,100.2154,1,0.4,2025-04-21T15:54:20.605+03:00,83,1.383333333333333,2025-04-21T12:30:07.995+03:00,0.02023345852159405,0
2025-04-21T15:54:32.893+03:00,1745240072.248771,40.95226103126694,29.14027780705777,76.23357,-1,-1,-1,-1,30,23.02324769301786,-9999,19385.28156125,-0.6701507568359375,0.4918365478515625,-0.54473876953125,19385.27148525,2.38054088046301,-0.8835523642759218,-0.5171101303412752,0.0275280699133873,-0.009474829770624638,-0.005104623269289732,0.002312421798706055,0.0004569292068481445,0.00710374116897583,XArbitraryZVertical,-0.2979221536773192,0.3681193272238488,-0.8520326543258351,-0.2230938369561364,-0.6719291210174561,0.4943701922893524,-0.5514611005783081,0,0,0,-1,-1,19369.710663875,unknown,2,2025-04-21T15:54:17.318+03:00,2025-04-20T21:57:49.637+03:00,6727,0.976288,0,0,5522.566,5,6,2025-04-21T15:44:52.413+03:00,766932860.0002184,0,-40.25,100.2154,1,0.4,2025-04-21T15:54:20.605+03:00,83,1.383333333333333,2025-04-21T12:30:07.995+03:00,0.02023345852159405,0
2025-04-21T15:54:32.904+03:00,1745240072.248771,40.95226103126694,29.14027780705777,76.23357,-1,-1,-1,-1,30,23.02324769301786,-9999,19385.29163625,-0.6740875244140625,0.4889373779296875,-0.5454864501953125,19385.28156125,2.380747507802361,-0.8835416951581395,-0.5168778929301587,0.02725250087678432,-0.007086440455168486,-0.007809562608599663,0.002502083778381348,-0.001141726970672607,0.006527602672576904,XArbitraryZVertical,-0.2980050936224845,0.3679978398169867,-0.8520644012865142,-0.2230623314724859,-0.6720119714736938,0.4941682815551758,-0.5515410900115967,0,0,0,-1,-1,19369.710663875,unknown,2,2025-04-21T15:54:17.318+03:00,2025-04-20T21:57:49.637+03:00,6727,0.976288,0,0,5522.566,5,6,2025-04-21T15:44:52.413+03:00,766932860.0002184,0,-40.25,100.2154,1,0.4,2025-04-21T15:54:20.605+03:00,83,1.383333333333333,2025-04-21T12:30:07.995+03:00,0.02023345852159405,0
2025-04-21T15:54:32.914+03:00,1745240072.248771,40.95226103126694,29.14027780705777,76.23357,-1,-1,-1,-1,30,23.02324769301786,-9999,19385.30171225,-0.67401123046875,0.488739013671875,-0.5457611083984375,19385.29163625,2.380888066662908,-0.8835660269312746,-0.5166167596044945,0.02301041781902313,-0.00777506735175848,-0.01111264806240797,-0.0005280971527099609,-0.004973560571670532,0.006898283958435059,XArbitraryZVertical,-0.2980969750785279,0.3678789483889376,-0.8520843302716204,-0.2230591502371355,-0.6721250414848328,0.4939412474632263,-0.5516065359115601,0,0,0,-1,-1,19369.710663875,unknown,2,2025-04-21T15:54:17.318+03:00,2025-04-20T21:57:49.637+03:00,6727,0.976288,0,0,5522.566,5,6,2025-04-21T15:44:52.413+03:00,766932860.0002184,0,-40.25,100.2154,1,0.4,2025-04-21T15:54:20.605+03:00,83,1.383333333333333,2025-04-21T12:30:07.995+03:00,0.02023345852159405,0
2025-04-21T15:54:32.924+03:00,1745240072.248771,40.95226103126694,29.14027780705777,76.23357,-1,-1,-1,-1,30,23.02324769301786,-9999,19385.31178825,-0.66961669921875,0.490203857421875,-0.5445098876953125,19385.30171225,2.381007573157279,-0.8835954765185428,-0.516380802319257,0.02186612412333488,-0.009292736649513245,-0.01037651766091585,-0.002603769302368164,-0.005287140607833862,0.005716443061828613,XArbitraryZVertical,-0.2981817136097486,0.3677734521357082,-0.8521005078156554,-0.2230582950829112,-0.6722314357757568,0.4937360882759094,-0.5516607165336609,0,0,0,-1,-1,19369.710663875,unknown,2,2025-04-21T15:54:17.318+03:00,2025-04-20T21:57:49.637+03:00,6727,0.976288,0,0,5522.566,5,6,2025-04-21T15:44:52.413+03:00,766932860.0002184,0,-40.25,100.2154,1,0.4,2025-04-21T15:54:20.605+03:00,83,1.383333333333333,2025-04-21T12:30:07.995+03:00,0.02023345852159405,0
2025-04-21T15:54:32.934+03:00,1745240072.248771,40.95226103126694,29.14027780705777,76.23357,-1,-1,-1,-1,30,23.02324769301786,-9999,19385.32186425,-0.666656494140625,0.489654541015625,-0.545806884765625,19385.31178825,2.381119672771641,-0.8836289114820355,-0.5162120596846038,0.01838856749236584,-0.01151514425873756,-0.01087799109518528,0.0008512735366821289,-0.003782391548156738,0.006494462490081787,XArbitraryZVertical,-0.2982525083432893,0.367695410143326,-0.8521131283648177,-0.2230439560635636,-0.6723142266273499,0.4935893416404724,-0.5516910552978516,0,0,0,-1,-1,19369.710663875,unknown,2,2025-04-21T15:54:17.318+03:00,2025-04-20T21:57:49.637+03:00,6727,0.976288,0,0,5522.566,5,6,2025-04-21T15:44:52.413+03:00,766932860.0002184,0,-40.25,100.2154,1,0.4,2025-04-21T15:54:20.605+03:00,83,1.383333333333333,2025-04-21T12:30:07.995+03:00,0.02023345852159405,0
2025-04-21T15:54:32.944+03:00,1745240072.248771,40.95226103126694,29.14027780705777,76.23357,-1,-1,-1,-1,30,23.02324769301786,-9999,19385.33193925,-0.6671295166015625,0.4902801513671875,-0.546875,19385.32186425,2.381195416235077,-0.883714905637969,-0.5160508891023416,0.01415420882403851,-0.01398542523384094,-0.009984732605516911,0.005125820636749268,-0.003733724355697632,0.006593942642211914,XArbitraryZVertical,-0.2983373664561229,0.3676315621617313,-0.8521136676004546,-0.2230337437508716,-0.6724231839179993,0.4934491515159607,-0.5516837239265442,0,0,0,-1,-1,19369.710663875,unknown,2,2025-04-21T15:54:17.318+03:00,2025-04-20T21:57:49.637+03:00,6727,0.976288,0,0,5522.566,5,6,2025-04-21T15:44:52.413+03:00,766932860.0002184,0,-40.25,100.2154,1,0.4,2025-04-21T15:54:20.605+03:00,83,1.383333333333333,2025-04-21T12:30:07.995+03:00,0.02023345852159405,0
2025-04-21T15:54:32.954+03:00,1745240072.248771,40.95226103126694,29.14027780705777,76.23357,-1,-1,-1,-1,30,23.02324769301786,-9999,19385.34201525,-0.6680908203125,0.4905242919921875,-0.5430755615234375,19385.33193925,2.381252108337483,-0.8838261946271053,-0.5158938351941856,0.01506234612315893,-0.01271056942641735,-0.007194539066404104,0.006330490112304688,-0.004146456718444824,0.004615068435668945,XArbitraryZVertical,-0.2984286416119737,0.3675749606307496,-0.8521081275915369,-0.2230259665131918,-0.6725444793701172,0.4933125376701355,-0.5516579747200012,0,0,0,-1,-1,19369.710663875,unknown,2,2025-04-21T15:54:17.318+03:00,2025-04-20T21:57:49.637+03:00,6727,0.976288,0,0,5522.566,5,6,2025-04-21T15:44:52.413+03:00,766932860.0002184,0,-40.25,100.2154,1,0.4,2025-04-21T15:54:20.605+03:00,83,1.383333333333333,2025-04-21T12:30:07.995+03:00,0.02023345852159405,0
2025-04-21T15:54:32.964+03:00,1745240072.248771,40.95226103126694,29.14027780705777,76.23357,-1,-1,-1,-1,30,23.02324769301786,-9999,19385.35209125,-0.669677734375,0.49200439453125,-0.5403289794921875,19385.34201525,2.381307442996089,-0.8839199699124597,-0.5157509568482807,0.01288900710642338,-0.008968763053417206,-0.008083468303084373,0.004681944847106934,-0.003121912479400635,0.0068092942237854,XArbitraryZVertical,-0.2985091867378934,0.3675220705525491,-0.8521046037273537,-0.2230186542298747,-0.6726506352424622,0.4931882619857788,-0.5516395568847656,0,0,0,-1,-1,19369.710663875,unknown,2,2025-04-21T15:54:17.318+03:00,2025-04-20T21:57:49.637+03:00,6727,0.976288,0,0,5522.566,5,6,2025-04-21T15:44:52.413+03:00,766932872.8895561,0,-40.16,100.2136,1,0.4,2025-04-21T15:54:20.605+03:00,83,1.383333333333333,2025-04-21T12:30:07.995+03:00,0.02023345852159405,0
2025-04-21T15:54:32.974+03:00,1745240072.248771,40.95226103126694,29.14027780705777,76.23357,-1,-1,-1,-1,30,23.02324769301786,-9999,19385.36216725,-0.67431640625,0.4945068359375,-0.5426025390625,19385.35209125,2.381377660381768,-0.8839670390575287,-0.5156061532905556,0.01859003677964211,-0.002066914457827806,-0.00743365753442049,0.003908634185791016,-0.002019375562667847,0.01120215654373169,XArbitraryZVertical,-0.2985729626836542,0.3674610039412426,-0.8521097798583698,-0.2230140663703756,-0.6727318167686462,0.493062287569046,-0.5516532063484192,0,0,0,-1,-1,19369.710663875,unknown,2,2025-04-21T15:54:17.318+03:00,2025-04-20T21:57:49.637+03:00,6727,0.976288,0,0,5522.566,5,6,2025-04-21T15:44:52.413+03:00,766932872.8895561,0,-40.16,100.2136,1,0.4,2025-04-21T15:54:20.605+03:00,83,1.383333333333333,2025-04-21T12:30:07.995+03:00,0.02023345852159405,0
2025-04-21T15:54:32.984+03:00,1745240072.248771,40.95226103126694,29.14027780705777,76.23357,-1,-1,-1,-1,30,23.02324769301786,-9999,19385.37224225,-0.6736907958984375,0.497100830078125,-0.5429229736328125,19385.36216725,2.381482511982872,-0.8839351596930362,-0.5154305478990936,0.02166791819036007,-0.00333744240924716,-0.007636690512299538,6.699562072753906e-05,0.0008189678192138672,0.01036292314529419,XArbitraryZVertical,-0.2986159750030501,0.3673740782078991,-0.8521316018778485,-0.2230165640422876,-0.672781229019165,0.4929095208644867,-0.5517295598983765,0,0,0,-1,-1,19369.710663875,unknown,2,2025-04-21T15:54:17.318+03:00,2025-04-20T21:57:49.637+03:00,6727,0.976288,0,0,5522.566,5,6,2025-04-21T15:44:52.413+03:00,766932872.8895561,0,-40.16,100.2136,1,0.4,2025-04-21T15:54:20.605+03:00,83,1.383333333333333,2025-04-21T12:30:07.995+03:00,0.02023345852159405,0
2025-04-21T15:54:32.995+03:00,1745240072.248771,40.95226103126694,29.14027780705777,76.23357,-1,-1,-1,-1,30,23.02324769301786,-9999,19385.38231825,-0.6726837158203125,0.4934844970703125,-0.5418243408203125,19385.37224225,2.381620016334251,-0.8838938652565245,-0.5152407162263875,0.02252359129488468,0.001496461685746908,-0.00798077043145895,-0.002233266830444336,0.003730714321136475,0.008435904979705811,XArbitraryZVertical,-0.2986640266221287,0.367275734751283,-0.852158822624528,-0.2230100969486797,-0.6728307604789734,0.4927443265914917,-0.5518166422843933,0,0,0,-1,-1,19369.710663875,unknown,2,2025-04-21T15:54:17.318+03:00,2025-04-20T21:57:49.637+03:00,6727,0.976288,0,0,5522.566,5,6,2025-04-21T15:44:52.413+03:00,766932872.8895561,0,-40.16,100.2136,1,0.4,2025-04-21T15:54:20.605+03:00,83,1.383333333333333,2025-04-21T12:30:07.995+03:00,0.02023345852159405,0
2025-04-21T15:54:33.004+03:00,1745240072.248771,40.95226103126694,29.14027780705777,76.23357,-1,-1,-1,-1,30,23.02324769301786,-9999,19385.39239425,-0.671173095703125,0.4893951416015625,-0.5426025390625,19385.38231825,2.381767852366092,-0.8838264853097245,-0.5150100225898725,0.02480039559304714,3.178976476192474e-05,-0.008287001401185989,0.0001673102378845215,0.002680271863937378,0.01058274507522583,XArbitraryZVertical,-0.2987114826329835,0.3671571656246204,-0.8521924223196853,-0.2230137521306047,-0.672881543636322,0.4925435781478882,-0.5519341230392456,0,0,0,-1,-1,19369.710663875,unknown,2,2025-04-21T15:54:17.318+03:00,2025-04-20T21:57:49.637+03:00,6727,0.976288,0,0,5522.566,5,6,2025-04-21T15:44:52.413+03:00,766932872.8895561,0,-40.16,100.2136,1,0.4,2025-04-21T15:54:20.605+03:00,83,1.383333333333333,2025-04-21T12:30:07.995+03:00,0.02023345852159405,0
2025-04-21T15:54:33.015+03:00,1745240072.248771,40.95226103126694,29.14027780705777,76.23357,-1,-1,-1,-1,30,23.02324769301786,-9999,19385.40246925,-0.6667633056640625,0.487152099609375,-0.53863525390625,19385.39239425,2.381902170607892,-0.8837871101020158,-0.5148487056198556,0.01209977921098471,-0.004488127306103706,-0.004474951885640621,0.001214087009429932,-0.001360237598419189,0.009347379207611084,XArbitraryZVertical,-0.298753654389123,0.3670704883398902,-0.8522181668009179,-0.2230016308760189,-0.6729212403297424,0.4924031794071198,-0.5520110130310059,0,0,0,-1,-1,19369.710663875,unknown,2,2025-04-21T15:54:17.318+03:00,2025-04-20T21:57:49.637+03:00,6727,0.976288,0,0,5522.566,5,6,2025-04-21T15:44:52.413+03:00,766932872.8895561,0,-40.16,100.2136,1,0.4,2025-04-21T15:54:20.605+03:00,83,1.383333333333333,2025-04-21T12:30:07.995+03:00,0.02023345852159405,0
2025-04-21T15:54:33.025+03:00,1745240072.248771,40.95226103126694,29.14027780705777,76.23357,-1,-1,-1,-1,30,23.02324769301786,-9999,19385.41254525,-0.66925048828125,0.4849090576171875,-0.5379180908203125,19385.40246925,2.381955433679183,-0.8838134661023734,-0.5147814174918485,0.002814269158989191,-0.005157512612640858,-0.00262052658945322,0.004656970500946045,-0.005146890878677368,0.01115119457244873,XArbitraryZVertical,-0.2987889660886439,0.3670395141907098,-0.8522222001355063,-0.2229898912928721,-0.6729613542556763,0.4923446178436279,-0.5520142912864685,0,0,0,-1,-1,19369.710663875,unknown,2,2025-04-21T15:54:17.318+03:00,2025-04-20T21:57:49.637+03:00,6727,0.976288,0,0,5522.566,5,6,2025-04-21T15:44:52.413+03:00,766932872.8895561,0,-40.16,100.2136,1,0.4,2025-04-21T15:54:20.605+03:00,83,1.383333333333333,2025-04-21T12:30:07.995+03:00,0.02023345852159405,0
2025-04-21T15:54:33.035+03:00,1745240072.248771,40.95226103126694,29.14027780705777,76.23357,-1,-1,-1,-1,30,23.02324769301786,-9999,19385.42262125,-0.6696014404296875,0.48651123046875,-0.544189453125,19385.41254525,2.381917803128513,-0.8838480739988812,-0.5147655628525862,-0.006234352942556143,-0.0004935190081596375,-0.001405592425726354,0.004682064056396484,-0.006521642208099365,0.01468813419342041,XArbitraryZVertical,-0.2988001848553701,0.3670428793964647,-0.8522132986600396,-0.2230032747554827,-0.6729865074157715,0.4923308193683624,-0.5519959330558777,0,0,0,-1,-1,19369.710663875,unknown,2,2025-04-21T15:54:17.318+03:00,2025-04-20T21:57:49.637+03:00,6727,0.976288,0,0,5522.566,5,6,2025-04-21T15:44:52.413+03:00,766932872.8895561,0,-40.16,100.2136,1,0.4,2025-04-21T15:54:20.605+03:00,83,1.383333333333333,2025-04-21T12:30:07.995+03:00,0.02023345852159405,0
2025-04-21T15:54:33.045+03:00,1745240072.248771,40.95226103126694,29.14027780705777,76.23357,-1,-1,-1,-1,30,23.02324769301786,-9999,19385.43269725,-0.668121337890625,0.4910888671875,-0.548431396484375,19385.42262125,2.381813260817193,-0.8839238778886637,-0.5147835573922178,-0.007869134657084942,-0.004304102621972561,-0.004837674554437399,0.003465771675109863,-0.007666438817977905,0.01051163673400879,XArbitraryZVertical,-0.2988094987159901,0.3670738936961054,-0.8521897227065609,-0.2230296072613248,-0.6730214357376099,0.492346465587616,-0.5519393086433411,0,0,0,-1,-1,19369.710663875,unknown,2,2025-04-21T15:54:17.318+03:00,2025-04-20T21:57:49.637+03:00,6727,0.976288,0,0,5522.566,5,6,2025-04-21T15:44:52.413+03:00,766932872.8895561,0,-40.16,100.2136,1,0.4,2025-04-21T15:54:20.605+03:00,83,1.383333333333333,2025-04-21T12:30:07.995+03:00,0.02023345852159405,0
2025-04-21T15:54:33.055+03:00,1745240072.248771,40.95226103126694,29.14027780705777,76.23357,-1,-1,-1,-1,30,23.02324769301786,-9999,19385.44277225,-0.6697235107421875,0.4967803955078125,-0.550323486328125,19385.43269725,2.381718131205781,-0.8840599973771376,-0.5147757803209101,-0.004681597463786602,-0.008983276784420013,-0.006012927740812302,0.0041542649269104,-0.003768712282180786,0.004776656627655029,XArbitraryZVertical,-0.2988517133290063,0.3671002891350546,-0.8521589667761483,-0.2230469164760422,-0.6730995178222656,0.492339700460434,-0.5518500804901123,0,0,0,-1,-1,19369.710663875,unknown,2,2025-04-21T15:54:17.318+03:00,2025-04-20T21:57:49.637+03:00,6727,0.976288,0,0,5522.566,5,6,2025-04-21T15:44:52.413+03:00,766932872.8895561,0,-40.16,100.2136,1,0.4,2025-04-21T15:54:20.605+03:00,83,1.383333333333333,2025-04-21T12:30:07.995+03:00,0.02023345852159405,0
2025-04-21T15:54:33.066+03:00,1745240072.248771,40.95226103126694,29.14027780705777,76.23357,-1,-1,-1,-1,30,23.02324769301786,-9999,19385.45284825,-0.671051025390625,0.4954071044921875,-0.5529327392578125,19385.44277225,2.38163238465253,-0.8841946074317393,-0.5147260759218866,0.001636353088542819,-0.004122608341276646,-0.009504131972789764,0.004857838153839111,0.003476709127426147,0.001878738403320312,XArbitraryZVertical,-0.2989038564466864,0.3671089431998094,-0.8521308640977968,-0.223070533666121,-0.6731927990913391,0.492296427488327,-0.5517750382423401,0,0,0,-1,-1,19369.710663875,unknown,2,2025-04-21T15:54:17.318+03:00,2025-04-20T21:57:49.637+03:00,6727,0.976288,0,0,5522.566,5,6,2025-04-21T15:44:52.413+03:00,766932872.8895561,0,-40.16,100.2136,1,0.4,2025-04-21T15:54:20.605+03:00,83,1.383333333333333,2025-04-21T12:30:07.995+03:00,0.02023345852159405,0
2025-04-21T15:54:33.076+03:00,1745240072.248771,40.95226103126694,29.14027780705777,76.23357,-1,-1,-1,-1,30,23.02324769301786,-9999,19385.46292425,-0.6704254150390625,0.4932708740234375,-0.551025390625,19385.45284825,2.381592470857622,-0.8842955107118492,-0.514610370630746,0.007980269379913807,-0.01002923306077719,-0.01220910437405109,0.00219571590423584,0.004920214414596558,-0.0007776021957397461,XArbitraryZVertical,-0.2989641247670329,0.3670815393953199,-0.8521148162815345,-0.2230961943246564,-0.6732925176620483,0.492195725440979,-0.55174320936203,0,0,0,-1,-1,19369.710663875,unknown,2,2025-04-21T15:54:17.318+03:00,2025-04-20T21:57:49.637+03:00,6727,0.976288,0,0,5522.566,5,6,2025-04-21T15:44:52.413+03:00,766932872.8895561,0,-40.16,100.2136,1,0.4,2025-04-21T15:54:20.605+03:00,83,1.383333333333333,2025-04-21T12:30:07.995+03:00,0.02023345852159405,0
2025-04-21T15:54:33.088+03:00,1745240072.248771,40.95226103126694,29.14027780705777,76.23357,-1,-1,-1,-1,30,23.02324769301786,-9999,19385.47300025,-0.6700286865234375,0.492218017578125,-0.5455780029296875,19385.46292425,2.381583523373771,-0.8844378739160393,-0.5144648690754619,0.01137699745595455,-0.0125359334051609,-0.01218307204544544,0.002909481525421143,0.000881195068359375,-0.001148521900177002,XArbitraryZVertical,-0.2990541173095425,0.3670426449018969,-0.8520968315996617,-0.2231079324027009,-0.6734263896942139,0.4920690655708313,-0.5516926646232605,0,0,0,-1,-1,19369.710663875,unknown,2,2025-04-21T15:54:17.318+03:00,2025-04-20T21:57:49.637+03:00,6727,0.976288,0,0,5522.566,5,6,2025-04-21T15:44:52.413+03:00,766932872.8895561,0,-40.16,100.2136,1,0.4,2025-04-21T15:54:20.605+03:00,83,1.383333333333333,2025-04-21T12:30:07.995+03:00,0.02023345852159405,0
2025-04-21T15:54:33.096+03:00,1745240072.248771,40.95226103126694,29.14027780705777,76.23357,-1,-1,-1,-1,30,23.02324769301786,-9999,19385.48307525,-0.671966552734375,0.486572265625,-0.5455474853515625,19385.47300025,2.381546627366872,-0.8845995558771075,-0.5143404236426988,0.001958995126187801,-0.01063097454607487,-0.01267229486256838,0.003107070922851562,0.0008217096328735352,0.003999829292297363,XArbitraryZVertical,-0.299142665569527,0.3670182042708054,-0.8520723224174773,-0.2231232874674203,-0.6735630035400391,0.4919607043266296,-0.5516226291656494,0,0,0,-1,-1,19369.710663875,unknown,2,2025-04-21T15:54:17.318+03:00,2025-04-20T21:57:49.637+03:00,6727,0.976288,0,0,5522.566,5,6,2025-04-21T15:44:52.413+03:00,766932872.8895561,0,-40.16,100.2136,1,0.4,2025-04-21T15:54:20.605+03:00,83,1.383333333333333,2025-04-21T12:30:07.995+03:00,0.02023345852159405,0
2025-04-21T15:54:33.108+03:00,1745240072.248771,40.95226103126694,29.14027780705777,76.23357,-1,-1,-1,-1,30,23.02324769301786,-9999,19385.49315125,-0.6732635498046875,0.4831390380859375,-0.548065185546875,19385.48307525,2.381439776889982,-0.8847423696577111,-0.514240995496727,-0.003291360335424542,-0.008181065320968628,-0.01404259167611599,0.003284752368927002,-0.00208243727684021,0.007489979267120361,XArbitraryZVertical,-0.2992050321073934,0.3670117770704058,-0.8520420400348527,-0.2231659916123273,-0.6736796498298645,0.4918741583824158,-0.5515574216842651,0,0,0,-1,-1,19369.710663875,unknown,2,2025-04-21T15:54:17.318+03:00,2025-04-20T21:57:49.637+03:00,6727,0.976288,0,0,5522.566,5,6,2025-04-21T15:44:52.413+03:00,766932872.8895561,0,-40.16,100.2136,1,0.4,2025-04-21T15:54:20.605+03:00,83,1.383333333333333,2025-04-21T12:30:07.995+03:00,0.02023345852159405,0
2025-04-21T15:54:33.116+03:00,1745240072.248771,40.95226103126694,29.14027780705777,76.23357,-1,-1,-1,-1,30,23.02324769301786,-9999,19385.50322725,-0.6746978759765625,0.4853363037109375,-0.5451202392578125,19385.49315125,2.381298851385036,-0.8849152934853374,-0.5141589774425722,-0.007428580895066261,-0.008335262537002563,-0.0128966337069869,0.0008630752563476562,-0.008297652006149292,0.00375211238861084,XArbitraryZVertical,-0.2992702895153534,0.3670205321184415,-0.8520028789677261,-0.2232135390134201,-0.6738061904907227,0.4918027520179749,-0.5514664649963379,0,0,0,-1,-1,19369.710663875,unknown,2,2025-04-21T15:54:17.318+03:00,2025-04-20T21:57:49.637+03:00,6727,0.976288,0,0,5522.566,5,6,2025-04-21T15:44:52.413+03:00,766932872.8895561,0,-40.16,100.2136,1,0.4,2025-04-21T15:54:20.605+03:00,83,1.383333333333333,2025-04-21T12:30:07.995+03:00,0.02023345852159405,0
2025-04-21T15:54:33.126+03:00,1745240072.248771,40.95226103126694,29.14027780705777,76.23357,-1,-1,-1,-1,30,23.02324769301786,-9999,19385.51330325,-0.677703857421875,0.488800048828125,-0.54345703125,19385.50322725,2.381153900473549,-0.8850382093553092,-0.5140793436687878,-0.00156310189049691,-0.0009539127349853516,-0.0141553096473217,0.0007017850875854492,-0.007434844970703125,0.005113184452056885,XArbitraryZVertical,-0.2993129864844315,0.3670252368079227,-0.8519706874548523,-0.2232714462152833,-0.6739042997360229,0.4917334020137787,-0.5514084100723267,0,0,0,-1,-1,19369.710663875,unknown,2,2025-04-21T15:54:17.318+03:00,2025-04-20T21:57:49.637+03:00,6727,0.976288,0,0,5522.566,5,6,2025-04-21T15:44:52.413+03:00,766932872.8895561,0,-40.16,100.2136,1,0.4,2025-04-21T15:54:20.605+03:00,83,1.383333333333333,2025-04-21T12:30:07.995+03:00,0.02023345852159405,0
2025-04-21T15:54:33.136+03:00,1745240072.248771,40.95226103126694,29.14027780705777,76.23357,-1,-1,-1,-1,30,23.02324769301786,-9999,19385.52337825,-0.6745147705078125,0.492889404296875,-0.543914794921875,19385.51330325,2.381034356067324,-0.8850643252886299,-0.5139863436771713,-0.0003391132049728185,0.007492036558687687,-0.01416569575667381,-0.0031852126121521,-0.003371328115463257,0.007687985897064209,XArbitraryZVertical,-0.2993219869404784,0.3670101862850409,-0.8519561465276888,-0.2233393393971515,-0.6739540100097656,0.4916524291038513,-0.551419734954834,0,0,0,-1,-1,19369.710663875,unknown,2,2025-04-21T15:54:17.318+03:00,2025-04-20T21:57:49.637+03:00,6727,0.976288,0,0,5522.566,5,6,2025-04-21T15:44:52.413+03:00,766932872.8895561,0,-40.16,100.2136,1,0.4,2025-04-21T15:54:20.605+03:00,83,1.383333333333333,2025-04-21T12:30:07.995+03:00,0.02023345852159405,0
2025-04-21T15:54:33.146+03:00,1745240072.248771,40.95226103126694,29.14027780705777,76.23357,-1,-1,-1,-1,30,23.02324769301786,-9999,19385.53345425,-0.668487548828125,0.4972686767578125,-0.5461578369140625,19385.52337825,2.380955169271207,-0.8850066158235914,-0.5138681044061114,0.007297967094928026,0.007629122585058212,-0.01580037735402584,-0.001981854438781738,-0.0004760026931762695,0.00759589672088623,XArbitraryZVertical,-0.2993080007219868,0.3669699992252728,-0.8519595100827634,-0.2234115158190305,-0.6739672422409058,0.4915494620800018,-0.5514954924583435,0,0,0,-1,-1,19369.710663875,unknown,2,2025-04-21T15:54:17.318+03:00,2025-04-20T21:57:49.637+03:00,6727,0.976288,0,0,5522.566,5,6,2025-04-21T15:44:52.413+03:00,766932872.8895561,0,-40.16,100.2136,1,0.4,2025-04-21T15:54:20.605+03:00,83,1.383333333333333,2025-04-21T12:30:07.995+03:00,0.02023345852159405,0
2025-04-21T15:54:33.156+03:00,1745240072.248771,40.95226103126694,29.14027780705777,76.23357,-1,-1,-1,-1,30,23.02324769301786,-9999,19385.54353025,-0.66552734375,0.4954833984375,-0.54827880859375,19385.53345425,2.3809388876195,-0.8849399911583977,-0.5137137254568106,0.01315212808549404,0.002973384456709027,-0.01569997705519199,0.002709329128265381,0.004648059606552124,0.00623929500579834,XArbitraryZVertical,-0.2993094649244525,0.3669054639754503,-0.8519722713716937,-0.2234669668004403,-0.6739892363548279,0.4914149940013885,-0.5515884757041931,0,0,0,-1,-1,19369.710663875,unknown,2,2025-04-21T15:54:17.318+03:00,2025-04-20T21:57:49.637+03:00,6727,0.976288,0,0,5522.566,5,6,2025-04-21T15:44:52.413+03:00,766932872.8895561,0,-40.16,100.2136,1,0.4,2025-04-21T15:54:20.605+03:00,83,1.383333333333333,2025-04-21T12:30:07.995+03:00,0.02023345852159405,0
2025-04-21T15:54:33.166+03:00,1745240072.248771,40.95226103126694,29.14027780705777,76.23357,-1,-1,-1,-1,30,23.02324769301786,-9999,19385.55360625,-0.6676025390625,0.4910430908203125,-0.548065185546875,19385.54353025,2.380945574687074,-0.8849002375931129,-0.5135363872530456,0.009348735213279724,0.002549808472394943,-0.01353156380355358,0.007622361183166504,0.006053745746612549,0.004139244556427002,XArbitraryZVertical,-0.2993314793960494,0.3668316360792015,-0.851984239859738,-0.2235130683358397,-0.6740347146987915,0.4912605583667755,-0.5516704320907593,0,0,0,-1,-1,19369.710663875,unknown,2,2025-04-21T15:54:17.318+03:00,2025-04-20T21:57:49.637+03:00,6727,0.976288,0,0,5522.566,5,6,2025-04-21T15:44:52.413+03:00,766932872.8895561,0,-40.16,100.2136,1,0.4,2025-04-21T15:54:20.605+03:00,83,1.383333333333333,2025-04-21T12:30:07.995+03:00,0.02023345852159405,0
2025-04-21T15:54:33.176+03:00,1745240072.248771,40.95226103126694,29.14027780705777,76.23357,-1,-1,-1,-1,30,23.02324769301786,-9999,19385.56368125,-0.66912841796875,0.4860992431640625,-0.5471649169921875,19385.55360625,2.380872356044361,-0.8849255427578363,-0.5134196624919239,-0.00114651711191982,0.0001617521047592163,-0.01243966724723577,0.006978750228881836,0.0007843077182769775,0.003777027130126953,XArbitraryZVertical,-0.2993536803182558,0.3668004119729245,-0.8519756932557907,-0.2235669728195599,-0.6740930080413818,0.4911588728427887,-0.5516896843910217,0,0,0,-1,-1,19369.710663875,unknown,2,2025-04-21T15:54:17.318+03:00,2025-04-20T21:57:49.637+03:00,6727,0.976288,0,0,5522.566,5,6,2025-04-21T15:44:52.413+03:00,766932872.8895561,0,-40.16,100.2136,1,0.4,2025-04-21T15:54:20.605+03:00,83,1.383333333333333,2025-04-21T12:30:07.995+03:00,0.02023345852159405,0
2025-04-21T15:54:33.186+03:00,1745240072.248771,40.95226103126694,29.14027780705777,76.23357,-1,-1,-1,-1,30,23.02324769301786,-9999,19385.57375725,-0.6728515625,0.4830780029296875,-0.549041748046875,19385.56368125,2.380697920051935,-0.8850408226899638,-0.5133700099298467,-0.01059414818882942,-0.003417869564145803,-0.01649875938892365,0.005443811416625977,-0.002987116575241089,0.00453871488571167,XArbitraryZVertical,-0.2993813528082382,0.3668202634262031,-0.8519404166069672,-0.2236318126719988,-0.674175500869751,0.4911156296730042,-0.5516273975372314,0,0,0,-1,-1,19369.710663875,unknown,2,2025-04-21T15:54:17.318+03:00,2025-04-20T21:57:49.637+03:00,6727,0.976288,0,0,5522.566,5,6,2025-04-21T15:44:52.413+03:00,766932872.8895561,0,-40.16,100.2136,1,0.4,2025-04-21T15:54:20.605+03:00,83,1.383333333333333,2025-04-21T12:30:07.995+03:00,0.02023345852159405,0
2025-04-21T15:54:33.196+03:00,1745240072.248771,40.95226103126694,29.14027780705777,76.23357,-1,-1,-1,-1,30,23.02324769301786,-9999,19385.58383325,-0.676483154296875,0.487030029296875,-0.54840087890625,19385.57375725,2.380464140701719,-0.885155487046371,-0.5133203711134786,-0.01475294027477503,0.004006491042673588,-0.01374318543821573,0.003252387046813965,-0.007597833871841431,0.003134071826934814,XArbitraryZVertical,-0.2993979061179049,0.366848944570578,-0.8518985211261884,-0.2237219396094408,-0.6742575764656067,0.4910723865032196,-0.5515654683113098,0,0,0,-1,-1,19369.710663875,unknown,2,2025-04-21T15:54:17.318+03:00,2025-04-20T21:57:49.637+03:00,6727,0.976288,0,0,5522.566,5,6,2025-04-21T15:44:52.413+03:00,766932872.8895561,0,-40.16,100.2136,1,0.4,2025-04-21T15:54:20.605+03:00,83,1.383333333333333,2025-04-21T12:30:07.995+03:00,0.02023345852159405,0
2025-04-21T15:54:33.206+03:00,1745240072.248771,40.95226103126694,29.14027780705777,76.23357,-1,-1,-1,-1,30,23.02324769301786,-9999,19385.59390925,-0.6755523681640625,0.4890594482421875,-0.5482635498046875,19385.58383325,2.380197430495619,-0.8852368956899145,-0.513303800914111,-0.01698054186999798,0.00883360393345356,-0.01577151566743851,-0.001594483852386475,-0.006438970565795898,0.003374218940734863,XArbitraryZVertical,-0.2993871511248337,0.3668915881102597,-0.8518570452316152,-0.2238245969175839,-0.6743088364601135,0.491057962179184,-0.5515158176422119,0,0,0,-1,-1,19369.710663875,unknown,2,2025-04-21T15:54:17.318+03:00,2025-04-20T21:57:49.637+03:00,6727,0.976288,0,0,5522.566,5,6,2025-04-21T15:44:52.413+03:00,766932872.8895561,0,-40.16,100.2136,1,0.4,2025-04-21T15:54:20.605+03:00,83,1.383333333333333,2025-04-21T12:30:07.995+03:00,0.02023345852159405,0
2025-04-21T15:54:33.216+03:00,1745240072.248771,40.95226103126694,29.14027780705777,76.23357,-1,-1,-1,-1,30,23.02324769301786,-9999,19385.60398425,-0.6730499267578125,0.4864349365234375,-0.548858642578125,19385.59390925,2.3799016680045,-0.8853141154386672,-0.5133034153464624,-0.02071029879152775,0.008296177722513676,-0.01612704806029797,-0.00190269947052002,-0.001906812191009521,0.003474891185760498,XArbitraryZVertical,-0.299365902169867,0.3669443579615605,-0.851812313316986,-0.2239363739223968,-0.6743515133857727,0.4910576045513153,-0.551463782787323,0,0,0,-1,-1,19369.710663875,unknown,2,2025-04-21T15:54:17.318+03:00,2025-04-20T21:57:49.637+03:00,6727,0.976288,0,0,5522.566,5,6,2025-04-21T15:44:52.413+03:00,766932872.8895561,0,-40.16,100.2136,1,0.4,2025-04-21T15:54:20.605+03:00,83,1.383333333333333,2025-04-21T12:30:07.995+03:00,0.02023345852159405,0
2025-04-21T15:54:33.226+03:00,1745240072.248771,40.95226103126694,29.14027780705777,76.23357,-1,-1,-1,-1,30,23.02324769301786,-9999,19385.61406025,-0.6717681884765625,0.4889373779296875,-0.5479888916015625,19385.60398425,2.379587011396319,-0.8854257531687746,-0.5133121692228219,-0.01944982446730137,0.004566420800983906,-0.01610041595995426,0.0008105635643005371,-0.003943800926208496,0.002786517143249512,XArbitraryZVertical,-0.2993538026554985,0.3670073304127198,-0.8517601924862037,-0.2240479764588276,-0.674409806728363,0.4910652339458466,-0.5513858199119568,0,0,0,-1,-1,19369.710663875,unknown,2,2025-04-21T15:54:17.318+03:00,2025-04-20T21:57:49.637+03:00,6727,0.976288,0,0,5522.566,5,6,2025-04-21T15:44:52.413+03:00,766932872.8895561,0,-40.16,100.2136,1,0.4,2025-04-21T15:54:20.605+03:00,83,1.383333333333333,2025-04-21T12:30:07.995+03:00,0.02023345852159405,0
2025-04-21T15:54:33.237+03:00,1745240072.248771,40.95226103126694,29.14027780705777,76.23357,-1,-1,-1,-1,30,23.02324769301786,-9999,19385.62413625,-0.6668548583984375,0.49444580078125,-0.5471954345703125,19385.61406025,2.379319856641432,-0.8855473009932311,-0.5133045283909924,-0.01515334658324718,-0.004099239129573107,-0.01548975240439177,0.00223851203918457,-0.00308266282081604,0.00247800350189209,XArbitraryZVertical,-0.2993581809860718,0.3670579926169272,-0.8517122618732997,-0.2241411953467178,-0.6744797229766846,0.4910585880279541,-0.5513062477111816,0,0,0,-1,-1,19369.710663875,unknown,2,2025-04-21T15:54:17.318+03:00,2025-04-20T21:57:49.637+03:00,6727,0.976288,0,0,5522.566,5,6,2025-04-21T15:44:52.413+03:00,766932872.8895561,0,-40.16,100.2136,1,0.4,2025-04-21T15:54:20.605+03:00,83,1.383333333333333,2025-04-21T12:30:07.995+03:00,0.02023345852159405,0
2025-04-21T15:54:33.247+03:00,1745240072.248771,40.95226103126694,29.14027780705777,76.23357,-1,-1,-1,-1,30,23.02324769301786,-9999,19385.63421225,-0.6626434326171875,0.4957122802734375,-0.546356201171875,19385.62413625,2.379108762668,-0.8856740075373178,-0.5132831252984131,-0.01018195692449808,-0.003327388316392899,-0.01601809076964855,0.005200386047363281,0.0008575022220611572,0.004520177841186523,XArbitraryZVertical,-0.2993779530743196,0.3670955439001682,-0.8516702655700089,-0.224212867125507,-0.6745576858520508,0.4910399317741394,-0.5512273907661438,0,0,0,-1,-1,19369.710663875,unknown,2,2025-04-21T15:54:17.318+03:00,2025-04-20T21:57:49.637+03:00,6727,0.976288,0,0,5522.566,5,6,2025-04-21T15:44:52.413+03:00,766932872.8895561,0,-40.16,100.2136,1,0.4,2025-04-21T15:54:20.605+03:00,83,1.383333333333333,2025-04-21T12:30:07.995+03:00,0.02023345852159405,0
2025-04-21T15:54:33.257+03:00,1745240072.248771,40.95226103126694,29.14027780705777,76.23357,-1,-1,-1,-1,30,23.02324769301786,-9999,19385.64428825,-0.6618194580078125,0.4921417236328125,-0.544219970703125,19385.63421225,2.378907949289679,-0.8857963847233958,-0.513201446599709,-0.007939841598272324,-0.004284261725842953,-0.01774701476097107,0.0117533802986145,0.005368947982788086,0.004417240619659424,XArbitraryZVertical,-0.2994106032009211,0.3671078515547679,-0.851631834913684,-0.2242951313428946,-0.6746562123298645,0.4909687936306,-0.5511702299118042,0,0,0,-1,-1,19369.710663875,unknown,2,2025-04-21T15:54:17.318+03:00,2025-04-20T21:57:49.637+03:00,6727,0.976288,0,0,5522.566,5,6,2025-04-21T15:44:52.413+03:00,766932872.8895561,0,-40.16,100.2136,1,0.4,2025-04-21T15:54:20.605+03:00,83,1.383333333333333,2025-04-21T12:30:07.995+03:00,0.02023345852159405,0
2025-04-21T15:54:33.267+03:00,1745240072.248771,40.95226103126694,29.14027780705777,76.23357,-1,-1,-1,-1,30,23.02324769301786,-9999,19385.65436325,-0.6664581298828125,0.4907989501953125,-0.5421905517578125,19385.64428825,2.378674437836164,-0.88599669599621,-0.5131329543429116,-0.01578657887876034,-0.01210410241037607,-0.01620717532932758,0.01285111904144287,0.002758324146270752,0.005493581295013428,XArbitraryZVertical,-0.2994676135139024,0.3671388890822981,-0.8515776862408925,-0.2243739390237913,-0.6747926473617554,0.4909091293811798,-0.5510563850402832,0,0,0,-1,-1,19369.710663875,unknown,2,2025-04-21T15:54:17.318+03:00,2025-04-20T21:57:49.637+03:00,6727,0.976288,0,0,5522.566,5,6,2025-04-21T15:44:52.413+03:00,766932872.8895561,0,-40.16,100.2136,1,0.4,2025-04-21T15:54:20.605+03:00,83,1.383333333333333,2025-04-21T12:30:07.995+03:00,0.02023345852159405,0
2025-04-21T15:54:33.277+03:00,1745240072.248771,40.95226103126694,29.14027780705777,76.23357,-1,-1,-1,-1,30,23.02324769301786,-9999,19385.66443925,-0.67523193359375,0.485595703125,-0.5478363037109375,19385.65436325,2.378384943616961,-0.8862139818789091,-0.5130940087122521,-0.0179195050150156,-0.005962586030364037,-0.02006289921700954,0.01081889867782593,0.0006407797336578369,0.009112715721130371,XArbitraryZVertical,-0.2995152877208198,0.367191616974034,-0.8515137937716104,-0.2244664531005233,-0.6749271750450134,0.4908751845359802,-0.5509217977523804,0,0,0,-1,-1,19369.710663875,unknown,2,2025-04-21T15:54:17.318+03:00,2025-04-20T21:57:49.637+03:00,6727,0.976288,0,0,5522.566,5,6,2025-04-21T15:44:52.413+03:00,766932872.8895561,0,-40.16,100.2136,1,0.4,2025-04-21T15:54:20.605+03:00,83,1.383333333333333,2025-04-21T12:30:07.995+03:00,0.02023345852159405,0
2025-04-21T15:54:33.287+03:00,1745240072.248771,40.95226103126694,29.14027780705777,76.23357,-1,-1,-1,-1,30,23.02324769301786,-9999,19385.67451525,-0.67449951171875,0.4853668212890625,-0.5515899658203125,19385.66443925,2.378030415832448,-0.8864171208934976,-0.5130712322545397,-0.02740228921175003,0.0001045609824359417,-0.01999741978943348,0.003325343132019043,-0.003459274768829346,0.005351006984710693,XArbitraryZVertical,-0.2995415458043584,0.3672587444947488,-0.8514442091464441,-0.2245854089469449,-0.675047755241394,0.49085533618927,-0.5507917404174805,0,0,0,-1,-1,19369.710663875,unknown,2,2025-04-21T15:54:17.318+03:00,2025-04-20T21:57:49.637+03:00,6727,0.976288,0,0,5522.566,5,6,2025-04-21T15:44:52.413+03:00,766932872.8895561,0,-40.16,100.2136,1,0.4,2025-04-21T15:54:20.605+03:00,83,1.383333333333333,2025-04-21T12:30:07.995+03:00,0.02023345852159405,0
2025-04-21T15:54:33.297+03:00,1745240072.248771,40.95226103126694,29.14027780705777,76.23357,-1,-1,-1,-1,30,23.02324769301786,-9999,19385.68459125,-0.6651763916015625,0.488189697265625,-0.5492401123046875,19385.67451525,2.37759698673231,-0.8866503841183689,-0.5131045438576889,-0.03407830372452736,-0.005010839086025953,-0.02009995095431805,-0.0006787776947021484,-0.006173849105834961,-0.0009202957153320312,XArbitraryZVertical,-0.2995541754802825,0.3673626942595187,-0.851359549250456,-0.2247191377265801,-0.6751634478569031,0.4908843636512756,-0.550623893737793,0,0,0,-1,-1,19369.710663875,unknown,2,2025-04-21T15:54:17.318+03:00,2025-04-20T21:57:49.637+03:00,6727,0.976288,0,0,5522.566,5,6,2025-04-21T15:44:52.413+03:00,766932872.8895561,0,-40.16,100.2136,1,0.4,2025-04-21T15:54:20.605+03:00,83,1.383333333333333,2025-04-21T12:30:07.995+03:00,0.02023345852159405,0
2025-04-21T15:54:33.307+03:00,1745240072.248771,40.95226103126694,29.14027780705777,76.23357,-1,-1,-1,-1,30,23.02324769301786,-9999,19385.69466625,-0.6631622314453125,0.489349365234375,-0.54803466796875,19385.68459125,2.377142052545425,-0.8869937451161163,-0.5131776127751848,-0.03875221312046051,-0.01700764708220959,-0.0207723006606102,0.006654083728790283,-0.003094196319580078,-0.0002593398094177246,XArbitraryZVertical,-0.2996011621731269,0.3674975640080576,-0.8512548606601935,-0.2248324949916913,-0.6753246784210205,0.4909480214118958,-0.5503693819046021,0,0,0,-1,-1,19369.710663875,unknown,2,2025-04-21T15:54:17.318+03:00,2025-04-20T21:57:49.637+03:00,6727,0.976288,0,0,5522.566,5,6,2025-04-21T15:44:52.413+03:00,766932872.8895561,0,-40.16,100.2136,1,0.4,2025-04-21T15:54:20.605+03:00,83,1.383333333333333,2025-04-21T12:30:07.995+03:00,0.02023345852159405,0
2025-04-21T15:54:33.317+03:00,1745240072.248771,40.95226103126694,29.14027780705777,76.23357,-1,-1,-1,-1,30,23.02324769301786,-9999,19385.70474225,-0.6651153564453125,0.494354248046875,-0.5482177734375,19385.69466625,2.376661475771063,-0.8873911068193202,-0.5132619233495632,-0.03616229072213173,-0.01592587120831013,-0.02064446918666363,0.01279151439666748,-0.001946926116943359,0.00191807746887207,XArbitraryZVertical,-0.2996639395949656,0.3676466983649608,-0.8511388830564095,-0.224944199504451,-0.6755112409591675,0.4910214841365814,-0.5500748753547668,0,0,0,-1,-1,19369.710663875,unknown,2,2025-04-21T15:54:17.318+03:00,2025-04-20T21:57:49.637+03:00,6727,0.976288,0,0,5522.566,5,6,2025-04-21T15:44:52.413+03:00,766932872.8895561,0,-40.16,100.2136,1,0.4,2025-04-21T15:54:20.605+03:00,83,1.383333333333333,2025-04-21T12:30:07.995+03:00,0.02023345852159405,0
2025-04-21T15:54:33.327+03:00,1745240072.248771,40.95226103126694,29.14027780705777,76.23357,-1,-1,-1,-1,30,23.02324769301786,-9999,19385.71481825,-0.6662445068359375,0.5002288818359375,-0.547210693359375,19385.70474225,2.376211264143198,-0.8877757236767062,-0.5132946089703896,-0.02840556763112545,-0.01544330641627312,-0.02407102473080158,0.01123589277267456,0.0008474588394165039,0.002594172954559326,XArbitraryZVertical,-0.2997378498717867,0.3677700112944806,-0.8510296671808489,-0.2250573902491728,-0.6757103204727173,0.4910499453544617,-0.5498048663139343,0,0,0,-1,-1,19369.710663875,unknown,2,2025-04-21T15:54:17.318+03:00,2025-04-20T21:57:49.637+03:00,6727,0.976288,0,0,5522.566,5,6,2025-04-21T15:44:52.413+03:00,766932872.8895561,0,-40.16,100.2136,1,0.4,2025-04-21T15:54:20.605+03:00,83,1.383333333333333,2025-04-21T12:30:07.995+03:00,0.02023345852159405,0
2025-04-21T15:54:33.354+03:00,1745240072.248771,40.95226103126694,29.14027780705777,76.23357,-1,-1,-1,-1,30,23.02324769301786,-9999,19385.72489425,-0.6703338623046875,0.502593994140625,-0.543975830078125,19385.71481825,2.375820617799373,-0.8881319681058466,-0.5132770891899497,-0.02342013083398342,-0.01822950504720211,-0.02512829937040806,0.009851455688476562,0.006447464227676392,0.001748442649841309,XArbitraryZVertical,-0.2998213255972488,0.3678619210100814,-0.8509328112787677,-0.2251622277579381,-0.6759127974510193,0.4910346865653992,-0.5495695471763611,0,0,0,-1,-1,19369.710663875,unknown,2,2025-04-21T15:54:17.318+03:00,2025-04-20T21:57:49.637+03:00,6727,0.976288,0,0,5522.566,5,6,2025-04-21T15:44:52.413+03:00,766932872.8895561,0,-40.16,100.2136,1,0.4,2025-04-21T15:54:20.605+03:00,83,1.383333333333333,2025-04-21T12:30:07.995+03:00,0.02023345852159405,0
2025-04-21T15:54:33.357+03:00,1745240072.248771,40.95226103126694,29.14027780705777,76.23357,-1,-1,-1,-1,30,23.02324769301786,-9999,19385.73496925,-0.6743011474609375,0.4952392578125,-0.5455780029296875,19385.72489425,2.37547758873936,-0.8884506187188518,-0.5132364334661597,-0.02116469852626324,-0.01588592305779457,-0.02438247948884964,0.007997334003448486,0.0115792453289032,0.004673659801483154,XArbitraryZVertical,-0.2999025067529923,0.3679335947506047,-0.8508475319129547,-0.2252590661649538,-0.6761033535003662,0.4909992516040802,-0.5493667125701904,0,0,0,-1,-1,19369.710663875,unknown,2,2025-04-21T15:54:17.318+03:00,2025-04-20T21:57:49.637+03:00,6727,0.976288,0,0,5522.566,5,6,2025-04-21T15:44:52.413+03:00,766932872.8895561,0,-40.16,100.2136,1,0.4,2025-04-21T15:54:20.605+03:00,83,1.383333333333333,2025-04-21T12:30:07.995+03:00,0.02023345852159405,0
2025-04-21T15:54:33.359+03:00,1745240072.248771,40.95226103126694,29.14027780705777,76.23357,-1,-1,-1,-1,30,23.02324769301786,-9999,19385.74504525,-0.6750030517578125,0.488861083984375,-0.5499267578125,19385.73496925,2.375074004745677,-0.8887837369620627,-0.5131928398728629,-0.02464971132576466,-0.01330771669745445,-0.02701794356107712,0.00259697437286377,0.007772058248519897,0.004645049571990967,XArbitraryZVertical,-0.2999792874024531,0.3680148828488679,-0.850753343198081,-0.2253797215680926,-0.676302969455719,0.4909612834453583,-0.5491549372673035,0,0,0,-1,-1,19369.710663875,unknown,2,2025-04-21T15:54:17.318+03:00,2025-04-20T21:57:49.637+03:00,6727,0.976288,0,0,5522.566,5,6,2025-04-21T15:44:52.413+03:00,766932872.8895561,0,-40.16,100.2136,1,0.4,2025-04-21T15:54:20.605+03:00,83,1.383333333333333,2025-04-21T12:30:07.995+03:00,0.02023345852159405,0
2025-04-21T15:54:33.368+03:00,1745240072.248771,40.95226103126694,29.14027780705777,76.23357,-1,-1,-1,-1,30,23.02324769301786,-9999,19385.75512125,-0.6700286865234375,0.4896240234375,-0.5501708984375,19385.74504525,2.374633522529994,-0.8891503928580931,-0.5131366221008763,-0.02437201142311096,-0.01502765342593193,-0.02767138555645943,0.001736283302307129,-0.0005408227443695068,0.001026928424835205,XArbitraryZVertical,-0.300066216591406,0.3681006734968955,-0.8506502748164942,-0.2255128368193531,-0.6765256524085999,0.4909123182296753,-0.5489243268966675,0,0,0,-1,-1,19369.710663875,unknown,2,2025-04-21T15:54:17.318+03:00,2025-04-20T21:57:49.637+03:00,6727,0.976288,0,0,5522.566,5,6,2025-04-21T15:44:52.413+03:00,766932872.8895561,0,-40.16,100.2136,1,0.4,2025-04-21T15:54:20.605+03:00,83,1.383333333333333,2025-04-21T12:30:07.995+03:00,0.02023345852159405,0
2025-04-21T15:54:33.377+03:00,1745240072.248771,40.95226103126694,29.14027780705777,76.23357,-1,-1,-1,-1,30,23.02324769301786,-9999,19385.76519725,-0.6677093505859375,0.4923095703125,-0.5485382080078125,19385.75512125,2.37419757019241,-0.8895333177255383,-0.5130708217338026,-0.0294695682823658,-0.02092309296131134,-0.02704207971692085,0.004550278186798096,-0.002970576286315918,-0.001683712005615234,XArbitraryZVertical,-0.3001628332666194,0.3681839801217434,-0.8505456545413392,-0.2256435007662481,-0.6767610311508179,0.4908549785614014,-0.5486856698989868,0,0,0,-1,-1,19369.710663875,unknown,2,2025-04-21T15:54:17.318+03:00,2025-04-20T21:57:49.637+03:00,6727,0.976288,0,0,5522.566,5,6,2025-04-21T15:44:52.413+03:00,766932872.8895561,0,-40.16,100.2136,1,0.4,2025-04-21T15:54:20.605+03:00,83,1.383333333333333,2025-04-21T12:30:07.995+03:00,0.02023345852159405,0
2025-04-21T15:54:33.388+03:00,1745240072.248771,40.95226103126694,29.14027780705777,76.23357,-1,-1,-1,-1,30,23.02324769301786,-9999,19385.77527225,-0.6672210693359375,0.4918212890625,-0.5469512939453125,19385.76519725,2.373738740711191,-0.8899699766803182,-0.5130547261310187,-0.0299911480396986,-0.02427481487393379,-0.02663135342299938,0.008854806423187256,0.0009191334247589111,-0.0009062290191650391,XArbitraryZVertical,-0.3002675077411445,0.3682959461602981,-0.8504287425939404,-0.225761950229243,-0.6770066618919373,0.4908409714698792,-0.548395037651062,0,0,0,-1,-1,19369.710663875,unknown,2,2025-04-21T15:54:17.318+03:00,2025-04-20T21:57:49.637+03:00,6727,0.976288,0,0,5522.566,5,6,2025-04-21T15:44:52.413+03:00,766932872.8895561,0,-40.16,100.2136,1,0.4,2025-04-21T15:54:20.605+03:00,83,1.383333333333333,2025-04-21T12:30:07.995+03:00,0.02023345852159405,0
2025-04-21T15:54:33.398+03:00,1745240072.248771,40.95226103126694,29.14027780705777,76.23357,-1,-1,-1,-1,30,23.02324769301786,-9999,19385.78534825,-0.6716156005859375,0.4932708740234375,-0.5443572998046875,19385.77527225,2.37326576352709,-0.8904087953429219,-0.5130146927836851,-0.02757699228823185,-0.02213682793080807,-0.03080532513558865,0.01020926237106323,0.001655876636505127,0.00146406888961792,XArbitraryZVertical,-0.300375591569128,0.3684011362566091,-0.8503104938953823,-0.2258915620189853,-0.6772624254226685,0.4908060729503632,-0.5481101870536804,0,0,0,-1,-1,19369.710663875,unknown,2,2025-04-21T15:54:17.318+03:00,2025-04-20T21:57:49.637+03:00,6727,0.976288,0,0,5522.566,5,6,2025-04-21T15:44:52.413+03:00,766932872.8895561,0,-40.16,100.2136,1,0.4,2025-04-21T15:54:20.605+03:00,83,1.383333333333333,2025-04-21T12:30:07.995+03:00,0.02023345852159405,0
2025-04-21T15:54:33.408+03:00,1745240072.248771,40.95226103126694,29.14027780705777,76.23357,-1,-1,-1,-1,30,23.02324769301786,-9999,19385.79542425,-0.6739959716796875,0.496551513671875,-0.5417022705078125,19385.78534825,2.372727523327961,-0.8908341419109002,-0.5128727169280356,-0.02939619868993759,-0.01780945807695389,-0.04205864667892456,0.00807034969329834,0.001443922519683838,0.002760887145996094,XArbitraryZVertical,-0.3004876822714804,0.3684755073407786,-0.8501897688346154,-0.2260755495409976,-0.6775497198104858,0.4906823635101318,-0.5478659272193909,0,0,0,-1,-1,19369.710663875,unknown,2,2025-04-21T15:54:17.318+03:00,2025-04-20T21:57:49.637+03:00,6727,0.976288,0,0,5522.566,5,6,2025-04-21T15:44:52.413+03:00,766932872.8895561,0,-40.16,100.2136,1,0.4,2025-04-21T15:54:20.605+03:00,83,1.383333333333333,2025-04-21T12:30:07.995+03:00,0.02023345852159405,0
2025-04-21T15:54:33.418+03:00,1745240072.248771,40.95226103126694,29.14027780705777,76.23357,-1,-1,-1,-1,30,23.02324769301786,-9999,19385.80550025,-0.6741943359375,0.4956512451171875,-0.5416717529296875,19385.79542425,2.372275120781527,-0.8912175086531728,-0.5128552941922185,-0.03001272119581699,-0.01696523651480675,-0.0250847227871418,0.004258692264556885,0.004266738891601562,0.005130946636199951,XArbitraryZVertical,-0.3005710065690042,0.3685801426182445,-0.8500815074274355,-0.2262013429072321,-0.6777663826942444,0.4906671941280365,-0.5476114749908447,0,0,0,-1,-1,19369.710663875,unknown,2,2025-04-21T15:54:17.318+03:00,2025-04-20T21:57:49.637+03:00,6727,0.976288,0,0,5522.566,5,6,2025-04-21T15:44:52.413+03:00,766932872.8895561,0,-40.16,100.2136,1,0.4,2025-04-21T15:54:20.605+03:00,83,1.383333333333333,2025-04-21T12:30:07.995+03:00,0.02023345852159405,0
2025-04-21T15:54:33.428+03:00,1745240072.248771,40.95226103126694,29.14027780705777,76.23357,-1,-1,-1,-1,30,23.02324769301786,-9999,19385.81557625,-0.679168701171875,0.495697021484375,-0.542724609375,19385.80550025,2.371798264302768,-0.8915962237754184,-0.5128332476218805,-0.02511729672551155,-0.01460620854049921,-0.03345583751797676,0.004779636859893799,0.006406873464584351,0.006040751934051514,XArbitraryZVertical,-0.3006488121846911,0.3686861977390796,-0.8499712277718151,-0.2263393855017986,-0.6779820919036865,0.4906479716300964,-0.5473615527153015,0,0,0,-1,-1,19369.710663875,unknown,2,2025-04-21T15:54:17.318+03:00,2025-04-20T21:57:49.637+03:00,6727,0.976288,0,0,5522.566,5,6,2025-04-21T15:44:52.413+03:00,766932872.8895561,0,-40.16,100.2136,1,0.4,2025-04-21T15:54:20.605+03:00,83,1.383333333333333,2025-04-21T12:30:07.995+03:00,0.02023345852159405,0
2025-04-21T15:54:33.438+03:00,1745240072.248771,40.95226103126694,29.14027780705777,76.23357,-1,-1,-1,-1,30,23.02324769301786,-9999,19385.82565125,-0.6762542724609375,0.49774169921875,-0.5438232421875,19385.81557625,2.371319732376077,-0.891956411183715,-0.5127471864140251,-0.02633329480886459,-0.01314280088990927,-0.03592805191874504,0.0006150603294372559,0.004757672548294067,0.003976702690124512,XArbitraryZVertical,-0.300732099640531,0.368765880649516,-0.8498653216883384,-0.2264967294095754,-0.6782121062278748,0.490572988986969,-0.5471438765525818,0,0,0,-1,-1,19369.710663875,unknown,2,2025-04-21T15:54:17.318+03:00,2025-04-20T21:57:49.637+03:00,6727,0.976288,0,0,5522.566,5,6,2025-04-21T15:44:52.413+03:00,766932872.8895561,0,-40.16,100.2136,1,0.4,2025-04-21T15:54:20.605+03:00,83,1.383333333333333,2025-04-21T12:30:07.995+03:00,0.02023345852159405,0
2025-04-21T15:54:33.448+03:00,1745240072.248771,40.95226103126694,29.14027780705777,76.23357,-1,-1,-1,-1,30,23.02324769301786,-9999,19385.83572725,-0.6710205078125,0.4959259033203125,-0.5446319580078125,19385.82565125,2.370842014762942,-0.8923369565026832,-0.512624155239286,-0.02356560714542866,-0.016614630818367,-0.0372927188873291,0.0004734992980957031,0.007504642009735107,0.003588557243347168,XArbitraryZVertical,-0.300832094850206,0.3688336164682846,-0.8497573990397209,-0.2266586761595928,-0.6784672737121582,0.4904657900333405,-0.5469236373901367,0,0,0,-1,-1,19369.710663875,unknown,2,2025-04-21T15:54:17.318+03:00,2025-04-20T21:57:49.637+03:00,6727,0.976288,0,0,5522.566,5,6,2025-04-21T15:44:52.413+03:00,766932872.8895561,0,-40.16,100.2136,1,0.4,2025-04-21T15:54:20.605+03:00,83,1.383333333333333,2025-04-21T12:30:07.995+03:00,0.02023345852159405,0
2025-04-21T15:54:33.458+03:00,1745240072.248771,40.95226103126694,29.14027780705777,76.23357,-1,-1,-1,-1,30,23.02324769301786,-9999,19385.84580325,-0.669342041015625,0.4932098388671875,-0.5449371337890625,19385.83572725,2.37034780111697,-0.8927568579002229,-0.5124782428060473,-0.02909539453685284,-0.02123335190117359,-0.04070449620485306,0.005748450756072998,0.006487399339675903,0.002448320388793945,XArbitraryZVertical,-0.3009506739968778,0.3688995851099837,-0.8496422020092623,-0.2268256978158866,-0.678752601146698,0.4903386235237122,-0.5466835498809814,0,0,0,-1,-1,19369.710663875,unknown,2,2025-04-21T15:54:17.318+03:00,2025-04-20T21:57:49.637+03:00,6727,0.976288,0,0,5522.566,5,6,2025-04-21T15:44:52.413+03:00,766932872.8895561,0,-40.16,100.2136,1,0.4,2025-04-21T15:54:20.605+03:00,83,1.383333333333333,2025-04-21T12:30:07.995+03:00,0.02023345852159405,0
