loggingTime(txt),locationTimestamp_since1970(s),locationLatitude(WGS84),locationLongitude(WGS84),locationAltitude(m),locationSpeed(m/s),locationSpeedAccuracy(m/s),locationCourse(°),locationCourseAccuracy(°),locationVerticalAccuracy(m),locationHorizontalAccuracy(m),locationFloor(Z),accelerometerTimestamp_sinceReboot(s),accelerometerAccelerationX(G),accelerometerAccelerationY(G),accelerometerAccelerationZ(G),motionTimestamp_sinceReboot(s),motionYaw(rad),motionRoll(rad),motionPitch(rad),motionRotationRateX(rad/s),motionRotationRateY(rad/s),motionRotationRateZ(rad/s),motionUserAccelerationX(G),motionUserAccelerationY(G),motionUserAccelerationZ(G),motionAttitudeReferenceFrame(txt),motionQuaternionX(R),motionQuaternionY(R),motionQuaternionZ(R),motionQuaternionW(R),motionGravityX(G),motionGravityY(G),motionGravityZ(G),motionMagneticFieldX(µT),motionMagneticFieldY(µT),motionMagneticFieldZ(µT),motionHeading(°),motionMagneticFieldCalibrationAccuracy(Z),activityTimestamp_sinceReboot(s),activity(txt),activityActivityConfidence(Z),activityActivityStartDate(txt),pedometerStartDate(txt),pedometerNumberofSteps(N),pedometerAverageActivePace(s/m),pedometerCurrentPace(s/m),pedometerCurrentCadence(steps/s),pedometerDistance(m),pedometerFloorAscended(N),pedometerFloorDescended(N),pedometerEndDate(txt),altimeterTimestamp_sinceReboot(s),altimeterReset(bool),altimeterRelativeAltitude(m),altimeterPressure(kPa),batteryState(N),batteryLevel(R),heartRateBPMTimestamp(txt),heartRateBPM(N),heartRateBPS(R),heartRateVariabilityTimestamp(txt),heartRateVariability(ms),label
2025-04-18T12:08:25.496+03:00,1744967304.970806,40.95359319739049,29.1409997789972,93.61648,-1,-1,-1,-1,30,23.79642844582683,-9999,65622.09591166666,-0.7321624755859375,0.739990234375,-0.159576416015625,65622.08960566667,1.519991242845264,-1.374596856177979,-0.7704937178085993,-0.01111588254570961,0.02642691321671009,-0.001486551249399781,-0.006801724433898926,-0.01707673072814941,0.002830386161804199,XArbitraryZVertical,0.1945051380693207,-0.6262789903952116,0.6662939038192909,0.3549575838971739,-0.7038001418113708,0.6964895725250244,-0.1398847550153732,0,0,0,-1,-1,65617.57966775,unknown,2,2025-04-18T12:08:20.955+03:00,2025-04-17T15:44:39.500+03:00,7557,1.143429,0,0,6228.047,4,10,2025-04-18T12:06:19.732+03:00,766660103.6307706,0,108.13,100.5586,1,0.5,2025-04-18T12:08:20.795+03:00,108,1.8,2025-04-18T08:51:18.885+03:00,0.03057091307199995,1
2025-04-18T12:08:25.498+03:00,1744967304.970806,40.95359319739049,29.1409997789972,93.61648,-1,-1,-1,-1,30,23.79642844582683,-9999,65622.10598666668,-0.701416015625,0.721282958984375,-0.1600799560546875,65622.09968166667,1.519896702880313,-1.374551987640708,-0.7704354163812125,-0.002419329481199384,-0.0003876565024256706,-0.01399994548410177,-0.02954941987991333,0.03527230024337769,-0.01676811277866364,XArbitraryZVertical,0.1944804215872592,-0.6262708822068295,0.6662749174394089,0.3550213354461793,-0.7038338780403137,0.6964477896690369,-0.1399243026971817,0,0,0,-1,-1,65617.57966775,unknown,2,2025-04-18T12:08:20.955+03:00,2025-04-17T15:44:39.500+03:00,7557,1.143429,0,0,6228.047,4,10,2025-04-18T12:06:19.732+03:00,766660103.6307706,0,108.13,100.5586,1,0.5,2025-04-18T12:08:20.795+03:00,108,1.8,2025-04-18T08:51:18.885+03:00,0.03057091307199995,1
2025-04-18T12:08:25.499+03:00,1744967304.970806,40.95359319739049,29.1409997789972,93.61648,-1,-1,-1,-1,30,23.79642844582683,-9999,65622.11606266667,-0.6969451904296875,0.68603515625,-0.1560821533203125,65622.10975666667,1.519811665808599,-1.374604312523574,-0.7703605606168195,-0.001875645248219371,0.0003493735566735268,-0.018679054453969,-0.005656898021697998,0.03546327352523804,-0.02155560255050659,XArbitraryZVertical,0.1944969061304121,-0.626276427985659,0.6662462461675498,0.3550560198610317,-0.7038921117782593,0.6963940262794495,-0.1398975849151611,0,0,0,-1,-1,65617.57966775,unknown,2,2025-04-18T12:08:20.955+03:00,2025-04-17T15:44:39.500+03:00,7557,1.143429,0,0,6228.047,4,10,2025-04-18T12:06:19.732+03:00,766660103.6307706,0,108.13,100.5586,1,0.5,2025-04-18T12:08:20.795+03:00,108,1.8,2025-04-18T08:51:18.885+03:00,0.03057091307199995,1
2025-04-18T12:08:25.505+03:00,1744967304.970806,40.95359319739049,29.1409997789972,93.61648,-1,-1,-1,-1,30,23.79642844582683,-9999,65622.12613766667,-0.7068634033203125,0.6963653564453125,-0.1612701416015625,65622.11983166667,1.520035609183654,-1.374429090005412,-0.7702028652466015,0.03892531618475914,-3.465451300144196e-05,-0.01209305599331856,0.009456217288970947,-0.006034255027770996,-0.01588714122772217,XArbitraryZVertical,0.1945625216967218,-0.6261982515155724,0.6662852229742008,0.3550848813079492,-0.7039753198623657,0.696280837059021,-0.1400423496961594,0,0,0,-1,-1,65617.57966775,unknown,2,2025-04-18T12:08:20.955+03:00,2025-04-17T15:44:39.500+03:00,7557,1.143429,0,0,6228.047,4,10,2025-04-18T12:06:19.732+03:00,766660103.6307706,0,108.13,100.5586,1,0.5,2025-04-18T12:08:20.795+03:00,108,1.8,2025-04-18T08:51:18.885+03:00,0.03057091307199995,1
2025-04-18T12:08:25.516+03:00,1744967304.970806,40.95359319739049,29.1409997789972,93.61648,-1,-1,-1,-1,30,23.79642844582683,-9999,65622.13621266666,-0.697509765625,0.704193115234375,-0.1636962890625,65622.12990766668,1.520782779147079,-1.373952394006674,-0.7699944233765007,0.06928528845310211,-0.009869508445262909,-0.007910462096333504,-0.001897156238555908,-0.004587650299072266,-0.01878857612609863,XArbitraryZVertical,0.194708843642465,-0.6260074461518487,0.6664407108649896,0.3550492549667972,-0.7040507793426514,0.6961312294006348,-0.1404062807559967,0,0,0,-1,-1,65617.57966775,unknown,2,2025-04-18T12:08:20.955+03:00,2025-04-17T15:44:39.500+03:00,7557,1.143429,0,0,6228.047,4,10,2025-04-18T12:06:19.732+03:00,766660103.6307706,0,108.13,100.5586,1,0.5,2025-04-18T12:08:20.795+03:00,108,1.8,2025-04-18T08:51:18.885+03:00,0.03057091307199995,1
2025-04-18T12:08:25.526+03:00,1744967304.970806,40.95359319739049,29.1409997789972,93.61648,-1,-1,-1,-1,30,23.79642844582683,-9999,65622.14628866667,-0.694488525390625,0.6870269775390625,-0.1523895263671875,65622.13998266667,1.521643009386493,-1.373445072987954,-0.7697978840098653,0.05221894755959511,-0.008104365319013596,-0.005294971633702517,0.003765642642974854,0.009423732757568359,-0.02455389499664307,XArbitraryZVertical,0.1948761328124811,-0.6258020112822922,0.6666206518824055,0.3549818139354037,-0.7041136026382446,0.6959901452064514,-0.140790268778801,0,0,0,-1,-1,65617.57966775,unknown,2,2025-04-18T12:08:20.955+03:00,2025-04-17T15:44:39.500+03:00,7557,1.143429,0,0,6228.047,4,10,2025-04-18T12:06:19.732+03:00,766660103.6307706,0,108.13,100.5586,1,0.5,2025-04-18T12:08:20.795+03:00,108,1.8,2025-04-18T08:51:18.885+03:00,0.03057091307199995,1
2025-04-18T12:08:25.535+03:00,1744967304.970806,40.95359319739049,29.1409997789972,93.61648,-1,-1,-1,-1,30,23.79642844582683,-9999,65622.15636366667,-0.6966400146484375,0.6747894287109375,-0.1388702392578125,65622.15005766667,1.522166661358272,-1.373174376411703,-0.7696872542741043,0.02490297146141529,-0.01058316975831985,-0.000759574759285897,0.009525001049041748,-0.00398564338684082,-0.014979287981987,XArbitraryZVertical,0.1949875565358915,-0.6256851190593516,0.6667275035577255,0.3549259148974865,-0.7041508555412292,0.6959106922149658,-0.1409959644079208,0,0,0,-1,-1,65617.57966775,unknown,2,2025-04-18T12:08:20.955+03:00,2025-04-17T15:44:39.500+03:00,7557,1.143429,0,0,6228.047,4,10,2025-04-18T12:06:19.732+03:00,766660103.6307706,0,108.13,100.5586,1,0.5,2025-04-18T12:08:20.795+03:00,108,1.8,2025-04-18T08:51:18.885+03:00,0.03057091307199995,1
2025-04-18T12:08:25.545+03:00,1744967304.970806,40.95359319739049,29.1409997789972,93.61648,-1,-1,-1,-1,30,23.79642844582683,-9999,65622.16643866667,-0.697784423828125,0.6816253662109375,-0.1349334716796875,65622.16013366666,1.522374773934899,-1.373179396122437,-0.7696480817979224,0.005937536712735891,-0.01788582280278206,0.002461518393829465,0.007446825504302979,-0.02031487226486206,-0.0002374649047851562,XArbitraryZVertical,0.1950676516876036,-0.6256594134591931,0.6667595488810442,0.3548672105578982,-0.7041784524917603,0.6958825588226318,-0.1409978121519089,0,0,0,-1,-1,65617.57966775,unknown,2,2025-04-18T12:08:20.955+03:00,2025-04-17T15:44:39.500+03:00,7557,1.143429,0,0,6228.047,4,10,2025-04-18T12:06:19.732+03:00,766660103.6307706,0,108.13,100.5586,1,0.5,2025-04-18T12:08:20.795+03:00,108,1.8,2025-04-18T08:51:18.885+03:00,0.03057091307199995,1
2025-04-18T12:08:25.555+03:00,1744967304.970806,40.95359319739049,29.1409997789972,93.61648,-1,-1,-1,-1,30,23.79642844582683,-9999,65622.17651366667,-0.700775146484375,0.6808013916015625,-0.1336212158203125,65622.17020866668,1.522313978844675,-1.373354287437663,-0.7696513856110658,-0.01389036327600479,-0.009418169036507607,0.00110643554944545,0.006904661655426025,-0.0162736177444458,0.00626121461391449,XArbitraryZVertical,0.1951057947426398,-0.6256969072639428,0.6667320779965527,0.3548317880388157,-0.7042008638381958,0.6958849430084229,-0.1408742219209671,0,0,0,-1,-1,65617.57966775,unknown,2,2025-04-18T12:08:20.955+03:00,2025-04-17T15:44:39.500+03:00,7557,1.143429,0,0,6228.047,4,10,2025-04-18T12:06:19.732+03:00,766660103.6307706,0,108.13,100.5586,1,0.5,2025-04-18T12:08:20.795+03:00,108,1.8,2025-04-18T08:51:18.885+03:00,0.03057091307199995,1
2025-04-18T12:08:25.565+03:00,1744967304.970806,40.95359319739049,29.1409997789972,93.61648,-1,-1,-1,-1,30,23.79642844582683,-9999,65622.18658966667,-0.7066192626953125,0.676025390625,-0.1311187744140625,65622.18028366668,1.521958832973865,-1.373668209088317,-0.7697625433442778,-0.03988867625594139,-0.009025618433952332,0.008632795885205269,0.004813015460968018,-0.01334750652313232,0.006681144237518311,XArbitraryZVertical,0.1950613858511149,-0.6258051339480355,0.6666509638231507,0.3548176500532492,-0.7041691541671753,0.6959647536277771,-0.1406379789113998,0,0,0,-1,-1,65617.57966775,unknown,2,2025-04-18T12:08:20.955+03:00,2025-04-17T15:44:39.500+03:00,7557,1.143429,0,0,6228.047,4,10,2025-04-18T12:06:19.732+03:00,766660103.6307706,0,108.13,100.5586,1,0.5,2025-04-18T12:08:20.795+03:00,108,1.8,2025-04-18T08:51:18.885+03:00,0.03057091307199995,1
2025-04-18T12:08:25.575+03:00,1744967304.970806,40.95359319739049,29.1409997789972,93.61648,-1,-1,-1,-1,30,23.79642844582683,-9999,65622.19666466667,-0.7072296142578125,0.682647705078125,-0.130859375,65622.19035866667,1.521478792914755,-1.37401995098597,-0.7699994399994796,-0.04033994674682617,-0.006020108703523874,0.009715170599520206,-0.001570641994476318,-0.02047562599182129,0.008827388286590576,XArbitraryZVertical,0.1949474590743446,-0.6259524426936183,0.6665582181781938,0.3547947067179757,-0.7040568590164185,0.6961348652839661,-0.1403580605983734,0,0,0,-1,-1,65617.57966775,unknown,2,2025-04-18T12:08:20.955+03:00,2025-04-17T15:44:39.500+03:00,7557,1.143429,0,0,6228.047,4,10,2025-04-18T12:06:19.732+03:00,766660103.6307706,0,108.13,100.5586,1,0.5,2025-04-18T12:08:20.795+03:00,108,1.8,2025-04-18T08:51:18.885+03:00,0.03057091307199995,1
2025-04-18T12:08:25.585+03:00,1744967304.970806,40.95359319739049,29.1409997789972,93.61648,-1,-1,-1,-1,30,23.79642844582683,-9999,65622.20673966667,-0.7093353271484375,0.6953125,-0.134002685546875,65622.20043466667,1.52115306940867,-1.374240508092638,-0.7701496391823833,-0.01933053508400917,-0.003057076130062342,0.007643231190741062,-0.003702223300933838,-0.01603633165359497,0.009277224540710449,XArbitraryZVertical,0.1948677356526905,-0.626047443818665,0.6664958781282855,0.3547878841357579,-0.7039851546287537,0.69624263048172,-0.1401823312044144,0,0,0,-1,-1,65617.57966775,unknown,2,2025-04-18T12:08:20.955+03:00,2025-04-17T15:44:39.500+03:00,7557,1.143429,0,0,6228.047,4,10,2025-04-18T12:06:19.732+03:00,766660103.6307706,0,108.13,100.5586,1,0.5,2025-04-18T12:08:20.795+03:00,108,1.8,2025-04-18T08:51:18.885+03:00,0.03057091307199995,1
2025-04-18T12:08:25.595+03:00,1744967304.970806,40.95359319739049,29.1409997789972,93.61648,-1,-1,-1,-1,30,23.79642844582683,-9999,65622.21681566667,-0.7102203369140625,0.7017974853515625,-0.1377410888671875,65622.21050966666,1.521072405441503,-1.37426095664257,-0.7702228149003921,-0.003162284847348928,0.001422827132046223,0.005064192693680525,-0.004771530628204346,-0.00360715389251709,0.00789487361907959,XArbitraryZVertical,0.1948242359306059,-0.6260706905524981,0.6664878497017742,0.354786029096703,-0.7039382457733154,0.6962952017784119,-0.140158012509346,0,0,0,-1,-1,65617.57966775,unknown,2,2025-04-18T12:08:20.955+03:00,2025-04-17T15:44:39.500+03:00,7557,1.143429,0,0,6228.047,4,10,2025-04-18T12:06:19.732+03:00,766660103.6307706,0,108.13,100.5586,1,0.5,2025-04-18T12:08:20.795+03:00,108,1.8,2025-04-18T08:51:18.885+03:00,0.03057091307199995,1
2025-04-18T12:08:25.605+03:00,1744967304.970806,40.95359319739049,29.1409997789972,93.61648,-1,-1,-1,-1,30,23.79642844582683,-9999,65622.22689066667,-0.7100982666015625,0.70477294921875,-0.1386871337890625,65622.22058466668,1.521226742577061,-1.374016852725879,-0.7702776448415759,0.01291894633322954,0.009179017506539822,0.001583973644301295,-0.006292879581451416,0.004913628101348877,0.002749219536781311,XArbitraryZVertical,0.1947725176988771,-0.6260211574181861,0.6665451767765462,0.3547939712430139,-0.7038664221763611,0.6963345408439636,-0.140322357416153,0,0,0,-1,-1,65617.57966775,unknown,2,2025-04-18T12:08:20.955+03:00,2025-04-17T15:44:39.500+03:00,7557,1.143429,0,0,6228.047,4,10,2025-04-18T12:06:19.732+03:00,766660103.6307706,0,108.13,100.5586,1,0.5,2025-04-18T12:08:20.795+03:00,108,1.8,2025-04-18T08:51:18.885+03:00,0.03057091307199995,1
2025-04-18T12:08:25.615+03:00,1744967304.970806,40.95359319739049,29.1409997789972,93.61648,-1,-1,-1,-1,30,23.79642844582683,-9999,65622.23696566667,-0.7047882080078125,0.7090606689453125,-0.1389007568359375,65622.23066066667,1.521591878535538,-1.373633526862593,-0.7702456260924976,0.03086445853114128,0.006652543321251869,-0.001412581885233521,-0.006828427314758301,0.007637441158294678,0.001604318618774414,XArbitraryZVertical,0.1947699792750805,-0.6259124502016775,0.6666436723149503,0.3548020952616778,-0.7038344740867615,0.6963115334510803,-0.1405965238809586,0,0,0,-1,-1,65617.57966775,unknown,2,2025-04-18T12:08:20.955+03:00,2025-04-17T15:44:39.500+03:00,7557,1.143429,0,0,6228.047,4,10,2025-04-18T12:06:19.732+03:00,766660103.6307706,0,108.13,100.5586,1,0.5,2025-04-18T12:08:20.795+03:00,108,1.8,2025-04-18T08:51:18.885+03:00,0.03057091307199995,1
2025-04-18T12:08:25.626+03:00,1744967304.970806,40.95359319739049,29.1409997789972,93.61648,-1,-1,-1,-1,30,23.79642844582683,-9999,65622.24704166668,-0.7025604248046875,0.706146240234375,-0.1388397216796875,65622.24073566667,1.522084010921573,-1.373198318693974,-0.7700956867842609,0.03989550471305847,0.01044035702943802,-0.005148730706423521,-0.002484321594238281,0.01224642992019653,0.002465128898620605,XArbitraryZVertical,0.194830122073786,-0.6257631862389316,0.6667564864399296,0.3548203823025087,-0.7038755416870117,0.6962039470672607,-0.1409233212471008,0,0,0,-1,-1,65617.57966775,unknown,2,2025-04-18T12:08:20.955+03:00,2025-04-17T15:44:39.500+03:00,7557,1.143429,0,0,6228.047,4,10,2025-04-18T12:06:19.732+03:00,766660103.6307706,0,108.13,100.5586,1,0.5,2025-04-18T12:08:20.795+03:00,108,1.8,2025-04-18T08:51:18.885+03:00,0.03057091307199995,1
2025-04-18T12:08:25.636+03:00,1744967304.970806,40.95359319739049,29.1409997789972,93.61648,-1,-1,-1,-1,30,23.79642844582683,-9999,65622.25711666667,-0.7048492431640625,0.6964111328125,-0.1358795166015625,65622.25081066666,1.522498797556499,-1.372808319484641,-0.7699332378369151,0.02454664185643196,0.01234904490411282,-0.01107785943895578,0.001950740814208984,0.0119815468788147,0.001739516854286194,XArbitraryZVertical,0.1948853866960951,-0.6256274159967025,0.6668497942120803,0.3548540035753727,-0.7039313316345215,0.6960873007774353,-0.1412200480699539,0,0,0,-1,-1,65617.57966775,unknown,2,2025-04-18T12:08:20.955+03:00,2025-04-17T15:44:39.500+03:00,7557,1.143429,0,0,6228.047,4,10,2025-04-18T12:06:19.732+03:00,766660103.6307706,0,108.13,100.5586,1,0.5,2025-04-18T12:08:20.795+03:00,108,1.8,2025-04-18T08:51:18.885+03:00,0.03057091307199995,1
2025-04-18T12:08:25.646+03:00,1744967304.970806,40.95359319739049,29.1409997789972,93.61648,-1,-1,-1,-1,30,23.79642844582683,-9999,65622.26719166667,-0.7059173583984375,0.686279296875,-0.1348724365234375,65622.26088666667,1.522585715645548,-1.372609696776128,-0.7697578306718686,-0.005986766889691353,0.01811505481600761,-0.01314899977296591,1.293420791625977e-05,0.003608286380767822,0.005046680569648743,XArbitraryZVertical,0.1949062771324631,-0.6255554310667016,0.6668648509518574,0.3549410987801031,-0.7040229439735413,0.6959613561630249,-0.1413838863372803,0,0,0,-1,-1,65617.57966775,unknown,2,2025-04-18T12:08:20.955+03:00,2025-04-17T15:44:39.500+03:00,7557,1.143429,0,0,6228.047,4,10,2025-04-18T12:06:19.732+03:00,766660103.6307706,0,108.13,100.5586,1,0.5,2025-04-18T12:08:20.795+03:00,108,1.8,2025-04-18T08:51:18.885+03:00,0.03057091307199995,1
2025-04-18T12:08:25.656+03:00,1744967304.970806,40.95359319739049,29.1409997789972,93.61648,-1,-1,-1,-1,30,23.79642844582683,-9999,65622.27726766666,-0.704010009765625,0.6861114501953125,-0.131011962890625,65622.27096166667,1.522262208494016,-1.372688923947204,-0.7696269508158936,-0.02955454401671886,0.01730771735310555,-0.007678400725126266,-0.001656591892242432,-0.008062183856964111,0.005817592144012451,XArbitraryZVertical,0.1948761900378187,-0.6255799267435285,0.6667849951493487,0.3550645222657351,-0.7041234970092773,0.6958673596382141,-0.1413460522890091,0,0,0,-1,-1,65617.57966775,unknown,2,2025-04-18T12:08:20.955+03:00,2025-04-17T15:44:39.500+03:00,7557,1.143429,0,0,6228.047,4,10,2025-04-18T12:06:19.732+03:00,766660103.6307706,0,108.13,100.5586,1,0.5,2025-04-18T12:08:20.795+03:00,108,1.8,2025-04-18T08:51:18.885+03:00,0.03057091307199995,1
2025-04-18T12:08:25.666+03:00,1744967304.970806,40.95359319739049,29.1409997789972,93.61648,-1,-1,-1,-1,30,23.79642844582683,-9999,65622.28734266668,-0.703369140625,0.6888275146484375,-0.1334381103515625,65622.28103666667,1.521704968130423,-1.372966242503512,-0.7695698973626099,-0.03997575864195824,0.01336916908621788,-0.007751903962343931,-0.0009985566139221191,-0.01061517000198364,0.009810984134674072,XArbitraryZVertical,0.1948137984871299,-0.6256742669850098,0.6666526152479816,0.3551811392634643,-0.7042016386985779,0.6958264112472534,-0.1411585956811905,0,0,0,-1,-1,65617.57966775,unknown,2,2025-04-18T12:08:20.955+03:00,2025-04-17T15:44:39.500+03:00,7557,1.143429,0,0,6228.047,4,10,2025-04-18T12:06:19.732+03:00,766660103.6307706,0,108.13,100.5586,1,0.5,2025-04-18T12:08:20.795+03:00,108,1.8,2025-04-18T08:51:18.885+03:00,0.03057091307199995,1
2025-04-18T12:08:25.676+03:00,1744967304.970806,40.95359319739049,29.1409997789972,93.61648,-1,-1,-1,-1,30,23.79642844582683,-9999,65622.29741766668,-0.70159912109375,0.690399169921875,-0.1395721435546875,65622.29111266667,1.521080462362315,-1.373297665205064,-0.7695654241785902,-0.04352914914488792,0.01151860505342484,-0.005784726701676846,0.000104069709777832,-0.007178783416748047,0.008998408913612366,XArbitraryZVertical,0.1947304070381309,-0.6257932307273162,0.6665089104650578,0.355286944134834,-0.7042514085769653,0.6958231925964355,-0.140925794839859,0,0,0,-1,-1,65617.57966775,unknown,2,2025-04-18T12:08:20.955+03:00,2025-04-17T15:44:39.500+03:00,7557,1.143429,0,0,6228.047,4,10,2025-04-18T12:06:19.732+03:00,766660103.6307706,0,108.13,100.5586,1,0.5,2025-04-18T12:08:20.795+03:00,108,1.8,2025-04-18T08:51:18.885+03:00,0.03057091307199995,1
2025-04-18T12:08:25.686+03:00,1744967304.970806,40.95359319739049,29.1409997789972,93.61648,-1,-1,-1,-1,30,23.79642844582683,-9999,65622.30749366667,-0.7029876708984375,0.684783935546875,-0.141937255859375,65622.30118766667,1.520412534098646,-1.373658558420193,-0.7696069690573003,-0.04710817337036133,0.01152419671416283,-0.003339944873005152,0.00223231315612793,-0.005316495895385742,0.002696096897125244,XArbitraryZVertical,0.1946274276635303,-0.6259290475994397,0.6663598071820646,0.3553838655643505,-0.7042739391326904,0.6958529949188232,-0.1406659781932831,0,0,0,-1,-1,65617.57966775,unknown,2,2025-04-18T12:08:20.955+03:00,2025-04-17T15:44:39.500+03:00,7557,1.143429,0,0,6228.047,4,10,2025-04-18T12:06:19.732+03:00,766660103.6307706,0,108.13,100.5586,1,0.5,2025-04-18T12:08:20.795+03:00,108,1.8,2025-04-18T08:51:18.885+03:00,0.03057091307199995,1
2025-04-18T12:08:25.696+03:00,1744967304.970806,40.95359319739049,29.1409997789972,93.61648,-1,-1,-1,-1,30,23.79642844582683,-9999,65622.31756866667,-0.7025604248046875,0.685943603515625,-0.143096923828125,65622.31126266667,1.519787089083879,-1.373997666099805,-0.7696803614413215,-0.03866195306181908,0.007741176523268223,0.0003654443426057696,0.002138376235961914,-0.009473741054534912,-0.001687899231910706,XArbitraryZVertical,0.1945195115994083,-0.6260619504194137,0.6662239733151392,0.3554636448156681,-0.704271674156189,0.6959057450294495,-0.1404171884059906,0,0,0,-1,-1,65617.57966775,unknown,2,2025-04-18T12:08:20.955+03:00,2025-04-17T15:44:39.500+03:00,7557,1.143429,0,0,6228.047,4,10,2025-04-18T12:06:19.732+03:00,766660103.6307706,0,108.13,100.5586,1,0.5,2025-04-18T12:08:20.795+03:00,108,1.8,2025-04-18T08:51:18.885+03:00,0.03057091307199995,1
2025-04-18T12:08:25.706+03:00,1744967304.970806,40.95359319739049,29.1409997789972,93.61648,-1,-1,-1,-1,30,23.79642844582683,-9999,65622.32764366666,-0.703216552734375,0.6898345947265625,-0.1440887451171875,65622.32133866668,1.519337051827976,-1.374214049789912,-0.7697805012459682,-0.02533603087067604,0.007851697504520416,0.001974259968847036,0.001108527183532715,-0.01072067022323608,-0.002616822719573975,XArbitraryZVertical,0.1944165253630153,-0.6261602328668965,0.6661342599671866,0.3555148541614093,-0.7042335271835327,0.6959776282310486,-0.1402511596679688,0,0,0,-1,-1,65617.57966775,unknown,2,2025-04-18T12:08:20.955+03:00,2025-04-17T15:44:39.500+03:00,7557,1.143429,0,0,6228.047,4,10,2025-04-18T12:06:19.732+03:00,766660103.6307706,0,108.13,100.5586,1,0.5,2025-04-18T12:08:20.795+03:00,108,1.8,2025-04-18T08:51:18.885+03:00,0.03057091307199995,1
2025-04-18T12:08:25.716+03:00,1744967304.970806,40.95359319739049,29.1409997789972,93.61648,-1,-1,-1,-1,30,23.79642844582683,-9999,65622.33771966667,-0.7043304443359375,0.6913299560546875,-0.144378662109375,65622.33141366667,1.519077884638671,-1.374317970199749,-0.7698899025070081,-0.01278168894350529,0.007504088804125786,0.003305807244032621,0.001323103904724121,-0.006740391254425049,-0.003727197647094727,XArbitraryZVertical,0.1943325858253627,-0.6262214381257317,0.6660904782811876,0.3555350216532133,-0.7041734457015991,0.6960561871528625,-0.1401631087064743,0,0,0,-1,-1,65617.57966775,unknown,2,2025-04-18T12:08:20.955+03:00,2025-04-17T15:44:39.500+03:00,7557,1.143429,0,0,6228.047,4,10,2025-04-18T12:06:19.732+03:00,766660103.6307706,0,108.13,100.5586,1,0.5,2025-04-18T12:08:20.795+03:00,108,1.8,2025-04-18T08:51:18.885+03:00,0.03057091307199995,1
2025-04-18T12:08:25.730+03:00,1744967304.970806,40.95359319739049,29.1409997789972,93.61648,-1,-1,-1,-1,30,23.79642844582683,-9999,65622.34779466667,-0.704132080078125,0.6905517578125,-0.143463134765625,65622.34148866667,1.518904826992042,-1.374371569049726,-0.7699579424594142,-0.01174944825470448,0.007697434164583683,0.004705830942839384,0.000307619571685791,-0.004195153713226318,-0.004140451550483704,XArbitraryZVertical,0.1942729661847902,-0.6262586882072684,0.6660622169129421,0.3555550180632839,-0.7041345834732056,0.6961050629615784,-0.1401161402463913,0,0,0,-1,-1,65617.57966775,unknown,2,2025-04-18T12:08:20.955+03:00,2025-04-17T15:44:39.500+03:00,7557,1.143429,0,0,6228.047,4,10,2025-04-18T12:06:19.732+03:00,766660103.6307706,0,108.13,100.5586,1,0.5,2025-04-18T12:08:20.795+03:00,108,1.8,2025-04-18T08:51:18.885+03:00,0.03057091307199995,1
2025-04-18T12:08:25.736+03:00,1744967304.970806,40.95359319739049,29.1409997789972,93.61648,-1,-1,-1,-1,30,23.79642844582683,-9999,65622.35786966667,-0.7041168212890625,0.6912689208984375,-0.142791748046875,65622.35156466666,1.518812504279189,-1.37435730904238,-0.770004507446743,-0.003809366375207901,0.009651528671383858,0.006340412888675928,-0.0002603530883789062,-0.005373060703277588,-0.00343477725982666,XArbitraryZVertical,0.1942234538200459,-0.6262725752742694,0.6660524473426614,0.355575718712161,-0.7041006684303284,0.6961385011672974,-0.1401198208332062,0,0,0,-1,-1,65617.57966775,unknown,2,2025-04-18T12:08:20.955+03:00,2025-04-17T15:44:39.500+03:00,7557,1.143429,0,0,6228.047,4,10,2025-04-18T12:06:19.732+03:00,766660103.6307706,0,108.13,100.5586,1,0.5,2025-04-18T12:08:20.795+03:00,108,1.8,2025-04-18T08:51:18.885+03:00,0.03057091307199995,1
2025-04-18T12:08:25.748+03:00,1744967304.970806,40.95359319739049,29.1409997789972,93.61648,-1,-1,-1,-1,30,23.79642844582683,-9999,65622.36794566667,-0.706329345703125,0.690277099609375,-0.1391754150390625,65622.36163966668,1.518687882655025,-1.374336589213156,-0.7700658848174415,-0.01252536009997129,0.01585189998149872,0.00689381780102849,-0.0001677870750427246,-0.004699945449829102,-0.00260460376739502,XArbitraryZVertical,0.1941565340201024,-0.626290827662212,0.6660392568614432,0.3556048706720955,-0.7040559053421021,0.6961825489997864,-0.1401260793209076,0,0,0,-1,-1,65617.57966775,unknown,2,2025-04-18T12:08:20.955+03:00,2025-04-17T15:44:39.500+03:00,7557,1.143429,0,0,6228.047,4,10,2025-04-18T12:06:19.732+03:00,766660103.6307706,0,108.13,100.5586,1,0.5,2025-04-18T12:08:20.795+03:00,108,1.8,2025-04-18T08:51:18.885+03:00,0.03057091307199995,1
2025-04-18T12:08:25.757+03:00,1744967304.970806,40.95359319739049,29.1409997789972,93.61648,-1,-1,-1,-1,30,23.79642844582683,-9999,65622.37802066667,-0.7053985595703125,0.6894989013671875,-0.1362457275390625,65622.37171466667,1.518487325958854,-1.374346955275218,-0.7701477985505458,-0.01910130493342876,0.01526806876063347,0.005719463340938091,-0.001580357551574707,-0.005948960781097412,0.0001083016395568848,XArbitraryZVertical,0.194069191339111,-0.6263252568062577,0.666011864694542,0.3556431761505466,-0.7040013670921326,0.6962413191795349,-0.1401076465845108,0,0,0,-1,-1,65617.57966775,unknown,2,2025-04-18T12:08:20.955+03:00,2025-04-17T15:44:39.500+03:00,7557,1.143429,0,0,6228.047,4,10,2025-04-18T12:06:19.732+03:00,766660103.6307706,0,108.13,100.5586,1,0.5,2025-04-18T12:08:20.795+03:00,108,1.8,2025-04-18T08:51:18.885+03:00,0.03057091307199995,1
2025-04-18T12:08:25.767+03:00,1744967304.970806,40.95359319739049,29.1409997789972,93.61648,-1,-1,-1,-1,30,23.79642844582683,-9999,65622.38809566667,-0.7052154541015625,0.6920166015625,-0.1356658935546875,65622.38179066667,1.518188500850019,-1.374392338736859,-0.7702226200823344,-0.02450831979513168,0.0180840939283371,0.002364146523177624,-0.00151824951171875,-0.006353676319122314,0.002782240509986877,XArbitraryZVertical,0.1939651634931349,-0.6263742951513867,0.6659627915698959,0.355705383224353,-0.7039566040039062,0.6962950229644775,-0.1400655210018158,0,0,0,-1,-1,65617.57966775,unknown,2,2025-04-18T12:08:20.955+03:00,2025-04-17T15:44:39.500+03:00,7557,1.143429,0,0,6228.047,4,10,2025-04-18T12:06:19.732+03:00,766660103.6307706,0,108.13,100.5586,1,0.5,2025-04-18T12:08:20.795+03:00,108,1.8,2025-04-18T08:51:18.885+03:00,0.03057091307199995,1
2025-04-18T12:08:25.777+03:00,1744967304.970806,40.95359319739049,29.1409997789972,93.61648,-1,-1,-1,-1,30,23.79642844582683,-9999,65622.39817166667,-0.704376220703125,0.6981658935546875,-0.138153076171875,65622.39186566666,1.51786424407784,-1.374433384959365,-0.7702737388671472,-0.02599536255002022,0.01786738075315952,0.003991771023720503,-0.0006623268127441406,-0.005566239356994629,0.004501208662986755,XArbitraryZVertical,0.193859715621777,-0.6264212258053823,0.6659069483455959,0.3557850084297455,-0.7039276361465454,0.6963317394256592,-0.140029713511467,0,0,0,-1,-1,65617.57966775,unknown,2,2025-04-18T12:08:20.955+03:00,2025-04-17T15:44:39.500+03:00,7557,1.143429,0,0,6228.047,4,10,2025-04-18T12:06:19.732+03:00,766660103.6307706,0,108.13,100.5586,1,0.5,2025-04-18T12:08:20.795+03:00,108,1.8,2025-04-18T08:51:18.885+03:00,0.03057091307199995,1
2025-04-18T12:08:25.795+03:00,1744967304.970806,40.95359319739049,29.1409997789972,93.61648,-1,-1,-1,-1,30,23.79642844582683,-9999,65622.40824666667,-0.7017669677734375,0.7005462646484375,-0.1437530517578125,65622.40194066668,1.517575007885912,-1.374461686720479,-0.7703066496274221,-0.01940004341304302,0.01573685184121132,-0.0001923214585985988,-0.0009707212448120117,5.578994750976562e-05,0.002554237842559814,XArbitraryZVertical,0.1937673107104733,-0.6264595535315386,0.665856474303646,0.3558622601974369,-0.7039090394973755,0.6963553428649902,-0.1400053203105927,0,0,0,-1,-1,65617.57966775,unknown,2,2025-04-18T12:08:20.955+03:00,2025-04-17T15:44:39.500+03:00,7557,1.143429,0,0,6228.047,4,10,2025-04-18T12:06:19.732+03:00,766660103.6307706,0,108.13,100.5586,1,0.5,2025-04-18T12:08:20.795+03:00,108,1.8,2025-04-18T08:51:18.885+03:00,0.03057091307199995,1
2025-04-18T12:08:25.797+03:00,1744967304.970806,40.95359319739049,29.1409997789972,93.61648,-1,-1,-1,-1,30,23.79642844582683,-9999,65622.41832166667,-0.70361328125,0.6971893310546875,-0.1441192626953125,65622.41201666667,1.517316369038452,-1.37449317180866,-0.7702988744184697,-0.0205019935965538,0.01342103350907564,-0.005320604424923658,0.001159965991973877,0.004913747310638428,-0.003143146634101868,XArbitraryZVertical,0.193699411314102,-0.6264889688515038,0.6658065232205644,0.3559409674299755,-0.7039188146591187,0.6963497996330261,-0.1399842202663422,0,0,0,-1,-1,65617.57966775,unknown,2,2025-04-18T12:08:20.955+03:00,2025-04-17T15:44:39.500+03:00,7557,1.143429,0,0,6228.047,4,10,2025-04-18T12:06:19.732+03:00,766660103.6307706,0,108.13,100.5586,1,0.5,2025-04-18T12:08:20.795+03:00,108,1.8,2025-04-18T08:51:18.885+03:00,0.03057091307199995,1
2025-04-18T12:08:25.807+03:00,1744967304.970806,40.95359319739049,29.1409997789972,93.61648,-1,-1,-1,-1,30,23.79642844582683,-9999,65622.42839766668,-0.7052764892578125,0.6953125,-0.1435089111328125,65622.42209166667,1.517011163762362,-1.374553629022071,-0.7703111926826051,-0.0228948425501585,0.01457418221980333,0.0009985442738980055,0.0007631182670593262,0.002188742160797119,-0.004804894328117371,XArbitraryZVertical,0.193619808732117,-0.6265312423674964,0.6657477223317985,0.3560195689449497,-0.7039186358451843,0.6963586211204529,-0.1399399489164352,0,0,0,-1,-1,65617.57966775,unknown,2,2025-04-18T12:08:20.955+03:00,2025-04-17T15:44:39.500+03:00,7557,1.143429,0,0,6228.047,4,10,2025-04-18T12:06:19.732+03:00,766660103.6307706,0,108.13,100.5586,1,0.5,2025-04-18T12:08:20.795+03:00,108,1.8,2025-04-18T08:51:18.885+03:00,0.03057091307199995,1
2025-04-18T12:08:25.817+03:00,1744967304.970806,40.95359319739049,29.1409997789972,93.61648,-1,-1,-1,-1,30,23.79642844582683,-9999,65622.43847266668,-0.706787109375,0.697113037109375,-0.142669677734375,65622.43216666667,1.516693810657513,-1.374625291066849,-0.770334693556273,-0.02560940384864807,0.01279492489993572,-0.00170576258096844,-0.0007840394973754883,-0.0008951425552368164,-0.003256306052207947,XArbitraryZVertical,0.1935362127828754,-0.6265784717952935,0.6656869549120036,0.3560955030487571,-0.703912615776062,0.6963754892349243,-0.1398863047361374,0,0,0,-1,-1,65617.57966775,unknown,2,2025-04-18T12:08:20.955+03:00,2025-04-17T15:44:39.500+03:00,7557,1.143429,0,0,6228.047,4,10,2025-04-18T12:06:19.732+03:00,766660103.6307706,0,108.13,100.5586,1,0.5,2025-04-18T12:08:20.795+03:00,108,1.8,2025-04-18T08:51:18.885+03:00,0.03057091307199995,1
2025-04-18T12:08:25.827+03:00,1744967304.970806,40.95359319739049,29.1409997789972,93.61648,-1,-1,-1,-1,30,23.79642844582683,-9999,65622.44854766667,-0.7090606689453125,0.69970703125,-0.1421966552734375,65622.44224266667,1.516409779683906,-1.37469512312624,-0.7703401897758074,-0.01443690992891788,0.01257761009037495,-0.003064241027459502,-0.002334237098693848,-0.0002428293228149414,-0.002848401665687561,XArbitraryZVertical,0.1934684800212493,-0.6266192765064325,0.665630271923737,0.3561667890327221,-0.7039189338684082,0.6963794231414795,-0.139836460351944,0,0,0,-1,-1,65617.57966775,unknown,2,2025-04-18T12:08:20.955+03:00,2025-04-17T15:44:39.500+03:00,7557,1.143429,0,0,6228.047,4,10,2025-04-18T12:06:19.732+03:00,766660103.6307706,0,108.13,100.5586,1,0.5,2025-04-18T12:08:20.795+03:00,108,1.8,2025-04-18T08:51:18.885+03:00,0.03057091307199995,1
2025-04-18T12:08:25.838+03:00,1744967304.970806,40.95359319739049,29.1409997789972,93.61648,-1,-1,-1,-1,30,23.79642844582683,-9999,65622.45862366667,-0.708831787109375,0.6994476318359375,-0.1422119140625,65622.45231766667,1.516199802480297,-1.374732142649054,-0.7703212959231972,-0.01291631162166595,0.01145981438457966,-0.001751735457219183,-0.004788100719451904,0.002868175506591797,-0.002368390560150146,XArbitraryZVertical,0.1934215090481745,-0.6266431578070409,0.665587138996277,0.3562307764207288,-0.7039368748664856,0.6963658928871155,-0.1398129463195801,0,0,0,-1,-1,65617.57966775,unknown,2,2025-04-18T12:08:20.955+03:00,2025-04-17T15:44:39.500+03:00,7557,1.143429,0,0,6228.047,4,10,2025-04-18T12:06:19.732+03:00,766660103.6307706,0,108.13,100.5586,1,0.5,2025-04-18T12:08:20.795+03:00,108,1.8,2025-04-18T08:51:18.885+03:00,0.03057091307199995,1
2025-04-18T12:08:25.847+03:00,1744967304.970806,40.95359319739049,29.1409997789972,93.61648,-1,-1,-1,-1,30,23.79642844582683,-9999,65622.46869866666,-0.7049407958984375,0.6980133056640625,-0.1430511474609375,65622.46239266667,1.516008167617972,-1.374756988140533,-0.7703240578885086,-0.01041879970580339,0.01235330570489168,-0.001014039851725101,-0.005122184753417969,0.003659725189208984,-0.002645626664161682,XArbitraryZVertical,0.1933687461279703,-0.6266665596412795,0.6655509244213325,0.3562860395443072,-0.7039386034011841,0.6963678598403931,-0.1397950947284698,0,0,0,-1,-1,65617.57966775,unknown,2,2025-04-18T12:08:20.955+03:00,2025-04-17T15:44:39.500+03:00,7557,1.143429,0,0,6228.047,4,10,2025-04-18T12:06:19.732+03:00,766660103.6307706,0,108.13,100.5586,1,0.5,2025-04-18T12:08:20.795+03:00,108,1.8,2025-04-18T08:51:18.885+03:00,0.03057091307199995,1
2025-04-18T12:08:25.858+03:00,1744967304.970806,40.95359319739049,29.1409997789972,93.61648,-1,-1,-1,-1,30,23.79642844582683,-9999,65622.47877366668,-0.704437255859375,0.697235107421875,-0.1435089111328125,65622.47246866667,1.515866099866005,-1.374736778278188,-0.7703212836974931,-0.01157055050134659,0.01186867710202932,-0.0007412988343276083,-0.002101898193359375,0.002471446990966797,-0.003394007682800293,XArbitraryZVertical,0.1933184874680443,-0.6266762467028406,0.6655272448682158,0.3563404046357258,-0.7039375901222229,0.6963658332824707,-0.1398096829652786,0,0,0,-1,-1,65617.57966775,unknown,2,2025-04-18T12:08:20.955+03:00,2025-04-17T15:44:39.500+03:00,7557,1.143429,0,0,6228.047,4,10,2025-04-18T12:06:19.732+03:00,766660103.6307706,0,108.13,100.5586,1,0.5,2025-04-18T12:08:20.795+03:00,108,1.8,2025-04-18T08:51:18.885+03:00,0.03057091307199995,1
2025-04-18T12:08:25.867+03:00,1744967304.970806,40.95359319739049,29.1409997789972,93.61648,-1,-1,-1,-1,30,23.79642844582683,-9999,65622.48884966667,-0.7047119140625,0.6958770751953125,-0.142974853515625,65622.48254366667,1.515736916525905,-1.374685213070312,-0.7703370115065431,-0.007162485737353563,0.01792657002806664,0.003777286736294627,-0.000365138053894043,0.000949561595916748,-0.003909170627593994,XArbitraryZVertical,0.1932554803004115,-0.6266820528487599,0.665510996297367,0.3563946834658179,-0.7039195895195007,0.696377158164978,-0.1398438513278961,0,0,0,-1,-1,65617.57966775,unknown,2,2025-04-18T12:08:20.955+03:00,2025-04-17T15:44:39.500+03:00,7557,1.143429,0,0,6228.047,4,10,2025-04-18T12:06:19.732+03:00,766660103.6307706,0,108.13,100.5586,1,0.5,2025-04-18T12:08:20.795+03:00,108,1.8,2025-04-18T08:51:18.885+03:00,0.03057091307199995,1
2025-04-18T12:08:25.877+03:00,1744967304.970806,40.95359319739049,29.1409997789972,93.61648,-1,-1,-1,-1,30,23.79642844582683,-9999,65622.49892466667,-0.7063140869140625,0.6932373046875,-0.142852783203125,65622.49261866667,1.515693020802349,-1.374514565468266,-0.7703877698119265,-0.005250336136668921,0.022186029702425,0.002501499373465776,-0.001018762588500977,-0.0004600882530212402,-0.003063514828681946,XArbitraryZVertical,0.1931675483261986,-0.626663987571405,0.6655254379206212,0.3564472405948829,-0.7038611173629761,0.6964135766029358,-0.1399570852518082,0,0,0,-1,-1,65617.57966775,unknown,2,2025-04-18T12:08:20.955+03:00,2025-04-17T15:44:39.500+03:00,7557,1.143429,0,0,6228.047,4,10,2025-04-18T12:06:19.732+03:00,766660103.6307706,0,108.13,100.5586,1,0.5,2025-04-18T12:08:20.795+03:00,108,1.8,2025-04-18T08:51:18.885+03:00,0.03057091307199995,1
2025-04-18T12:08:25.887+03:00,1744967304.970806,40.95359319739049,29.1409997789972,93.61648,-1,-1,-1,-1,30,23.79642844582683,-9999,65622.50899966666,-0.7056732177734375,0.6895751953125,-0.1423797607421875,65622.50269466668,1.515590014218833,-1.374301612715935,-0.7704413943444564,-0.01525982655584812,0.03086393885314465,0.004541747272014618,-0.002305924892425537,-0.001902401447296143,-0.003287091851234436,XArbitraryZVertical,0.193046072892704,-0.626644534838714,0.6655337333234728,0.3565317307429117,-0.7037946581840515,0.6964520812034607,-0.1400996744632721,0,0,0,-1,-1,65617.57966775,unknown,2,2025-04-18T12:08:20.955+03:00,2025-04-17T15:44:39.500+03:00,7557,1.143429,0,0,6228.047,4,10,2025-04-18T12:06:19.732+03:00,766660103.6307706,0,108.13,100.5586,1,0.5,2025-04-18T12:08:20.795+03:00,108,1.8,2025-04-18T08:51:18.885+03:00,0.03057091307199995,1
2025-04-18T12:08:25.897+03:00,1744967304.970806,40.95359319739049,29.1409997789972,93.61648,-1,-1,-1,-1,30,23.79642844582683,-9999,65622.51907566667,-0.7017822265625,0.686981201171875,-0.138336181640625,65622.51276966668,1.515375647340893,-1.374130953063834,-0.770505812097776,-0.01733529567718506,0.0316508375108242,0.003089358797296882,-0.002358615398406982,-0.005336105823516846,-0.002504363656044006,XArbitraryZVertical,0.1929001081670073,-0.6266450705847167,0.6655192950027548,0.3566366422247989,-0.7037266492843628,0.6964982748031616,-0.1402110010385513,0,0,0,-1,-1,65617.57966775,unknown,2,2025-04-18T12:08:20.955+03:00,2025-04-17T15:44:39.500+03:00,7557,1.143429,0,0,6228.047,4,10,2025-04-18T12:06:19.732+03:00,766660103.6307706,0,108.13,100.5586,1,0.5,2025-04-18T12:08:20.795+03:00,108,1.8,2025-04-18T08:51:18.885+03:00,0.03057091307199995,1
2025-04-18T12:08:25.908+03:00,1744967304.970806,40.95359319739049,29.1409997789972,93.61648,-1,-1,-1,-1,30,23.79642844582683,-9999,65622.529150375,-0.70147705078125,0.6869354248046875,-0.1362457275390625,65622.52284437501,1.51509035912011,-1.374005594995009,-0.7705811585505099,-0.02733306773006916,0.03338535502552986,0.005714436527341604,0.001051425933837891,-0.00914376974105835,0.001174673438072205,XArbitraryZVertical,0.192743195561302,-0.6266622463333722,0.6654890721842527,0.3567477762321838,-0.7036576867103577,0.6965523362159729,-0.1402889788150787,0,0,0,-1,-1,65617.57966775,unknown,2,2025-04-18T12:08:20.955+03:00,2025-04-17T15:44:39.500+03:00,7557,1.143429,0,0,6228.047,4,10,2025-04-18T12:06:19.732+03:00,766660103.6307706,0,108.13,100.5586,1,0.5,2025-04-18T12:08:20.795+03:00,108,1.8,2025-04-18T08:51:18.885+03:00,0.03057091307199995,1
2025-04-18T12:08:25.918+03:00,1744967304.970806,40.95359319739049,29.1409997789972,93.61648,-1,-1,-1,-1,30,23.79642844582683,-9999,65622.539225375,-0.7032318115234375,0.690093994140625,-0.138641357421875,65622.53291937501,1.514719994710714,-1.37391833691794,-0.7706661075458366,-0.02824540063738823,0.03432578220963478,0.002591913565993309,0.002278029918670654,-0.00970834493637085,0.00387948751449585,XArbitraryZVertical,0.1925691093723916,-0.6266959014030757,0.6654410449994744,0.3568720383869842,-0.7035872936248779,0.6966133117675781,-0.1403387635946274,0,0,0,-1,-1,65617.57966775,unknown,2,2025-04-18T12:08:20.955+03:00,2025-04-17T15:44:39.500+03:00,7557,1.143429,0,0,6228.047,4,10,2025-04-18T12:06:19.732+03:00,766660103.6307706,0,108.13,100.5586,1,0.5,2025-04-18T12:08:20.795+03:00,108,1.8,2025-04-18T08:51:18.885+03:00,0.03057091307199995,1
2025-04-18T12:08:25.928+03:00,1744967304.970806,40.95359319739049,29.1409997789972,93.61648,-1,-1,-1,-1,30,23.79642844582683,-9999,65622.549300375,-0.7000579833984375,0.6978607177734375,-0.143707275390625,65622.542995375,1.514440585741106,-1.373795860265181,-0.7707237961182386,-0.01283741649240255,0.02957443706691265,0.00042596465209499,0.0001919865608215332,-0.007598280906677246,0.002889648079872131,XArbitraryZVertical,0.1924210910220582,-0.626710134021042,0.6654095218140174,0.3569855655328878,-0.7035306096076965,0.6966546773910522,-0.140417069196701,0,0,0,-1,-1,65617.57966775,unknown,2,2025-04-18T12:08:20.955+03:00,2025-04-17T15:44:39.500+03:00,7557,1.143429,0,0,6228.047,4,10,2025-04-18T12:06:19.732+03:00,766660103.6307706,0,108.13,100.5586,1,0.5,2025-04-18T12:08:20.795+03:00,108,1.8,2025-04-18T08:51:18.885+03:00,0.03057091307199995,1
2025-04-18T12:08:25.938+03:00,1744967304.970806,40.95359319739049,29.1409997789972,93.61648,-1,-1,-1,-1,30,23.79642844582683,-9999,65622.55937637501,-0.7027740478515625,0.699554443359375,-0.146636962890625,65622.553070375,1.514362787505775,-1.373581640433714,-0.7707282042886049,0.001594254048541188,0.02329124137759209,-0.002965970430523157,0.003088533878326416,-0.001177549362182617,-0.002346619963645935,XArbitraryZVertical,0.1923239494264924,-0.6266800767461171,0.6654167358622388,0.3570771684191633,-0.7034974694252014,0.6966578364372253,-0.1405671536922455,0,0,0,-1,-1,65617.57966775,unknown,2,2025-04-18T12:08:20.955+03:00,2025-04-17T15:44:39.500+03:00,7557,1.143429,0,0,6228.047,4,10,2025-04-18T12:06:19.732+03:00,766660103.6307706,0,108.13,100.5586,1,0.5,2025-04-18T12:08:20.795+03:00,108,1.8,2025-04-18T08:51:18.885+03:00,0.03057091307199995,1
2025-04-18T12:08:25.948+03:00,1744967304.970806,40.95359319739049,29.1409997789972,93.61648,-1,-1,-1,-1,30,23.79642844582683,-9999,65622.56945137501,-0.706298828125,0.6963958740234375,-0.1448211669921875,65622.56314537501,1.514508235511553,-1.373269603918467,-0.7706858592044786,0.01642752811312675,0.01806771755218506,-0.002889537718147039,0.001578271389007568,0.003247380256652832,-0.005890175700187683,XArbitraryZVertical,0.1922801553318044,-0.6266036250095062,0.6654679049515133,0.3571396705127787,-0.7034825682640076,0.6966274380683899,-0.1407924741506577,0,0,0,-1,-1,65617.57966775,unknown,2,2025-04-18T12:08:20.955+03:00,2025-04-17T15:44:39.500+03:00,7557,1.143429,0,0,6228.047,4,10,2025-04-18T12:06:19.732+03:00,766660103.6307706,0,108.13,100.5586,1,0.5,2025-04-18T12:08:20.795+03:00,108,1.8,2025-04-18T08:51:18.885+03:00,0.03057091307199995,1
2025-04-18T12:08:25.958+03:00,1744967304.970806,40.95359319739049,29.1409997789972,93.61648,-1,-1,-1,-1,30,23.79642844582683,-9999,65622.579526375,-0.708953857421875,0.6940460205078125,-0.1453094482421875,65622.573221375,1.514797176838138,-1.372903977357738,-0.7706186771339643,0.02203474752604961,0.01574164628982544,-0.0006985883810557425,-0.002303004264831543,0.0006101131439208984,-0.004891335964202881,XArbitraryZVertical,0.1922719359100477,-0.626499836282331,0.6655470403502465,0.357178916146662,-0.7034770846366882,0.6965792775154114,-0.1410589218139648,0,0,0,-1,-1,65617.57966775,unknown,2,2025-04-18T12:08:20.955+03:00,2025-04-17T15:44:39.500+03:00,7557,1.143429,0,0,6228.047,4,10,2025-04-18T12:06:19.732+03:00,766660103.6307706,0,108.13,100.5586,1,0.5,2025-04-18T12:08:20.795+03:00,108,1.8,2025-04-18T08:51:18.885+03:00,0.03057091307199995,1
2025-04-18T12:08:25.968+03:00,1744967304.970806,40.95359319739049,29.1409997789972,93.61648,-1,-1,-1,-1,30,23.79642844582683,-9999,65622.58960237501,-0.708953857421875,0.6909637451171875,-0.146331787109375,65622.583296375,1.515082043376485,-1.372563273980351,-0.7705585358283673,0.01716995052993298,0.01237168163061142,3.085142816416919e-05,-0.005529701709747314,-0.002047538757324219,-0.003697395324707031,XArbitraryZVertical,0.1922684010102196,-0.6264019911138219,0.6656238371498988,0.3572092040923717,-0.70346999168396,0.696536123752594,-0.1413068175315857,0,0,0,-1,-1,65617.57966775,unknown,2,2025-04-18T12:08:20.955+03:00,2025-04-17T15:44:39.500+03:00,7557,1.143429,0,0,6228.047,4,10,2025-04-18T12:06:19.732+03:00,766660103.6307706,0,108.13,100.5586,1,0.5,2025-04-18T12:08:20.795+03:00,108,1.8,2025-04-18T08:51:18.885+03:00,0.03057091307199995,1
2025-04-18T12:08:25.978+03:00,1744967304.970806,40.95359319739049,29.1409997789972,93.61648,-1,-1,-1,-1,30,23.79642844582683,-9999,65622.59967737501,-0.7069244384765625,0.690582275390625,-0.1444091796875,65622.593371375,1.515269058386597,-1.372336560520452,-0.770523395859579,0.007998091168701649,0.005277619697153568,0.0007724419119767845,-0.005400419235229492,-0.005333483219146729,-0.005150496959686279,XArbitraryZVertical,0.1922635334978671,-0.6263379040302115,0.665675051635125,0.3572287890016314,-0.7034619450569153,0.696510910987854,-0.1414711326360703,0,0,0,-1,-1,65617.57966775,unknown,2,2025-04-18T12:08:20.955+03:00,2025-04-17T15:44:39.500+03:00,7557,1.143429,0,0,6228.047,4,10,2025-04-18T12:06:19.732+03:00,766660103.6307706,0,108.13,100.5586,1,0.5,2025-04-18T12:08:20.795+03:00,108,1.8,2025-04-18T08:51:18.885+03:00,0.03057091307199995,1
2025-04-18T12:08:25.989+03:00,1744967304.970806,40.95359319739049,29.1409997789972,93.61648,-1,-1,-1,-1,30,23.79642844582683,-9999,65622.60975237501,-0.7050018310546875,0.6910247802734375,-0.143402099609375,65622.603447375,1.515307801737373,-1.3722624884431,-0.770476141973399,-0.0005083116120658815,0.004583067260682583,-0.003128023818135262,-0.003791689872741699,-0.005833566188812256,-0.004069581627845764,XArbitraryZVertical,0.192267147404006,-0.6263133976096468,0.6656837445505376,0.3572537230468156,-0.7034838199615479,0.6964769959449768,-0.1415297389030457,0,0,0,-1,-1,65617.57966775,unknown,2,2025-04-18T12:08:20.955+03:00,2025-04-17T15:44:39.500+03:00,7557,1.143429,0,0,6228.047,4,10,2025-04-18T12:06:19.732+03:00,766660103.6307706,0,108.13,100.5586,1,0.5,2025-04-18T12:08:20.795+03:00,108,1.8,2025-04-18T08:51:18.885+03:00,0.03057091307199995,1
2025-04-18T12:08:25.998+03:00,1744967304.970806,40.95359319739049,29.1409997789972,93.61648,-1,-1,-1,-1,30,23.79642844582683,-9999,65622.619828375,-0.709808349609375,0.6924591064453125,-0.1420745849609375,65622.613522375,1.51511350779755,-1.372360591875815,-0.7704086103457399,-0.02224350161850452,0.008080796338617802,-0.01137386914342642,-0.001183629035949707,-0.005617380142211914,-0.002115175127983093,XArbitraryZVertical,0.192262163571305,-0.6263387941284663,0.6656319255611687,0.3573081317581307,-0.7035435438156128,0.6964285373687744,-0.1414699554443359,0,0,0,-1,-1,65617.57966775,unknown,2,2025-04-18T12:08:20.955+03:00,2025-04-17T15:44:39.500+03:00,7557,1.143429,0,0,6228.047,4,10,2025-04-18T12:06:19.732+03:00,766660103.6307706,0,108.13,100.5586,1,0.5,2025-04-18T12:08:20.795+03:00,108,1.8,2025-04-18T08:51:18.885+03:00,0.03057091307199995,1
2025-04-18T12:08:26.009+03:00,1744967304.970806,40.95359319739049,29.1409997789972,93.61648,-1,-1,-1,-1,30,23.79642844582683,-9999,65622.62990337501,-0.7039794921875,0.69830322265625,-0.139984130859375,65622.623597375,1.514737443866043,-1.372579691289784,-0.7702855785108066,-0.02418734319508076,0.001731021329760551,-0.01790766790509224,-0.005905568599700928,-0.00452190637588501,-0.00209982693195343,XArbitraryZVertical,0.1922593165747382,-0.6263944405966505,0.6655297298273107,0.3574027464099714,-0.7036587595939636,0.6963402032852173,-0.1413327157497406,0,0,0,-1,-1,65617.57966775,unknown,2,2025-04-18T12:08:20.955+03:00,2025-04-17T15:44:39.500+03:00,7557,1.143429,0,0,6228.047,4,10,2025-04-18T12:06:19.732+03:00,766660103.6307706,0,108.13,100.5586,1,0.5,2025-04-18T12:08:20.795+03:00,108,1.8,2025-04-18T08:51:18.885+03:00,0.03057091307199995,1
2025-04-18T12:08:26.019+03:00,1744967304.970806,40.95359319739049,29.1409997789972,93.61648,-1,-1,-1,-1,30,23.79642844582683,-9999,65622.63997837501,-0.699462890625,0.704681396484375,-0.1447906494140625,65622.63367337501,1.51439762889239,-1.372814356600923,-0.7700921127714799,-0.01739008910953999,-0.0005421862006187439,-0.02709607407450676,-0.00212407112121582,1.138448715209961e-05,0.0005691200494766235,XArbitraryZVertical,0.1922972409827529,-0.62643813974021,0.6654244462019219,0.357501593144723,-0.7038238644599915,0.6962013840675354,-0.1411940604448318,0,0,0,-1,-1,65617.57966775,unknown,2,2025-04-18T12:08:20.955+03:00,2025-04-17T15:44:39.500+03:00,7557,1.143429,0,0,6228.047,4,10,2025-04-18T12:06:19.732+03:00,766660103.6307706,0,108.13,100.5586,1,0.5,2025-04-18T12:08:20.795+03:00,108,1.8,2025-04-18T08:51:18.885+03:00,0.03057091307199995,1
2025-04-18T12:08:26.029+03:00,1744967304.970806,40.95359319739049,29.1409997789972,93.61648,-1,-1,-1,-1,30,23.79642844582683,-9999,65622.650054375,-0.7030181884765625,0.7052764892578125,-0.1486053466796875,65622.64374837501,1.514132655302152,-1.373011652559577,-0.7698486789640208,-0.01152927055954933,-0.005023221485316753,-0.03305409848690033,0.004661798477172852,0.00792241096496582,-0.002084672451019287,XArbitraryZVertical,0.1923631622756946,-0.6264600219715901,0.6653304302695315,0.3576028659308082,-0.7040179371833801,0.696026623249054,-0.1410885155200958,0,0,0,-1,-1,65617.57966775,unknown,2,2025-04-18T12:08:20.955+03:00,2025-04-17T15:44:39.500+03:00,7557,1.143429,0,0,6228.047,4,10,2025-04-18T12:06:19.732+03:00,766660103.6307706,0,108.13,100.5586,1,0.5,2025-04-18T12:08:20.795+03:00,108,1.8,2025-04-18T08:51:18.885+03:00,0.03057091307199995,1
2025-04-18T12:08:26.039+03:00,1744967304.970806,40.95359319739049,29.1409997789972,93.61648,-1,-1,-1,-1,30,23.79642844582683,-9999,65622.660129375,-0.7008209228515625,0.703582763671875,-0.15057373046875,65622.653823375,1.514026871574109,-1.373148097461159,-0.7695128613764802,0.009791996330022812,-0.01271709427237511,-0.03560167923569679,0.001553237438201904,0.009872555732727051,-0.007338047027587891,XArbitraryZVertical,0.1924903477095355,-0.6264409760524461,0.6652601652700294,0.3576985083454708,-0.7042663097381592,0.6957854628562927,-0.1410383433103561,0,0,0,-1,-1,65617.57966775,unknown,2,2025-04-18T12:08:20.955+03:00,2025-04-17T15:44:39.500+03:00,7557,1.143429,0,0,6228.047,4,10,2025-04-18T12:06:19.732+03:00,766660103.6307706,0,108.13,100.5586,1,0.5,2025-04-18T12:08:20.795+03:00,108,1.8,2025-04-18T08:51:18.885+03:00,0.03057091307199995,1
2025-04-18T12:08:26.049+03:00,1744967304.970806,40.95359319739049,29.1409997789972,93.61648,-1,-1,-1,-1,30,23.79642844582683,-9999,65622.670204375,-0.6995391845703125,0.699951171875,-0.15386962890625,65622.66389937501,1.514263296457934,-1.373159715453213,-0.7691050711529762,0.03723107650876045,-0.02276227064430714,-0.03213983401656151,0.002489209175109863,0.008319199085235596,-0.009014785289764404,XArbitraryZVertical,0.1927077986366769,-0.6263551480917259,0.6652548985798369,0.3577415678921541,-0.7045461535453796,0.6954925060272217,-0.1410858631134033,0,0,0,-1,-1,65617.57966775,unknown,2,2025-04-18T12:08:20.955+03:00,2025-04-17T15:44:39.500+03:00,7557,1.143429,0,0,6228.047,4,10,2025-04-18T12:06:19.732+03:00,766660103.6307706,0,108.13,100.5586,1,0.5,2025-04-18T12:08:20.795+03:00,108,1.8,2025-04-18T08:51:18.885+03:00,0.03057091307199995,1
2025-04-18T12:08:26.059+03:00,1744967304.970806,40.95359319739049,29.1409997789972,93.61648,-1,-1,-1,-1,30,23.79642844582683,-9999,65622.680280375,-0.7010498046875,0.6933135986328125,-0.1538543701171875,65622.67397437501,1.514767692001903,-1.373058799583373,-0.7686846549026584,0.04746227711439133,-0.02823653072118759,-0.0289789941161871,0.005904912948608398,0.005951106548309326,-0.01187701523303986,XArbitraryZVertical,0.1929760293660967,-0.626221249873077,0.6653069726384008,0.3577345640968107,-0.7048185467720032,0.6951903104782104,-0.1412144005298615,0,0,0,-1,-1,65617.57966775,unknown,2,2025-04-18T12:08:20.955+03:00,2025-04-17T15:44:39.500+03:00,7557,1.143429,0,0,6228.047,4,10,2025-04-18T12:06:19.732+03:00,766660103.6307706,0,108.13,100.5586,1,0.5,2025-04-18T12:08:20.795+03:00,108,1.8,2025-04-18T08:51:18.885+03:00,0.03057091307199995,1
2025-04-18T12:08:26.069+03:00,1744967304.970806,40.95359319739049,29.1409997789972,93.61648,-1,-1,-1,-1,30,23.79642844582683,-9999,65622.690355375,-0.7014312744140625,0.6851959228515625,-0.1526641845703125,65622.68404937501,1.515319162807003,-1.373005672866344,-0.7683132072040041,0.04116097092628479,-0.03798316791653633,-0.02536748163402081,0.005006134510040283,0.0007860660552978516,-0.01294846832752228,XArbitraryZVertical,0.1932580761471995,-0.6260990542392176,0.6653684473158604,0.3576818925668293,-0.7050642371177673,0.6949232816696167,-0.1413025856018066,0,0,0,-1,-1,65617.57966775,unknown,2,2025-04-18T12:08:20.955+03:00,2025-04-17T15:44:39.500+03:00,7557,1.143429,0,0,6228.047,4,10,2025-04-18T12:06:19.732+03:00,766660103.6307706,0,108.13,100.5586,1,0.5,2025-04-18T12:08:20.795+03:00,108,1.8,2025-04-18T08:51:18.885+03:00,0.03057091307199995,1
2025-04-18T12:08:26.079+03:00,1744967304.970806,40.95359319739049,29.1409997789972,93.61648,-1,-1,-1,-1,30,23.79642844582683,-9999,65622.700430375,-0.7002105712890625,0.6804046630859375,-0.1467742919921875,65622.694125375,1.515720224591979,-1.373125610903573,-0.7680171068291897,0.0247320644557476,-0.0409276932477951,-0.01935812644660473,0.003515660762786865,-0.007454454898834229,-0.01174145936965942,XArbitraryZVertical,0.1935248981694649,-0.6260342857564889,0.6653948386018084,0.3576016200701823,-0.7052826881408691,0.6947103142738342,-0.1412583738565445,0,0,0,-1,-1,65617.57966775,unknown,2,2025-04-18T12:08:20.955+03:00,2025-04-17T15:44:39.500+03:00,7557,1.143429,0,0,6228.047,4,10,2025-04-18T12:06:19.732+03:00,766660103.6307706,0,108.13,100.5586,1,0.5,2025-04-18T12:08:20.795+03:00,108,1.8,2025-04-18T08:51:18.885+03:00,0.03057091307199995,1
2025-04-18T12:08:26.089+03:00,1744967304.970806,40.95359319739049,29.1409997789972,93.61648,-1,-1,-1,-1,30,23.79642844582683,-9999,65622.71050637501,-0.7007904052734375,0.6748809814453125,-0.1446380615234375,65622.70420037501,1.515889700747876,-1.373428424001228,-0.7678166629045083,0.005967430770397186,-0.04175326973199844,-0.01227118819952011,0.004946231842041016,-0.01239144802093506,-0.00731956958770752,XArbitraryZVertical,0.1937472133744469,-0.6260399017406693,0.665373001182663,0.3575121275226661,-0.7054620385169983,0.6945661306381226,-0.1410721242427826,0,0,0,-1,-1,65617.57966775,unknown,2,2025-04-18T12:08:20.955+03:00,2025-04-17T15:44:39.500+03:00,7557,1.143429,0,0,6228.047,4,10,2025-04-18T12:06:19.732+03:00,766660103.6307706,0,108.13,100.5586,1,0.5,2025-04-18T12:08:20.795+03:00,108,1.8,2025-04-18T08:51:18.885+03:00,0.03057091307199995,1
2025-04-18T12:08:26.099+03:00,1744967304.970806,40.95359319739049,29.1409997789972,93.61648,-1,-1,-1,-1,30,23.79642844582683,-9999,65622.720581375,-0.698638916015625,0.676666259765625,-0.144317626953125,65622.71427537501,1.515821857537292,-1.373937063620512,-0.7677426860721552,-0.01238054968416691,-0.04999668896198273,-0.005313347559422255,0.004503726959228516,-0.01917415857315063,-0.00391465425491333,XArbitraryZVertical,0.1939204731211836,-0.6261255355355538,0.6653031517807534,0.3573982300303541,-0.7055841088294983,0.6945129036903381,-0.1407233327627182,0,0,0,-1,-1,65617.57966775,unknown,2,2025-04-18T12:08:20.955+03:00,2025-04-17T15:44:39.500+03:00,7557,1.143429,0,0,6228.047,4,10,2025-04-18T12:06:19.732+03:00,766660103.6307706,0,108.13,100.5586,1,0.5,2025-04-18T12:08:20.795+03:00,108,1.8,2025-04-18T08:51:18.885+03:00,0.03057091307199995,1
2025-04-18T12:08:26.109+03:00,1744967304.970806,40.95359319739049,29.1409997789972,93.61648,-1,-1,-1,-1,30,23.79642844582683,-9999,65622.730656375,-0.700958251953125,0.6822967529296875,-0.1431427001953125,65622.724351375,1.515599561850945,-1.374619421231404,-0.7677757499349204,-0.02028667740523815,-0.05512593686580658,-0.001046430552378297,0.006133496761322021,-0.01977771520614624,-0.004522696137428284,XArbitraryZVertical,0.1940665129867973,-0.6262743038561623,0.6652010270771825,0.3572484327152662,-0.7056575417518616,0.6945366859436035,-0.1402373760938644,0,0,0,-1,-1,65617.57966775,unknown,2,2025-04-18T12:08:20.955+03:00,2025-04-17T15:44:39.500+03:00,7557,1.143429,0,0,6228.047,4,10,2025-04-18T12:06:19.732+03:00,766660103.6307706,0,108.13,100.5586,1,0.5,2025-04-18T12:08:20.795+03:00,108,1.8,2025-04-18T08:51:18.885+03:00,0.03057091307199995,1
2025-04-18T12:08:26.119+03:00,1744967304.970806,40.95359319739049,29.1409997789972,93.61648,-1,-1,-1,-1,30,23.79642844582683,-9999,65622.74073237501,-0.70159912109375,0.6896514892578125,-0.1450347900390625,65622.734426375,1.515337491751773,-1.375367807477526,-0.767851615388659,-0.0219117384403944,-0.0629817321896553,0.0001147076836787164,0.005469381809234619,-0.0133931040763855,-0.003748834133148193,XArbitraryZVertical,0.1942074095356652,-0.6264455205831878,0.6650902435787777,0.3570778350445822,-0.7057105302810669,0.6945912837982178,-0.1396989822387695,0,0,0,-1,-1,65617.57966775,unknown,2,2025-04-18T12:08:20.955+03:00,2025-04-17T15:44:39.500+03:00,7557,1.143429,0,0,6228.047,4,10,2025-04-18T12:06:19.732+03:00,766660103.6307706,0,108.13,100.5586,1,0.5,2025-04-18T12:08:20.795+03:00,108,1.8,2025-04-18T08:51:18.885+03:00,0.03057091307199995,1
2025-04-18T12:08:26.129+03:00,1744967304.970806,40.95359319739049,29.1409997789972,93.61648,-1,-1,-1,-1,30,23.79642844582683,-9999,65622.75080737501,-0.7037200927734375,0.6903839111328125,-0.1449737548828125,65622.74450137501,1.515142172552105,-1.376107037224411,-0.7679357341576736,-0.01886135339736938,-0.0663897767663002,0.003374683205038309,0.003821372985839844,-0.00602269172668457,-0.005197390913963318,XArbitraryZVertical,0.1943633122112603,-0.626609873611751,0.6649931826530998,0.3568852286672686,-0.7057561874389648,0.6946517825126648,-0.1391659379005432,0,0,0,-1,-1,65617.57966775,unknown,2,2025-04-18T12:08:20.955+03:00,2025-04-17T15:44:39.500+03:00,7557,1.143429,0,0,6228.047,4,10,2025-04-18T12:06:19.732+03:00,766660103.6307706,0,108.13,100.5586,1,0.5,2025-04-18T12:08:20.795+03:00,108,1.8,2025-04-18T08:51:18.885+03:00,0.03057091307199995,1
2025-04-18T12:08:26.139+03:00,1744967304.970806,40.95359319739049,29.1409997789972,93.61648,-1,-1,-1,-1,30,23.79642844582683,-9999,65622.76088237501,-0.70654296875,0.6941375732421875,-0.1417083740234375,65622.754577375,1.51489236287752,-1.376958587359091,-0.7680420741693393,-0.02282067388296127,-0.07425648719072342,0.003836475312709808,0.002463400363922119,-0.004191696643829346,-0.006712928414344788,XArbitraryZVertical,0.194531706429457,-0.6268030462899032,0.6648780281765791,0.3566689978665102,-0.7058021426200867,0.6947283148765564,-0.1385507136583328,0,0,0,-1,-1,65617.57966775,unknown,2,2025-04-18T12:08:20.955+03:00,2025-04-17T15:44:39.500+03:00,7557,1.143429,0,0,6228.047,4,10,2025-04-18T12:06:19.732+03:00,766660103.6307706,0,108.13,100.5586,1,0.5,2025-04-18T12:08:20.795+03:00,108,1.8,2025-04-18T08:51:18.885+03:00,0.03057091307199995,1
2025-04-18T12:08:26.150+03:00,1744967304.970806,40.95359319739049,29.1409997789972,93.61648,-1,-1,-1,-1,30,23.79642844582683,-9999,65622.77095837501,-0.706878662109375,0.703948974609375,-0.136474609375,65622.764652375,1.514671972764132,-1.377844100148459,-0.768132611943618,-0.01934311911463737,-0.07924298942089081,0.002453229390084743,-0.000283658504486084,-0.003143012523651123,-0.005763113498687744,XArbitraryZVertical,0.1947260883017107,-0.6269967831240676,0.6647629359252505,0.3564366698477433,-0.7058626413345337,0.6947934031486511,-0.1379135698080063,0,0,0,-1,-1,65617.57966775,unknown,2,2025-04-18T12:08:20.955+03:00,2025-04-17T15:44:39.500+03:00,7557,1.143429,0,0,6228.047,4,10,2025-04-18T12:06:19.732+03:00,766660103.6307706,0,108.13,100.5586,1,0.5,2025-04-18T12:08:20.795+03:00,108,1.8,2025-04-18T08:51:18.885+03:00,0.03057091307199995,1
