loggingTime(txt),locationTimestamp_since1970(s),locationLatitude(WGS84),locationLongitude(WGS84),locationAltitude(m),locationSpeed(m/s),locationSpeedAccuracy(m/s),locationCourse(°),locationCourseAccuracy(°),locationVerticalAccuracy(m),locationHorizontalAccuracy(m),locationFloor(Z),accelerometerTimestamp_sinceReboot(s),accelerometerAccelerationX(G),accelerometerAccelerationY(G),accelerometerAccelerationZ(G),motionTimestamp_sinceReboot(s),motionYaw(rad),motionRoll(rad),motionPitch(rad),motionRotationRateX(rad/s),motionRotationRateY(rad/s),motionRotationRateZ(rad/s),motionUserAccelerationX(G),motionUserAccelerationY(G),motionUserAccelerationZ(G),motionAttitudeReferenceFrame(txt),motionQuaternionX(R),motionQuaternionY(R),motionQuaternionZ(R),motionQuaternionW(R),motionGravityX(G),motionGravityY(G),motionGravityZ(G),motionMagneticFieldX(µT),motionMagneticFieldY(µT),motionMagneticFieldZ(µT),motionHeading(°),motionMagneticFieldCalibrationAccuracy(Z),activityTimestamp_sinceReboot(s),activity(txt),activityActivityConfidence(Z),activityActivityStartDate(txt),pedometerStartDate(txt),pedometerNumberofSteps(N),pedometerAverageActivePace(s/m),pedometerCurrentPace(s/m),pedometerCurrentCadence(steps/s),pedometerDistance(m),pedometerFloorAscended(N),pedometerFloorDescended(N),pedometerEndDate(txt),altimeterTimestamp_sinceReboot(s),altimeterReset(bool),altimeterRelativeAltitude(m),altimeterPressure(kPa),batteryState(N),batteryLevel(R),heartRateBPMTimestamp(txt),heartRateBPM(N),heartRateBPS(R),heartRateVariabilityTimestamp(txt),heartRateVariability(ms),label
2025-04-18T12:28:59.660+03:00,1744968539.412587,40.95366318922127,29.14102828050063,92.44445,-1,-1,-1,-1,30,31.2094058870221,-9999,66548.45859479166,-0.6802978515625,0.6818084716796875,-0.130706787109375,66548.44851979167,1.264365249858195,-1.37091129508513,-0.7724224030592475,0.00890942569822073,-0.007131404709070921,-0.01651887781918049,-0.04832804203033447,-0.0009270310401916504,-0.001069307327270508,XArbitraryZVertical,0.1112613864180924,-0.6453801586699653,0.6161118762161685,0.4376203665097491,-0.7019619345664978,0.6978722810745239,-0.1422107070684433,0,0,0,-1,-1,66540.06475766667,unknown,2,2025-04-18T12:28:51.236+03:00,2025-04-17T15:44:39.500+03:00,7638,1.148105,0,0,6290.708,4,10,2025-04-18T12:28:51.236+03:00,766661339.0591693,0,110.73,100.5267,1,0.45,2025-04-18T12:23:56.170+03:00,84,1.4,2025-04-18T08:51:18.885+03:00,0.03057091307199995,1
2025-04-18T12:28:59.662+03:00,1744968539.412587,40.95366318922127,29.14102828050063,92.44445,-1,-1,-1,-1,30,31.2094058870221,-9999,66548.46866979168,-0.7091064453125,0.6881561279296875,-0.141693115234375,66548.45859479166,1.264422567627145,-1.37075344218017,-0.7723423452376227,0.007606873288750648,0.02873897925019264,0.008582480251789093,0.01470774412155151,-0.01318359375,0.01048149168491364,XArbitraryZVertical,0.1112600902984109,-0.6453331656428555,0.6161211665869334,0.4376768139309626,-0.7019941210746765,0.69781494140625,-0.142332598567009,0,0,0,-1,-1,66540.06475766667,unknown,2,2025-04-18T12:28:51.236+03:00,2025-04-17T15:44:39.500+03:00,7638,1.148105,0,0,6290.708,4,10,2025-04-18T12:28:51.236+03:00,766661339.0591693,0,110.73,100.5267,1,0.45,2025-04-18T12:23:56.170+03:00,84,1.4,2025-04-18T08:51:18.885+03:00,0.03057091307199995,1
2025-04-18T12:28:59.667+03:00,1744968539.412587,40.95366318922127,29.14102828050063,92.44445,-1,-1,-1,-1,30,31.2094058870221,-9999,66548.47874479168,-0.6970367431640625,0.693328857421875,-0.144561767578125,66548.46866979168,1.264511459576685,-1.370498849409905,-0.7723992501947027,-0.0004846085794270039,0.008858746849000454,0.00553862052038312,-0.0007176995277404785,-0.01189672946929932,0.002916142344474792,XArbitraryZVertical,0.1111898036800502,-0.6452790899376918,0.6161633252379082,0.4377152204190067,-0.7019191384315491,0.6978556513786316,-0.1425034403800964,0,0,0,-1,-1,66540.06475766667,unknown,2,2025-04-18T12:28:51.236+03:00,2025-04-17T15:44:39.500+03:00,7638,1.148105,0,0,6290.708,4,10,2025-04-18T12:28:51.236+03:00,766661339.0591693,0,110.73,100.5267,1,0.45,2025-04-18T12:23:56.170+03:00,84,1.4,2025-04-18T08:51:18.885+03:00,0.03057091307199995,1
2025-04-18T12:28:59.679+03:00,1744968539.412587,40.95366318922127,29.14102828050063,92.44445,-1,-1,-1,-1,30,31.2094058870221,-9999,66548.48882079167,-0.6936798095703125,0.6944122314453125,-0.1488189697265625,66548.47874479168,1.26458091651621,-1.370302504126639,-0.7724830956537188,0.008588248863816261,0.01656007580459118,0.005579899530857801,5.7220458984375e-06,-0.00367128849029541,-0.002466201782226562,XArbitraryZVertical,0.1111215602454401,-0.6452419659873152,0.6162020380985525,0.4377327732084281,-0.7018337845802307,0.6979157328605652,-0.1426296085119247,0,0,0,-1,-1,66540.06475766667,unknown,2,2025-04-18T12:28:51.236+03:00,2025-04-17T15:44:39.500+03:00,7638,1.148105,0,0,6290.708,4,10,2025-04-18T12:28:51.236+03:00,766661339.0591693,0,110.73,100.5267,1,0.45,2025-04-18T12:23:56.170+03:00,84,1.4,2025-04-18T08:51:18.885+03:00,0.03057091307199995,1
2025-04-18T12:28:59.690+03:00,1744968539.412587,40.95366318922127,29.14102828050063,92.44445,-1,-1,-1,-1,30,31.2094058870221,-9999,66548.49889579166,-0.69720458984375,0.707763671875,-0.153900146484375,66548.48882079167,1.264817785514158,-1.369969711566387,-0.77249511685966,0.02282863669097424,0.009323402307927608,0.0009647413389757276,0.009654521942138672,-0.004992187023162842,-0.004843533039093018,XArbitraryZVertical,0.1110911413509114,-0.645157361297827,0.6162741794518033,0.4377635555217595,-0.7017779350280762,0.6979243159294128,-0.142861470580101,0,0,0,-1,-1,66540.06475766667,unknown,2,2025-04-18T12:28:51.236+03:00,2025-04-17T15:44:39.500+03:00,7638,1.148105,0,0,6290.708,4,10,2025-04-18T12:28:51.236+03:00,766661339.0591693,0,110.73,100.5267,1,0.45,2025-04-18T12:23:56.170+03:00,84,1.4,2025-04-18T08:51:18.885+03:00,0.03057091307199995,1
2025-04-18T12:28:59.694+03:00,1744968539.412587,40.95366318922127,29.14102828050063,92.44445,-1,-1,-1,-1,30,31.2094058870221,-9999,66548.50897079168,-0.6960296630859375,0.7017974853515625,-0.1501007080078125,66548.49889579166,1.26517207238157,-1.369595921759448,-0.7724635299021413,0.02721433155238628,0.01521538011729717,8.829511352814734e-05,0.002786636352539062,0.01030445098876953,-0.01116858422756195,XArbitraryZVertical,0.1111016368213414,-0.6450522023962847,0.6163677562067819,0.4377840021611563,-0.7017459869384766,0.697901725769043,-0.1431281715631485,0,0,0,-1,-1,66540.06475766667,unknown,2,2025-04-18T12:28:51.236+03:00,2025-04-17T15:44:39.500+03:00,7638,1.148105,0,0,6290.708,4,10,2025-04-18T12:28:51.236+03:00,766661339.0591693,0,110.73,100.5267,1,0.45,2025-04-18T12:23:56.170+03:00,84,1.4,2025-04-18T08:51:18.885+03:00,0.03057091307199995,1
2025-04-18T12:28:59.704+03:00,1744968539.412587,40.95366318922127,29.14102828050063,92.44445,-1,-1,-1,-1,30,31.2094058870221,-9999,66548.51904679167,-0.6978302001953125,0.7006988525390625,-0.1483001708984375,66548.50897079168,1.265581882287004,-1.369182924181256,-0.7724159255532713,0.03082983754575253,0.009932734072208405,-0.002719875192269683,0.006467998027801514,0.00461655855178833,-0.006965875625610352,XArbitraryZVertical,0.1111235698532329,-0.6449335020771241,0.6164732605690819,0.4378049309076376,-0.7017195820808411,0.6978676319122314,-0.1434246599674225,0,0,0,-1,-1,66540.06475766667,unknown,2,2025-04-18T12:28:51.236+03:00,2025-04-17T15:44:39.500+03:00,7638,1.148105,0,0,6290.708,4,10,2025-04-18T12:28:51.236+03:00,766661339.0591693,0,110.73,100.5267,1,0.45,2025-04-18T12:23:56.170+03:00,84,1.4,2025-04-18T08:51:18.885+03:00,0.03057091307199995,1
2025-04-18T12:28:59.715+03:00,1744968539.412587,40.95366318922127,29.14102828050063,92.44445,-1,-1,-1,-1,30,31.2094058870221,-9999,66548.52912116668,-0.697113037109375,0.6934356689453125,-0.144775390625,66548.51904679167,1.265930766622853,-1.368846303424623,-0.772378872511453,0.02145897224545479,0.008391030132770538,0.001087646349333227,0.003149271011352539,0.002751052379608154,-0.005351200699806213,XArbitraryZVertical,0.1111455681875231,-0.6448361188880046,0.6165627789574246,0.4378168882753822,-0.7016967535018921,0.6978411078453064,-0.1436660885810852,0,0,0,-1,-1,66540.06475766667,unknown,2,2025-04-18T12:28:51.236+03:00,2025-04-17T15:44:39.500+03:00,7638,1.148105,0,0,6290.708,4,10,2025-04-18T12:28:51.236+03:00,766661339.0591693,0,110.73,100.5267,1,0.45,2025-04-18T12:23:56.170+03:00,84,1.4,2025-04-18T08:51:18.885+03:00,0.03057091307199995,1
2025-04-18T12:28:59.725+03:00,1744968539.412587,40.95366318922127,29.14102828050063,92.44445,-1,-1,-1,-1,30,31.2094058870221,-9999,66548.53919616668,-0.7005615234375,0.688873291015625,-0.1434783935546875,66548.52912116668,1.266165165822088,-1.368611177666989,-0.7723286363201177,0.01338593382388353,0.007848876528441906,0.00402434729039669,0.004309415817260742,-0.003224968910217285,-0.002081647515296936,XArbitraryZVertical,0.1111667396856325,-0.6447657764177462,0.6166196385809981,0.4378349934492735,-0.7016972303390503,0.6978051066398621,-0.1438380926847458,0,0,0,-1,-1,66540.06475766667,unknown,2,2025-04-18T12:28:51.236+03:00,2025-04-17T15:44:39.500+03:00,7638,1.148105,0,0,6290.708,4,10,2025-04-18T12:28:51.236+03:00,766661339.0591693,0,110.73,100.5267,1,0.45,2025-04-18T12:23:56.170+03:00,84,1.4,2025-04-18T08:51:18.885+03:00,0.03057091307199995,1
2025-04-18T12:28:59.735+03:00,1744968539.412587,40.95366318922127,29.14102828050063,92.44445,-1,-1,-1,-1,30,31.2094058870221,-9999,66548.54927116667,-0.702789306640625,0.6904144287109375,-0.142547607421875,66548.53919616668,1.266341240403629,-1.368433482780342,-0.7723547532801898,0.01262080762535334,0.00602274714037776,0.005790821742266417,0.001717746257781982,-0.008584201335906982,0.0007859915494918823,XArbitraryZVertical,0.1111593319334025,-0.6447201298940841,0.6166719718973085,0.4378303484353461,-0.701653778553009,0.6978238224983215,-0.1439591199159622,0,0,0,-1,-1,66540.06475766667,unknown,2,2025-04-18T12:28:51.236+03:00,2025-04-17T15:44:39.500+03:00,7638,1.148105,0,0,6290.708,4,10,2025-04-18T12:28:51.236+03:00,766661339.0591693,0,110.73,100.5267,1,0.45,2025-04-18T12:23:56.170+03:00,84,1.4,2025-04-18T08:51:18.885+03:00,0.03057091307199995,1
2025-04-18T12:28:59.745+03:00,1744968539.412587,40.95366318922127,29.14102828050063,92.44445,-1,-1,-1,-1,30,31.2094058870221,-9999,66548.55934716667,-0.702850341796875,0.695709228515625,-0.1431732177734375,66548.54927116667,1.266534645901898,-1.368257144431137,-0.7723774538295695,0.01506019569933414,0.003310783300548792,0.006384407635778189,-0.0008256435394287109,-0.007379829883575439,0.0009827613830566406,XArbitraryZVertical,0.1111591765185748,-0.6446734226742034,0.6167275132423045,0.4378208240373886,-0.7016127705574036,0.6978400945663452,-0.1440796256065369,0,0,0,-1,-1,66540.06475766667,unknown,2,2025-04-18T12:28:51.236+03:00,2025-04-17T15:44:39.500+03:00,7638,1.148105,0,0,6290.708,4,10,2025-04-18T12:28:51.236+03:00,766661339.0591693,0,110.73,100.5267,1,0.45,2025-04-18T12:23:56.170+03:00,84,1.4,2025-04-18T08:51:18.885+03:00,0.03057091307199995,1
2025-04-18T12:28:59.755+03:00,1744968539.412587,40.95366318922127,29.14102828050063,92.44445,-1,-1,-1,-1,30,31.2094058870221,-9999,66548.56942216666,-0.701690673828125,0.6988067626953125,-0.1464691162109375,66548.55934716667,1.266743225360578,-1.368096506373882,-0.7724144047386642,0.01381303742527962,0.0001860964111983776,0.007224368397146463,-0.001057147979736328,-0.003042280673980713,0.001242876052856445,XArbitraryZVertical,0.1111635636225663,-0.6446309696402078,0.6167876256922784,0.4377975678063413,-0.7015643715858459,0.6978665590286255,-0.1441871523857117,0,0,0,-1,-1,66540.06475766667,unknown,2,2025-04-18T12:28:51.236+03:00,2025-04-17T15:44:39.500+03:00,7638,1.148105,0,0,6290.708,4,10,2025-04-18T12:28:51.236+03:00,766661339.0591693,0,110.73,100.5267,1,0.45,2025-04-18T12:23:56.170+03:00,84,1.4,2025-04-18T08:51:18.885+03:00,0.03057091307199995,1
2025-04-18T12:28:59.765+03:00,1744968539.412587,40.95366318922127,29.14102828050063,92.44445,-1,-1,-1,-1,30,31.2094058870221,-9999,66548.57949716668,-0.699249267578125,0.697235107421875,-0.149566650390625,66548.56942216666,1.266949562050385,-1.367961216792386,-0.7724270953602428,0.01467863190919161,-0.002585388254374266,-0.001018747687339783,-0.0007649064064025879,0.0008396506309509277,-0.002020910382270813,XArbitraryZVertical,0.1111837436972361,-0.644591364038287,0.616842204971213,0.4377739459989208,-0.701536238193512,0.6978756189346313,-0.1442802995443344,0,0,0,-1,-1,66540.06475766667,unknown,2,2025-04-18T12:28:51.236+03:00,2025-04-17T15:44:39.500+03:00,7638,1.148105,0,0,6290.708,4,10,2025-04-18T12:28:51.236+03:00,766661339.0591693,0,110.73,100.5267,1,0.45,2025-04-18T12:23:56.170+03:00,84,1.4,2025-04-18T08:51:18.885+03:00,0.03057091307199995,1
2025-04-18T12:28:59.775+03:00,1744968539.412587,40.95366318922127,29.14102828050063,92.44445,-1,-1,-1,-1,30,31.2094058870221,-9999,66548.58957216667,-0.7028961181640625,0.6999053955078125,-0.1521148681640625,66548.57949716668,1.267188488028639,-1.367810354212431,-0.7723983595989885,0.01794526539742947,-0.003103639464825392,0.0003469213552307338,0.001964330673217773,-0.0009097456932067871,-0.004398241639137268,XArbitraryZVertical,0.1112245544930949,-0.6445417070083661,0.616898595805396,0.4377572274089949,-0.7015341520309448,0.6978550553321838,-0.1443901658058167,0,0,0,-1,-1,66540.06475766667,unknown,2,2025-04-18T12:28:51.236+03:00,2025-04-17T15:44:39.500+03:00,7638,1.148105,0,0,6290.708,4,10,2025-04-18T12:28:51.236+03:00,766661339.0591693,0,110.73,100.5267,1,0.45,2025-04-18T12:23:56.170+03:00,84,1.4,2025-04-18T08:51:18.885+03:00,0.03057091307199995,1
2025-04-18T12:28:59.785+03:00,1744968539.412587,40.95366318922127,29.14102828050063,92.44445,-1,-1,-1,-1,30,31.2094058870221,-9999,66548.59964816667,-0.702056884765625,0.6999053955078125,-0.15008544921875,66548.58957216667,1.267510351845451,-1.367600206632072,-0.7723509276943193,0.02491688914597034,-0.001751286443322897,-0.0005969029734842479,-0.001207470893859863,0.001245081424713135,-0.007540032267570496,XArbitraryZVertical,0.1112805561825448,-0.6444722731852579,0.6169736525159822,0.437739343598824,-0.7015360593795776,0.6978210806846619,-0.1445442587137222,0,0,0,-1,-1,66540.06475766667,unknown,2,2025-04-18T12:28:51.236+03:00,2025-04-17T15:44:39.500+03:00,7638,1.148105,0,0,6290.708,4,10,2025-04-18T12:28:51.236+03:00,766661339.0591693,0,110.73,100.5267,1,0.45,2025-04-18T12:23:56.170+03:00,84,1.4,2025-04-18T08:51:18.885+03:00,0.03057091307199995,1
2025-04-18T12:28:59.795+03:00,1744968539.412587,40.95366318922127,29.14102828050063,92.44445,-1,-1,-1,-1,30,31.2094058870221,-9999,66548.60972316666,-0.7039947509765625,0.69622802734375,-0.14593505859375,66548.59964816667,1.267898909409516,-1.367342829664627,-0.7722997394315234,0.02684688195586205,-0.002360617741942406,-0.001727681141346693,-0.001438558101654053,0.002319395542144775,-0.006085753440856934,XArbitraryZVertical,0.1113447475770201,-0.6443883370263376,0.6170653740924009,0.437717354565393,-0.7015339136123657,0.697784423828125,-0.1447320431470871,0,0,0,-1,-1,66540.06475766667,unknown,2,2025-04-18T12:28:51.236+03:00,2025-04-17T15:44:39.500+03:00,7638,1.148105,0,0,6290.708,4,10,2025-04-18T12:28:51.236+03:00,766661339.0591693,0,110.73,100.5267,1,0.45,2025-04-18T12:23:56.170+03:00,84,1.4,2025-04-18T08:51:18.885+03:00,0.03057091307199995,1
2025-04-18T12:28:59.805+03:00,1744968539.412587,40.95366318922127,29.14102828050063,92.44445,-1,-1,-1,-1,30,31.2094058870221,-9999,66548.61979816668,-0.7032012939453125,0.691680908203125,-0.1421356201171875,66548.60972316666,1.26822644846905,-1.367139061211517,-0.7722360787449152,0.0209684856235981,-0.001839437056332827,-0.003075773362070322,-0.001867175102233887,-0.0006715059280395508,-0.001340925693511963,XArbitraryZVertical,0.1114103310091926,-0.6443180594142709,0.6171389097429584,0.4377003767122528,-0.7015478014945984,0.6977388262748718,-0.1448839455842972,0,0,0,-1,-1,66540.06475766667,unknown,2,2025-04-18T12:28:51.236+03:00,2025-04-17T15:44:39.500+03:00,7638,1.148105,0,0,6290.708,4,10,2025-04-18T12:28:51.236+03:00,766661339.0591693,0,110.73,100.5267,1,0.45,2025-04-18T12:23:56.170+03:00,84,1.4,2025-04-18T08:51:18.885+03:00,0.03057091307199995,1
2025-04-18T12:28:59.815+03:00,1744968539.412587,40.95366318922127,29.14102828050063,92.44445,-1,-1,-1,-1,30,31.2094058870221,-9999,66548.62987316668,-0.7002410888671875,0.691253662109375,-0.14166259765625,66548.61979816668,1.268458660672697,-1.36698824521858,-0.772168635075714,0.01413854211568832,-0.002121732104569674,-0.003821990918368101,-0.002117514610290527,-0.004865109920501709,0.003138363361358643,XArbitraryZVertical,0.1114628300367935,-0.6442642228579127,0.6171880698689617,0.4376970225759125,-0.7015721201896667,0.697690486907959,-0.1449992954730988,0,0,0,-1,-1,66540.06475766667,unknown,2,2025-04-18T12:28:51.236+03:00,2025-04-17T15:44:39.500+03:00,7638,1.148105,0,0,6290.708,4,10,2025-04-18T12:28:51.236+03:00,766661339.0591693,0,110.73,100.5267,1,0.45,2025-04-18T12:23:56.170+03:00,84,1.4,2025-04-18T08:51:18.885+03:00,0.03057091307199995,1
2025-04-18T12:28:59.826+03:00,1744968539.412587,40.95366318922127,29.14102828050063,92.44445,-1,-1,-1,-1,30,31.2094058870221,-9999,66548.63994916667,-0.69830322265625,0.6953277587890625,-0.1442108154296875,66548.62987316668,1.268655724955683,-1.366884348699412,-0.7721054942370884,0.01681715063750744,-0.004462916869670153,-0.001060825539752841,0.001572668552398682,-0.006605088710784912,0.00398312509059906,XArbitraryZVertical,0.1115169430556382,-0.6442231077162113,0.6172275719024214,0.4376880998317785,-0.7016002535820007,0.6976452469825745,-0.1450811177492142,0,0,0,-1,-1,66540.06475766667,unknown,2,2025-04-18T12:28:51.236+03:00,2025-04-17T15:44:39.500+03:00,7638,1.148105,0,0,6290.708,4,10,2025-04-18T12:28:51.236+03:00,766661339.0591693,0,110.73,100.5267,1,0.45,2025-04-18T12:23:56.170+03:00,84,1.4,2025-04-18T08:51:18.885+03:00,0.03057091307199995,1
2025-04-18T12:28:59.836+03:00,1744968539.412587,40.95366318922127,29.14102828050063,92.44445,-1,-1,-1,-1,30,31.2094058870221,-9999,66548.65002416667,-0.696990966796875,0.6939849853515625,-0.1486663818359375,66548.63994916667,1.268846575274822,-1.366822212715915,-0.7720592862508265,0.01340351067483425,-0.008006252348423004,-0.001775618060491979,0.003105878829956055,-0.00248265266418457,0.001424059271812439,XArbitraryZVertical,0.1115758404926717,-0.6441934527850997,0.6172659119602479,0.4376627264259115,-0.7016228437423706,0.6976121664047241,-0.1451312601566315,0,0,0,-1,-1,66540.06475766667,unknown,2,2025-04-18T12:28:51.236+03:00,2025-04-17T15:44:39.500+03:00,7638,1.148105,0,0,6290.708,4,10,2025-04-18T12:28:51.236+03:00,766661339.0591693,0,110.73,100.5267,1,0.45,2025-04-18T12:23:56.170+03:00,84,1.4,2025-04-18T08:51:18.885+03:00,0.03057091307199995,1
2025-04-18T12:28:59.846+03:00,1744968539.412587,40.95366318922127,29.14102828050063,92.44445,-1,-1,-1,-1,30,31.2094058870221,-9999,66548.66009916666,-0.69757080078125,0.689605712890625,-0.149505615234375,66548.65002416667,1.269017234234275,-1.366797673912161,-0.7720269271814487,0.01474654302000999,-0.009429978206753731,0.0007594450144097209,0.004909634590148926,-0.003176689147949219,-0.003665924072265625,XArbitraryZVertical,0.1116349284115674,-0.6441747704282782,0.617299808730436,0.4376272116183444,-0.7016412615776062,0.6975889801979065,-0.1451530158519745,0,0,0,-1,-1,66540.06475766667,unknown,2,2025-04-18T12:28:51.236+03:00,2025-04-17T15:44:39.500+03:00,7638,1.148105,0,0,6290.708,4,10,2025-04-18T12:28:51.236+03:00,766661339.0591693,0,110.73,100.5267,1,0.45,2025-04-18T12:23:56.170+03:00,84,1.4,2025-04-18T08:51:18.885+03:00,0.03057091307199995,1
2025-04-18T12:28:59.856+03:00,1744968539.412587,40.95366318922127,29.14102828050063,92.44445,-1,-1,-1,-1,30,31.2094058870221,-9999,66548.67017416668,-0.699737548828125,0.6904754638671875,-0.14697265625,66548.66009916666,1.269192241778955,-1.366793955990177,-0.7720033782606136,0.01350684091448784,-0.01433205977082253,0.000265694921836257,0.004024922847747803,-0.007417023181915283,-0.004438161849975586,XArbitraryZVertical,0.111698622582616,-0.644161425716926,0.6173347995885333,0.4375812329580527,-0.7016568183898926,0.6975721120834351,-0.1451589465141296,0,0,0,-1,-1,66540.06475766667,unknown,2,2025-04-18T12:28:51.236+03:00,2025-04-17T15:44:39.500+03:00,7638,1.148105,0,0,6290.708,4,10,2025-04-18T12:28:51.236+03:00,766661339.0591693,0,110.73,100.5267,1,0.45,2025-04-18T12:23:56.170+03:00,84,1.4,2025-04-18T08:51:18.885+03:00,0.03057091307199995,1
2025-04-18T12:28:59.866+03:00,1744968539.412587,40.95366318922127,29.14102828050063,92.44445,-1,-1,-1,-1,30,31.2094058870221,-9999,66548.68025016667,-0.702117919921875,0.693023681640625,-0.1409912109375,66548.67017416668,1.269388428178294,-1.366818002473097,-0.7719541722670079,0.01345570757985115,-0.01990818604826927,-0.004552496131509542,0.00175786018371582,-0.006847798824310303,-0.002998456358909607,XArbitraryZVertical,0.1117869699814739,-0.6441499576036808,0.6173690500363999,0.4375271338467467,-0.7016937732696533,0.697536826133728,-0.1451490074396133,0,0,0,-1,-1,66540.06475766667,unknown,2,2025-04-18T12:28:51.236+03:00,2025-04-17T15:44:39.500+03:00,7638,1.148105,0,0,6290.708,4,10,2025-04-18T12:28:51.236+03:00,766661339.0591693,0,110.73,100.5267,1,0.45,2025-04-18T12:23:56.170+03:00,84,1.4,2025-04-18T08:51:18.885+03:00,0.03057091307199995,1
2025-04-18T12:28:59.876+03:00,1744968539.412587,40.95366318922127,29.14102828050063,92.44445,-1,-1,-1,-1,30,31.2094058870221,-9999,66548.69032516667,-0.702423095703125,0.6914825439453125,-0.13507080078125,66548.68025016667,1.269601054090311,-1.366868673693165,-0.7718578239048018,0.01375524699687958,-0.01765947975218296,-0.007637268863618374,-0.0001983642578125,-0.004795074462890625,0.002823665738105774,XArbitraryZVertical,0.1119057421308097,-0.6441378505281603,0.6173983731666026,0.4374732344054379,-0.7017669677734375,0.6974678039550781,-0.145127072930336,0,0,0,-1,-1,66540.06475766667,unknown,2,2025-04-18T12:28:51.236+03:00,2025-04-17T15:44:39.500+03:00,7638,1.148105,0,0,6290.708,4,10,2025-04-18T12:28:51.236+03:00,766661339.0591693,0,110.73,100.5267,1,0.45,2025-04-18T12:23:56.170+03:00,84,1.4,2025-04-18T08:51:18.885+03:00,0.03057091307199995,1
2025-04-18T12:28:59.887+03:00,1744968539.412587,40.95366318922127,29.14102828050063,92.44445,-1,-1,-1,-1,30,31.2094058870221,-9999,66548.70040016666,-0.7024078369140625,0.6978759765625,-0.137481689453125,66548.69032516667,1.269744114329436,-1.366948516830806,-0.771769727590366,0.0109892887994647,-0.01625519432127476,-0.007843397557735443,-0.0001114010810852051,-0.005876302719116211,0.00984489917755127,XArbitraryZVertical,0.1120081441142288,-0.6441369698232182,0.6174120688200125,0.437429014204625,-0.7018387317657471,0.697404682636261,-0.1450834721326828,0,0,0,-1,-1,66540.06475766667,unknown,2,2025-04-18T12:28:51.236+03:00,2025-04-17T15:44:39.500+03:00,7638,1.148105,0,0,6290.708,4,10,2025-04-18T12:28:51.236+03:00,766661339.0591693,0,110.73,100.5267,1,0.45,2025-04-18T12:23:56.170+03:00,84,1.4,2025-04-18T08:51:18.885+03:00,0.03057091307199995,1
2025-04-18T12:28:59.897+03:00,1744968539.412587,40.95366318922127,29.14102828050063,92.44445,-1,-1,-1,-1,30,31.2094058870221,-9999,66548.71047516668,-0.6995391845703125,0.695587158203125,-0.1411285400390625,66548.70040016666,1.26981351413709,-1.367096252463535,-0.7716474461227848,0.005459766834974289,-0.02066512405872345,-0.01136542856693268,-0.0007997751235961914,-0.0005701780319213867,0.007591724395751953,XArbitraryZVertical,0.1121200487356554,-0.6441510416626127,0.6174007446506206,0.437395693844103,-0.7019438147544861,0.6973170042037964,-0.1449970602989197,0,0,0,-1,-1,66540.06475766667,unknown,2,2025-04-18T12:28:51.236+03:00,2025-04-17T15:44:39.500+03:00,7638,1.148105,0,0,6290.708,4,10,2025-04-18T12:28:51.236+03:00,766661339.0591693,0,110.73,100.5267,1,0.45,2025-04-18T12:23:56.170+03:00,84,1.4,2025-04-18T08:51:18.885+03:00,0.03057091307199995,1
2025-04-18T12:28:59.907+03:00,1744968539.412587,40.95366318922127,29.14102828050063,92.44445,-1,-1,-1,-1,30,31.2094058870221,-9999,66548.72055116667,-0.7007598876953125,0.6903839111328125,-0.13751220703125,66548.71047516668,1.269804816089563,-1.367314783646243,-0.7715193000912303,-0.002166927559301257,-0.01907248795032501,-0.01020052749663591,0.002142190933227539,-0.001134395599365234,0.003458559513092041,XArbitraryZVertical,0.1122308267149999,-0.644184284316667,0.6173674889089082,0.4373651801429667,-0.7020629048347473,0.6972251534461975,-0.1448616981506348,0,0,0,-1,-1,66540.06475766667,unknown,2,2025-04-18T12:28:51.236+03:00,2025-04-17T15:44:39.500+03:00,7638,1.148105,0,0,6290.708,4,10,2025-04-18T12:28:51.236+03:00,766661339.0591693,0,110.73,100.5267,1,0.45,2025-04-18T12:23:56.170+03:00,84,1.4,2025-04-18T08:51:18.885+03:00,0.03057091307199995,1
2025-04-18T12:28:59.916+03:00,1744968539.412587,40.95366318922127,29.14102828050063,92.44445,-1,-1,-1,-1,30,31.2094058870221,-9999,66548.73062616667,-0.7017822265625,0.6894683837890625,-0.1435699462890625,66548.72055116667,1.269672351566328,-1.367583496202991,-0.7714672354792537,-0.01375567354261875,-0.0171547457575798,-0.005894196685403585,0.001621544361114502,-0.00642240047454834,0.006679952144622803,XArbitraryZVertical,0.1122898231178052,-0.6442443724850688,0.6173156750537392,0.4373346743782602,-0.7021373510360718,0.6971878409385681,-0.1446803659200668,0,0,0,-1,-1,66540.06475766667,unknown,2,2025-04-18T12:28:51.236+03:00,2025-04-17T15:44:39.500+03:00,7638,1.148105,0,0,6290.708,4,10,2025-04-18T12:28:51.236+03:00,766661339.0591693,0,110.73,100.5267,1,0.45,2025-04-18T12:23:56.170+03:00,84,1.4,2025-04-18T08:51:18.885+03:00,0.03057091307199995,1
2025-04-18T12:28:59.926+03:00,1744968539.412587,40.95366318922127,29.14102828050063,92.44445,-1,-1,-1,-1,30,31.2094058870221,-9999,66548.74070116667,-0.697174072265625,0.6882476806640625,-0.1484375,66548.73062616667,1.269464889406355,-1.367915415903493,-0.7714388080880731,-0.01285912003368139,-0.02123244293034077,-0.005482405424118042,0.0001630187034606934,-0.007927954196929932,0.00208689272403717,XArbitraryZVertical,0.1123357026203359,-0.6443252686457912,0.6172474358837203,0.4372999153934098,-0.7022046446800232,0.6971674561500549,-0.1444512754678726,0,0,0,-1,-1,66540.06475766667,unknown,2,2025-04-18T12:28:51.236+03:00,2025-04-17T15:44:39.500+03:00,7638,1.148105,0,0,6290.708,4,10,2025-04-18T12:28:51.236+03:00,766661339.0591693,0,110.73,100.5267,1,0.45,2025-04-18T12:23:56.170+03:00,84,1.4,2025-04-18T08:51:18.885+03:00,0.03057091307199995,1
2025-04-18T12:28:59.936+03:00,1744968539.412587,40.95366318922127,29.14102828050063,92.44445,-1,-1,-1,-1,30,31.2094058870221,-9999,66548.75077616666,-0.6961822509765625,0.69512939453125,-0.146392822265625,66548.74070116667,1.269364297826559,-1.368214788793291,-0.7713956635420058,-0.003636859357357025,-0.02889036387205124,-0.006733025889843702,0.004416704177856445,-0.009255051612854004,-0.004220843315124512,XArbitraryZVertical,0.1124111300448493,-0.6443913166472962,0.6172021731158014,0.4372472718971136,-0.7022774815559387,0.6971365213394165,-0.1442471444606781,0,0,0,-1,-1,66540.06475766667,unknown,2,2025-04-18T12:28:51.236+03:00,2025-04-17T15:44:39.500+03:00,7638,1.148105,0,0,6290.708,4,10,2025-04-18T12:28:51.236+03:00,766661339.0591693,0,110.73,100.5267,1,0.45,2025-04-18T12:23:56.170+03:00,84,1.4,2025-04-18T08:51:18.885+03:00,0.03057091307199995,1
2025-04-18T12:28:59.947+03:00,1744968539.412587,40.95366318922127,29.14102828050063,92.44445,-1,-1,-1,-1,30,31.2094058870221,-9999,66548.76085216667,-0.696807861328125,0.6938018798828125,-0.14361572265625,66548.75077616666,1.269296251887516,-1.368563720989867,-0.7713508435015771,-0.005316914524883032,-0.03069745004177094,-0.006158781703561544,0.005642056465148926,-0.002508997917175293,-0.003345727920532227,XArbitraryZVertical,0.1125129898151725,-0.6444661713755252,0.6171609815563837,0.4371689074502921,-0.7023584246635437,0.6971043944358826,-0.1440083682537079,0,0,0,-1,-1,66540.06475766667,unknown,2,2025-04-18T12:28:51.236+03:00,2025-04-17T15:44:39.500+03:00,7638,1.148105,0,0,6290.708,4,10,2025-04-18T12:28:51.236+03:00,766661339.0591693,0,110.73,100.5267,1,0.45,2025-04-18T12:23:56.170+03:00,84,1.4,2025-04-18T08:51:18.885+03:00,0.03057091307199995,1
2025-04-18T12:28:59.959+03:00,1744968539.412587,40.95366318922127,29.14102828050063,92.44445,-1,-1,-1,-1,30,31.2094058870221,-9999,66548.77092716667,-0.6970367431640625,0.6886138916015625,-0.1434783935546875,66548.76085216667,1.269148284662843,-1.368997413652292,-0.7712869895234241,-0.01198653411120176,-0.03336061164736748,-0.006859725806862116,0.00564110279083252,-0.002386927604675293,-0.0001929402351379395,XArbitraryZVertical,0.1126221174886837,-0.6445618166685587,0.6170946908804089,0.4370932941604481,-0.7024643421173096,0.6970586180686951,-0.1437126398086548,0,0,0,-1,-1,66540.06475766667,unknown,2,2025-04-18T12:28:51.236+03:00,2025-04-17T15:44:39.500+03:00,7638,1.148105,0,0,6290.708,4,10,2025-04-18T12:28:51.236+03:00,766661339.0591693,0,110.73,100.5267,1,0.45,2025-04-18T12:23:56.170+03:00,84,1.4,2025-04-18T08:51:18.885+03:00,0.03057091307199995,1
2025-04-18T12:28:59.967+03:00,1744968539.412587,40.95366318922127,29.14102828050063,92.44445,-1,-1,-1,-1,30,31.2094058870221,-9999,66548.78100216667,-0.696044921875,0.691619873046875,-0.1475677490234375,66548.77092716667,1.268949513908799,-1.369497491833563,-0.771201718618486,-0.01009881962090731,-0.03828446567058563,-0.01283848937600851,0.004855692386627197,-0.008093595504760742,-0.0003949999809265137,XArbitraryZVertical,0.1127429713041461,-0.6446723222396433,0.6170103209589849,0.4370183320222086,-0.7025943994522095,0.6969974637031555,-0.1433732360601425,0,0,0,-1,-1,66540.06475766667,unknown,2,2025-04-18T12:28:51.236+03:00,2025-04-17T15:44:39.500+03:00,7638,1.148105,0,0,6290.708,4,10,2025-04-18T12:28:51.236+03:00,766661339.0591693,0,110.73,100.5267,1,0.45,2025-04-18T12:23:56.170+03:00,84,1.4,2025-04-18T08:51:18.885+03:00,0.03057091307199995,1
2025-04-18T12:28:59.989+03:00,1744968539.412587,40.95366318922127,29.14102828050063,92.44445,-1,-1,-1,-1,30,31.2094058870221,-9999,66548.79107816667,-0.695831298828125,0.69293212890625,-0.1475677490234375,66548.78100216667,1.268749958789184,-1.370042056742898,-0.7711084220844701,-0.01252442691475153,-0.04193352907896042,-0.01041954010725021,0.005958616733551025,-0.005692124366760254,-0.004075825214385986,XArbitraryZVertical,0.1128802134335534,-0.6447916570667938,0.6169220406789523,0.4369313625069555,-0.702735960483551,0.6969305872917175,-0.1430035531520844,0,0,0,-1,-1,66540.06475766667,unknown,2,2025-04-18T12:28:51.236+03:00,2025-04-17T15:44:39.500+03:00,7638,1.148105,0,0,6290.708,4,10,2025-04-18T12:28:51.236+03:00,766661339.0591693,0,110.73,100.5267,1,0.45,2025-04-18T12:23:56.170+03:00,84,1.4,2025-04-18T08:51:18.885+03:00,0.03057091307199995,1
2025-04-18T12:28:59.990+03:00,1744968539.412587,40.95366318922127,29.14102828050063,92.44445,-1,-1,-1,-1,30,31.2094058870221,-9999,66548.80115316667,-0.6974029541015625,0.6925201416015625,-0.1414947509765625,66548.79107816667,1.268542516208004,-1.370651506598096,-0.7710338003018335,-0.01290499232709408,-0.04582786560058594,-0.01088386215269566,0.007180094718933105,-0.004112720489501953,-0.005668699741363525,XArbitraryZVertical,0.1130280887549605,-0.6449277857249085,0.6168311195284666,0.4368206809823503,-0.7028740644454956,0.6968770623207092,-0.1425856053829193,0,0,0,-1,-1,66540.06475766667,unknown,2,2025-04-18T12:28:51.236+03:00,2025-04-17T15:44:39.500+03:00,7638,1.148105,0,0,6290.708,4,10,2025-04-18T12:28:51.236+03:00,766661339.0591693,0,110.73,100.5267,1,0.45,2025-04-18T12:23:56.170+03:00,84,1.4,2025-04-18T08:51:18.885+03:00,0.03057091307199995,1
2025-04-18T12:28:59.997+03:00,1744968539.412587,40.95366318922127,29.14102828050063,92.44445,-1,-1,-1,-1,30,31.2094058870221,-9999,66548.81122816667,-0.7061614990234375,0.6923065185546875,-0.1404266357421875,66548.80115316667,1.268268654262336,-1.371294098070894,-0.7709607902730768,-0.01958606578409672,-0.04379028081893921,-0.01054564025253057,0.005566656589508057,-0.00341951847076416,-0.0004798769950866699,XArbitraryZVertical,0.1131641782356186,-0.6450750887323969,0.6167240216325268,0.4367191486519459,-0.7030154466629028,0.6968246698379517,-0.1421439945697784,0,0,0,-1,-1,66540.06475766667,unknown,2,2025-04-18T12:28:51.236+03:00,2025-04-17T15:44:39.500+03:00,7638,1.148105,0,0,6290.708,4,10,2025-04-18T12:28:51.236+03:00,766661339.0591693,0,110.73,100.5267,1,0.45,2025-04-18T12:23:56.170+03:00,84,1.4,2025-04-18T08:51:18.885+03:00,0.03057091307199995,1
2025-04-18T12:29:00.007+03:00,1744968539.412587,40.95366318922127,29.14102828050063,92.44445,-1,-1,-1,-1,30,31.2094058870221,-9999,66548.82130316667,-0.7096710205078125,0.6999053955078125,-0.1396484375,66548.81122816667,1.267974847152925,-1.37194389733338,-0.7708783254672021,-0.01845788210630417,-0.04325731471180916,-0.0103332195430994,-0.002310991287231445,-0.004260659217834473,0.001882269978523254,XArbitraryZVertical,0.1132994453159391,-0.645223991310272,0.6166107039825278,0.4366239812062708,-0.7031638622283936,0.6967655420303345,-0.1416984796524048,0,0,0,-1,-1,66540.06475766667,unknown,2,2025-04-18T12:28:51.236+03:00,2025-04-17T15:44:39.500+03:00,7638,1.148105,0,0,6290.708,4,10,2025-04-18T12:28:51.236+03:00,766661339.0591693,0,110.73,100.5267,1,0.45,2025-04-18T12:23:56.170+03:00,84,1.4,2025-04-18T08:51:18.885+03:00,0.03057091307199995,1
2025-04-18T12:29:00.017+03:00,1744968539.412587,40.95366318922127,29.14102828050063,92.44445,-1,-1,-1,-1,30,31.2094058870221,-9999,66548.83137916667,-0.70843505859375,0.698333740234375,-0.1429443359375,66548.82130316667,1.267717091853478,-1.37253722803692,-0.7707782459983515,-0.01587728038430214,-0.04280058294534683,-0.01675783097743988,-0.005668222904205322,0.002372384071350098,0.00143297016620636,XArbitraryZVertical,0.1134351638669278,-0.6453564737407615,0.61650575883665,0.4365411169142157,-0.7033161520957947,0.6966937184333801,-0.1412949711084366,0,0,0,-1,-1,66540.06475766667,unknown,2,2025-04-18T12:28:51.236+03:00,2025-04-17T15:44:39.500+03:00,7638,1.148105,0,0,6290.708,4,10,2025-04-18T12:28:51.236+03:00,766661339.0591693,0,110.73,100.5267,1,0.45,2025-04-18T12:23:56.170+03:00,84,1.4,2025-04-18T08:51:18.885+03:00,0.03057091307199995,1
2025-04-18T12:29:00.027+03:00,1744968539.412587,40.95366318922127,29.14102828050063,92.44445,-1,-1,-1,-1,30,31.2094058870221,-9999,66548.84145416667,-0.7067108154296875,0.697418212890625,-0.142669677734375,66548.83137916667,1.267524249302867,-1.373058460539036,-0.7706542826285441,-0.009779772721230984,-0.03583408892154694,-0.01442759670317173,-0.004747092723846436,0.00238502025604248,-0.002639815211296082,XArbitraryZVertical,0.1135781418959101,-0.6454667646780977,0.6164154317800702,0.4364684136024249,-0.7034743428230286,0.6966047883033752,-0.1409453153610229,0,0,0,-1,-1,66540.06475766667,unknown,2,2025-04-18T12:28:51.236+03:00,2025-04-17T15:44:39.500+03:00,7638,1.148105,0,0,6290.708,4,10,2025-04-18T12:28:51.236+03:00,766661339.0591693,0,110.73,100.5267,1,0.45,2025-04-18T12:23:56.170+03:00,84,1.4,2025-04-18T08:51:18.885+03:00,0.03057091307199995,1
2025-04-18T12:29:00.037+03:00,1744968539.412587,40.95366318922127,29.14102828050063,92.44445,-1,-1,-1,-1,30,31.2094058870221,-9999,66548.85152916667,-0.703033447265625,0.6958770751953125,-0.1434783935546875,66548.84145416667,1.267351913161659,-1.373518707409201,-0.7705197534892833,-0.008332877419888973,-0.03181804344058037,-0.0170444194227457,-0.003247499465942383,0.0009862780570983887,-0.002029716968536377,XArbitraryZVertical,0.1137126293847805,-0.6455613592394032,0.6163313982505457,0.4364123394747594,-0.7036312222480774,0.6965082883834839,-0.1406399458646774,0,0,0,-1,-1,66540.06475766667,unknown,2,2025-04-18T12:28:51.236+03:00,2025-04-17T15:44:39.500+03:00,7638,1.148105,0,0,6290.708,4,10,2025-04-18T12:28:51.236+03:00,766661339.0591693,0,110.73,100.5267,1,0.45,2025-04-18T12:23:56.170+03:00,84,1.4,2025-04-18T08:51:18.885+03:00,0.03057091307199995,1
2025-04-18T12:29:00.048+03:00,1744968539.412587,40.95366318922127,29.14102828050063,92.44445,-1,-1,-1,-1,30,31.2094058870221,-9999,66548.86160416667,-0.7032318115234375,0.692779541015625,-0.1438446044921875,66548.85152916667,1.267186743541119,-1.373937879467205,-0.7703797603024409,-0.01030741166323423,-0.02781324833631516,-0.01406730525195599,0.0008741617202758789,4.911422729492188e-05,-0.00337374210357666,XArbitraryZVertical,0.1138388135097408,-0.6456459617912954,0.6162504110511271,0.4363685514432497,-0.7037855982780457,0.6964077949523926,-0.1403640359640121,0,0,0,-1,-1,66540.06475766667,unknown,2,2025-04-18T12:28:51.236+03:00,2025-04-17T15:44:39.500+03:00,7638,1.148105,0,0,6290.708,4,10,2025-04-18T12:28:51.236+03:00,766661339.0591693,0,110.73,100.5267,1,0.45,2025-04-18T12:23:56.170+03:00,84,1.4,2025-04-18T08:51:18.885+03:00,0.03057091307199995,1
2025-04-18T12:29:00.058+03:00,1744968539.412587,40.95366318922127,29.14102828050063,92.44445,-1,-1,-1,-1,30,31.2094058870221,-9999,66548.87168016667,-0.701263427734375,0.691162109375,-0.138916015625,66548.86160416667,1.267022410018959,-1.374303805729068,-0.7702959991880286,-0.01031966228038073,-0.02605289593338966,-0.01014233846217394,0.000464022159576416,-0.003293395042419434,-0.003589347004890442,XArbitraryZVertical,0.1139285254028648,-0.6457254321446134,0.6161810753834029,0.4363256388494006,-0.703894317150116,0.696347713470459,-0.1401179134845734,0,0,0,-1,-1,66540.06475766667,unknown,2,2025-04-18T12:28:51.236+03:00,2025-04-17T15:44:39.500+03:00,7638,1.148105,0,0,6290.708,4,10,2025-04-18T12:28:51.236+03:00,766661339.0591693,0,110.73,100.5267,1,0.45,2025-04-18T12:23:56.170+03:00,84,1.4,2025-04-18T08:51:18.885+03:00,0.03057091307199995,1
2025-04-18T12:29:00.068+03:00,1744968539.412587,40.95366318922127,29.14102828050063,92.44445,-1,-1,-1,-1,30,31.2094058870221,-9999,66548.88175516667,-0.702178955078125,0.68951416015625,-0.1282806396484375,66548.87168016667,1.266881235375894,-1.374620917407313,-0.7702187245658044,-0.01124897226691246,-0.01742119342088699,-0.01060113403946161,0.002117514610290527,-0.005694687366485596,0.0003635883331298828,XArbitraryZVertical,0.1140084458490005,-0.6457936943977348,0.6161205461541015,0.4362890835661341,-0.7039913535118103,0.6962922215461731,-0.1399051547050476,0,0,0,-1,-1,66540.06475766667,unknown,2,2025-04-18T12:28:51.236+03:00,2025-04-17T15:44:39.500+03:00,7638,1.148105,0,0,6290.708,4,10,2025-04-18T12:28:51.236+03:00,766661339.0591693,0,110.73,100.5267,1,0.45,2025-04-18T12:23:56.170+03:00,84,1.4,2025-04-18T08:51:18.885+03:00,0.03057091307199995,1
2025-04-18T12:29:00.078+03:00,1744968539.412587,40.95366318922127,29.14102828050063,92.44445,-1,-1,-1,-1,30,31.2094058870221,-9999,66548.89183016667,-0.708709716796875,0.69073486328125,-0.1236724853515625,66548.88175516667,1.266690890104663,-1.374883942818647,-0.7701448336618453,-0.01648528128862381,-0.01331646367907524,-0.009992068633437157,0.002387940883636475,-0.007259070873260498,0.00984722375869751,XArbitraryZVertical,0.1140545215885304,-0.6458533576444668,0.6160528617900684,0.4362843673546873,-0.7040786743164062,0.6962392330169678,-0.1397300064563751,0,0,0,-1,-1,66540.06475766667,unknown,2,2025-04-18T12:28:51.236+03:00,2025-04-17T15:44:39.500+03:00,7638,1.148105,0,0,6290.708,4,10,2025-04-18T12:28:51.236+03:00,766661339.0591693,0,110.73,100.5267,1,0.45,2025-04-18T12:23:56.170+03:00,84,1.4,2025-04-18T08:51:18.885+03:00,0.03057091307199995,1
2025-04-18T12:29:00.088+03:00,1744968539.412587,40.95366318922127,29.14102828050063,92.44445,-1,-1,-1,-1,30,31.2094058870221,-9999,66548.90190516667,-0.7062225341796875,0.687164306640625,-0.1290435791015625,66548.89183016667,1.266400044079369,-1.375228265626768,-0.7700626617255848,-0.02377841249108315,-0.01610193029046059,-0.01247736439108849,-0.003657221794128418,-0.005185961723327637,0.01617725193500519,XArbitraryZVertical,0.1140962106972767,-0.6459355397576899,0.6159573603212071,0.4362865191716737,-0.7041827440261841,0.6961802244186401,-0.1394986659288406,0,0,0,-1,-1,66540.06475766667,unknown,2,2025-04-18T12:28:51.236+03:00,2025-04-17T15:44:39.500+03:00,7638,1.148105,0,0,6290.708,4,10,2025-04-18T12:28:51.236+03:00,766661339.0591693,0,110.73,100.5267,1,0.45,2025-04-18T12:23:56.170+03:00,84,1.4,2025-04-18T08:51:18.885+03:00,0.03057091307199995,1
2025-04-18T12:29:00.098+03:00,1744968539.412587,40.95366318922127,29.14102828050063,92.44445,-1,-1,-1,-1,30,31.2094058870221,-9999,66548.91198116668,-0.7030029296875,0.6921234130859375,-0.139404296875,66548.90190516667,1.266053969387899,-1.375659220176066,-0.7699853216351435,-0.02068328857421875,-0.02264265343546867,-0.01508273463696241,-0.002583026885986328,-0.008365273475646973,0.0118100643157959,XArbitraryZVertical,0.1141448925349432,-0.6460403425498888,0.6158455722932612,0.4362764989078694,-0.7042956948280334,0.6961246728897095,-0.1392056345939636,0,0,0,-1,-1,66540.06475766667,unknown,2,2025-04-18T12:28:51.236+03:00,2025-04-17T15:44:39.500+03:00,7638,1.148105,0,0,6290.708,4,10,2025-04-18T12:28:51.236+03:00,766661339.0591693,0,110.73,100.5267,1,0.45,2025-04-18T12:23:56.170+03:00,84,1.4,2025-04-18T08:51:18.885+03:00,0.03057091307199995,1
2025-04-18T12:29:00.108+03:00,1744968539.412587,40.95366318922127,29.14102828050063,92.44445,-1,-1,-1,-1,30,31.2094058870221,-9999,66548.92205616667,-0.7011566162109375,0.6938934326171875,-0.15020751953125,66548.91198116668,1.265714597908267,-1.376154376991998,-0.7698920453560134,-0.02431943453848362,-0.02635017223656178,-0.0148423183709383,0.0009674429893493652,-0.005292356014251709,0.001570895314216614,XArbitraryZVertical,0.1142212548275811,-0.6461569416888508,0.6157291540406474,0.4362480588103641,-0.7044281363487244,0.6960577368736267,-0.1388694196939468,0,0,0,-1,-1,66540.06475766667,unknown,2,2025-04-18T12:28:51.236+03:00,2025-04-17T15:44:39.500+03:00,7638,1.148105,0,0,6290.708,4,10,2025-04-18T12:28:51.236+03:00,766661339.0591693,0,110.73,100.5267,1,0.45,2025-04-18T12:23:56.170+03:00,84,1.4,2025-04-18T08:51:18.885+03:00,0.03057091307199995,1
2025-04-18T12:29:00.141+03:00,1744968539.412587,40.95366318922127,29.14102828050063,92.44445,-1,-1,-1,-1,30,31.2094058870221,-9999,66548.93213116667,-0.69989013671875,0.6922149658203125,-0.1537933349609375,66548.92205616667,1.265420067318151,-1.376640086344613,-0.7697769809699269,-0.01550809852778912,-0.02980455942451954,-0.01537601556628942,0.002715587615966797,-0.001150846481323242,-0.01004725694656372,XArbitraryZVertical,0.1143168977376725,-0.646266416669653,0.6156197144511684,0.4362153897515067,-0.7045741677284241,0.695975124835968,-0.1385427266359329,0,0,0,-1,-1,66540.06475766667,unknown,2,2025-04-18T12:28:51.236+03:00,2025-04-17T15:44:39.500+03:00,7638,1.148105,0,0,6290.708,4,10,2025-04-18T12:28:51.236+03:00,766661339.0591693,0,110.73,100.5267,1,0.45,2025-04-18T12:23:56.170+03:00,84,1.4,2025-04-18T08:51:18.885+03:00,0.03057091307199995,1
2025-04-18T12:29:00.144+03:00,1744968539.412587,40.95366318922127,29.14102828050063,92.44445,-1,-1,-1,-1,30,31.2094058870221,-9999,66548.94220616667,-0.6988372802734375,0.693145751953125,-0.1500701904296875,66548.93213116667,1.265185534088836,-1.37710127524331,-0.7696461269117205,-0.01806806400418282,-0.03342526033520699,-0.01470296829938889,0.004852414131164551,-0.004490077495574951,-0.01461191475391388,XArbitraryZVertical,0.1144300331981201,-0.6463653085554304,0.6155223328157009,0.4361766599936394,-0.7047274112701416,0.6958811283111572,-0.1382353156805038,0,0,0,-1,-1,66540.06475766667,unknown,2,2025-04-18T12:28:51.236+03:00,2025-04-17T15:44:39.500+03:00,7638,1.148105,0,0,6290.708,4,10,2025-04-18T12:28:51.236+03:00,766661339.0591693,0,110.73,100.5267,1,0.45,2025-04-18T12:23:56.170+03:00,84,1.4,2025-04-18T08:51:18.885+03:00,0.03057091307199995,1
2025-04-18T12:29:00.146+03:00,1744968539.412587,40.95366318922127,29.14102828050063,92.44445,-1,-1,-1,-1,30,31.2094058870221,-9999,66548.95228216668,-0.695526123046875,0.6916046142578125,-0.147918701171875,66548.94220616667,1.26484274042388,-1.377699740189645,-0.7695468322728003,-0.02671214938163757,-0.03901044279336929,-0.01755201816558838,0.006559193134307861,-0.002297878265380859,-0.01361666619777679,XArbitraryZVertical,0.1145391192597339,-0.6465039911093586,0.6153982462977748,0.4361174249444485,-0.7048776745796204,0.6958098411560059,-0.1378267556428909,0,0,0,-1,-1,66540.06475766667,unknown,2,2025-04-18T12:28:51.236+03:00,2025-04-17T15:44:39.500+03:00,7638,1.148105,0,0,6290.708,4,10,2025-04-18T12:28:51.236+03:00,766661339.0591693,0,110.73,100.5267,1,0.45,2025-04-18T12:23:56.170+03:00,84,1.4,2025-04-18T08:51:18.885+03:00,0.03057091307199995,1
2025-04-18T12:29:00.149+03:00,1744968539.412587,40.95366318922127,29.14102828050063,92.44445,-1,-1,-1,-1,30,31.2094058870221,-9999,66548.96235716667,-0.7053985595703125,0.690826416015625,-0.1507110595703125,66548.95228216668,1.264404995987568,-1.378289690232934,-0.769410375132956,-0.0280121061950922,-0.01813052594661713,-0.02133879996836185,0.00880885124206543,-0.004030823707580566,-0.009604528546333313,XArbitraryZVertical,0.1146280352035674,-0.6466419927312098,0.6152482356944838,0.4361013013512633,-0.7050521969795227,0.6957117915153503,-0.1374290883541107,0,0,0,-1,-1,66540.06475766667,unknown,2,2025-04-18T12:28:51.236+03:00,2025-04-17T15:44:39.500+03:00,7638,1.148105,0,0,6290.708,4,10,2025-04-18T12:28:51.236+03:00,766661339.0591693,0,110.73,100.5267,1,0.45,2025-04-18T12:23:56.170+03:00,84,1.4,2025-04-18T08:51:18.885+03:00,0.03057091307199995,1
2025-04-18T12:29:00.159+03:00,1744968539.412587,40.95366318922127,29.14102828050063,92.44445,-1,-1,-1,-1,30,31.2094058870221,-9999,66548.97243216667,-0.7082366943359375,0.6825408935546875,-0.1346893310546875,66548.96235716667,1.263789147122204,-1.378928401149134,-0.7692763064961071,-0.05009051039814949,-0.02314871922135353,-0.02534579113125801,0.001053392887115479,-0.005246818065643311,-0.0143248438835144,XArbitraryZVertical,0.1146735113132917,-0.6468011514755946,0.6150569192046135,0.436123115500458,-0.7052313685417175,0.6956155300140381,-0.1369965076446533,0,0,0,-1,-1,66540.06475766667,unknown,2,2025-04-18T12:28:51.236+03:00,2025-04-17T15:44:39.500+03:00,7638,1.148105,0,0,6290.708,4,10,2025-04-18T12:28:51.236+03:00,766661339.0591693,0,110.73,100.5267,1,0.45,2025-04-18T12:23:56.170+03:00,84,1.4,2025-04-18T08:51:18.885+03:00,0.03057091307199995,1
2025-04-18T12:29:00.169+03:00,1744968539.412587,40.95366318922127,29.14102828050063,92.44445,-1,-1,-1,-1,30,31.2094058870221,-9999,66548.98250816666,-0.7080535888671875,0.683319091796875,-0.12982177734375,66548.97243216667,1.26291005029412,-1.379794970801044,-0.7691002818156456,-0.05711859092116356,-0.02830406650900841,-0.03151607140898705,-0.003041386604309082,-0.01218509674072266,-0.0009662061929702759,XArbitraryZVertical,0.1147187710173125,-0.6470203321539157,0.614788661888891,0.4361644039597841,-0.705470085144043,0.6954890489578247,-0.1364085823297501,0,0,0,-1,-1,66540.06475766667,unknown,2,2025-04-18T12:28:51.236+03:00,2025-04-17T15:44:39.500+03:00,7638,1.148105,0,0,6290.708,4,10,2025-04-18T12:28:51.236+03:00,766661339.0591693,0,110.73,100.5267,1,0.45,2025-04-18T12:23:56.170+03:00,84,1.4,2025-04-18T08:51:18.885+03:00,0.03057091307199995,1
2025-04-18T12:29:00.179+03:00,1744968539.412587,40.95366318922127,29.14102828050063,92.44445,-1,-1,-1,-1,30,31.2094058870221,-9999,66548.99258316668,-0.712554931640625,0.7069091796875,-0.1398773193359375,66548.98250816666,1.262119618682425,-1.380664740462707,-0.7688444625948216,-0.03833132237195969,-0.03534839302301407,-0.0370546467602253,-0.002153337001800537,-0.01412230730056763,0.006113648414611816,XArbitraryZVertical,0.1148222262012196,-0.6472260751361226,0.6145272674232197,0.4362001356982761,-0.7057629823684692,0.6953052282333374,-0.1358285248279572,0,0,0,-1,-1,66540.06475766667,unknown,2,2025-04-18T12:28:51.236+03:00,2025-04-17T15:44:39.500+03:00,7638,1.148105,0,0,6290.708,4,10,2025-04-18T12:28:51.236+03:00,766661339.0591693,0,110.73,100.5267,1,0.45,2025-04-18T12:23:56.170+03:00,84,1.4,2025-04-18T08:51:18.885+03:00,0.03057091307199995,1
2025-04-18T12:29:00.189+03:00,1744968539.412587,40.95366318922127,29.14102828050063,92.44445,-1,-1,-1,-1,30,31.2094058870221,-9999,66549.00265816668,-0.710784912109375,0.7133026123046875,-0.134857177734375,66548.99258316668,1.261669681843589,-1.381324944526312,-0.7685459086207195,-0.01740253902971745,-0.03183029219508171,-0.03306985646486282,-0.00622403621673584,0.008309066295623779,-0.003361746668815613,XArbitraryZVertical,0.1149866490762028,-0.6473617691896852,0.6143454932071196,0.436211404657497,-0.7060562372207642,0.6950905919075012,-0.1354016214609146,0,0,0,-1,-1,66540.06475766667,unknown,2,2025-04-18T12:28:51.236+03:00,2025-04-17T15:44:39.500+03:00,7638,1.148105,0,0,6290.708,4,10,2025-04-18T12:28:51.236+03:00,766661339.0591693,0,110.73,100.5267,1,0.45,2025-04-18T12:23:56.170+03:00,84,1.4,2025-04-18T08:51:18.885+03:00,0.03057091307199995,1
2025-04-18T12:29:00.199+03:00,1744968539.412587,40.95366318922127,29.14102828050063,92.44445,-1,-1,-1,-1,30,31.2094058870221,-9999,66549.01273316667,-0.713134765625,0.7100372314453125,-0.1297454833984375,66549.00265816668,1.261526309703929,-1.381716394834628,-0.7682495957700988,0.006447133608162403,-0.03065477311611176,-0.03132309019565582,-0.004778623580932617,0.01909643411636353,-0.0006850212812423706,XArbitraryZVertical,0.1151668229051559,-0.6474215277159505,0.6142462706008842,0.436214945984395,-0.7063114643096924,0.694877564907074,-0.1351639330387115,0,0,0,-1,-1,66540.06475766667,unknown,2,2025-04-18T12:28:51.236+03:00,2025-04-17T15:44:39.500+03:00,7638,1.148105,0,0,6290.708,4,10,2025-04-18T12:28:51.236+03:00,766661339.0591693,0,110.73,100.5267,1,0.45,2025-04-18T12:23:56.170+03:00,84,1.4,2025-04-18T08:51:18.885+03:00,0.03057091307199995,1
2025-04-18T12:29:00.209+03:00,1744968539.412587,40.95366318922127,29.14102828050063,92.44445,-1,-1,-1,-1,30,31.2094058870221,-9999,66549.02280916666,-0.70892333984375,0.70452880859375,-0.1375579833984375,66549.01273316667,1.261653837568076,-1.381904624335567,-0.7679051881990364,0.01696242392063141,-0.02994790486991405,-0.03209763765335083,-0.006242334842681885,0.01565158367156982,0.005452573299407959,XArbitraryZVertical,0.1153894852438958,-0.647415862011518,0.6142103951529998,0.436215137254461,-0.7065720558166504,0.6946298480033875,-0.1350759416818619,0,0,0,-1,-1,66540.06475766667,unknown,2,2025-04-18T12:28:51.236+03:00,2025-04-17T15:44:39.500+03:00,7638,1.148105,0,0,6290.708,4,10,2025-04-18T12:28:51.236+03:00,766661339.0591693,0,110.73,100.5267,1,0.45,2025-04-18T12:23:56.170+03:00,84,1.4,2025-04-18T08:51:18.885+03:00,0.03057091307199995,1
2025-04-18T12:29:00.219+03:00,1744968539.412587,40.95366318922127,29.14102828050063,92.44445,-1,-1,-1,-1,30,31.2094058870221,-9999,66549.03288416668,-0.7074127197265625,0.6909027099609375,-0.1426544189453125,66549.02280916666,1.261794954976472,-1.382082567035627,-0.7675842978877538,0.01022382918745279,-0.02939050458371639,-0.02745494991540909,-0.002993404865264893,0.01179307699203491,-0.001223146915435791,XArbitraryZVertical,0.1156049536915095,-0.6474098257458327,0.6141816463763431,0.4362075814581039,-0.7068150043487549,0.6943989396095276,-0.1349920183420181,0,0,0,-1,-1,66540.06475766667,unknown,2,2025-04-18T12:28:51.236+03:00,2025-04-17T15:44:39.500+03:00,7638,1.148105,0,0,6290.708,4,10,2025-04-18T12:28:51.236+03:00,766661339.0591693,0,110.73,100.5267,1,0.45,2025-04-18T12:23:56.170+03:00,84,1.4,2025-04-18T08:51:18.885+03:00,0.03057091307199995,1
2025-04-18T12:29:00.229+03:00,1744968539.412587,40.95366318922127,29.14102828050063,92.44445,-1,-1,-1,-1,30,31.2094058870221,-9999,66549.04295916668,-0.70220947265625,0.6880035400390625,-0.143585205078125,66549.03288416668,1.261859856941629,-1.382348884593938,-0.767346713208928,0.008243035525083542,-0.03357239812612534,-0.01990818232297897,-0.0002167224884033203,-0.001707792282104492,-0.007422924041748047,XArbitraryZVertical,0.1157930276874201,-0.6474369765014287,0.6141439180346133,0.4361704555124672,-0.707012951374054,0.6942279934883118,-0.1348346769809723,0,0,0,-1,-1,66540.06475766667,unknown,2,2025-04-18T12:28:51.236+03:00,2025-04-17T15:44:39.500+03:00,7638,1.148105,0,0,6290.708,4,10,2025-04-18T12:28:51.236+03:00,766661339.0591693,0,110.73,100.5267,1,0.45,2025-04-18T12:23:56.170+03:00,84,1.4,2025-04-18T08:51:18.885+03:00,0.03057091307199995,1
2025-04-18T12:29:00.239+03:00,1744968539.412587,40.95366318922127,29.14102828050063,92.44445,-1,-1,-1,-1,30,31.2094058870221,-9999,66549.05303416667,-0.7028045654296875,0.69000244140625,-0.1457061767578125,66549.04295916668,1.26193067454012,-1.38258936788631,-0.7671818617451124,0.01017356105148792,-0.02924023382365704,-0.01124145742505789,0.004841506481170654,-0.006242990493774414,-0.00865490734577179,XArbitraryZVertical,0.11594890322398,-0.6474664567943651,0.6141201006440334,0.4361189409391472,-0.7071578502655029,0.694109320640564,-0.1346860826015472,0,0,0,-1,-1,66540.06475766667,unknown,2,2025-04-18T12:28:51.236+03:00,2025-04-17T15:44:39.500+03:00,7638,1.148105,0,0,6290.708,4,10,2025-04-18T12:28:51.236+03:00,766661339.0591693,0,110.73,100.5267,1,0.45,2025-04-18T12:23:56.170+03:00,84,1.4,2025-04-18T08:51:18.885+03:00,0.03057091307199995,1
2025-04-18T12:29:00.250+03:00,1744968539.412587,40.95366318922127,29.14102828050063,92.44445,-1,-1,-1,-1,30,31.2094058870221,-9999,66549.06311016667,-0.701934814453125,0.6931610107421875,-0.1446380615234375,66549.05303416667,1.262087085695858,-1.382768491023925,-0.7670484247443811,0.01743913069367409,-0.0272314790636301,-0.008814152330160141,0.004941284656524658,-0.003751397132873535,-0.01032072305679321,XArbitraryZVertical,0.1161024420815581,-0.6474811729159002,0.6141233130942197,0.4360516553112984,-0.7072728872299194,0.694013237953186,-0.1345767080783844,0,0,0,-1,-1,66540.06475766667,unknown,2,2025-04-18T12:28:51.236+03:00,2025-04-17T15:44:39.500+03:00,7638,1.148105,0,0,6290.708,4,10,2025-04-18T12:28:51.236+03:00,766661339.0591693,0,110.73,100.5267,1,0.45,2025-04-18T12:23:56.170+03:00,84,1.4,2025-04-18T08:51:18.885+03:00,0.03057091307199995,1
2025-04-18T12:29:00.260+03:00,1744968539.412587,40.95366318922127,29.14102828050063,92.44445,-1,-1,-1,-1,30,31.2094058870221,-9999,66549.07318516666,-0.701446533203125,0.6920928955078125,-0.141845703125,66549.06311016667,1.26223287009545,-1.382948536224088,-0.7669415997945063,0.007627779617905617,-0.02573345229029655,-0.006211712025105953,0.00512993335723877,-0.0005311369895935059,-0.01092249155044556,XArbitraryZVertical,0.1162432465503555,-0.6474997316987499,0.6141282194808305,0.4359796785555591,-0.7073699831962585,0.6939363479614258,-0.1344632059335709,0,0,0,-1,-1,66540.06475766667,unknown,2,2025-04-18T12:28:51.236+03:00,2025-04-17T15:44:39.500+03:00,7638,1.148105,0,0,6290.708,4,10,2025-04-18T12:28:51.236+03:00,766661339.0591693,0,110.73,100.5267,1,0.45,2025-04-18T12:23:56.170+03:00,84,1.4,2025-04-18T08:51:18.885+03:00,0.03057091307199995,1
2025-04-18T12:29:00.270+03:00,1744968539.412587,40.95366318922127,29.14102828050063,92.44445,-1,-1,-1,-1,30,31.2094058870221,-9999,66549.08326016668,-0.70465087890625,0.692108154296875,-0.1393280029296875,66549.07318516666,1.262287273098541,-1.383131745424291,-0.7668807464815308,0.00625944696366787,-0.01913946494460106,-0.006686820182949305,0.006904900074005127,-0.001647055149078369,-0.007900938391685486,XArbitraryZVertical,0.1163390045230278,-0.6475295404096566,0.6141200776231975,0.4359211830296938,-0.7074359059333801,0.6938925385475159,-0.1343414634466171,0,0,0,-1,-1,66540.06475766667,unknown,2,2025-04-18T12:28:51.236+03:00,2025-04-17T15:44:39.500+03:00,7638,1.148105,0,0,6290.708,4,10,2025-04-18T12:28:51.236+03:00,766661339.0591693,0,110.73,100.5267,1,0.45,2025-04-18T12:23:56.170+03:00,84,1.4,2025-04-18T08:51:18.885+03:00,0.03057091307199995,1
2025-04-18T12:29:00.280+03:00,1744968539.412587,40.95366318922127,29.14102828050063,92.44445,-1,-1,-1,-1,30,31.2094058870221,-9999,66549.09333516668,-0.70513916015625,0.6932373046875,-0.1383209228515625,66549.08326016668,1.262315029906217,-1.383268300915232,-0.7668280809729937,0.002847405383363366,-0.01128553599119186,-0.006871643476188183,0.002259552478790283,-0.002402544021606445,-0.005350887775421143,XArbitraryZVertical,0.116408764807587,-0.6475516603928834,0.6141100788088587,0.4358839154328145,-0.7074903249740601,0.6938545703887939,-0.1342516988515854,0,0,0,-1,-1,66540.06475766667,unknown,2,2025-04-18T12:28:51.236+03:00,2025-04-17T15:44:39.500+03:00,7638,1.148105,0,0,6290.708,4,10,2025-04-18T12:28:51.236+03:00,766661339.0591693,0,110.73,100.5267,1,0.45,2025-04-18T12:23:56.170+03:00,84,1.4,2025-04-18T08:51:18.885+03:00,0.03057091307199995,1
2025-04-18T12:29:00.290+03:00,1744968539.412587,40.95366318922127,29.14102828050063,92.44445,-1,-1,-1,-1,30,31.2094058870221,-9999,66549.10341116667,-0.7030029296875,0.6854400634765625,-0.1390838623046875,66549.09333516668,1.262274323437979,-1.383379882414181,-0.7667641152103561,-0.003521744161844254,-0.005370588973164558,-0.00761369988322258,0.002607941627502441,-0.0001897811889648438,-0.004185602068901062,XArbitraryZVertical,0.1164528457701501,-0.6475710300184356,0.6140848810564118,0.4358787256237849,-0.7075487375259399,0.6938084959983826,-0.1341809928417206,0,0,0,-1,-1,66540.06475766667,unknown,2,2025-04-18T12:28:51.236+03:00,2025-04-17T15:44:39.500+03:00,7638,1.148105,0,0,6290.708,4,10,2025-04-18T12:28:51.236+03:00,766661339.0591693,0,110.73,100.5267,1,0.45,2025-04-18T12:23:56.170+03:00,84,1.4,2025-04-18T08:51:18.885+03:00,0.03057091307199995,1
2025-04-18T12:29:00.300+03:00,1744968539.412587,40.95366318922127,29.14102828050063,92.44445,-1,-1,-1,-1,30,31.2094058870221,-9999,66549.11348616667,-0.6999664306640625,0.685791015625,-0.143951416015625,66549.10341116667,1.26218140293249,-1.383529707231647,-0.7666696934777487,-0.007816890254616737,-0.01593694649636745,-0.01211763732135296,0.00406569242477417,-0.006988167762756348,-0.004920363426208496,XArbitraryZVertical,0.1165026120605649,-0.647598292131954,0.6140413779643372,0.4358862581377995,-0.7076332569122314,0.6937405467033386,-0.1340871900320053,0,0,0,-1,-1,66540.06475766667,unknown,2,2025-04-18T12:28:51.236+03:00,2025-04-17T15:44:39.500+03:00,7638,1.148105,0,0,6290.708,4,10,2025-04-18T12:28:51.236+03:00,766661339.0591693,0,110.73,100.5267,1,0.45,2025-04-18T12:23:56.170+03:00,84,1.4,2025-04-18T08:51:18.885+03:00,0.03057091307199995,1
2025-04-18T12:29:00.310+03:00,1744968539.412587,40.95366318922127,29.14102828050063,92.44445,-1,-1,-1,-1,30,31.2094058870221,-9999,66549.12356116668,-0.7043609619140625,0.6925201416015625,-0.136688232421875,66549.11348616667,1.262124904710516,-1.383764695100975,-0.7665454294965139,-0.006457746028900146,-0.02089295536279678,-0.01081794872879982,0.007828772068023682,-0.008989095687866211,-0.00986182689666748,XArbitraryZVertical,0.1166010155841842,-0.6476385836754602,0.6139962462775698,0.435863707752444,-0.7077494859695435,0.693651020526886,-0.1339369416236877,0,0,0,-1,-1,66540.06475766667,unknown,2,2025-04-18T12:28:51.236+03:00,2025-04-17T15:44:39.500+03:00,7638,1.148105,0,0,6290.708,4,10,2025-04-18T12:28:51.236+03:00,766661339.0591693,0,110.73,100.5267,1,0.45,2025-04-18T12:23:56.170+03:00,84,1.4,2025-04-18T08:51:18.885+03:00,0.03057091307199995,1
2025-04-18T12:29:00.320+03:00,1744968539.412587,40.95366318922127,29.14102828050063,92.44445,-1,-1,-1,-1,30,31.2094058870221,-9999,66549.13363616668,-0.7196502685546875,0.6898956298828125,-0.125457763671875,66549.12356116668,1.262021469076468,-1.384035462913689,-0.7664517283395319,-0.006909151561558247,-0.02477717772126198,-0.00925121083855629,0.004938125610351562,-0.001490592956542969,-0.004914462566375732,XArbitraryZVertical,0.1166842691188849,-0.6476929090213703,0.6139434895842539,0.4358349699306603,-0.7078495621681213,0.6935835480690002,-0.1337573528289795,0,0,0,-1,-1,66540.06475766667,unknown,2,2025-04-18T12:28:51.236+03:00,2025-04-17T15:44:39.500+03:00,7638,1.148105,0,0,6290.708,4,10,2025-04-18T12:28:51.236+03:00,766661339.0591693,0,110.73,100.5267,1,0.45,2025-04-18T12:23:56.170+03:00,84,1.4,2025-04-18T08:51:18.885+03:00,0.03057091307199995,1
