loggingTime(txt),locationTimestamp_since1970(s),locationLatitude(WGS84),locationLongitude(WGS84),locationAltitude(m),locationSpeed(m/s),locationSpeedAccuracy(m/s),locationCourse(°),locationCourseAccuracy(°),locationVerticalAccuracy(m),locationHorizontalAccuracy(m),locationFloor(Z),accelerometerTimestamp_sinceReboot(s),accelerometerAccelerationX(G),accelerometerAccelerationY(G),accelerometerAccelerationZ(G),motionTimestamp_sinceReboot(s),motionYaw(rad),motionRoll(rad),motionPitch(rad),motionRotationRateX(rad/s),motionRotationRateY(rad/s),motionRotationRateZ(rad/s),motionUserAccelerationX(G),motionUserAccelerationY(G),motionUserAccelerationZ(G),motionAttitudeReferenceFrame(txt),motionQuaternionX(R),motionQuaternionY(R),motionQuaternionZ(R),motionQuaternionW(R),motionGravityX(G),motionGravityY(G),motionGravityZ(G),motionMagneticFieldX(µT),motionMagneticFieldY(µT),motionMagneticFieldZ(µT),motionHeading(°),motionMagneticFieldCalibrationAccuracy(Z),activityTimestamp_sinceReboot(s),activity(txt),activityActivityConfidence(Z),activityActivityStartDate(txt),pedometerStartDate(txt),pedometerNumberofSteps(N),pedometerAverageActivePace(s/m),pedometerCurrentPace(s/m),pedometerCurrentCadence(steps/s),pedometerDistance(m),pedometerFloorAscended(N),pedometerFloorDescended(N),pedometerEndDate(txt),altimeterTimestamp_sinceReboot(s),altimeterReset(bool),altimeterRelativeAltitude(m),altimeterPressure(kPa),batteryState(N),batteryLevel(R),heartRateBPMTimestamp(txt),heartRateBPM(N),heartRateBPS(R),heartRateVariabilityTimestamp(txt),heartRateVariability(ms),label
2025-04-28T22:52:47.431+03:00,1745869965.944655,40.98552182483863,29.1373210030093,130.2175,-1,-1,-1,-1,46.16399999999999,41.01102115691547,-9999,1717.240647,-0.681121826171875,0.4541015625,-0.464599609375,1717.230571,-0.2945413463495304,-0.9718174619051362,-0.4822558528107959,-0.04348404332995415,-0.08991041034460068,0.007117885164916515,0.005734682083129883,-0.1105531752109528,0.03837800025939941,XArbitraryZVertical,0.2754179607324746,0.4176070576964056,0.01568571646261877,-0.8657384932312422,-0.7317172884941101,0.46377894282341,-0.499498575925827,0,0,0,-1,-1,1714.92811425,unknown,2,2025-04-28T22:52:45.094+03:00,2025-04-28T22:17:59.397+03:00,68,1.033619,0,0,53.64055,0,0,2025-04-28T22:51:53.501+03:00,767562698.1321328,0,-1.12,100.8116,1,0.35,2025-04-28T22:50:08.926+03:00,116,1.933333333333333,2025-04-22T14:20:19.516+03:00,0.02197104130929222,0
2025-04-28T22:52:47.433+03:00,1745869965.944655,40.98552182483863,29.1373210030093,130.2175,-1,-1,-1,-1,46.16399999999999,41.01102115691547,-9999,1717.250724,-0.782379150390625,0.47064208984375,-0.49713134765625,1717.240647,-0.2948345176789472,-0.972325024809524,-0.4826497075214216,-0.03502664342522621,0.02371921762824059,0.0237695649266243,0.08263468742370605,-0.08085751533508301,0.05377274751663208,XArbitraryZVertical,0.2756471735117356,0.4177397936974859,0.01564822876191182,-0.8656022089330349,-0.731819748878479,0.4641278386116028,-0.4990242123603821,0,0,0,-1,-1,1714.92811425,unknown,2,2025-04-28T22:52:45.094+03:00,2025-04-28T22:17:59.397+03:00,68,1.033619,0,0,53.64055,0,0,2025-04-28T22:51:53.501+03:00,767562698.1321328,0,-1.12,100.8116,1,0.35,2025-04-28T22:50:08.926+03:00,116,1.933333333333333,2025-04-22T14:20:19.516+03:00,0.02197104130929222,0
2025-04-28T22:52:47.434+03:00,1745869965.944655,40.98552182483863,29.1373210030093,130.2175,-1,-1,-1,-1,46.16399999999999,41.01102115691547,-9999,1717.2608,-0.769744873046875,0.4377288818359375,-0.4975128173828125,1717.250724,-0.2949512515973561,-0.9718292997500518,-0.4829287879877166,-0.01258032210171223,0.06885913014411926,0.01100736577063799,-0.005976676940917969,0.02131235599517822,0.01406913995742798,XArbitraryZVertical,0.2757838528441947,0.4174761131729522,0.01570017206095678,-0.8656850284587645,-0.7314653396606445,0.4643750190734863,-0.4993139207363129,0,0,0,-1,-1,1714.92811425,unknown,2,2025-04-28T22:52:45.094+03:00,2025-04-28T22:17:59.397+03:00,68,1.033619,0,0,53.64055,0,0,2025-04-28T22:51:53.501+03:00,767562698.1321328,0,-1.12,100.8116,1,0.35,2025-04-28T22:50:08.926+03:00,116,1.933333333333333,2025-04-22T14:20:19.516+03:00,0.02197104130929222,0
2025-04-28T22:52:47.441+03:00,1745869965.944655,40.98552182483863,29.1373210030093,130.2175,-1,-1,-1,-1,46.16399999999999,41.01102115691547,-9999,1717.270876,-0.701171875,0.475433349609375,-0.4885406494140625,1717.2608,-0.2949634651795321,-0.9714524989519265,-0.4830066564572921,-0.001367348711937666,0.005340077914297581,0.005603545345366001,-0.06126362085342407,-0.02039790153503418,-0.0005834698677062988,XArbitraryZVertical,0.2758158712245368,0.4173021153004652,0.01573874722967428,-0.8657580076902227,-0.7312473058700562,0.4644439816474915,-0.4995690882205963,0,0,0,-1,-1,1714.92811425,unknown,2,2025-04-28T22:52:45.094+03:00,2025-04-28T22:17:59.397+03:00,68,1.033619,0,0,53.64055,0,0,2025-04-28T22:51:53.501+03:00,767562698.1321328,0,-1.12,100.8116,1,0.35,2025-04-28T22:50:08.926+03:00,116,1.933333333333333,2025-04-22T14:20:19.516+03:00,0.02197104130929222,0
2025-04-28T22:52:47.451+03:00,1745869965.944655,40.98552182483863,29.1373210030093,130.2175,-1,-1,-1,-1,46.16399999999999,41.01102115691547,-9999,1717.280953,-0.7058258056640625,0.4936981201171875,-0.490478515625,1717.270876,-0.2948656050274863,-0.9715570566642697,-0.483043803332291,0.007476276718080044,-0.0228909607976675,0.01201607100665569,0.0002061724662780762,-0.0112755298614502,0.007020711898803711,XArbitraryZVertical,0.2758117701221349,0.4173564917918621,0.01567304040969315,-0.8657341933865987,-0.7312852144241333,0.4644768834114075,-0.4994828402996063,0,0,0,-1,-1,1714.92811425,unknown,2,2025-04-28T22:52:45.094+03:00,2025-04-28T22:17:59.397+03:00,68,1.033619,0,0,53.64055,0,0,2025-04-28T22:51:53.501+03:00,767562698.1321328,0,-1.12,100.8116,1,0.35,2025-04-28T22:50:08.926+03:00,116,1.933333333333333,2025-04-22T14:20:19.516+03:00,0.02197104130929222,0
2025-04-28T22:52:47.461+03:00,1745869965.944655,40.98552182483863,29.1373210030093,130.2175,-1,-1,-1,-1,46.16399999999999,41.01102115691547,-9999,1717.291029,-0.74798583984375,0.4693450927734375,-0.4963531494140625,1717.280953,-0.2947411769032713,-0.9715205652052701,-0.4830540871900298,0.0132180517539382,0.02019072882831097,0.0005775276222266257,0.03894132375717163,0.02619096636772156,0.01107299327850342,XArbitraryZVertical,0.2757898062323814,0.4173566403674517,0.01562174282528444,-0.8657420306436767,-0.7312629818916321,0.4644859731197357,-0.4995068311691284,0,0,0,-1,-1,1714.92811425,unknown,2,2025-04-28T22:52:45.094+03:00,2025-04-28T22:17:59.397+03:00,68,1.033619,0,0,53.64055,0,0,2025-04-28T22:51:53.501+03:00,767562698.1321328,0,-1.12,100.8116,1,0.35,2025-04-28T22:50:08.926+03:00,116,1.933333333333333,2025-04-22T14:20:19.516+03:00,0.02197104130929222,0
2025-04-28T22:52:47.473+03:00,1745869965.944655,40.98552182483863,29.1373210030093,130.2175,-1,-1,-1,-1,46.16399999999999,41.01102115691547,-9999,1717.301106,-0.7411346435546875,0.451507568359375,-0.4938201904296875,1717.291029,-0.2946090266071028,-0.9711645029247156,-0.4830190003158385,0.01019716169685125,0.02893115766346455,0.001915732864290476,0.0009351372718811035,0.01920303702354431,0.004811763763427734,XArbitraryZVertical,0.2757448069705276,0.4172248568890089,0.01562206609560683,-0.8658199928474896,-0.7310986518859863,0.4644549190998077,-0.4997764527797699,0,0,0,-1,-1,1714.92811425,unknown,2,2025-04-28T22:52:45.094+03:00,2025-04-28T22:17:59.397+03:00,68,1.033619,0,0,53.64055,0,0,2025-04-28T22:51:53.501+03:00,767562698.1321328,0,-1.12,100.8116,1,0.35,2025-04-28T22:50:08.926+03:00,116,1.933333333333333,2025-04-22T14:20:19.516+03:00,0.02197104130929222,0
2025-04-28T22:52:47.481+03:00,1745869965.944655,40.98552182483863,29.1373210030093,130.2175,-1,-1,-1,-1,46.16399999999999,41.01102115691547,-9999,1717.311182,-0.7161712646484375,0.4555816650390625,-0.4857940673828125,1717.301106,-0.2945424842855397,-0.9709505123755894,-0.4830571863544636,-0.005063815973699093,0.005981100723147392,0.009354474954307079,-0.02059453725814819,-0.007869422435760498,0.003432333469390869,XArbitraryZVertical,0.275745165844736,0.4171368782589785,0.01561360820467023,-0.8658624063572329,-0.7309770584106445,0.4644887149333954,-0.4999228417873383,0,0,0,-1,-1,1714.92811425,unknown,2,2025-04-28T22:52:45.094+03:00,2025-04-28T22:17:59.397+03:00,68,1.033619,0,0,53.64055,0,0,2025-04-28T22:51:53.501+03:00,767562698.1321328,0,-1.12,100.8116,1,0.35,2025-04-28T22:50:08.926+03:00,116,1.933333333333333,2025-04-22T14:20:19.516+03:00,0.02197104130929222,0
2025-04-28T22:52:47.492+03:00,1745869965.944655,40.98552182483863,29.1373210030093,130.2175,-1,-1,-1,-1,46.16399999999999,41.01102115691547,-9999,1717.321259,-0.72247314453125,0.4525909423828125,-0.488433837890625,1717.311182,-0.294544001685454,-0.9709917196809981,-0.4831788727732743,-0.01143163442611694,-0.00891362689435482,0.01038288697600365,0.004541099071502686,-0.01137983798980713,0.01060295104980469,XArbitraryZVertical,0.2757964990244692,0.4171401274120627,0.01557941966917186,-0.8658450805443435,-0.7309509515762329,0.4645964801311493,-0.4998608231544495,0,0,0,-1,-1,1714.92811425,unknown,2,2025-04-28T22:52:45.094+03:00,2025-04-28T22:17:59.397+03:00,68,1.033619,0,0,53.64055,0,0,2025-04-28T22:51:53.501+03:00,767562698.1321328,0,-1.12,100.8116,1,0.35,2025-04-28T22:50:08.926+03:00,116,1.933333333333333,2025-04-22T14:20:19.516+03:00,0.02197104130929222,0
2025-04-28T22:52:47.502+03:00,1745869965.944655,40.98552182483863,29.1373210030093,130.2175,-1,-1,-1,-1,46.16399999999999,41.01102115691547,-9999,1717.331335,-0.7374114990234375,0.453399658203125,-0.49462890625,1717.321259,-0.2946056004131695,-0.9710411551609326,-0.4833539621211068,-0.01569961570203304,0.003568076994270086,0.0131587004289031,0.01589697599411011,-0.009612292051315308,0.01470184326171875,XArbitraryZVertical,0.2758826564494145,0.4171323277583899,0.01555731618680227,-0.8658218048669771,-0.7309085130691528,0.4647515118122101,-0.4997787475585938,0,0,0,-1,-1,1714.92811425,unknown,2,2025-04-28T22:52:45.094+03:00,2025-04-28T22:17:59.397+03:00,68,1.033619,0,0,53.64055,0,0,2025-04-28T22:51:53.501+03:00,767562698.1321328,0,-1.12,100.8116,1,0.35,2025-04-28T22:50:08.926+03:00,116,1.933333333333333,2025-04-22T14:20:19.516+03:00,0.02197104130929222,0
2025-04-28T22:52:47.512+03:00,1745869965.944655,40.98552182483863,29.1373210030093,130.2175,-1,-1,-1,-1,46.16399999999999,41.01102115691547,-9999,1717.341412,-0.73345947265625,0.4639129638671875,-0.4965362548828125,1717.331335,-0.2946707746093487,-0.9710151264790403,-0.4835347040623378,-0.01237812079489231,0.005381689872592688,0.009181003086268902,-0.0005428194999694824,-0.01354125142097473,0.008463144302368164,XArbitraryZVertical,0.2759713292382373,0.4170906920029336,0.01554580886084825,-0.8658138047845857,-0.7308261394500732,0.464911550283432,-0.4997503459453583,0,0,0,-1,-1,1714.92811425,unknown,2,2025-04-28T22:52:45.094+03:00,2025-04-28T22:17:59.397+03:00,68,1.033619,0,0,53.64055,0,0,2025-04-28T22:51:53.501+03:00,767562698.1321328,0,-1.12,100.8116,1,0.35,2025-04-28T22:50:08.926+03:00,116,1.933333333333333,2025-04-22T14:20:19.516+03:00,0.02197104130929222,0
2025-04-28T22:52:47.522+03:00,1745869965.944655,40.98552182483863,29.1373210030093,130.2175,-1,-1,-1,-1,46.16399999999999,41.01102115691547,-9999,1717.351488,-0.726776123046875,0.470733642578125,-0.4945220947265625,1717.341412,-0.2947337213687574,-0.9710383935402651,-0.4836735033038843,-0.01037462521344423,-0.00340540986508131,0.009447053074836731,-0.006977856159210205,-0.006477266550064087,0.002580881118774414,XArbitraryZVertical,0.2760424368393984,0.417075651685663,0.0155365940869199,-0.8657985831954044,-0.73078453540802,0.4650344252586365,-0.4996969401836395,0,0,0,-1,-1,1714.92811425,unknown,2,2025-04-28T22:52:45.094+03:00,2025-04-28T22:17:59.397+03:00,68,1.033619,0,0,53.64055,0,0,2025-04-28T22:51:53.501+03:00,767562698.1321328,0,-1.12,100.8116,1,0.35,2025-04-28T22:50:08.926+03:00,116,1.933333333333333,2025-04-22T14:20:19.516+03:00,0.02197104130929222,0
2025-04-28T22:52:47.532+03:00,1745869965.944655,40.98552182483863,29.1373210030093,130.2175,-1,-1,-1,-1,46.16399999999999,41.01102115691547,-9999,1717.361565,-0.7297821044921875,0.467620849609375,-0.49481201171875,1717.351488,-0.2947271074090308,-0.9710856761495951,-0.4837837565238307,-0.003689492121338844,-0.004762490279972553,0.01045602466911077,0.001487314701080322,0.003556966781616211,0.004729866981506348,XArbitraryZVertical,0.2760873532935068,0.4170839932681876,0.01550077499138305,-0.8657808467520761,-0.7307658195495605,0.4651320278644562,-0.4996334314346313,0,0,0,-1,-1,1714.92811425,unknown,2,2025-04-28T22:52:45.094+03:00,2025-04-28T22:17:59.397+03:00,68,1.033619,0,0,53.64055,0,0,2025-04-28T22:51:53.501+03:00,767562698.1321328,0,-1.12,100.8116,1,0.35,2025-04-28T22:50:08.926+03:00,116,1.933333333333333,2025-04-22T14:20:19.516+03:00,0.02197104130929222,0
2025-04-28T22:52:47.542+03:00,1745869965.944655,40.98552182483863,29.1373210030093,130.2175,-1,-1,-1,-1,46.16399999999999,41.01102115691547,-9999,1717.371641,-0.733306884765625,0.467071533203125,-0.4955596923828125,1717.361565,-0.2946810781683993,-0.9710798008242902,-0.4838827677278242,-0.00185723730828613,-0.001490531023591757,0.006728131324052811,0.003903031349182129,0.004751056432723999,0.005288004875183105,XArbitraryZVertical,0.2761189417876541,0.4170760868362472,0.0154579348506945,-0.8657753578024799,-0.7307248711585999,0.4652196764945984,-0.4996117353439331,0,0,0,-1,-1,1714.92811425,unknown,2,2025-04-28T22:52:45.094+03:00,2025-04-28T22:17:59.397+03:00,68,1.033619,0,0,53.64055,0,0,2025-04-28T22:51:53.501+03:00,767562698.1321328,0,-1.12,100.8116,1,0.35,2025-04-28T22:50:08.926+03:00,116,1.933333333333333,2025-04-22T14:20:19.516+03:00,0.02197104130929222,0
2025-04-28T22:52:47.552+03:00,1745869965.944655,40.98552182483863,29.1373210030093,130.2175,-1,-1,-1,-1,46.16399999999999,41.01102115691547,-9999,1717.381717,-0.730133056640625,0.4712371826171875,-0.4948272705078125,1717.371641,-0.2946509528322328,-0.9710777249658412,-0.4839552252438685,0.0006799562834203243,-0.001223948318511248,0.007606841158121824,-0.00187838077545166,0.0001855790615081787,0.004660129547119141,XArbitraryZVertical,0.2761428219262785,0.4170707746509535,0.01542781498841426,-0.8657708306124285,-0.7306959629058838,0.4652838110923767,-0.4995942115783691,0,0,0,-1,-1,1714.92811425,unknown,2,2025-04-28T22:52:45.094+03:00,2025-04-28T22:17:59.397+03:00,68,1.033619,0,0,53.64055,0,0,2025-04-28T22:51:53.501+03:00,767562698.1321328,0,-1.12,100.8116,1,0.35,2025-04-28T22:50:08.926+03:00,116,1.933333333333333,2025-04-22T14:20:19.516+03:00,0.02197104130929222,0
2025-04-28T22:52:47.564+03:00,1745869965.944655,40.98552182483863,29.1373210030093,130.2175,-1,-1,-1,-1,46.16399999999999,41.01102115691547,-9999,1717.391794,-0.7273101806640625,0.4660186767578125,-0.4924163818359375,1717.381717,-0.2946079521277022,-0.9710986993081507,-0.4839828138140648,0.003244314109906554,-0.004147833213210106,0.003584935329854488,-0.001222431659698486,0.004494667053222656,0.003722012042999268,XArbitraryZVertical,0.2761455219965262,0.4170825357259494,0.01539968093066614,-0.8657647456457817,-0.7306958436965942,0.4653082489967346,-0.4995716214179993,0,0,0,-1,-1,1714.92811425,unknown,2,2025-04-28T22:52:45.094+03:00,2025-04-28T22:17:59.397+03:00,68,1.033619,0,0,53.64055,0,0,2025-04-28T22:51:53.501+03:00,767562698.1321328,0,-1.12,100.8116,1,0.35,2025-04-28T22:50:08.926+03:00,116,1.933333333333333,2025-04-22T14:20:19.516+03:00,0.02197104130929222,0
2025-04-28T22:52:47.572+03:00,1745869965.944655,40.98552182483863,29.1373210030093,130.2175,-1,-1,-1,-1,46.16399999999999,41.01102115691547,-9999,1717.40187,-0.7317047119140625,0.4653167724609375,-0.491943359375,1717.391794,-0.2945481282094701,-0.9711242532323466,-0.4840024309744916,0.002159142633900046,-0.003072381485253572,0.006242803763598204,0.003833413124084473,0.00398901104927063,0.006536304950714111,XArbitraryZVertical,0.2761414185177187,0.4170995398100064,0.01536555010160321,-0.8657584465510142,-0.7307010293006897,0.4653255939483643,-0.4995477795600891,0,0,0,-1,-1,1714.92811425,unknown,2,2025-04-28T22:52:45.094+03:00,2025-04-28T22:17:59.397+03:00,68,1.033619,0,0,53.64055,0,0,2025-04-28T22:51:53.501+03:00,767562698.1321328,0,-1.12,100.8116,1,0.35,2025-04-28T22:50:08.926+03:00,116,1.933333333333333,2025-04-22T14:20:19.516+03:00,0.02197104130929222,0
2025-04-28T22:52:47.582+03:00,1745869965.944655,40.98552182483863,29.1373210030093,130.2175,-1,-1,-1,-1,46.16399999999999,41.01102115691547,-9999,1717.411947,-0.7351837158203125,0.4673004150390625,-0.4913330078125,1717.40187,-0.2944764550733678,-0.9711112309121861,-0.4840434602988888,0.005724582355469465,0.001308251637965441,0.008075058460235596,0.002468407154083252,-0.001479417085647583,0.007282793521881104,XArbitraryZVertical,0.2761434426440098,0.417098935557666,0.01532650196447739,-0.8657588431499295,-0.7306787967681885,0.4653619229793549,-0.4995465576648712,0,0,0,-1,-1,1714.92811425,unknown,2,2025-04-28T22:52:45.094+03:00,2025-04-28T22:17:59.397+03:00,68,1.033619,0,0,53.64055,0,0,2025-04-28T22:51:53.501+03:00,767562698.1321328,0,-1.12,100.8116,1,0.35,2025-04-28T22:50:08.926+03:00,116,1.933333333333333,2025-04-22T14:20:19.516+03:00,0.02197104130929222,0
2025-04-28T22:52:47.592+03:00,1745869965.944655,40.98552182483863,29.1373210030093,130.2175,-1,-1,-1,-1,46.16399999999999,41.01102115691547,-9999,1717.422023,-0.733795166015625,0.463958740234375,-0.49163818359375,1717.411947,-0.2944179416186798,-0.9710537474907976,-0.4840662276656421,-6.692722672596574e-05,0.005284417886286974,0.007118883542716503,-0.004160821437835693,0.001247018575668335,0.008219063282012939,XArbitraryZVertical,0.2761402641539156,0.4170794277513707,0.01530366698527174,-0.8657697241800449,-0.7306414246559143,0.4653820693492889,-0.4995826184749603,0,0,0,-1,-1,1714.92811425,unknown,2,2025-04-28T22:52:45.094+03:00,2025-04-28T22:17:59.397+03:00,68,1.033619,0,0,53.64055,0,0,2025-04-28T22:51:53.501+03:00,767562698.1321328,0,-1.12,100.8116,1,0.35,2025-04-28T22:50:08.926+03:00,116,1.933333333333333,2025-04-22T14:20:19.516+03:00,0.02197104130929222,0
2025-04-28T22:52:47.602+03:00,1745869965.944655,40.98552182483863,29.1373210030093,130.2175,-1,-1,-1,-1,46.16399999999999,41.01102115691547,-9999,1717.4321,-0.732513427734375,0.4630279541015625,-0.493804931640625,1717.422023,-0.2943765536938492,-0.9709895043565981,-0.4841088527272789,0.002353886142373085,0.009130821563303471,0.006705561187118292,-0.004102468490600586,0.000461578369140625,0.008514165878295898,XArbitraryZVertical,0.2761489162266697,0.4170523021694725,0.01528439028457257,-0.8657802927698479,-0.7305928468704224,0.4654197990894318,-0.4996182918548584,0,0,0,-1,-1,1714.92811425,unknown,2,2025-04-28T22:52:45.094+03:00,2025-04-28T22:17:59.397+03:00,68,1.033619,0,0,53.64055,0,0,2025-04-28T22:51:53.501+03:00,767562698.1321328,0,-1.12,100.8116,1,0.35,2025-04-28T22:50:08.926+03:00,116,1.933333333333333,2025-04-22T14:20:19.516+03:00,0.02197104130929222,0
2025-04-28T22:52:47.613+03:00,1745869965.944655,40.98552182483863,29.1373210030093,130.2175,-1,-1,-1,-1,46.16399999999999,41.01102115691547,-9999,1717.442176,-0.7317352294921875,0.463226318359375,-0.492706298828125,1717.4321,-0.2943179887312816,-0.9708751046015387,-0.4841926520419876,-6.699381629005075e-05,0.007375997956842184,0.008382519707083702,-0.002177715301513672,-0.001886129379272461,0.006012260913848877,XArbitraryZVertical,0.2761707323167798,0.4170009533803071,0.0152547559136305,-0.8657985923783574,-0.7305034995079041,0.4654939770698547,-0.4996798634529114,0,0,0,-1,-1,1714.92811425,unknown,2,2025-04-28T22:52:45.094+03:00,2025-04-28T22:17:59.397+03:00,68,1.033619,0,0,53.64055,0,0,2025-04-28T22:51:53.501+03:00,767562698.1321328,0,-1.12,100.8116,1,0.35,2025-04-28T22:50:08.926+03:00,116,1.933333333333333,2025-04-22T14:20:19.516+03:00,0.02197104130929222,0
2025-04-28T22:52:47.651+03:00,1745869965.944655,40.98552182483863,29.1373210030093,130.2175,-1,-1,-1,-1,46.16399999999999,41.01102115691547,-9999,1717.452253,-0.7328643798828125,0.4641571044921875,-0.4937744140625,1717.442176,-0.2942606440954759,-0.9707708735443089,-0.4843004941202681,-0.001741323154419661,0.01136248372495174,0.0115945590659976,-0.00100475549697876,-0.001783192157745361,0.00616687536239624,XArbitraryZVertical,0.2762028955221795,0.4169509931994028,0.01521849071856824,-0.865813044513394,-0.7304099798202515,0.4655894041061401,-0.4997276663780212,0,0,0,-1,-1,1714.92811425,unknown,2,2025-04-28T22:52:45.094+03:00,2025-04-28T22:17:59.397+03:00,68,1.033619,0,0,53.64055,0,0,2025-04-28T22:51:53.501+03:00,767562698.1321328,0,-1.12,100.8116,1,0.35,2025-04-28T22:50:08.926+03:00,116,1.933333333333333,2025-04-22T14:20:19.516+03:00,0.02197104130929222,0
2025-04-28T22:52:47.658+03:00,1745869965.944655,40.98552182483863,29.1373210030093,130.2175,-1,-1,-1,-1,46.16399999999999,41.01102115691547,-9999,1717.462329,-0.729736328125,0.464691162109375,-0.49346923828125,1717.452253,-0.2942109759312562,-0.9706507345567347,-0.4844033037753359,-0.002920304425060749,0.009901473298668861,0.01024553459137678,-0.002141833305358887,-0.002148836851119995,0.006487011909484863,XArbitraryZVertical,0.2762344328674409,0.4168936743201425,0.01518896551855784,-0.8658311648638072,-0.7303104996681213,0.4656803905963898,-0.4997884035110474,0,0,0,-1,-1,1714.92811425,unknown,2,2025-04-28T22:52:45.094+03:00,2025-04-28T22:17:59.397+03:00,68,1.033619,0,0,53.64055,0,0,2025-04-28T22:51:53.501+03:00,767562698.1321328,0,-1.12,100.8116,1,0.35,2025-04-28T22:50:08.926+03:00,116,1.933333333333333,2025-04-22T14:20:19.516+03:00,0.02197104130929222,0
2025-04-28T22:52:47.670+03:00,1745869965.944655,40.98552182483863,29.1373210030093,130.2175,-1,-1,-1,-1,46.16399999999999,41.01102115691547,-9999,1717.472406,-0.72882080078125,0.462188720703125,-0.4950408935546875,1717.462329,-0.2941847336775345,-0.9705558365360069,-0.4845121839146498,-0.004268929362297058,0.006695826537907124,0.01210575271397829,-0.001544535160064697,-0.0005819797515869141,0.006680190563201904,XArbitraryZVertical,0.2762736280351397,0.4168433578260332,0.015164605908477,-0.8658431845654232,-0.7302210927009583,0.4657767415046692,-0.4998289942741394,0,0,0,-1,-1,1714.92811425,unknown,2,2025-04-28T22:52:45.094+03:00,2025-04-28T22:17:59.397+03:00,68,1.033619,0,0,53.64055,0,0,2025-04-28T22:51:53.501+03:00,767562698.1321328,0,-1.12,100.8116,1,0.35,2025-04-28T22:50:08.926+03:00,116,1.933333333333333,2025-04-22T14:20:19.516+03:00,0.02197104130929222,0
2025-04-28T22:52:47.671+03:00,1745869965.944655,40.98552182483863,29.1373210030093,130.2175,-1,-1,-1,-1,46.16399999999999,41.01102115691547,-9999,1717.482482,-0.728912353515625,0.4620208740234375,-0.4971160888671875,1717.472406,-0.2941674166070846,-0.9704955627079702,-0.4846611281867863,-0.007565523497760296,0.006412866059690714,0.01058089267462492,0.001404643058776855,-0.002621114253997803,0.006044209003448486,XArbitraryZVertical,0.2763315756068626,0.4168020253484191,0.01512978083686947,-0.8658452926033934,-0.7301338315010071,0.4659085273742676,-0.4998338520526886,0,0,0,-1,-1,1714.92811425,unknown,2,2025-04-28T22:52:45.094+03:00,2025-04-28T22:17:59.397+03:00,68,1.033619,0,0,53.64055,0,0,2025-04-28T22:51:53.501+03:00,767562698.1321328,0,-1.12,100.8116,1,0.35,2025-04-28T22:50:08.926+03:00,116,1.933333333333333,2025-04-22T14:20:19.516+03:00,0.02197104130929222,0
2025-04-28T22:52:47.676+03:00,1745869965.944655,40.98552182483863,29.1373210030093,130.2175,-1,-1,-1,-1,46.16399999999999,41.01102115691547,-9999,1717.492559,-0.7325286865234375,0.4629974365234375,-0.4942169189453125,1717.482482,-0.2941855972721733,-0.9704492054691879,-0.4847903895513202,-0.006742073688656092,0.006311665754765272,0.007441292516887188,0.001087605953216553,-0.004124045372009277,0.00354158878326416,XArbitraryZVertical,0.2763888517349484,0.4167641526891563,0.01511309984931395,-0.8658455389883462,-0.7300609350204468,0.4660229086875916,-0.4998336732387543,0,0,0,-1,-1,1714.92811425,unknown,2,2025-04-28T22:52:45.094+03:00,2025-04-28T22:17:59.397+03:00,68,1.033619,0,0,53.64055,0,0,2025-04-28T22:51:53.501+03:00,767562698.1321328,0,-1.12,100.8116,1,0.35,2025-04-28T22:50:08.926+03:00,116,1.933333333333333,2025-04-22T14:20:19.516+03:00,0.02197104130929222,0
2025-04-28T22:52:47.676+03:00,1745869965.944655,40.98552182483863,29.1373210030093,130.2175,-1,-1,-1,-1,46.16399999999999,41.01102115691547,-9999,1717.502635,-0.7344970703125,0.4635467529296875,-0.494781494140625,1717.492559,-0.2942079998683957,-0.97039784606605,-0.4848740903864661,-0.002461708150804043,0.01007804088294506,0.005006430670619011,6.848573684692383e-05,-0.0035877525806427,0.003709614276885986,XArbitraryZVertical,0.276427988780647,0.4167289165299249,0.01510985487282697,-0.8658500821213443,-0.7300031185150146,0.466096967458725,-0.4998491406440735,0,0,0,-1,-1,1714.92811425,unknown,2,2025-04-28T22:52:45.094+03:00,2025-04-28T22:17:59.397+03:00,68,1.033619,0,0,53.64055,0,0,2025-04-28T22:51:53.501+03:00,767562698.1321328,0,-1.12,100.8116,1,0.35,2025-04-28T22:50:08.926+03:00,116,1.933333333333333,2025-04-22T14:20:19.516+03:00,0.02197104130929222,0
2025-04-28T22:52:47.683+03:00,1745869965.944655,40.98552182483863,29.1373210030093,130.2175,-1,-1,-1,-1,46.16399999999999,41.01102115691547,-9999,1717.512711,-0.7306365966796875,0.464935302734375,-0.4964447021484375,1717.502635,-0.2942187666781608,-0.9703019010864756,-0.4849218161769495,-0.003215116448700428,0.01389195397496223,0.003588031744584441,-0.004194021224975586,-0.003248512744903564,0.005903303623199463,XArbitraryZVertical,0.2764493985072164,0.416680251619307,0.01511633827388598,-0.865866506873084,-0.7299367785453796,0.4661391973495483,-0.499906599521637,0,0,0,-1,-1,1714.92811425,unknown,2,2025-04-28T22:52:45.094+03:00,2025-04-28T22:17:59.397+03:00,68,1.033619,0,0,53.64055,0,0,2025-04-28T22:51:53.501+03:00,767562698.1321328,0,-1.12,100.8116,1,0.35,2025-04-28T22:50:08.926+03:00,116,1.933333333333333,2025-04-22T14:20:19.516+03:00,0.02197104130929222,0
2025-04-28T22:52:47.693+03:00,1745869965.944655,40.98552182483863,29.1373210030093,130.2175,-1,-1,-1,-1,46.16399999999999,41.01102115691547,-9999,1717.522788,-0.729095458984375,0.4646148681640625,-0.4918212890625,1717.512711,-0.2942300492375748,-0.970219921810168,-0.4849527008243731,-0.001812962233088911,0.005639084614813328,0.003790698247030377,-0.003071963787078857,-0.001780480146408081,0.003650963306427002,XArbitraryZVertical,0.2764639858685859,0.4166395418278469,0.01512516486313857,-0.8658813127946973,-0.7298839092254639,0.4661665260791779,-0.4999583065509796,0,0,0,-1,-1,1714.92811425,unknown,2,2025-04-28T22:52:45.094+03:00,2025-04-28T22:17:59.397+03:00,68,1.033619,0,0,53.64055,0,0,2025-04-28T22:51:53.501+03:00,767562698.1321328,0,-1.12,100.8116,1,0.35,2025-04-28T22:50:08.926+03:00,116,1.933333333333333,2025-04-22T14:20:19.516+03:00,0.02197104130929222,0
2025-04-28T22:52:47.703+03:00,1745869965.944655,40.98552182483863,29.1373210030093,130.2175,-1,-1,-1,-1,46.16399999999999,41.01102115691547,-9999,1717.532864,-0.729461669921875,0.4591217041015625,-0.492919921875,1717.522788,-0.2942832780120254,-0.9701960494420704,-0.4850019769728723,-0.007855674251914024,0.005440678913146257,0.001965900184586644,0.0003303885459899902,-0.001183211803436279,0.005745828151702881,XArbitraryZVertical,0.2764954216981114,0.4166160194718569,0.01513970796682687,-0.8658823267734763,-0.7298530340194702,0.4662100970745087,-0.4999627470970154,0,0,0,-1,-1,1714.92811425,unknown,2,2025-04-28T22:52:45.094+03:00,2025-04-28T22:17:59.397+03:00,68,1.033619,0,0,53.64055,0,0,2025-04-28T22:51:53.501+03:00,767562698.1321328,0,-1.12,100.8116,1,0.35,2025-04-28T22:50:08.926+03:00,116,1.933333333333333,2025-04-22T14:20:19.516+03:00,0.02197104130929222,0
2025-04-28T22:52:47.713+03:00,1745869965.944655,40.98552182483863,29.1373210030093,130.2175,-1,-1,-1,-1,46.16399999999999,41.01102115691547,-9999,1717.542941,-0.73095703125,0.454437255859375,-0.49530029296875,1717.532864,-0.294390179428559,-0.9702014538862751,-0.4850764440064496,-0.01664597168564796,0.006631111726164818,0.003434100886806846,0.0002434253692626953,-0.004361867904663086,0.009094476699829102,XArbitraryZVertical,0.2765487417893043,0.4165947628691811,0.01516741541393464,-0.8658750619162461,-0.7298271059989929,0.4662759900093079,-0.4999392032623291,0,0,0,-1,-1,1714.92811425,unknown,2,2025-04-28T22:52:45.094+03:00,2025-04-28T22:17:59.397+03:00,68,1.033619,0,0,53.64055,0,0,2025-04-28T22:51:53.501+03:00,767562698.1321328,0,-1.12,100.8116,1,0.35,2025-04-28T22:50:08.926+03:00,116,1.933333333333333,2025-04-22T14:20:19.516+03:00,0.02197104130929222,0
2025-04-28T22:52:47.723+03:00,1745869965.944655,40.98552182483863,29.1373210030093,130.2175,-1,-1,-1,-1,46.16399999999999,41.01102115691547,-9999,1717.553017,-0.7295684814453125,0.4561004638671875,-0.4915771484375,1717.542941,-0.2945937153663368,-0.9702431619421874,-0.4852243516953698,-0.02498938888311386,0.005544542334973812,0.003539561992511153,2.425909042358398e-05,-0.01041311025619507,0.005103528499603271,XArbitraryZVertical,0.276653058167154,0.4165671603600709,0.01521434440799438,-0.8658541888280777,-0.7297910451889038,0.4664068222045898,-0.4998697638511658,0,0,0,-1,-1,1714.92811425,unknown,2,2025-04-28T22:52:45.094+03:00,2025-04-28T22:17:59.397+03:00,68,1.033619,0,0,53.64055,0,0,2025-04-28T22:51:53.501+03:00,767562698.1321328,0,-1.12,100.8116,1,0.35,2025-04-28T22:50:08.926+03:00,116,1.933333333333333,2025-04-22T14:20:19.516+03:00,0.02197104130929222,0
2025-04-28T22:52:47.733+03:00,1745869965.944655,40.98552182483863,29.1373210030093,130.2175,-1,-1,-1,-1,46.16399999999999,41.01102115691547,-9999,1717.563094,-0.7265625,0.4578399658203125,-0.490020751953125,1717.553017,-0.2948554894628734,-0.970330167736133,-0.4854330291707258,-0.03730224445462227,0.003771143266931176,0.004234913736581802,-0.0004398822784423828,-0.01136067509651184,0.005946338176727295,XArbitraryZVertical,0.2767951818076484,0.4165439048869424,0.01526563243906309,-0.8658189332437016,-0.7297540903091431,0.4665914177894592,-0.4997512102127075,0,0,0,-1,-1,1714.92811425,unknown,2,2025-04-28T22:52:45.094+03:00,2025-04-28T22:17:59.397+03:00,68,1.033619,0,0,53.64055,0,0,2025-04-28T22:51:53.501+03:00,767562698.1321328,0,-1.12,100.8116,1,0.35,2025-04-28T22:50:08.926+03:00,116,1.933333333333333,2025-04-22T14:20:19.516+03:00,0.02197104130929222,0
2025-04-28T22:52:47.743+03:00,1745869965.944655,40.98552182483863,29.1373210030093,130.2175,-1,-1,-1,-1,46.16399999999999,41.01102115691547,-9999,1717.57317,-0.7276611328125,0.459808349609375,-0.4927825927734375,1717.563094,-0.2951902334499836,-0.9704616564741476,-0.4856798132587948,-0.04038511961698532,0.003617479000240564,0.004450096748769283,0.001956939697265625,-0.01022091507911682,0.008577615022659302,XArbitraryZVertical,0.2769686763074157,0.4165252311411718,0.01533322320689949,-0.8657712137505107,-0.7297247648239136,0.4668096601963043,-0.4995901584625244,0,0,0,-1,-1,1714.92811425,unknown,2,2025-04-28T22:52:45.094+03:00,2025-04-28T22:17:59.397+03:00,68,1.033619,0,0,53.64055,0,0,2025-04-28T22:51:53.501+03:00,767562698.1321328,0,-1.12,100.8116,1,0.35,2025-04-28T22:50:08.926+03:00,116,1.933333333333333,2025-04-22T14:20:19.516+03:00,0.02197104130929222,0
2025-04-28T22:52:47.754+03:00,1745869965.944655,40.98552182483863,29.1373210030093,130.2175,-1,-1,-1,-1,46.16399999999999,41.01102115691547,-9999,1717.583247,-0.72882080078125,0.4636688232421875,-0.49560546875,1717.57317,-0.2955327032141381,-0.970593888347618,-0.4859380645955075,-0.03930521011352539,0.004268355667591095,0.006252258084714413,0.002976298332214355,-0.00849616527557373,0.008641928434371948,XArbitraryZVertical,0.2771485397595334,0.4165043858109423,0.0154012848407314,-0.8657224790623758,-0.7296913266181946,0.4670380353927612,-0.4994255602359772,0,0,0,-1,-1,1714.92811425,unknown,2,2025-04-28T22:52:45.094+03:00,2025-04-28T22:17:59.397+03:00,68,1.033619,0,0,53.64055,0,0,2025-04-28T22:51:53.501+03:00,767562698.1321328,0,-1.12,100.8116,1,0.35,2025-04-28T22:50:08.926+03:00,116,1.933333333333333,2025-04-22T14:20:19.516+03:00,0.02197104130929222,0
2025-04-28T22:52:47.764+03:00,1745869965.944655,40.98552182483863,29.1373210030093,130.2175,-1,-1,-1,-1,46.16399999999999,41.01102115691547,-9999,1717.593323,-0.72979736328125,0.468505859375,-0.49755859375,1717.583247,-0.2958074597575662,-0.9706940590481523,-0.4861523700093217,-0.02702457644045353,0.003114141523838043,0.004529724828898907,0.001097440719604492,-0.00593903660774231,0.005338460206985474,XArbitraryZVertical,0.277295742308347,0.4164842092308952,0.01545498639166162,-0.8656841142341229,-0.7296587228775024,0.4672275185585022,-0.4992959499359131,0,0,0,-1,-1,1714.92811425,unknown,2,2025-04-28T22:52:45.094+03:00,2025-04-28T22:17:59.397+03:00,68,1.033619,0,0,53.64055,0,0,2025-04-28T22:51:53.501+03:00,767562698.1321328,0,-1.12,100.8116,1,0.35,2025-04-28T22:50:08.926+03:00,116,1.933333333333333,2025-04-22T14:20:19.516+03:00,0.02197104130929222,0
2025-04-28T22:52:47.774+03:00,1745869965.944655,40.98552182483863,29.1373210030093,130.2175,-1,-1,-1,-1,46.16399999999999,41.01102115691547,-9999,1717.6034,-0.7334136962890625,0.4728546142578125,-0.501007080078125,1717.593323,-0.2959683622428568,-0.9707410445818347,-0.4862989461915868,-0.0137266805395484,0.004650984890758991,0.004471501801162958,4.202127456665039e-05,-0.002025038003921509,0.002961397171020508,XArbitraryZVertical,0.2773906147037699,0.4164648108804099,0.01548300307017731,-0.8656626024959579,-0.7296257019042969,0.4673570990562439,-0.4992230236530304,0,0,0,-1,-1,1714.92811425,unknown,2,2025-04-28T22:52:45.094+03:00,2025-04-28T22:17:59.397+03:00,68,1.033619,0,0,53.64055,0,0,2025-04-28T22:51:53.501+03:00,767562767.7641801,0,-0.7600001,100.8063,1,0.35,2025-04-28T22:50:08.926+03:00,116,1.933333333333333,2025-04-22T14:20:19.516+03:00,0.02197104130929222,0
2025-04-28T22:52:47.784+03:00,1745869965.944655,40.98552182483863,29.1373210030093,130.2175,-1,-1,-1,-1,46.16399999999999,41.01102115691547,-9999,1717.613476,-0.73541259765625,0.4733734130859375,-0.500518798828125,1717.6034,-0.2960339815380035,-0.9706988144609257,-0.4863827140567862,-0.008268797770142555,0.01134750433266163,-0.000654550502076745,-0.002605319023132324,0.003439813852310181,-0.0003257691860198975,XArbitraryZVertical,0.2774388330531734,0.4164274815577617,0.01549718033983103,-0.8656648100584835,-0.7295722961425781,0.4674311578273773,-0.4992316961288452,0,0,0,-1,-1,1714.92811425,unknown,2,2025-04-28T22:52:45.094+03:00,2025-04-28T22:17:59.397+03:00,68,1.033619,0,0,53.64055,0,0,2025-04-28T22:51:53.501+03:00,767562767.7641801,0,-0.7600001,100.8063,1,0.35,2025-04-28T22:50:08.926+03:00,116,1.933333333333333,2025-04-22T14:20:19.516+03:00,0.02197104130929222,0
2025-04-28T22:52:47.794+03:00,1745869965.944655,40.98552182483863,29.1373210030093,130.2175,-1,-1,-1,-1,46.16399999999999,41.01102115691547,-9999,1717.623553,-0.7317352294921875,0.4670257568359375,-0.5008087158203125,1717.613476,-0.2961530942490006,-0.9706512488783009,-0.4864432837625659,-0.01953330263495445,0.01239772140979767,2.888322342187166e-05,-0.005994200706481934,0.00652959942817688,-0.001115769147872925,XArbitraryZVertical,0.2774884834554096,0.416383172634729,0.01554081592805688,-0.8656694017049484,-0.7295251488685608,0.467484712600708,-0.4992503821849823,0,0,0,-1,-1,1714.92811425,unknown,2,2025-04-28T22:52:45.094+03:00,2025-04-28T22:17:59.397+03:00,68,1.033619,0,0,53.64055,0,0,2025-04-28T22:51:53.501+03:00,767562767.7641801,0,-0.7600001,100.8063,1,0.35,2025-04-28T22:50:08.926+03:00,116,1.933333333333333,2025-04-22T14:20:19.516+03:00,0.02197104130929222,0
2025-04-28T22:52:47.804+03:00,1745869965.944655,40.98552182483863,29.1373210030093,130.2175,-1,-1,-1,-1,46.16399999999999,41.01102115691547,-9999,1717.633629,-0.727020263671875,0.4605865478515625,-0.49713134765625,1717.623553,-0.2964484103033461,-0.9707218550507601,-0.4865855518737448,-0.03715410828590393,0.004753916524350643,-0.00196422659792006,-0.004228472709655762,0.002497583627700806,-0.001967817544937134,XArbitraryZVertical,0.2776097287412637,0.4163558293787973,0.01562474889217592,-0.8656421797844939,-0.7295054793357849,0.4676104784011841,-0.4991613328456879,0,0,0,-1,-1,1714.92811425,unknown,2,2025-04-28T22:52:45.094+03:00,2025-04-28T22:17:59.397+03:00,68,1.033619,0,0,53.64055,0,0,2025-04-28T22:51:53.501+03:00,767562767.7641801,0,-0.7600001,100.8063,1,0.35,2025-04-28T22:50:08.926+03:00,116,1.933333333333333,2025-04-22T14:20:19.516+03:00,0.02197104130929222,0
2025-04-28T22:52:47.814+03:00,1745869965.944655,40.98552182483863,29.1373210030093,130.2175,-1,-1,-1,-1,46.16399999999999,41.01102115691547,-9999,1717.643705,-0.7278900146484375,0.456298828125,-0.495147705078125,1717.633629,-0.2969154811996683,-0.9709376806902288,-0.4867951859343506,-0.0584198497235775,0.0002530408091843128,-0.003315980546176434,0.0006047487258911133,-0.004569411277770996,-0.0002884864807128906,XArbitraryZVertical,0.2777958901399148,0.416359426445668,0.01574669754498415,-0.8655785639451582,-0.7295323014259338,0.4677957594394684,-0.4989485442638397,0,0,0,-1,-1,1714.92811425,unknown,2,2025-04-28T22:52:45.094+03:00,2025-04-28T22:17:59.397+03:00,68,1.033619,0,0,53.64055,0,0,2025-04-28T22:51:53.501+03:00,767562767.7641801,0,-0.7600001,100.8063,1,0.35,2025-04-28T22:50:08.926+03:00,116,1.933333333333333,2025-04-22T14:20:19.516+03:00,0.02197104130929222,0
2025-04-28T22:52:47.824+03:00,1745869965.944655,40.98552182483863,29.1373210030093,130.2175,-1,-1,-1,-1,46.16399999999999,41.01102115691547,-9999,1717.653782,-0.7328948974609375,0.459503173828125,-0.4950714111328125,1717.643705,-0.2975115723550361,-0.9712217882995035,-0.4870907931397089,-0.05709998682141304,0.002960943151265383,-0.005356760695576668,0.002783834934234619,-0.01065951585769653,0.002920418977737427,XArbitraryZVertical,0.2780452382192611,0.4163643172869793,0.01589431503098892,-0.8654934458799718,-0.7295598387718201,0.4680570065975189,-0.4986631870269775,0,0,0,-1,-1,1714.92811425,unknown,2,2025-04-28T22:52:45.094+03:00,2025-04-28T22:17:59.397+03:00,68,1.033619,0,0,53.64055,0,0,2025-04-28T22:51:53.501+03:00,767562767.7641801,0,-0.7600001,100.8063,1,0.35,2025-04-28T22:50:08.926+03:00,116,1.933333333333333,2025-04-22T14:20:19.516+03:00,0.02197104130929222,0
2025-04-28T22:52:47.834+03:00,1745869965.944655,40.98552182483863,29.1373210030093,130.2175,-1,-1,-1,-1,46.16399999999999,41.01102115691547,-9999,1717.663858,-0.730865478515625,0.46875,-0.50946044921875,1717.653782,-0.2978831929891652,-0.9713248609902697,-0.4872108778253067,-0.009739194996654987,0.01364973932504654,-0.008580950088799,-0.000705420970916748,-0.01096397638320923,0.004797160625457764,XArbitraryZVertical,0.2781733621278575,0.4163429066813831,0.01601201619760039,-0.8654604842866639,-0.729564905166626,0.4681631326675415,-0.4985563158988953,0,0,0,-1,-1,1714.92811425,unknown,2,2025-04-28T22:52:45.094+03:00,2025-04-28T22:17:59.397+03:00,68,1.033619,0,0,53.64055,0,0,2025-04-28T22:51:53.501+03:00,767562767.7641801,0,-0.7600001,100.8063,1,0.35,2025-04-28T22:50:08.926+03:00,116,1.933333333333333,2025-04-22T14:20:19.516+03:00,0.02197104130929222,0
2025-04-28T22:52:47.845+03:00,1745869965.944655,40.98552182483863,29.1373210030093,130.2175,-1,-1,-1,-1,46.16399999999999,41.01102115691547,-9999,1717.673935,-0.724884033203125,0.489227294921875,-0.5198516845703125,1717.663858,-0.297776867218719,-0.9711579736165349,-0.4870065050053074,0.05422620475292206,0.01011066511273384,-0.01171788759529591,-0.003029048442840576,-0.005458086729049683,-0.002336055040359497,XArbitraryZVertical,0.2780648960066613,0.4163098777808649,0.01603819690776284,-0.8655106253628533,-0.7295605540275574,0.4679825305938721,-0.4987320005893707,0,0,0,-1,-1,1714.92811425,unknown,2,2025-04-28T22:52:45.094+03:00,2025-04-28T22:17:59.397+03:00,68,1.033619,0,0,53.64055,0,0,2025-04-28T22:51:53.501+03:00,767562767.7641801,0,-0.7600001,100.8063,1,0.35,2025-04-28T22:50:08.926+03:00,116,1.933333333333333,2025-04-22T14:20:19.516+03:00,0.02197104130929222,0
2025-04-28T22:52:47.855+03:00,1745869965.944655,40.98552182483863,29.1373210030093,130.2175,-1,-1,-1,-1,46.16399999999999,41.01102115691547,-9999,1717.684011,-0.7241973876953125,0.5002288818359375,-0.525360107421875,1717.673935,-0.2969497820804167,-0.9707308025171356,-0.4863104078313206,0.1335600465536118,-0.0001543560065329075,-0.01818983629345894,0.001817822456359863,0.01114839315414429,-0.01650431752204895,XArbitraryZVertical,0.2775996410894141,0.4163228490101977,0.01590645940820429,-0.8656561783187062,-0.7296161651611328,0.4673672318458557,-0.4992274641990662,0,0,0,-1,-1,1714.92811425,unknown,2,2025-04-28T22:52:45.094+03:00,2025-04-28T22:17:59.397+03:00,68,1.033619,0,0,53.64055,0,0,2025-04-28T22:51:53.501+03:00,767562767.7641801,0,-0.7600001,100.8063,1,0.35,2025-04-28T22:50:08.926+03:00,116,1.933333333333333,2025-04-22T14:20:19.516+03:00,0.02197104130929222,0
2025-04-28T22:52:47.865+03:00,1745869965.944655,40.98552182483863,29.1373210030093,130.2175,-1,-1,-1,-1,46.16399999999999,41.01102115691547,-9999,1717.694088,-0.7339630126953125,0.4899139404296875,-0.51776123046875,1717.684011,-0.2954829465206933,-0.9701170204293769,-0.4852193193984546,0.1982050836086273,-0.01296975463628769,-0.01884097792208195,0.005959808826446533,0.03027123212814331,-0.02348962426185608,XArbitraryZVertical,0.2768351797132634,0.4163901106457558,0.01561796773959747,-0.8658738924350238,-0.7297298312187195,0.4664023816585541,-0.499963104724884,0,0,0,-1,-1,1714.92811425,unknown,2,2025-04-28T22:52:45.094+03:00,2025-04-28T22:17:59.397+03:00,68,1.033619,0,0,53.64055,0,0,2025-04-28T22:51:53.501+03:00,767562767.7641801,0,-0.7600001,100.8063,1,0.35,2025-04-28T22:50:08.926+03:00,116,1.933333333333333,2025-04-22T14:20:19.516+03:00,0.02197104130929222,0
2025-04-28T22:52:47.875+03:00,1745869965.944655,40.98552182483863,29.1373210030093,130.2175,-1,-1,-1,-1,46.16399999999999,41.01102115691547,-9999,1717.704164,-0.7519989013671875,0.4586334228515625,-0.5137786865234375,1717.694088,-0.2937651442332878,-0.969280688394565,-0.4839019183087698,0.1891843527555466,0.02309364080429077,-0.02980164997279644,0.001393437385559082,0.0335121750831604,-0.02221173048019409,XArbitraryZVertical,0.2759222446693754,0.4164212569637856,0.01530504764535669,-0.866155840635384,-0.7298173904418945,0.465236634016037,-0.5009204745292664,0,0,0,-1,-1,1714.92811425,unknown,2,2025-04-28T22:52:45.094+03:00,2025-04-28T22:17:59.397+03:00,68,1.033619,0,0,53.64055,0,0,2025-04-28T22:51:53.501+03:00,767562767.7641801,0,-0.7600001,100.8063,1,0.35,2025-04-28T22:50:08.926+03:00,116,1.933333333333333,2025-04-22T14:20:19.516+03:00,0.02197104130929222,0
2025-04-28T22:52:47.885+03:00,1745869965.944655,40.98552182483863,29.1373210030093,130.2175,-1,-1,-1,-1,46.16399999999999,41.01102115691547,-9999,1717.714241,-0.76031494140625,0.441925048828125,-0.512054443359375,1717.704164,-0.2925685793389699,-0.9682648979739786,-0.4827068685433008,0.1149540692567825,0.06950108706951141,-0.04876255616545677,-0.01280307769775391,0.0107361376285553,-0.0111309289932251,XArbitraryZVertical,0.275167218998848,0.4162869852333095,0.01521243630507168,-0.8664621093588056,-0.7297657132148743,0.4641784727573395,-0.5019763112068176,0,0,0,-1,-1,1714.92811425,unknown,2,2025-04-28T22:52:45.094+03:00,2025-04-28T22:17:59.397+03:00,68,1.033619,0,0,53.64055,0,0,2025-04-28T22:51:53.501+03:00,767562767.7641801,0,-0.7600001,100.8063,1,0.35,2025-04-28T22:50:08.926+03:00,116,1.933333333333333,2025-04-22T14:20:19.516+03:00,0.02197104130929222,0
2025-04-28T22:52:47.895+03:00,1745869965.944655,40.98552182483863,29.1373210030093,130.2175,-1,-1,-1,-1,46.16399999999999,41.01102115691547,-9999,1717.724317,-0.7522735595703125,0.426239013671875,-0.5139923095703125,1717.714241,-0.2923971185941863,-0.967324407601837,-0.481931769056443,-0.02186616696417332,0.09991858154535294,-0.06219890713691711,-0.02910804748535156,-0.0159057080745697,-0.01121735572814941,XArbitraryZVertical,0.2748010409442402,0.4159941980365895,0.0154526034486652,-0.8667146371148049,-0.7295892834663391,0.4634917676448822,-0.5028664469718933,0,0,0,-1,-1,1714.92811425,unknown,2,2025-04-28T22:52:45.094+03:00,2025-04-28T22:17:59.397+03:00,68,1.033619,0,0,53.64055,0,0,2025-04-28T22:51:53.501+03:00,767562767.7641801,0,-0.7600001,100.8063,1,0.35,2025-04-28T22:50:08.926+03:00,116,1.933333333333333,2025-04-22T14:20:19.516+03:00,0.02197104130929222,0
2025-04-28T22:52:47.905+03:00,1745869965.944655,40.98552182483863,29.1373210030093,130.2175,-1,-1,-1,-1,46.16399999999999,41.01102115691547,-9999,1717.734394,-0.74066162109375,0.3885345458984375,-0.51983642578125,1717.724317,-0.29420729328233,-0.9670602318429211,-0.4822241176686441,-0.2624230980873108,0.1182009130716324,-0.07000462710857391,-0.02865064144134521,-0.02719682455062866,-0.008767008781433105,XArbitraryZVertical,0.2752972215932311,0.4155963504246065,0.01620359720945337,-0.8667343640811954,-0.72934490442276,0.463750809431076,-0.5029821991920471,0,0,0,-1,-1,1714.92811425,unknown,2,2025-04-28T22:52:45.094+03:00,2025-04-28T22:17:59.397+03:00,68,1.033619,0,0,53.64055,0,0,2025-04-28T22:51:53.501+03:00,767562767.7641801,0,-0.7600001,100.8063,1,0.35,2025-04-28T22:50:08.926+03:00,116,1.933333333333333,2025-04-22T14:20:19.516+03:00,0.02197104130929222,0
2025-04-28T22:52:47.915+03:00,1745869965.944655,40.98552182483863,29.1373210030093,130.2175,-1,-1,-1,-1,46.16399999999999,41.01102115691547,-9999,1717.74447,-0.7242889404296875,0.3453521728515625,-0.5559234619140625,1717.734394,-0.2982264838281714,-0.9677210142823025,-0.4837180651453725,-0.4821904897689819,0.1216690167784691,-0.07561211287975311,-0.01721686124801636,-0.05400210618972778,-0.01197713613510132,XArbitraryZVertical,0.2767603330653945,0.4151510443889649,0.01749695584329139,-0.8664566101391163,-0.7291056513786316,0.4650738835334778,-0.5021066665649414,0,0,0,-1,-1,1714.92811425,unknown,2,2025-04-28T22:52:45.094+03:00,2025-04-28T22:17:59.397+03:00,68,1.033619,0,0,53.64055,0,0,2025-04-28T22:51:53.501+03:00,767562767.7641801,0,-0.7600001,100.8063,1,0.35,2025-04-28T22:50:08.926+03:00,116,1.933333333333333,2025-04-22T14:20:19.516+03:00,0.02197104130929222,0
2025-04-28T22:52:47.925+03:00,1745869965.944655,40.98552182483863,29.1373210030093,130.2175,-1,-1,-1,-1,46.16399999999999,41.01102115691547,-9999,1717.754547,-0.7108612060546875,0.3608245849609375,-0.5841827392578125,1717.74447,-0.3040116623636778,-0.9693711681909573,-0.4863266768601067,-0.6440686583518982,0.09044851362705231,-0.06898564100265503,-0.003537118434906006,-0.1041155159473419,-0.03658950328826904,XArbitraryZVertical,0.2790616999686404,0.414749549982241,0.01914876910923905,-0.8658757425400291,-0.7289305329322815,0.467381626367569,-0.5002147555351257,0,0,0,-1,-1,1714.92811425,unknown,2,2025-04-28T22:52:45.094+03:00,2025-04-28T22:17:59.397+03:00,68,1.033619,0,0,53.64055,0,0,2025-04-28T22:51:53.501+03:00,767562767.7641801,0,-0.7600001,100.8063,1,0.35,2025-04-28T22:50:08.926+03:00,116,1.933333333333333,2025-04-22T14:20:19.516+03:00,0.02197104130929222,0
2025-04-28T22:52:47.935+03:00,1745869965.944655,40.98552182483863,29.1373210030093,130.2175,-1,-1,-1,-1,46.16399999999999,41.01102115691547,-9999,1717.764623,-0.7175750732421875,0.404571533203125,-0.618560791015625,1717.754547,-0.3107520912005367,-0.9717697970230483,-0.4896462586397233,-0.6703528165817261,0.05456095561385155,-0.05471781641244888,0.01277840137481689,-0.1250988841056824,-0.07379332184791565,XArbitraryZVertical,0.2818623020626625,0.4144394046923581,0.02093247540473738,-0.8650752917805612,-0.7288427352905273,0.4703137278556824,-0.4975872337818146,0,0,0,-1,-1,1714.92811425,unknown,2,2025-04-28T22:52:45.094+03:00,2025-04-28T22:17:59.397+03:00,68,1.033619,0,0,53.64055,0,0,2025-04-28T22:51:53.501+03:00,767562767.7641801,0,-0.7600001,100.8063,1,0.35,2025-04-28T22:50:08.926+03:00,116,1.933333333333333,2025-04-22T14:20:19.516+03:00,0.02197104130929222,0
2025-04-28T22:52:47.945+03:00,1745869965.944655,40.98552182483863,29.1373210030093,130.2175,-1,-1,-1,-1,46.16399999999999,41.01102115691547,-9999,1717.7747,-0.73931884765625,0.448974609375,-0.6430511474609375,1717.764623,-0.317593465524394,-0.9743928923681335,-0.4931173332432399,-0.7001988887786865,0.06498216837644577,-0.04467157647013664,0.0180361270904541,-0.09121769666671753,-0.104580819606781,XArbitraryZVertical,0.2847469602365553,0.4141765732059942,0.02268280916996322,-0.8642120331859029,-0.7287904620170593,0.4733741283416748,-0.4947538673877716,0,0,0,-1,-1,1714.92811425,unknown,2,2025-04-28T22:52:45.094+03:00,2025-04-28T22:17:59.397+03:00,68,1.033619,0,0,53.64055,0,0,2025-04-28T22:51:53.501+03:00,767562767.7641801,0,-0.7600001,100.8063,1,0.35,2025-04-28T22:50:08.926+03:00,116,1.933333333333333,2025-04-22T14:20:19.516+03:00,0.02197104130929222,0
2025-04-28T22:52:47.955+03:00,1745869965.944655,40.98552182483863,29.1373210030093,130.2175,-1,-1,-1,-1,46.16399999999999,41.01102115691547,-9999,1717.784776,-0.7680816650390625,0.484588623046875,-0.6498870849609375,1717.7747,-0.3240061068634697,-0.9767263775589461,-0.4964263633680538,-0.6165372729301453,0.08040879666805267,-0.03740167990326881,0.0009493827819824219,-0.05050501227378845,-0.1441800594329834,XArbitraryZVertical,0.2874703801068615,0.4138532996070164,0.02431936029438554,-0.8634204636475236,-0.7286410331726074,0.4762863218784332,-0.4921724498271942,0,0,0,-1,-1,1714.92811425,unknown,2,2025-04-28T22:52:45.094+03:00,2025-04-28T22:17:59.397+03:00,68,1.033619,0,0,53.64055,0,0,2025-04-28T22:51:53.501+03:00,767562767.7641801,0,-0.7600001,100.8063,1,0.35,2025-04-28T22:50:08.926+03:00,116,1.933333333333333,2025-04-22T14:20:19.516+03:00,0.02197104130929222,0
2025-04-28T22:52:47.965+03:00,1745869965.944655,40.98552182483863,29.1373210030093,130.2175,-1,-1,-1,-1,46.16399999999999,41.01102115691547,-9999,1717.794853,-0.79144287109375,0.4996185302734375,-0.66241455078125,1717.784776,-0.3300020794296046,-0.978807422685564,-0.4995764985409933,-0.6032180190086365,0.08003675192594528,-0.03842646256089211,-0.02495718002319336,-0.008945763111114502,-0.1544869840145111,XArbitraryZVertical,0.2900367128876561,0.4134864353320458,0.0258431982722193,-0.8626933070069448,-0.7284148931503296,0.4790538251399994,-0.489815354347229,0,0,0,-1,-1,1714.92811425,unknown,2,2025-04-28T22:52:45.094+03:00,2025-04-28T22:17:59.397+03:00,68,1.033619,0,0,53.64055,0,0,2025-04-28T22:51:53.501+03:00,767562767.7641801,0,-0.7600001,100.8063,1,0.35,2025-04-28T22:50:08.926+03:00,116,1.933333333333333,2025-04-22T14:20:19.516+03:00,0.02197104130929222,0
2025-04-28T22:52:47.976+03:00,1745869965.944655,40.98552182483863,29.1373210030093,130.2175,-1,-1,-1,-1,46.16399999999999,41.01102115691547,-9999,1717.804929,-0.7949371337890625,0.4964752197265625,-0.6757354736328125,1717.794853,-0.3359447889910415,-0.9807624682925379,-0.5026711173254941,-0.5862603187561035,0.08539849519729614,-0.02951259724795818,-0.05296152830123901,0.01196074485778809,-0.1680764555931091,XArbitraryZVertical,0.2925651905159488,0.4130666162297179,0.02736910770213246,-0.8619933219164355,-0.7281358242034912,0.4817679524421692,-0.4875631630420685,0,0,0,-1,-1,1714.92811425,unknown,2,2025-04-28T22:52:45.094+03:00,2025-04-28T22:17:59.397+03:00,68,1.033619,0,0,53.64055,0,0,2025-04-28T22:51:53.501+03:00,767562767.7641801,0,-0.7600001,100.8063,1,0.35,2025-04-28T22:50:08.926+03:00,116,1.933333333333333,2025-04-22T14:20:19.516+03:00,0.02197104130929222,0
2025-04-28T22:52:47.986+03:00,1745869965.944655,40.98552182483863,29.1373210030093,130.2175,-1,-1,-1,-1,46.16399999999999,41.01102115691547,-9999,1717.815006,-0.7621002197265625,0.481781005859375,-0.6736602783203125,1717.804929,-0.3420572157393924,-0.9827323848967404,-0.5062912584601513,-0.6833152174949646,0.109986923635006,0.06005829945206642,-0.06896120309829712,0.01526132225990295,-0.1852225065231323,XArbitraryZVertical,0.2953422313553553,0.4125462198573698,0.02883125545398015,-0.8612475799420491,-0.7276390194892883,0.4849371016025543,-0.4851571619510651,0,0,0,-1,-1,1714.92811425,unknown,2,2025-04-28T22:52:45.094+03:00,2025-04-28T22:17:59.397+03:00,68,1.033619,0,0,53.64055,0,0,2025-04-28T22:51:53.501+03:00,767562767.7641801,0,-0.7600001,100.8063,1,0.35,2025-04-28T22:50:08.926+03:00,116,1.933333333333333,2025-04-22T14:20:19.516+03:00,0.02197104130929222,0
2025-04-28T22:52:47.996+03:00,1745869965.944655,40.98552182483863,29.1373210030093,130.2175,-1,-1,-1,-1,46.16399999999999,41.01102115691547,-9999,1717.825082,-0.716583251953125,0.436767578125,-0.6755828857421875,1717.815006,-0.3481086050574884,-0.9849910594374859,-0.5106575510722334,-0.6764844059944153,0.01023004110902548,0.04983365535736084,-0.05741626024246216,0.0008119940757751465,-0.1934593319892883,XArbitraryZVertical,0.2984132026393346,0.4120448687479134,0.03003425721210237,-0.8603874325784128,-0.7269616723060608,0.4887510240077972,-0.4823371767997742,0,0,0,-1,-1,1714.92811425,unknown,2,2025-04-28T22:52:45.094+03:00,2025-04-28T22:17:59.397+03:00,68,1.033619,0,0,53.64055,0,0,2025-04-28T22:51:53.501+03:00,767562767.7641801,0,-0.7600001,100.8063,1,0.35,2025-04-28T22:50:08.926+03:00,116,1.933333333333333,2025-04-22T14:20:19.516+03:00,0.02197104130929222,0
2025-04-28T22:52:48.006+03:00,1745869965.944655,40.98552182483863,29.1373210030093,130.2175,-1,-1,-1,-1,46.16399999999999,41.01102115691547,-9999,1717.835159,-0.7322235107421875,0.3811492919921875,-0.6235198974609375,1717.825082,-0.3548445315976413,-0.9890344270218669,-0.5147585654135614,-0.7674031257629395,-0.144311860203743,0.004503193777054548,-0.007699012756347656,-0.02711471915245056,-0.1974775791168213,XArbitraryZVertical,0.3015401314545975,0.4122248458565553,0.03131830099005668,-0.8591643789109012,-0.7272252440452576,0.4923247098922729,-0.4782884418964386,0,0,0,-1,-1,1714.92811425,unknown,2,2025-04-28T22:52:45.094+03:00,2025-04-28T22:17:59.397+03:00,68,1.033619,0,0,53.64055,0,0,2025-04-28T22:51:53.501+03:00,767562767.7641801,0,-0.7600001,100.8063,1,0.35,2025-04-28T22:50:08.926+03:00,116,1.933333333333333,2025-04-22T14:20:19.516+03:00,0.02197104130929222,0
2025-04-28T22:52:48.016+03:00,1745869965.944655,40.98552182483863,29.1373210030093,130.2175,-1,-1,-1,-1,46.16399999999999,41.01102115691547,-9999,1717.845235,-0.7545013427734375,0.394775390625,-0.6058807373046875,1717.835159,-0.3627535466174011,-0.994708675882194,-0.5195824732750549,-0.8778108954429626,-0.1997668743133545,0.05485770851373672,0.009833574295043945,-0.09345683455467224,-0.1840052902698517,XArbitraryZVertical,0.3052277800138421,0.4128056312842735,0.03266332275436766,-0.857531650558324,-0.7279272675514221,0.4965177476406097,-0.4728550314903259,0,0,0,-1,-1,1714.92811425,unknown,2,2025-04-28T22:52:45.094+03:00,2025-04-28T22:17:59.397+03:00,68,1.033619,0,0,53.64055,0,0,2025-04-28T22:51:53.501+03:00,767562767.7641801,0,-0.7600001,100.8063,1,0.35,2025-04-28T22:50:08.926+03:00,116,1.933333333333333,2025-04-22T14:20:19.516+03:00,0.02197104130929222,0
2025-04-28T22:52:48.026+03:00,1745869965.944655,40.98552182483863,29.1373210030093,130.2175,-1,-1,-1,-1,46.16399999999999,41.01102115691547,-9999,1717.855311,-0.753875732421875,0.45635986328125,-0.64215087890625,1717.845235,-0.3708010824907008,-1.001101562126486,-0.5250234820517036,-0.8701915740966797,-0.2728522717952728,0.09331855177879333,-0.01864951848983765,-0.1217624545097351,-0.1336597800254822,XArbitraryZVertical,0.3092043669668479,0.4135562533816156,0.03377912508759905,-0.8557001735382292,-0.7286496162414551,0.5012333393096924,-0.4667277634143829,0,0,0,-1,-1,1714.92811425,unknown,2,2025-04-28T22:52:45.094+03:00,2025-04-28T22:17:59.397+03:00,68,1.033619,0,0,53.64055,0,0,2025-04-28T22:51:53.501+03:00,767562767.7641801,0,-0.7600001,100.8063,1,0.35,2025-04-28T22:50:08.926+03:00,116,1.933333333333333,2025-04-22T14:20:19.516+03:00,0.02197104130929222,0
2025-04-28T22:52:48.036+03:00,1745869965.944655,40.98552182483863,29.1373210030093,130.2175,-1,-1,-1,-1,46.16399999999999,41.01102115691547,-9999,1717.865388,-0.7468414306640625,0.5533447265625,-0.624176025390625,1717.855311,-0.3782203007288253,-1.007949645618419,-0.5302764704673171,-0.7400053739547729,-0.3451946973800659,0.1059091463685036,-0.02654212713241577,-0.08551424741744995,-0.1676139235496521,XArbitraryZVertical,0.3129796568499816,0.4145912027052079,0.03457363243057652,-0.8537930478243119,-0.7295918464660645,0.5057718753814697,-0.4603157341480255,0,0,0,-1,-1,1714.92811425,unknown,2,2025-04-28T22:52:45.094+03:00,2025-04-28T22:17:59.397+03:00,68,1.033619,0,0,53.64055,0,0,2025-04-28T22:51:53.501+03:00,767562767.7641801,0,-0.7600001,100.8063,1,0.35,2025-04-28T22:50:08.926+03:00,116,1.933333333333333,2025-04-22T14:20:19.516+03:00,0.02197104130929222,0
2025-04-28T22:52:48.046+03:00,1745869965.944655,40.98552182483863,29.1373210030093,130.2175,-1,-1,-1,-1,46.16399999999999,41.01102115691547,-9999,1717.875464,-0.7378387451171875,0.6503143310546875,-0.608123779296875,1717.865388,-0.383854449304207,-1.014587196591272,-0.5348368694179996,-0.5503803491592407,-0.4118232727050781,0.1511716842651367,-0.02009820938110352,-0.007655918598175049,-0.1823562383651733,XArbitraryZVertical,0.31609923972125,0.4158858851163522,0.0347867714662629,-0.8520035535066051,-0.7306646704673767,0.5097007155418396,-0.4542404115200043,0,0,0,-1,-1,1714.92811425,unknown,2,2025-04-28T22:52:45.094+03:00,2025-04-28T22:17:59.397+03:00,68,1.033619,0,0,53.64055,0,0,2025-04-28T22:51:53.501+03:00,767562767.7641801,0,-0.7600001,100.8063,1,0.35,2025-04-28T22:50:08.926+03:00,116,1.933333333333333,2025-04-22T14:20:19.516+03:00,0.02197104130929222,0
2025-04-28T22:52:48.056+03:00,1745869965.944655,40.98552182483863,29.1373210030093,130.2175,-1,-1,-1,-1,46.16399999999999,41.01102115691547,-9999,1717.885541,-0.7440948486328125,0.6864776611328125,-0.589874267578125,1717.875464,-0.3869450377106841,-1.020777631219504,-0.5383651186529428,-0.2542779147624969,-0.5013649463653564,0.1625018119812012,-0.01093387603759766,0.09206432104110718,-0.1671399772167206,XArbitraryZVertical,0.318264379140874,0.4175223353049257,0.03422883620484807,-0.8504182308557019,-0.731924831867218,0.5127330422401428,-0.448765754699707,0,0,0,-1,-1,1714.92811425,unknown,2,2025-04-28T22:52:45.094+03:00,2025-04-28T22:17:59.397+03:00,68,1.033619,0,0,53.64055,0,0,2025-04-28T22:51:53.501+03:00,767562767.7641801,0,-0.7600001,100.8063,1,0.35,2025-04-28T22:50:08.926+03:00,116,1.933333333333333,2025-04-22T14:20:19.516+03:00,0.02197104130929222,0
2025-04-28T22:52:48.066+03:00,1745869965.944655,40.98552182483863,29.1373210030093,130.2175,-1,-1,-1,-1,46.16399999999999,41.01102115691547,-9999,1717.895617,-0.7701416015625,0.635894775390625,-0.5624542236328125,1717.885541,-0.3872592188912641,-1.026341403809837,-0.54027314938424,-0.02071281708776951,-0.5658560395240784,0.1301694363355637,-0.004922568798065186,0.165393590927124,-0.1559948325157166,XArbitraryZVertical,0.3191864093097386,0.4195598674245062,0.03299115241711396,-0.8491178921264482,-0.733572244644165,0.5143702626228333,-0.4441791176795959,0,0,0,-1,-1,1714.92811425,unknown,2,2025-04-28T22:52:45.094+03:00,2025-04-28T22:17:59.397+03:00,68,1.033619,0,0,53.64055,0,0,2025-04-28T22:51:53.501+03:00,767562767.7641801,0,-0.7600001,100.8063,1,0.35,2025-04-28T22:50:08.926+03:00,116,1.933333333333333,2025-04-22T14:20:19.516+03:00,0.02197104130929222,0
2025-04-28T22:52:48.076+03:00,1745869965.944655,40.98552182483863,29.1373210030093,130.2175,-1,-1,-1,-1,46.16399999999999,41.01102115691547,-9999,1717.905694,-0.7972412109375,0.534759521484375,-0.5128021240234375,1717.895617,-0.386950837876775,-1.032061255558352,-0.5412948477779445,-0.06567084044218063,-0.5978248119354248,0.06752250343561172,-0.0195537805557251,0.1551030278205872,-0.1386172771453857,XArbitraryZVertical,0.3196216269442741,0.421887383549375,0.03168623765369283,-0.8478497145092742,-0.7356494069099426,0.5152461528778076,-0.4397061169147491,0,0,0,-1,-1,1714.92811425,unknown,2,2025-04-28T22:52:45.094+03:00,2025-04-28T22:17:59.397+03:00,68,1.033619,0,0,53.64055,0,0,2025-04-28T22:51:53.501+03:00,767562767.7641801,0,-0.7600001,100.8063,1,0.35,2025-04-28T22:50:08.926+03:00,116,1.933333333333333,2025-04-22T14:20:19.516+03:00,0.02197104130929222,0
