loggingTime(txt),locationTimestamp_since1970(s),locationLatitude(WGS84),locationLongitude(WGS84),locationAltitude(m),locationSpeed(m/s),locationSpeedAccuracy(m/s),locationCourse(°),locationCourseAccuracy(°),locationVerticalAccuracy(m),locationHorizontalAccuracy(m),locationFloor(Z),accelerometerTimestamp_sinceReboot(s),accelerometerAccelerationX(G),accelerometerAccelerationY(G),accelerometerAccelerationZ(G),motionTimestamp_sinceReboot(s),motionYaw(rad),motionRoll(rad),motionPitch(rad),motionRotationRateX(rad/s),motionRotationRateY(rad/s),motionRotationRateZ(rad/s),motionUserAccelerationX(G),motionUserAccelerationY(G),motionUserAccelerationZ(G),motionAttitudeReferenceFrame(txt),motionQuaternionX(R),motionQuaternionY(R),motionQuaternionZ(R),motionQuaternionW(R),motionGravityX(G),motionGravityY(G),motionGravityZ(G),motionMagneticFieldX(µT),motionMagneticFieldY(µT),motionMagneticFieldZ(µT),motionHeading(°),motionMagneticFieldCalibrationAccuracy(Z),activityTimestamp_sinceReboot(s),activity(txt),activityActivityConfidence(Z),activityActivityStartDate(txt),pedometerStartDate(txt),pedometerNumberofSteps(N),pedometerAverageActivePace(s/m),pedometerCurrentPace(s/m),pedometerCurrentCadence(steps/s),pedometerDistance(m),pedometerFloorAscended(N),pedometerFloorDescended(N),pedometerEndDate(txt),altimeterTimestamp_sinceReboot(s),altimeterReset(bool),altimeterRelativeAltitude(m),altimeterPressure(kPa),batteryState(N),batteryLevel(R),heartRateBPMTimestamp(txt),heartRateBPM(N),heartRateBPS(R),heartRateVariabilityTimestamp(txt),heartRateVariability(ms),label
2025-04-22T13:03:32.498+03:00,1745316208.34092,40.95215778104961,29.14023037110555,75.7112,-1,-1,-1,-1,30,16.89288593580454,-9999,32017.99295066667,-0.5846099853515625,0.83074951171875,-0.0309295654296875,32017.99044866667,-0.715464205223739,-1.522110974691792,-0.9267893717278887,-0.02867805771529675,-0.1815363019704819,-0.07769784331321716,0.007758796215057373,0.03093093633651733,-0.007890045642852783,XArbitraryZVertical,0.5192033027432371,0.4645624313581258,-0.06195663291270553,-0.7146824162385574,-0.5996930003166199,0.7996963858604431,-0.02921935543417931,0,0,0,-1,-1,32017.52062666667,unknown,2,2025-04-22T13:03:32.007+03:00,2025-04-21T17:08:51.449+03:00,7397,0.9991471,0,0,6162.221,5,20,2025-04-22T12:58:04.401+03:00,767009012.1094084,0,-21.82,100.4637,1,0.75,2025-04-22T13:03:28.830+03:00,103,1.716666666666667,2025-04-22T09:54:17.825+03:00,0.02225348692287972,0
2025-04-22T13:03:32.499+03:00,1745316208.34092,40.95215778104961,29.14023037110555,75.7112,-1,-1,-1,-1,30,16.89288593580454,-9999,32018.00302666667,-0.5620574951171875,0.829498291015625,-0.0268402099609375,32018.00052466667,-0.7157227624741636,-1.524176440558933,-0.92599650362305,-0.0003101310867350549,-0.1885908246040344,-0.0764634981751442,0.01966637372970581,0.02953040599822998,-0.002598941326141357,XArbitraryZVertical,0.519001701598902,0.4654375756214501,-0.06212619455676363,-0.7142446391699718,-0.6003853678703308,0.799220085144043,-0.02801019325852394,0,0,0,-1,-1,32017.52062666667,unknown,2,2025-04-22T13:03:32.007+03:00,2025-04-21T17:08:51.449+03:00,7397,0.9991471,0,0,6162.221,5,20,2025-04-22T12:58:04.401+03:00,767009012.1094084,0,-21.82,100.4637,1,0.75,2025-04-22T13:03:28.830+03:00,103,1.716666666666667,2025-04-22T09:54:17.825+03:00,0.02225348692287972,0
2025-04-22T13:03:32.504+03:00,1745316208.34092,40.95215778104961,29.14023037110555,75.7112,-1,-1,-1,-1,30,16.89288593580454,-9999,32018.01310366667,-0.5801239013671875,0.8485565185546875,-0.0269317626953125,32018.01060166667,-0.7152719573551862,-1.525540083857497,-0.925348867113309,0.0542905293405056,-0.1574739217758179,-0.05656516179442406,0.03871458768844604,0.03284949064254761,3.892183303833008e-05,XArbitraryZVertical,0.5186929449748335,0.4662083172751708,-0.062416850270006,-0.713940851325884,-0.6009399890899658,0.7988306879997253,-0.02721486799418926,0,0,0,-1,-1,32017.52062666667,unknown,2,2025-04-22T13:03:32.007+03:00,2025-04-21T17:08:51.449+03:00,7397,0.9991471,0,0,6162.221,5,20,2025-04-22T12:58:04.401+03:00,767009012.1094084,0,-21.82,100.4637,1,0.75,2025-04-22T13:03:28.830+03:00,103,1.716666666666667,2025-04-22T09:54:17.825+03:00,0.02225348692287972,0
2025-04-22T13:03:32.517+03:00,1745316208.34092,40.95215778104961,29.14023037110555,75.7112,-1,-1,-1,-1,30,16.89288593580454,-9999,32018.02317966667,-0.6106719970703125,0.8454132080078125,-0.029144287109375,32018.02067766667,-0.7120618371140441,-1.525059652259253,-0.9249586609281258,0.3578060865402222,-0.2439562231302261,-0.03064760752022266,0.01705527305603027,0.0503266453742981,0.0003724116832017899,XArbitraryZVertical,0.5178618978562641,0.4669691067418604,-0.06330333373798554,-0.7139688050764736,-0.601237952709198,0.7985959053039551,-0.02751781605184078,0,0,0,-1,-1,32017.52062666667,unknown,2,2025-04-22T13:03:32.007+03:00,2025-04-21T17:08:51.449+03:00,7397,0.9991471,0,0,6162.221,5,20,2025-04-22T12:58:04.401+03:00,767009012.1094084,0,-21.82,100.4637,1,0.75,2025-04-22T13:03:28.830+03:00,103,1.716666666666667,2025-04-22T09:54:17.825+03:00,0.02225348692287972,0
2025-04-22T13:03:32.525+03:00,1745316208.34092,40.95215778104961,29.14023037110555,75.7112,-1,-1,-1,-1,30,16.89288593580454,-9999,32018.03325666667,-0.6142578125,0.829986572265625,-0.0333709716796875,32018.03075366667,-0.7075280921228985,-1.523224417229451,-0.9241165409973598,0.2173211276531219,-0.1517216265201569,-0.09159671515226364,-0.01151472330093384,0.04619514942169189,-0.0008726119995117188,XArbitraryZVertical,0.5166503909436764,0.4677026789721668,-0.06415632910502916,-0.714290160584782,-0.6018580794334412,0.7980887293815613,-0.02865315601229668,0,0,0,-1,-1,32017.52062666667,unknown,2,2025-04-22T13:03:32.007+03:00,2025-04-21T17:08:51.449+03:00,7397,0.9991471,0,0,6162.221,5,20,2025-04-22T12:58:04.401+03:00,767009012.1094084,0,-21.82,100.4637,1,0.75,2025-04-22T13:03:28.830+03:00,103,1.716666666666667,2025-04-22T09:54:17.825+03:00,0.02225348692287972,0
2025-04-22T13:03:32.535+03:00,1745316208.34092,40.95215778104961,29.14023037110555,75.7112,-1,-1,-1,-1,30,16.89288593580454,-9999,32018.04333266667,-0.6143646240234375,0.781494140625,-0.01312255859375,32018.04083066667,-0.7037084262722564,-1.521448324424392,-0.923427770735031,0.21010522544384,-0.09085700660943985,-0.04225436225533485,-0.01185697317123413,0.02828454971313477,-0.001897573471069336,XArbitraryZVertical,0.5156410418452223,0.4682304245085901,-0.06482451657271762,-0.7146133384851429,-0.6023550629615784,0.7976735830307007,-0.02974917180836201,0,0,0,-1,-1,32017.52062666667,unknown,2,2025-04-22T13:03:32.007+03:00,2025-04-21T17:08:51.449+03:00,7397,0.9991471,0,0,6162.221,5,20,2025-04-22T12:58:04.401+03:00,767009012.1094084,0,-21.82,100.4637,1,0.75,2025-04-22T13:03:28.830+03:00,103,1.716666666666667,2025-04-22T09:54:17.825+03:00,0.02225348692287972,0
2025-04-22T13:03:32.545+03:00,1745316208.34092,40.95215778104961,29.14023037110555,75.7112,-1,-1,-1,-1,30,16.89288593580454,-9999,32018.05340866667,-0.616546630859375,0.754730224609375,-0.0258636474609375,32018.05090666667,-0.7005438444545987,-1.519457770577212,-0.922682829251558,0.1779922842979431,-0.03578922525048256,-0.0838761106133461,-0.01162928342819214,-0.02268809080123901,0.01874107122421265,XArbitraryZVertical,0.5147769958794868,0.4685246381589035,-0.06518565134909222,-0.7150104855063016,-0.6028879284858704,0.7972240447998047,-0.03097861632704735,0,0,0,-1,-1,32017.52062666667,unknown,2,2025-04-22T13:03:32.007+03:00,2025-04-21T17:08:51.449+03:00,7397,0.9991471,0,0,6162.221,5,20,2025-04-22T12:58:04.401+03:00,767009012.1094084,0,-21.82,100.4637,1,0.75,2025-04-22T13:03:28.830+03:00,103,1.716666666666667,2025-04-22T09:54:17.825+03:00,0.02225348692287972,0
2025-04-22T13:03:32.555+03:00,1745316208.34092,40.95215778104961,29.14023037110555,75.7112,-1,-1,-1,-1,30,16.89288593580454,-9999,32018.06348566667,-0.616180419921875,0.7733001708984375,-0.027130126953125,32018.06098366667,-0.6980607337021139,-1.517733771771333,-0.9219426133261941,0.1294646412134171,-0.01986146159470081,-0.05564410611987114,-0.01402407884597778,-0.04012429714202881,0.005254805088043213,XArbitraryZVertical,0.5140644041864899,0.4687357119034364,-0.06537485696977176,-0.7153674969248969,-0.6034228205680847,0.7967770099639893,-0.03204924240708351,0,0,0,-1,-1,32017.52062666667,unknown,2,2025-04-22T13:03:32.007+03:00,2025-04-21T17:08:51.449+03:00,7397,0.9991471,0,0,6162.221,5,20,2025-04-22T12:58:04.401+03:00,767009012.1094084,0,-21.82,100.4637,1,0.75,2025-04-22T13:03:28.830+03:00,103,1.716666666666667,2025-04-22T09:54:17.825+03:00,0.02225348692287972,0
2025-04-22T13:03:32.565+03:00,1745316208.34092,40.95215778104961,29.14023037110555,75.7112,-1,-1,-1,-1,30,16.89288593580454,-9999,32018.07356166667,-0.598541259765625,0.78057861328125,-0.0314788818359375,32018.07105966667,-0.6961360501964153,-1.51633748090616,-0.9214545922260258,0.1034412980079651,-0.004634570796042681,-0.03809680417180061,-0.01082795858383179,-0.02002352476119995,0.005553904920816422,XArbitraryZVertical,0.5135353873177575,0.4688549336716413,-0.06553658192608389,-0.7156543813161294,-0.6037654876708984,0.7964820265769958,-0.03291291370987892,0,0,0,-1,-1,32017.52062666667,unknown,2,2025-04-22T13:03:32.007+03:00,2025-04-21T17:08:51.449+03:00,7397,0.9991471,0,0,6162.221,5,20,2025-04-22T12:58:04.401+03:00,767009012.1094084,0,-21.82,100.4637,1,0.75,2025-04-22T13:03:28.830+03:00,103,1.716666666666667,2025-04-22T09:54:17.825+03:00,0.02225348692287972,0
2025-04-22T13:03:32.575+03:00,1745316208.34092,40.95215778104961,29.14023037110555,75.7112,-1,-1,-1,-1,30,16.89288593580454,-9999,32018.08363866667,-0.60443115234375,0.763214111328125,-0.0385284423828125,32018.08113666667,-0.6946343041860665,-1.515132557836933,-0.9211298533160632,0.07793586701154709,0.006641186308115721,-0.02619969844818115,0.006052672863006592,-0.01759934425354004,0.0005736984312534332,XArbitraryZVertical,0.5131404360167473,0.4688917884592112,-0.06565293050840547,-0.7159028098424809,-0.6039835214614868,0.7962856292724609,-0.03365476801991463,0,0,0,-1,-1,32017.52062666667,unknown,2,2025-04-22T13:03:32.007+03:00,2025-04-21T17:08:51.449+03:00,7397,0.9991471,0,0,6162.221,5,20,2025-04-22T12:58:04.401+03:00,767009012.1094084,0,-21.82,100.4637,1,0.75,2025-04-22T13:03:28.830+03:00,103,1.716666666666667,2025-04-22T09:54:17.825+03:00,0.02225348692287972,0
2025-04-22T13:03:32.585+03:00,1745316208.34092,40.95215778104961,29.14023037110555,75.7112,-1,-1,-1,-1,30,16.89288593580454,-9999,32018.09371466667,-0.6029815673828125,0.7617950439453125,-0.0429229736328125,32018.09121266667,-0.6935295973900916,-1.514206319173106,-0.9209778803578885,0.05324943363666534,3.042165189981461e-05,-0.009605273604393005,-0.0009225606918334961,-0.03346794843673706,-0.005131423473358154,XArbitraryZVertical,0.5128732132017182,0.4688822307288612,-0.06575844722690273,-0.7160909416004362,-0.604073166847229,0.7961936593055725,-0.03422104194760323,0,0,0,-1,-1,32017.52062666667,unknown,2,2025-04-22T13:03:32.007+03:00,2025-04-21T17:08:51.449+03:00,7397,0.9991471,0,0,6162.221,5,20,2025-04-22T12:58:04.401+03:00,767009012.1094084,0,-21.82,100.4637,1,0.75,2025-04-22T13:03:28.830+03:00,103,1.716666666666667,2025-04-22T09:54:17.825+03:00,0.02225348692287972,0
2025-04-22T13:03:32.595+03:00,1745316208.34092,40.95215778104961,29.14023037110555,75.7112,-1,-1,-1,-1,30,16.89288593580454,-9999,32018.10379075,-0.594329833984375,0.7642974853515625,-0.04730224609375,32018.10128775,-0.6928978837158883,-1.513791021754172,-0.9209506180300906,0.02373295463621616,-0.01428713090717793,-0.002814413048326969,0.002365589141845703,-0.03476369380950928,-0.009426414966583252,XArbitraryZVertical,0.512731816762192,0.468902449616716,-0.06586873430035491,-0.7161688803861496,-0.6040806770324707,0.7961771488189697,-0.03447315469384193,0,0,0,-1,-1,32017.52062666667,unknown,2,2025-04-22T13:03:32.007+03:00,2025-04-21T17:08:51.449+03:00,7397,0.9991471,0,0,6162.221,5,20,2025-04-22T12:58:04.401+03:00,767009012.1094084,0,-21.82,100.4637,1,0.75,2025-04-22T13:03:28.830+03:00,103,1.716666666666667,2025-04-22T09:54:17.825+03:00,0.02225348692287972,0
2025-04-22T13:03:32.605+03:00,1745316208.34092,40.95215778104961,29.14023037110555,75.7112,-1,-1,-1,-1,30,16.89288593580454,-9999,32018.11386675,-0.5936431884765625,0.7689666748046875,-0.045623779296875,32018.11136475,-0.6926903233456113,-1.513823814077929,-0.9209836586909336,0.002037245547398925,-0.0225735567510128,0.008004412055015564,0.01056480407714844,-0.03107589483261108,-0.01249944791197777,XArbitraryZVertical,0.5126905162286806,0.4689589722410225,-0.06596289948736908,-0.7161526739357961,-0.6040553450584412,0.7961971759796143,-0.03445183485746384,0,0,0,-1,-1,32017.52062666667,unknown,2,2025-04-22T13:03:32.007+03:00,2025-04-21T17:08:51.449+03:00,7397,0.9991471,0,0,6162.221,5,20,2025-04-22T12:58:04.401+03:00,767009012.1094084,0,-21.82,100.4637,1,0.75,2025-04-22T13:03:28.830+03:00,103,1.716666666666667,2025-04-22T09:54:17.825+03:00,0.02225348692287972,0
2025-04-22T13:03:32.615+03:00,1745316208.34092,40.95215778104961,29.14023037110555,75.7112,-1,-1,-1,-1,30,16.89288593580454,-9999,32018.12394275,-0.59716796875,0.7766571044921875,-0.0423736572265625,32018.12144075,-0.6927747865239965,-1.514109905241962,-0.9211025060458543,-0.01581212505698204,-0.02243833616375923,0.01127647142857313,0.009183108806610107,-0.02576148509979248,-0.01096862182021141,XArbitraryZVertical,0.5127311275304713,0.469009556209606,-0.0660469111414327,-0.7160827111489071,-0.6039706468582153,0.7962690591812134,-0.0342736542224884,0,0,0,-1,-1,32017.52062666667,unknown,2,2025-04-22T13:03:32.007+03:00,2025-04-21T17:08:51.449+03:00,7397,0.9991471,0,0,6162.221,5,20,2025-04-22T12:58:04.401+03:00,767009012.1094084,0,-21.82,100.4637,1,0.75,2025-04-22T13:03:28.830+03:00,103,1.716666666666667,2025-04-22T09:54:17.825+03:00,0.02225348692287972,0
2025-04-22T13:03:32.626+03:00,1745316208.34092,40.95215778104961,29.14023037110555,75.7112,-1,-1,-1,-1,30,16.89288593580454,-9999,32018.13401975,-0.6019287109375,0.7847442626953125,-0.046051025390625,32018.13151775,-0.6931412417489814,-1.514653911568636,-0.9212190460926239,-0.02532040886580944,-0.02468124777078629,0.01170950196683407,0.005736887454986572,-0.01830935478210449,-0.008586402982473373,XArbitraryZVertical,0.5128287274570633,0.4690807559389659,-0.06609529042594633,-0.7159617377856278,-0.6038966178894043,0.7963395714759827,-0.03393988311290741,0,0,0,-1,-1,32017.52062666667,unknown,2,2025-04-22T13:03:32.007+03:00,2025-04-21T17:08:51.449+03:00,7397,0.9991471,0,0,6162.221,5,20,2025-04-22T12:58:04.401+03:00,767009012.1094084,0,-21.82,100.4637,1,0.75,2025-04-22T13:03:28.830+03:00,103,1.716666666666667,2025-04-22T09:54:17.825+03:00,0.02225348692287972,0
2025-04-22T13:03:32.636+03:00,1745316208.34092,40.95215778104961,29.14023037110555,75.7112,-1,-1,-1,-1,30,16.89288593580454,-9999,32018.14409575,-0.600372314453125,0.7960968017578125,-0.0490570068359375,32018.14159375,-0.6935986044433947,-1.515332276116763,-0.921264477169073,-0.02656730078160763,-0.03566119819879532,0.003162353066727519,0.00250399112701416,-0.01031064987182617,-0.01307213306427002,XArbitraryZVertical,0.5129251310666904,0.4691947424245719,-0.06612117430959137,-0.7158155940996036,-0.6038833856582642,0.7963670492172241,-0.03352820873260498,0,0,0,-1,-1,32017.52062666667,unknown,2,2025-04-22T13:03:32.007+03:00,2025-04-21T17:08:51.449+03:00,7397,0.9991471,0,0,6162.221,5,20,2025-04-22T12:58:04.401+03:00,767009012.1094084,0,-21.82,100.4637,1,0.75,2025-04-22T13:03:28.830+03:00,103,1.716666666666667,2025-04-22T09:54:17.825+03:00,0.02225348692287972,0
2025-04-22T13:03:32.646+03:00,1745316208.34092,40.95215778104961,29.14023037110555,75.7112,-1,-1,-1,-1,30,16.89288593580454,-9999,32018.15417275,-0.596832275390625,0.8058624267578125,-0.0540313720703125,32018.15166975,-0.6939834376949513,-1.516024643562984,-0.921256755412835,-0.01711387746036053,-0.0421137697994709,-0.001266217557713389,0.004226982593536377,0.001183807849884033,-0.01675533875823021,XArbitraryZVertical,0.5129905745576088,0.4693457766374529,-0.0661583821741496,-0.7156662141452634,-0.6039125919342041,0.7963623404502869,-0.03311042487621307,0,0,0,-1,-1,32017.52062666667,unknown,2,2025-04-22T13:03:32.007+03:00,2025-04-21T17:08:51.449+03:00,7397,0.9991471,0,0,6162.221,5,20,2025-04-22T12:58:04.401+03:00,767009012.1094084,0,-21.82,100.4637,1,0.75,2025-04-22T13:03:28.830+03:00,103,1.716666666666667,2025-04-22T09:54:17.825+03:00,0.02225348692287972,0
2025-04-22T13:03:32.656+03:00,1745316208.34092,40.95215778104961,29.14023037110555,75.7112,-1,-1,-1,-1,30,16.89288593580454,-9999,32018.16424875,-0.595184326171875,0.8151702880859375,-0.059906005859375,32018.16174675,-0.694146264506438,-1.516631840412936,-0.9211447803653132,0.0009675870533101261,-0.0549611933529377,-0.01937028765678406,0.007265746593475342,0.009781241416931152,-0.02125233039259911,XArbitraryZVertical,0.5129802598664893,0.4695497573258446,-0.06621726566798117,-0.7155343830570899,-0.6040216684341431,0.796294629573822,-0.03274855762720108,0,0,0,-1,-1,32017.52062666667,unknown,2,2025-04-22T13:03:32.007+03:00,2025-04-21T17:08:51.449+03:00,7397,0.9991471,0,0,6162.221,5,20,2025-04-22T12:58:04.401+03:00,767009012.1094084,0,-21.82,100.4637,1,0.75,2025-04-22T13:03:28.830+03:00,103,1.716666666666667,2025-04-22T09:54:17.825+03:00,0.02225348692287972,0
2025-04-22T13:03:32.666+03:00,1745316208.34092,40.95215778104961,29.14023037110555,75.7112,-1,-1,-1,-1,30,16.89288593580454,-9999,32018.17432475,-0.594970703125,0.8219757080078125,-0.0621337890625,32018.17182275,-0.6939999316517588,-1.517172864744102,-0.9208269949274432,0.01631804741919041,-0.07618525624275208,-0.03615326061844826,0.009534955024719238,0.02021223306655884,-0.02832514047622681,XArbitraryZVertical,0.5128473147853271,0.469861649069751,-0.06629885435207745,-0.7154173950819496,-0.6042920351028442,0.7961023449897766,-0.03243532404303551,0,0,0,-1,-1,32017.52062666667,unknown,2,2025-04-22T13:03:32.007+03:00,2025-04-21T17:08:51.449+03:00,7397,0.9991471,0,0,6162.221,5,20,2025-04-22T12:58:04.401+03:00,767009012.1094084,0,-21.82,100.4637,1,0.75,2025-04-22T13:03:28.830+03:00,103,1.716666666666667,2025-04-22T09:54:17.825+03:00,0.02225348692287972,0
2025-04-22T13:03:32.676+03:00,1745316208.34092,40.95215778104961,29.14023037110555,75.7112,-1,-1,-1,-1,30,16.89288593580454,-9999,32018.18440175,-0.597320556640625,0.8167572021484375,-0.0566864013671875,32018.18189975,-0.6937641562086526,-1.51778319978482,-0.9203800238929692,0.01187209971249104,-0.08229833841323853,-0.04486516118049622,0.008948624134063721,0.02554869651794434,-0.0299416184425354,XArbitraryZVertical,0.5126582256380664,0.4702540455881876,-0.06638560257487197,-0.7152870622952004,-0.6046670079231262,0.7958317995071411,-0.0320853516459465,0,0,0,-1,-1,32017.52062666667,unknown,2,2025-04-22T13:03:32.007+03:00,2025-04-21T17:08:51.449+03:00,7397,0.9991471,0,0,6162.221,5,20,2025-04-22T12:58:04.401+03:00,767009012.1094084,0,-21.82,100.4637,1,0.75,2025-04-22T13:03:28.830+03:00,103,1.716666666666667,2025-04-22T09:54:17.825+03:00,0.02225348692287972,0
2025-04-22T13:03:32.686+03:00,1745316208.34092,40.95215778104961,29.14023037110555,75.7112,-1,-1,-1,-1,30,16.89288593580454,-9999,32018.19447775,-0.601898193359375,0.8133697509765625,-0.0583953857421875,32018.19197575,-0.6936032112762254,-1.518475195725231,-0.9198867301612016,0.002945716492831707,-0.08409890532493591,-0.0508066713809967,0.007333219051361084,0.02040010690689087,-0.02531939744949341,XArbitraryZVertical,0.5124722274664413,0.4706681362096922,-0.06645046019737363,-0.7151419394004842,-0.6050810217857361,0.7955330014228821,-0.03168744221329689,0,0,0,-1,-1,32017.52062666667,unknown,2,2025-04-22T13:03:32.007+03:00,2025-04-21T17:08:51.449+03:00,7397,0.9991471,0,0,6162.221,5,20,2025-04-22T12:58:04.401+03:00,767009012.1094084,0,-21.82,100.4637,1,0.75,2025-04-22T13:03:28.830+03:00,103,1.716666666666667,2025-04-22T09:54:17.825+03:00,0.02225348692287972,0
2025-04-22T13:03:32.696+03:00,1745316208.34092,40.95215778104961,29.14023037110555,75.7112,-1,-1,-1,-1,30,16.89288593580454,-9999,32018.20455475,-0.6043243408203125,0.8130950927734375,-0.0579376220703125,32018.20205275,-0.6936418225391163,-1.519379066278494,-0.9192921134879898,-0.01068807020783424,-0.09266336262226105,-0.06201871484518051,0.003012001514434814,0.01810538768768311,-0.02739840373396873,XArbitraryZVertical,0.5123004835879077,0.4711324751596698,-0.06646323631849738,-0.7149579340792119,-0.605581521987915,0.7951725721359253,-0.03116481006145477,0,0,0,-1,-1,32017.52062666667,unknown,2,2025-04-22T13:03:32.007+03:00,2025-04-21T17:08:51.449+03:00,7397,0.9991471,0,0,6162.221,5,20,2025-04-22T12:58:04.401+03:00,767009012.1094084,0,-21.82,100.4637,1,0.75,2025-04-22T13:03:28.830+03:00,103,1.716666666666667,2025-04-22T09:54:17.825+03:00,0.02225348692287972,0
2025-04-22T13:03:32.706+03:00,1745316208.34092,40.95215778104961,29.14023037110555,75.7112,-1,-1,-1,-1,30,16.89288593580454,-9999,32018.21463075,-0.60516357421875,0.807830810546875,-0.0585174560546875,32018.21212875,-0.6939512233249204,-1.520617497671153,-0.9186072110406549,-0.02604838460683823,-0.1074337884783745,-0.0747653990983963,0.001228809356689453,0.01783430576324463,-0.027220843359828,XArbitraryZVertical,0.5121586070402262,0.4716699036905348,-0.06643354362096163,-0.7147079563820751,-0.6061634421348572,0.794757068157196,-0.03044212609529495,0,0,0,-1,-1,32017.52062666667,unknown,2,2025-04-22T13:03:32.007+03:00,2025-04-21T17:08:51.449+03:00,7397,0.9991471,0,0,6162.221,5,20,2025-04-22T12:58:04.401+03:00,767009012.1094084,0,-21.82,100.4637,1,0.75,2025-04-22T13:03:28.830+03:00,103,1.716666666666667,2025-04-22T09:54:17.825+03:00,0.02225348692287972,0
2025-04-22T13:03:32.716+03:00,1745316208.34092,40.95215778104961,29.14023037110555,75.7112,-1,-1,-1,-1,30,16.89288593580454,-9999,32018.22470775,-0.6029052734375,0.8077850341796875,-0.0601806640625,32018.22220475,-0.6945340383583291,-1.52220200436421,-0.9177587703712958,-0.04050428792834282,-0.1203178912401199,-0.09366212785243988,0.002651572227478027,0.01284116506576538,-0.0285910964012146,XArbitraryZVertical,0.5120285801061384,0.4723023905800606,-0.06633810770090809,-0.7143922972354532,-0.6068843603134155,0.7942418456077576,-0.02951437048614025,0,0,0,-1,-1,32017.52062666667,unknown,2,2025-04-22T13:03:32.007+03:00,2025-04-21T17:08:51.449+03:00,7397,0.9991471,0,0,6162.221,5,20,2025-04-22T12:58:04.401+03:00,767009012.1094084,0,-21.82,100.4637,1,0.75,2025-04-22T13:03:28.830+03:00,103,1.716666666666667,2025-04-22T09:54:17.825+03:00,0.02225348692287972,0
2025-04-22T13:03:32.726+03:00,1745316208.34092,40.95215778104961,29.14023037110555,75.7112,-1,-1,-1,-1,30,16.89288593580454,-9999,32018.23478375,-0.6051483154296875,0.82196044921875,-0.0789031982421875,32018.23228175,-0.6952852115030539,-1.524016373416184,-0.9167519680726642,-0.04548067227005959,-0.1287752985954285,-0.1161040589213371,0.004570662975311279,0.01571160554885864,-0.03287452459335327,XArbitraryZVertical,0.5118911925809505,0.4730138614932041,-0.06618652528717189,-0.7140339845559285,-0.6077353358268738,0.7936297059059143,-0.02845058776438236,0,0,0,-1,-1,32017.52062666667,unknown,2,2025-04-22T13:03:32.007+03:00,2025-04-21T17:08:51.449+03:00,7397,0.9991471,0,0,6162.221,5,20,2025-04-22T12:58:04.401+03:00,767009012.1094084,0,-21.82,100.4637,1,0.75,2025-04-22T13:03:28.830+03:00,103,1.716666666666667,2025-04-22T09:54:17.825+03:00,0.02225348692287972,0
2025-04-22T13:03:32.736+03:00,1745316208.34092,40.95215778104961,29.14023037110555,75.7112,-1,-1,-1,-1,30,16.89288593580454,-9999,32018.24485975,-0.606109619140625,0.8491363525390625,-0.1016845703125,32018.24235775,-0.6959578405785608,-1.525951030696703,-0.9155154965477288,-0.03402554988861084,-0.156733363866806,-0.1373143792152405,0.003132522106170654,0.03202837705612183,-0.05414789915084839,XArbitraryZVertical,0.5116738821761661,0.473846457833456,-0.06601406188250362,-0.713653552732089,-0.6087690591812134,0.7928768396377563,-0.02731874585151672,0,0,0,-1,-1,32017.52062666667,unknown,2,2025-04-22T13:03:32.007+03:00,2025-04-21T17:08:51.449+03:00,7397,0.9991471,0,0,6162.221,5,20,2025-04-22T12:58:04.401+03:00,767009012.1094084,0,-21.82,100.4637,1,0.75,2025-04-22T13:03:28.830+03:00,103,1.716666666666667,2025-04-22T09:54:17.825+03:00,0.02225348692287972,0
2025-04-22T13:03:32.747+03:00,1745316208.34092,40.95215778104961,29.14023037110555,75.7112,-1,-1,-1,-1,30,16.89288593580454,-9999,32018.25493675,-0.604705810546875,0.8759765625,-0.1142578125,32018.25243475,-0.6967328477088641,-1.528382795976418,-0.9139957096612125,-0.05792955309152603,-0.211467981338501,-0.1745573431253433,0.003606855869293213,0.06032967567443848,-0.07754999399185181,XArbitraryZVertical,0.5113937866210678,0.4749018044316698,-0.06583372255491352,-0.7131692761240118,-0.6100368499755859,0.7919498085975647,-0.02588934265077114,0,0,0,-1,-1,32017.52062666667,unknown,2,2025-04-22T13:03:32.007+03:00,2025-04-21T17:08:51.449+03:00,7397,0.9991471,0,0,6162.221,5,20,2025-04-22T12:58:04.401+03:00,767009012.1094084,0,-21.82,100.4637,1,0.75,2025-04-22T13:03:28.830+03:00,103,1.716666666666667,2025-04-22T09:54:17.825+03:00,0.02225348692287972,0
2025-04-22T13:03:32.757+03:00,1745316208.34092,40.95215778104961,29.14023037110555,75.7112,-1,-1,-1,-1,30,16.89288593580454,-9999,32018.26501275,-0.60675048828125,0.88934326171875,-0.1218719482421875,32018.26251075,-0.6982919280481014,-1.531973528925058,-0.9121807366181993,-0.1305809915065765,-0.2615773379802704,-0.2027862519025803,0.006367146968841553,0.0878826379776001,-0.09146463871002197,XArbitraryZVertical,0.5111890662315085,0.4762441735740628,-0.0655672019714769,-0.7124450926835898,-0.6115611791610718,0.7908402681350708,-0.02375445142388344,0,0,0,-1,-1,32017.52062666667,unknown,2,2025-04-22T13:03:32.007+03:00,2025-04-21T17:08:51.449+03:00,7397,0.9991471,0,0,6162.221,5,20,2025-04-22T12:58:04.401+03:00,767009012.1094084,0,-21.82,100.4637,1,0.75,2025-04-22T13:03:28.830+03:00,103,1.716666666666667,2025-04-22T09:54:17.825+03:00,0.02225348692287972,0
2025-04-22T13:03:32.767+03:00,1745316208.34092,40.95215778104961,29.14023037110555,75.7112,-1,-1,-1,-1,30,16.89288593580454,-9999,32018.27508975,-0.61773681640625,0.87359619140625,-0.125946044921875,32018.27258675,-0.7012159448317945,-1.537092658367218,-0.9099824478930609,-0.2191822230815887,-0.3005279302597046,-0.2431091666221619,0.006202757358551025,0.1000332832336426,-0.101220428943634,XArbitraryZVertical,0.511166923150445,0.4778779761774292,-0.06507169653360116,-0.7114117451721673,-0.613411009311676,0.7894929647445679,-0.02068203315138817,0,0,0,-1,-1,32017.52062666667,unknown,2,2025-04-22T13:03:32.007+03:00,2025-04-21T17:08:51.449+03:00,7397,0.9991471,0,0,6162.221,5,20,2025-04-22T12:58:04.401+03:00,767009012.1094084,0,-21.82,100.4637,1,0.75,2025-04-22T13:03:28.830+03:00,103,1.716666666666667,2025-04-22T09:54:17.825+03:00,0.02225348692287972,0
2025-04-22T13:03:32.777+03:00,1745316208.34092,40.95215778104961,29.14023037110555,75.7112,-1,-1,-1,-1,30,16.89288593580454,-9999,32018.28516575,-0.6313018798828125,0.8636627197265625,-0.139190673828125,32018.28266375,-0.7054120475826481,-1.543595508567545,-0.9074900219556475,-0.2706467509269714,-0.336208701133728,-0.2729760110378265,-0.003795623779296875,0.08343803882598877,-0.1108630895614624,XArbitraryZVertical,0.5113376727292662,0.4797506649282688,-0.064375650061522,-0.7100906924181086,-0.6154975891113281,0.7879607677459717,-0.0167461670935154,0,0,0,-1,-1,32017.52062666667,unknown,2,2025-04-22T13:03:32.007+03:00,2025-04-21T17:08:51.449+03:00,7397,0.9991471,0,0,6162.221,5,20,2025-04-22T12:58:04.401+03:00,767009012.1094084,0,-21.82,100.4637,1,0.75,2025-04-22T13:03:28.830+03:00,103,1.716666666666667,2025-04-22T09:54:17.825+03:00,0.02225348692287972,0
2025-04-22T13:03:32.787+03:00,1745316208.34092,40.95215778104961,29.14023037110555,75.7112,-1,-1,-1,-1,30,16.89288593580454,-9999,32018.29524175,-0.6345977783203125,0.8882293701171875,-0.16290283203125,32018.29273975,-0.7098672286234556,-1.550687761649804,-0.9046773788293233,-0.2605823874473572,-0.3770535886287689,-0.3011059165000916,-0.01406735181808472,0.07873386144638062,-0.1292070746421814,XArbitraryZVertical,0.5114821396795932,0.4818438570290389,-0.06362761800807484,-0.7086353809820818,-0.6178144216537476,0.7862258553504944,-0.01242503616958857,0,0,0,-1,-1,32017.52062666667,unknown,2,2025-04-22T13:03:32.007+03:00,2025-04-21T17:08:51.449+03:00,7397,0.9991471,0,0,6162.221,5,20,2025-04-22T12:58:04.401+03:00,767009012.1094084,0,-21.82,100.4637,1,0.75,2025-04-22T13:03:28.830+03:00,103,1.716666666666667,2025-04-22T09:54:17.825+03:00,0.02225348692287972,0
2025-04-22T13:03:32.797+03:00,1745316208.34092,40.95215778104961,29.14023037110555,75.7112,-1,-1,-1,-1,30,16.89288593580454,-9999,32018.30531875,-0.63616943359375,0.92724609375,-0.1870574951171875,32018.30281675,-0.7138059238479361,-1.557909343004725,-0.9014494696634295,-0.2181337922811508,-0.4439725279808044,-0.3476485311985016,-0.0146944522857666,0.108244001865387,-0.1586607098579407,XArbitraryZVertical,0.511406619152634,0.4842162373264835,-0.06295092158387994,-0.7071314169346368,-0.6204220056533813,0.7842270731925964,-0.007995810359716415,0,0,0,-1,-1,32017.52062666667,unknown,2,2025-04-22T13:03:32.007+03:00,2025-04-21T17:08:51.449+03:00,7397,0.9991471,0,0,6162.221,5,20,2025-04-22T12:58:04.401+03:00,767009012.1094084,0,-21.82,100.4637,1,0.75,2025-04-22T13:03:28.830+03:00,103,1.716666666666667,2025-04-22T09:54:17.825+03:00,0.02225348692287972,0
2025-04-22T13:03:32.807+03:00,1745316208.34092,40.95215778104961,29.14023037110555,75.7112,-1,-1,-1,-1,30,16.89288593580454,-9999,32018.31539475,-0.64019775390625,0.935760498046875,-0.204742431640625,32018.31289275,-0.7171624326136551,-1.565368787188352,-0.897797669871548,-0.1992466598749161,-0.5154038667678833,-0.3787174820899963,-0.01293683052062988,0.1487841010093689,-0.1860700249671936,XArbitraryZVertical,0.5110893966363015,0.4869251009217518,-0.0623907518951102,-0.7055485587503117,-0.6233240962028503,0.7819560170173645,-0.003383149392902851,0,0,0,-1,-1,32017.52062666667,unknown,2,2025-04-22T13:03:32.007+03:00,2025-04-21T17:08:51.449+03:00,7397,0.9991471,0,0,6162.221,5,20,2025-04-22T12:58:04.401+03:00,767009012.1094084,0,-21.82,100.4637,1,0.75,2025-04-22T13:03:28.830+03:00,103,1.716666666666667,2025-04-22T09:54:17.825+03:00,0.02225348692287972,0
2025-04-22T13:03:32.817+03:00,1745316208.34092,40.95215778104961,29.14023037110555,75.7112,-1,-1,-1,-1,30,16.89288593580454,-9999,32018.32547175,-0.6487884521484375,0.9109344482421875,-0.2132720947265625,32018.32296975,-0.7207202751858581,-1.573659806791538,-0.893837871447936,-0.2531681656837463,-0.5748007893562317,-0.4103302657604218,-0.01478248834609985,0.1532116532325745,-0.2080315351486206,XArbitraryZVertical,0.5107318878331856,0.4899487881737156,-0.0618612792710941,-0.7037585871396423,-0.6264222860336304,0.7794816493988037,0.001793752540834248,0,0,0,-1,-1,32017.52062666667,unknown,2,2025-04-22T13:03:32.007+03:00,2025-04-21T17:08:51.449+03:00,7397,0.9991471,0,0,6162.221,5,20,2025-04-22T12:58:04.401+03:00,767009012.1094084,0,-21.82,100.4637,1,0.75,2025-04-22T13:03:28.830+03:00,103,1.716666666666667,2025-04-22T09:54:17.825+03:00,0.02225348692287972,0
2025-04-22T13:03:32.827+03:00,1745316208.34092,40.95215778104961,29.14023037110555,75.7112,-1,-1,-1,-1,30,16.89288593580454,-9999,32018.33554775,-0.662017822265625,0.8939971923828125,-0.21722412109375,32018.33304575,-0.725431661384595,-1.583397457898184,-0.8896885069139266,-0.3345533013343811,-0.6281929016113281,-0.4089968204498291,-0.0206952691078186,0.1311288475990295,-0.2223200798034668,XArbitraryZVertical,0.5105816952413093,0.493227535892747,-0.06122653362764679,-0.7016295672068036,-0.6296037435531616,0.7768756747245789,0.007934139110147953,0,0,0,-1,-1,32017.52062666667,unknown,2,2025-04-22T13:03:32.007+03:00,2025-04-21T17:08:51.449+03:00,7397,0.9991471,0,0,6162.221,5,20,2025-04-22T12:58:04.401+03:00,767009012.1094084,0,-21.82,100.4637,1,0.75,2025-04-22T13:03:28.830+03:00,103,1.716666666666667,2025-04-22T09:54:17.825+03:00,0.02225348692287972,0
2025-04-22T13:03:32.837+03:00,1745316208.34092,40.95215778104961,29.14023037110555,75.7112,-1,-1,-1,-1,30,16.89288593580454,-9999,32018.34562475,-0.660675048828125,0.877349853515625,-0.2156829833984375,32018.34312175,-0.7312182828996382,-1.59453028975535,-0.885581155940768,-0.4003425538539886,-0.6929565668106079,-0.3936436176300049,-0.03062307834625244,0.1174253225326538,-0.2326849699020386,XArbitraryZVertical,0.5106845378057566,0.4966995989942325,-0.06058581017321562,-0.6991566694051327,-0.6326612234115601,0.7742828726768494,0.01501837745308876,0,0,0,-1,-1,32017.52062666667,unknown,2,2025-04-22T13:03:32.007+03:00,2025-04-21T17:08:51.449+03:00,7397,0.9991471,0,0,6162.221,5,20,2025-04-22T12:58:04.401+03:00,767009012.1094084,0,-21.82,100.4637,1,0.75,2025-04-22T13:03:28.830+03:00,103,1.716666666666667,2025-04-22T09:54:17.825+03:00,0.02225348692287972,0
2025-04-22T13:03:32.848+03:00,1745316208.34092,40.95215778104961,29.14023037110555,75.7112,-1,-1,-1,-1,30,16.89288593580454,-9999,32018.35570075,-0.6529693603515625,0.8611297607421875,-0.19610595703125,32018.35319875,-0.7375507871342748,-1.606764520081102,-0.8816490028749655,-0.4212872385978699,-0.7674300074577332,-0.3593516945838928,-0.02391016483306885,0.1032418012619019,-0.2378933429718018,XArbitraryZVertical,0.5109551214277326,0.5003579817557374,-0.06010069110129614,-0.6963867703286236,-0.6354678273200989,0.771788477897644,0.02286649122834206,0,0,0,-1,-1,32017.52062666667,unknown,2,2025-04-22T13:03:32.007+03:00,2025-04-21T17:08:51.449+03:00,7397,0.9991471,0,0,6162.221,5,20,2025-04-22T12:58:04.401+03:00,767009012.1094084,0,-21.82,100.4637,1,0.75,2025-04-22T13:03:28.830+03:00,103,1.716666666666667,2025-04-22T09:54:17.825+03:00,0.02225348692287972,0
2025-04-22T13:03:32.857+03:00,1745316208.34092,40.95215778104961,29.14023037110555,75.7112,-1,-1,-1,-1,30,16.89288593580454,-9999,32018.36577675,-0.655120849609375,0.84674072265625,-0.1635589599609375,32018.36327475,-0.7439648371693142,-1.619822527470176,-0.8779839562925424,-0.4151462614536285,-0.8378708958625793,-0.3297080397605896,-0.01442289352416992,0.09018146991729736,-0.2242175340652466,XArbitraryZVertical,0.5113086951557385,0.5041961432181927,-0.05989800504894749,-0.6933698853160096,-0.6379361152648926,0.7694528102874756,0.03130066394805908,0,0,0,-1,-1,32017.52062666667,unknown,2,2025-04-22T13:03:32.007+03:00,2025-04-21T17:08:51.449+03:00,7397,0.9991471,0,0,6162.221,5,20,2025-04-22T12:58:04.401+03:00,767009012.1094084,0,-21.82,100.4637,1,0.75,2025-04-22T13:03:28.830+03:00,103,1.716666666666667,2025-04-22T09:54:17.825+03:00,0.02225348692287972,0
2025-04-22T13:03:32.867+03:00,1745316208.34092,40.95215778104961,29.14023037110555,75.7112,-1,-1,-1,-1,30,16.89288593580454,-9999,32018.37585375,-0.6645965576171875,0.8315582275390625,-0.134490966796875,32018.37335175,-0.7501667555484067,-1.633234604251283,-0.8747345552014171,-0.406142920255661,-0.8752933740615845,-0.2640571296215057,-0.01581060886383057,0.07746005058288574,-0.1999826431274414,XArbitraryZVertical,0.5117176805083548,0.5080843850293265,-0.0600149225584453,-0.6902126531685134,-0.6399511694908142,0.7673733234405518,0.04000945389270782,0,0,0,-1,-1,32017.52062666667,unknown,2,2025-04-22T13:03:32.007+03:00,2025-04-21T17:08:51.449+03:00,7397,0.9991471,0,0,6162.221,5,20,2025-04-22T12:58:04.401+03:00,767009012.1094084,0,-21.82,100.4637,1,0.75,2025-04-22T13:03:28.830+03:00,103,1.716666666666667,2025-04-22T09:54:17.825+03:00,0.02225348692287972,0
2025-04-22T13:03:32.878+03:00,1745316208.34092,40.95215778104961,29.14023037110555,75.7112,-1,-1,-1,-1,30,16.89288593580454,-9999,32018.38592975,-0.6714935302734375,0.81689453125,-0.1139678955078125,32018.38342775,-0.7561545002808088,-1.6467573209012,-0.8721371849893177,-0.3863122165203094,-0.8924158811569214,-0.194603756070137,-0.02428197860717773,0.06422024965286255,-0.1799445152282715,XArbitraryZVertical,0.5122382578194095,0.5118761789856962,-0.06047705202154818,-0.6869769767113232,-0.641336977481842,0.7657052874565125,0.04881051182746887,0,0,0,-1,-1,32017.52062666667,unknown,2,2025-04-22T13:03:32.007+03:00,2025-04-21T17:08:51.449+03:00,7397,0.9991471,0,0,6162.221,5,20,2025-04-22T12:58:04.401+03:00,767009012.1094084,0,-21.82,100.4637,1,0.75,2025-04-22T13:03:28.830+03:00,103,1.716666666666667,2025-04-22T09:54:17.825+03:00,0.02225348692287972,0
2025-04-22T13:03:32.888+03:00,1745316208.34092,40.95215778104961,29.14023037110555,75.7112,-1,-1,-1,-1,30,16.89288593580454,-9999,32018.39600675,-0.67486572265625,0.79974365234375,-0.1093597412109375,32018.39350375,-0.7616791884837796,-1.659947400740215,-0.870308988246878,-0.3423234522342682,-0.8896267414093018,-0.1121288537979126,-0.02952420711517334,0.04990959167480469,-0.1701828241348267,XArbitraryZVertical,0.5128393795355805,0.5154519190531329,-0.06130099315839931,-0.6837742412336135,-0.6420303583145142,0.7645281553268433,0.05738982185721397,0,0,0,-1,-1,32017.52062666667,unknown,2,2025-04-22T13:03:32.007+03:00,2025-04-21T17:08:51.449+03:00,7397,0.9991471,0,0,6162.221,5,20,2025-04-22T12:58:04.401+03:00,767009012.1094084,0,-21.82,100.4637,1,0.75,2025-04-22T13:03:28.830+03:00,103,1.716666666666667,2025-04-22T09:54:17.825+03:00,0.02225348692287972,0
2025-04-22T13:03:32.898+03:00,1745316208.34092,40.95215778104961,29.14023037110555,75.7112,-1,-1,-1,-1,30,16.89288593580454,-9999,32018.40608275,-0.6742401123046875,0.7924957275390625,-0.1030120849609375,32018.40358075,-0.7663593530922349,-1.672593650418468,-0.8691356405736567,-0.2676806449890137,-0.904013454914093,-0.05632870271801949,-0.03305619955062866,0.0344921350479126,-0.1751840114593506,XArbitraryZVertical,0.5133942487644942,0.5188680433787943,-0.06252171940412564,-0.6806564807834565,-0.6421452164649963,0.7637712955474854,0.06559540331363678,0,0,0,-1,-1,32017.52062666667,unknown,2,2025-04-22T13:03:32.007+03:00,2025-04-21T17:08:51.449+03:00,7397,0.9991471,0,0,6162.221,5,20,2025-04-22T12:58:04.401+03:00,767009012.1094084,0,-21.82,100.4637,1,0.75,2025-04-22T13:03:28.830+03:00,103,1.716666666666667,2025-04-22T09:54:17.825+03:00,0.02225348692287972,0
2025-04-22T13:03:32.911+03:00,1745316208.34092,40.95215778104961,29.14023037110555,75.7112,-1,-1,-1,-1,30,16.89288593580454,-9999,32018.41615975,-0.667816162109375,0.784271240234375,-0.097747802734375,32018.41365675,-0.7701307568038335,-1.684677149470405,-0.868653572884057,-0.22614386677742,-0.9252987504005432,0.008484647609293461,-0.03247702121734619,0.02807426452636719,-0.1756865978240967,XArbitraryZVertical,0.5138859284439735,0.5221274396630649,-0.06416807679387766,-0.6776330764169175,-0.6416714787483215,0.7634600400924683,0.0733916237950325,0,0,0,-1,-1,32017.52062666667,unknown,2,2025-04-22T13:03:32.007+03:00,2025-04-21T17:08:51.449+03:00,7397,0.9991471,0,0,6162.221,5,20,2025-04-22T12:58:04.401+03:00,767009012.1094084,0,-21.82,100.4637,1,0.75,2025-04-22T13:03:28.830+03:00,103,1.716666666666667,2025-04-22T09:54:17.825+03:00,0.02225348692287972,0
2025-04-22T13:03:32.918+03:00,1745316208.34092,40.95215778104961,29.14023037110555,75.7112,-1,-1,-1,-1,30,16.89288593580454,-9999,32018.42623575,-0.657928466796875,0.791778564453125,-0.1019287109375,32018.42373375,-0.7731709902791736,-1.696572925675585,-0.8687989190096113,-0.1581094115972519,-0.9775875210762024,0.06713464111089706,-0.02666950225830078,0.020183265209198,-0.1791195869445801,XArbitraryZVertical,0.5143260933020538,0.5253298339730903,-0.06625142471888407,-0.6746169464625922,-0.6406431198120117,0.7635539174079895,0.0810055285692215,0,0,0,-1,-1,32017.52062666667,unknown,2,2025-04-22T13:03:32.007+03:00,2025-04-21T17:08:51.449+03:00,7397,0.9991471,0,0,6162.221,5,20,2025-04-22T12:58:04.401+03:00,767009012.1094084,0,-21.82,100.4637,1,0.75,2025-04-22T13:03:28.830+03:00,103,1.716666666666667,2025-04-22T09:54:17.825+03:00,0.02225348692287972,0
2025-04-22T13:03:32.928+03:00,1745316208.34092,40.95215778104961,29.14023037110555,75.7112,-1,-1,-1,-1,30,16.89288593580454,-9999,32018.43631175,-0.6430511474609375,0.81494140625,-0.09625244140625,32018.43380975,-0.775593431595818,-1.708510689611921,-0.8695996586366169,-0.1405884772539139,-1.023514747619629,0.1271551102399826,-0.01717972755432129,0.02973711490631104,-0.1908888816833496,XArbitraryZVertical,0.514735024547176,0.5285163857982114,-0.06880226300333236,-0.6715537561255733,-0.6390244364738464,0.7640707492828369,0.08856343477964401,0,0,0,-1,-1,32017.52062666667,unknown,2,2025-04-22T13:03:32.007+03:00,2025-04-21T17:08:51.449+03:00,7397,0.9991471,0,0,6162.221,5,20,2025-04-22T12:58:04.401+03:00,767009012.1094084,0,-21.82,100.4637,1,0.75,2025-04-22T13:03:28.830+03:00,103,1.716666666666667,2025-04-22T09:54:17.825+03:00,0.02225348692287972,0
2025-04-22T13:03:32.938+03:00,1745316208.34092,40.95215778104961,29.14023037110555,75.7112,-1,-1,-1,-1,30,16.89288593580454,-9999,32018.44638875,-0.637298583984375,0.8387451171875,-0.06634521484375,32018.44388675,-0.7780498317660555,-1.720839934508646,-0.8709356691400133,-0.1422867774963379,-1.052836179733276,0.1801622658967972,-0.004834175109863281,0.05394607782363892,-0.1901240348815918,XArbitraryZVertical,0.5152394426329489,0.53166679389177,-0.07164778596409117,-0.6683751207368418,-0.6368741989135742,0.7649319171905518,0.09628252685070038,0,0,0,-1,-1,32017.52062666667,unknown,2,2025-04-22T13:03:32.007+03:00,2025-04-21T17:08:51.449+03:00,7397,0.9991471,0,0,6162.221,5,20,2025-04-22T12:58:04.401+03:00,767009012.1094084,0,-21.82,100.4637,1,0.75,2025-04-22T13:03:28.830+03:00,103,1.716666666666667,2025-04-22T09:54:17.825+03:00,0.02225348692287972,0
2025-04-22T13:03:32.948+03:00,1745316208.34092,40.95215778104961,29.14023037110555,75.7112,-1,-1,-1,-1,30,16.89288593580454,-9999,32018.45646475,-0.640838623046875,0.837158203125,-0.0219573974609375,32018.45396275,-0.7811614923615126,-1.73395628494498,-0.872485354767038,-0.1955534517765045,-1.075072765350342,0.1773438453674316,-0.003095746040344238,0.0737311840057373,-0.1660802513360977,XArbitraryZVertical,0.5159172486395814,0.5348334001717959,-0.07456656191683408,-0.6649979464687511,-0.634385883808136,0.7659292221069336,0.1044347435235977,0,0,0,-1,-1,32017.52062666667,unknown,2,2025-04-22T13:03:32.007+03:00,2025-04-21T17:08:51.449+03:00,7397,0.9991471,0,0,6162.221,5,20,2025-04-22T12:58:04.401+03:00,767009012.1094084,0,-21.82,100.4637,1,0.75,2025-04-22T13:03:28.830+03:00,103,1.716666666666667,2025-04-22T09:54:17.825+03:00,0.02225348692287972,0
2025-04-22T13:03:32.964+03:00,1745316208.34092,40.95215778104961,29.14023037110555,75.7112,-1,-1,-1,-1,30,16.89288593580454,-9999,32018.46654175,-0.64190673828125,0.807281494140625,0.0342559814453125,32018.46403875,-0.7845454518954581,-1.747448741164409,-0.8738190193554651,-0.1809940934181213,-1.089462161064148,0.1564280986785889,-0.009474813938140869,0.06783908605575562,-0.1269650459289551,XArbitraryZVertical,0.5165900356869281,0.5380865566476929,-0.07742348548091128,-0.6615157490949589,-0.6319130659103394,0.7667859792709351,0.1128048151731491,0,0,0,-1,-1,32017.52062666667,unknown,2,2025-04-22T13:03:32.007+03:00,2025-04-21T17:08:51.449+03:00,7397,0.9991471,0,0,6162.221,5,20,2025-04-22T12:58:04.401+03:00,767009012.1094084,0,-21.82,100.4637,1,0.75,2025-04-22T13:03:28.830+03:00,103,1.716666666666667,2025-04-22T09:54:17.825+03:00,0.02225348692287972,0
2025-04-22T13:03:32.968+03:00,1745316208.34092,40.95215778104961,29.14023037110555,75.7112,-1,-1,-1,-1,30,16.89288593580454,-9999,32018.47661775,-0.629364013671875,0.7875823974609375,0.061492919921875,32018.47411575,-0.7872033724622929,-1.760552583271691,-0.8749380498142553,-0.1032140776515007,-1.111582159996033,0.1194567680358887,-0.01143831014633179,0.03463536500930786,-0.08146953582763672,XArbitraryZVertical,0.5170201934554154,0.5414303731121426,-0.08035071929019363,-0.6580933971752333,-0.6295376420021057,0.7675037980079651,0.1209134608507156,0,0,0,-1,-1,32017.52062666667,unknown,2,2025-04-22T13:03:32.007+03:00,2025-04-21T17:08:51.449+03:00,7397,0.9991471,0,0,6162.221,5,20,2025-04-22T12:58:04.401+03:00,767009012.1094084,0,-21.82,100.4637,1,0.75,2025-04-22T13:03:28.830+03:00,103,1.716666666666667,2025-04-22T09:54:17.825+03:00,0.02225348692287972,0
2025-04-22T13:03:32.979+03:00,1745316208.34092,40.95215778104961,29.14023037110555,75.7112,-1,-1,-1,-1,30,16.89288593580454,-9999,32018.48669375,-0.6104583740234375,0.8140716552734375,0.0690155029296875,32018.48419175,-0.7884872940861306,-1.772997695201641,-0.8756300867246651,-0.04117613658308983,-1.165036559104919,0.04559087008237839,0.0008156895637512207,0.02039790153503418,-0.0657503753900528,XArbitraryZVertical,0.5169995736751394,0.5450021676191376,-0.08340585962510529,-0.6547727690284535,-0.6274635791778564,0.767947256565094,0.1286318451166153,0,0,0,-1,-1,32017.52062666667,unknown,2,2025-04-22T13:03:32.007+03:00,2025-04-21T17:08:51.449+03:00,7397,0.9991471,0,0,6162.221,5,20,2025-04-22T12:58:04.401+03:00,767009012.1094084,0,-21.82,100.4637,1,0.75,2025-04-22T13:03:28.830+03:00,103,1.716666666666667,2025-04-22T09:54:17.825+03:00,0.02225348692287972,0
2025-04-22T13:03:32.988+03:00,1745316208.34092,40.95215778104961,29.14023037110555,75.7112,-1,-1,-1,-1,30,16.89288593580454,-9999,32018.49677075,-0.596221923828125,0.8389129638671875,0.074859619140625,32018.49426875,-0.7888681368658357,-1.785305468736367,-0.8757804390175706,-0.01136497966945171,-1.217543721199036,-0.002795570995658636,0.01742851734161377,0.04988837242126465,-0.06759442389011383,XArbitraryZVertical,0.5166109536884571,0.5488835213280325,-0.08651841907701031,-0.6514248812795327,-0.6257200241088867,0.7680435180664062,0.1363199949264526,0,0,0,-1,-1,32017.52062666667,unknown,2,2025-04-22T13:03:32.007+03:00,2025-04-21T17:08:51.449+03:00,7397,0.9991471,0,0,6162.221,5,20,2025-04-22T12:58:04.401+03:00,767009012.1094084,0,-21.82,100.4637,1,0.75,2025-04-22T13:03:28.830+03:00,103,1.716666666666667,2025-04-22T09:54:17.825+03:00,0.02225348692287972,0
2025-04-22T13:03:32.998+03:00,1745316208.34092,40.95215778104961,29.14023037110555,75.7112,-1,-1,-1,-1,30,16.89288593580454,-9999,32018.50684675,-0.584075927734375,0.8188934326171875,0.0942535400390625,32018.50434475,-0.7894025461208575,-1.798172414441706,-0.8755134351207892,-0.07512538135051727,-1.257458329200745,-0.02903160266578197,0.02958589792251587,0.07090288400650024,-0.06756260991096497,XArbitraryZVertical,0.5161390029981893,0.5529949614760016,-0.08956619957012664,-0.6479002684411692,-0.6241139769554138,0.7678725123405457,0.144405797123909,0,0,0,-1,-1,32017.52062666667,unknown,2,2025-04-22T13:03:32.007+03:00,2025-04-21T17:08:51.449+03:00,7397,0.9991471,0,0,6162.221,5,20,2025-04-22T12:58:04.401+03:00,767009012.1094084,0,-21.82,100.4637,1,0.75,2025-04-22T13:03:28.830+03:00,103,1.716666666666667,2025-04-22T09:54:17.825+03:00,0.02225348692287972,0
2025-04-22T13:03:33.009+03:00,1745316208.34092,40.95215778104961,29.14023037110555,75.7112,-1,-1,-1,-1,30,16.89288593580454,-9999,32018.51692375,-0.58282470703125,0.7706756591796875,0.132568359375,32018.51442175,-0.7912066287575766,-1.812401404185317,-0.874891772459325,-0.1849418878555298,-1.293169498443604,-0.03621148690581322,0.03955864906311035,0.04572755098342896,-0.05563786625862122,XArbitraryZVertical,0.5158712138043738,0.5572877892833229,-0.09241924605522103,-0.6440230350173327,-0.6224594712257385,0.7674741148948669,0.1533855795860291,0,0,0,-1,-1,32017.52062666667,unknown,2,2025-04-22T13:03:32.007+03:00,2025-04-21T17:08:51.449+03:00,7397,0.9991471,0,0,6162.221,5,20,2025-04-22T12:58:04.401+03:00,767009012.1094084,0,-21.82,100.4637,1,0.75,2025-04-22T13:03:28.830+03:00,103,1.716666666666667,2025-04-22T09:54:17.825+03:00,0.02225348692287972,0
2025-04-22T13:03:33.019+03:00,1745316208.34092,40.95215778104961,29.14023037110555,75.7112,-1,-1,-1,-1,30,16.89288593580454,-9999,32018.52699975,-0.58282470703125,0.7439117431640625,0.168701171875,32018.52449775,-0.7948706324652514,-1.828392248373414,-0.8738958563931764,-0.3108559548854828,-1.320700287818909,-0.04346410185098648,0.03727710247039795,-0.001530826091766357,-0.02598655223846436,XArbitraryZVertical,0.5159559746368441,0.5617351632702881,-0.09498967601901245,-0.6397030289819409,-0.6206663846969604,0.7668352723121643,0.1635139286518097,0,0,0,-1,-1,32017.52062666667,unknown,2,2025-04-22T13:03:32.007+03:00,2025-04-21T17:08:51.449+03:00,7397,0.9991471,0,0,6162.221,5,20,2025-04-22T12:58:04.401+03:00,767009012.1094084,0,-21.82,100.4637,1,0.75,2025-04-22T13:03:28.830+03:00,103,1.716666666666667,2025-04-22T09:54:17.825+03:00,0.02225348692287972,0
2025-04-22T13:03:33.029+03:00,1745316208.34092,40.95215778104961,29.14023037110555,75.7112,-1,-1,-1,-1,30,16.89288593580454,-9999,32018.53707675,-0.578094482421875,0.741943359375,0.1977691650390625,32018.53457375,-0.8001064347210602,-1.845733191372426,-0.8723958635585136,-0.408379852771759,-1.319190502166748,-0.06919609755277634,0.03589743375778198,-0.02221930027008057,-0.00166650116443634,XArbitraryZVertical,0.5163169004521966,0.5663027426197833,-0.09722371233589144,-0.6350320392643564,-0.6188442707061768,0.7658716440200806,0.1745638698339462,0,0,0,-1,-1,32017.52062666667,unknown,2,2025-04-22T13:03:32.007+03:00,2025-04-21T17:08:51.449+03:00,7397,0.9991471,0,0,6162.221,5,20,2025-04-22T12:58:04.401+03:00,767009012.1094084,0,-21.82,100.4637,1,0.75,2025-04-22T13:03:28.830+03:00,103,1.716666666666667,2025-04-22T09:54:17.825+03:00,0.02225348692287972,0
2025-04-22T13:03:33.039+03:00,1745316208.34092,40.95215778104961,29.14023037110555,75.7112,-1,-1,-1,-1,30,16.89288593580454,-9999,32018.54715275,-0.5741119384765625,0.710784912109375,0.2228851318359375,32018.54465075,-0.8068034429220301,-1.864008283841158,-0.8702305926522816,-0.5400386452674866,-1.286058783531189,-0.1036649271845818,0.03949987888336182,-0.02401465177536011,0.01448340713977814,XArbitraryZVertical,0.5169255179106864,0.5709195402654507,-0.09899638794988234,-0.6301097951282968,-0.6171364784240723,0.7644776105880737,0.1863222271203995,0,0,0,-1,-1,32017.52062666667,unknown,2,2025-04-22T13:03:32.007+03:00,2025-04-21T17:08:51.449+03:00,7397,0.9991471,0,0,6162.221,5,20,2025-04-22T12:58:04.401+03:00,767009012.1094084,0,-21.82,100.4637,1,0.75,2025-04-22T13:03:28.830+03:00,103,1.716666666666667,2025-04-22T09:54:17.825+03:00,0.02225348692287972,0
2025-04-22T13:03:33.049+03:00,1745316208.34092,40.95215778104961,29.14023037110555,75.7112,-1,-1,-1,-1,30,16.89288593580454,-9999,32018.55722875,-0.564483642578125,0.6582489013671875,0.2678680419921875,32018.55472675,-0.8149563844718151,-1.882970293518667,-0.8674233759582215,-0.6141430139541626,-1.242194890975952,-0.1178124397993088,0.04132956266403198,-0.05773937702178955,0.02803590893745422,XArbitraryZVertical,0.51781216138163,0.5754953495286165,-0.1002625743393895,-0.6249984877132742,-0.6155331134796143,0.7626649141311646,0.1986486613750458,0,0,0,-1,-1,32017.52062666667,unknown,2,2025-04-22T13:03:32.007+03:00,2025-04-21T17:08:51.449+03:00,7397,0.9991471,0,0,6162.221,5,20,2025-04-22T12:58:04.401+03:00,767009012.1094084,0,-21.82,100.4637,1,0.75,2025-04-22T13:03:28.830+03:00,103,1.716666666666667,2025-04-22T09:54:17.825+03:00,0.02225348692287972,0
2025-04-22T13:03:33.059+03:00,1745316208.34092,40.95215778104961,29.14023037110555,75.7112,-1,-1,-1,-1,30,16.89288593580454,-9999,32018.56730575,-0.547882080078125,0.6005401611328125,0.335418701171875,32018.56480375,-0.8239368717848701,-1.902094110241835,-0.8640379883665721,-0.6982225179672241,-1.192609071731567,-0.1579818725585938,0.0516664981842041,-0.1086155772209167,0.06403172016143799,XArbitraryZVertical,0.5188490543224662,0.5800055275821482,-0.1011153359077036,-0.6198103276363298,-0.6140596270561218,0.7604709267616272,0.2112215012311935,0,0,0,-1,-1,32017.52062666667,unknown,2,2025-04-22T13:03:32.007+03:00,2025-04-21T17:08:51.449+03:00,7397,0.9991471,0,0,6162.221,5,20,2025-04-22T12:58:04.401+03:00,767009012.1094084,0,-21.82,100.4637,1,0.75,2025-04-22T13:03:28.830+03:00,103,1.716666666666667,2025-04-22T09:54:17.825+03:00,0.02225348692287972,0
2025-04-22T13:03:33.069+03:00,1745316208.34092,40.95215778104961,29.14023037110555,75.7112,-1,-1,-1,-1,30,16.89288593580454,-9999,32018.57738175,-0.5399017333984375,0.561737060546875,0.417755126953125,32018.57487975,-0.8337548102397111,-1.921343653452829,-0.8599147179351083,-0.7630912661552429,-1.148157477378845,-0.1816291362047195,0.0669521689414978,-0.1647847294807434,0.1208479404449463,XArbitraryZVertical,0.5200264451110107,0.5844749611054753,-0.1014845002537201,-0.6145424201564362,-0.6128200888633728,0.7577869296073914,0.224076971411705,0,0,0,-1,-1,32017.52062666667,unknown,2,2025-04-22T13:03:32.007+03:00,2025-04-21T17:08:51.449+03:00,7397,0.9991471,0,0,6162.221,5,20,2025-04-22T12:58:04.401+03:00,767009012.1094084,0,-21.82,100.4637,1,0.75,2025-04-22T13:03:28.830+03:00,103,1.716666666666667,2025-04-22T09:54:17.825+03:00,0.02225348692287972,0
2025-04-22T13:03:33.079+03:00,1745316208.34092,40.95215778104961,29.14023037110555,75.7112,-1,-1,-1,-1,30,16.89288593580454,-9999,32018.58745875,-0.5382537841796875,0.5677947998046875,0.4923095703125,32018.58495575,-0.8440713840467612,-1.940354162763908,-0.8554218769048041,-0.7999724745750427,-1.069095373153687,-0.1815225630998611,0.07304394245147705,-0.1939043402671814,0.1912179738283157,XArbitraryZVertical,0.5213386880242313,0.5887805089854998,-0.1015265199570499,-0.6092910758520401,-0.6116180419921875,0.7548477053642273,0.2369130253791809,0,0,0,-1,-1,32017.52062666667,unknown,2,2025-04-22T13:03:32.007+03:00,2025-04-21T17:08:51.449+03:00,7397,0.9991471,0,0,6162.221,5,20,2025-04-22T12:58:04.401+03:00,767009012.1094084,0,-21.82,100.4637,1,0.75,2025-04-22T13:03:28.830+03:00,103,1.716666666666667,2025-04-22T09:54:17.825+03:00,0.02225348692287972,0
2025-04-22T13:03:33.089+03:00,1745316208.34092,40.95215778104961,29.14023037110555,75.7112,-1,-1,-1,-1,30,16.89288593580454,-9999,32018.59753475,-0.54730224609375,0.57666015625,0.5540771484375,32018.59503275,-0.8542812204312719,-1.958214129661256,-0.8507539057322329,-0.7822174429893494,-0.947361171245575,-0.1887330859899521,0.07180356979370117,-0.1819078922271729,0.251559853553772,XArbitraryZVertical,0.5226911257198326,0.5927540618354014,-0.1012647884928225,-0.6043029010641027,-0.6105455756187439,0.7517777681350708,0.2491267770528793,0,0,0,-1,-1,32017.52062666667,unknown,2,2025-04-22T13:03:32.007+03:00,2025-04-21T17:08:51.449+03:00,7397,0.9991471,0,0,6162.221,5,20,2025-04-22T12:58:04.401+03:00,767009012.1094084,0,-21.82,100.4637,1,0.75,2025-04-22T13:03:28.830+03:00,103,1.716666666666667,2025-04-22T09:54:17.825+03:00,0.02225348692287972,0
2025-04-22T13:03:33.099+03:00,1745316208.34092,40.95215778104961,29.14023037110555,75.7112,-1,-1,-1,-1,30,16.89288593580454,-9999,32018.60761075,-0.5550994873046875,0.561737060546875,0.5941619873046875,32018.60510875,-0.8639287011995569,-1.974200383834357,-0.8460349921955513,-0.7400229573249817,-0.790220320224762,-0.1838817745447159,0.0604248046875,-0.1728826761245728,0.3007142543792725,XArbitraryZVertical,0.5240044633366806,0.5962731070178763,-0.1006926185526142,-0.5997821689287171,-0.6097412109375,0.7486576437950134,0.2602445781230927,0,0,0,-1,-1,32017.52062666667,unknown,2,2025-04-22T13:03:32.007+03:00,2025-04-21T17:08:51.449+03:00,7397,0.9991471,0,0,6162.221,5,20,2025-04-22T12:58:04.401+03:00,767009012.1094084,0,-21.82,100.4637,1,0.75,2025-04-22T13:03:28.830+03:00,103,1.716666666666667,2025-04-22T09:54:17.825+03:00,0.02225348692287972,0
2025-04-22T13:03:33.109+03:00,1745316208.34092,40.95215778104961,29.14023037110555,75.7112,-1,-1,-1,-1,30,16.89288593580454,-9999,32018.61768775,-0.5515594482421875,0.55145263671875,0.6120452880859375,32018.61518575,-0.8729249034708725,-1.987977098304917,-0.8415772191266242,-0.7046540379524231,-0.6060680747032166,-0.1482641249895096,0.05328077077865601,-0.1857128143310547,0.327824205160141,XArbitraryZVertical,0.5253121955150037,0.5991926085176817,-0.09986429773022398,-0.5958542707655348,-0.609143078327179,0.7456949353218079,0.2699693739414215,0,0,0,-1,-1,32017.52062666667,unknown,2,2025-04-22T13:03:32.007+03:00,2025-04-21T17:08:51.449+03:00,7397,0.9991471,0,0,6162.221,5,20,2025-04-22T12:58:04.401+03:00,767009012.1094084,0,-21.82,100.4637,1,0.75,2025-04-22T13:03:28.830+03:00,103,1.716666666666667,2025-04-22T09:54:17.825+03:00,0.02225348692287972,0
2025-04-22T13:03:33.119+03:00,1745316208.34092,40.95215778104961,29.14023037110555,75.7112,-1,-1,-1,-1,30,16.89288593580454,-9999,32018.62776375,-0.5482940673828125,0.5577239990234375,0.6146240234375,32018.62526175,-0.8813287715653663,-1.999391267720043,-0.8376327108815146,-0.6364789009094238,-0.4163494408130646,-0.1116326749324799,0.05742311477661133,-0.1919441819190979,0.3340578973293304,XArbitraryZVertical,0.5266690140462386,0.6014001293076896,-0.09881465042745662,-0.5925986280897541,-0.6086925268173218,0.7430609464645386,0.2781247198581696,0,0,0,-1,-1,32017.52062666667,unknown,2,2025-04-22T13:03:32.007+03:00,2025-04-21T17:08:51.449+03:00,7397,0.9991471,0,0,6162.221,5,20,2025-04-22T12:58:04.401+03:00,767009012.1094084,0,-21.82,100.4637,1,0.75,2025-04-22T13:03:28.830+03:00,103,1.716666666666667,2025-04-22T09:54:17.825+03:00,0.02225348692287972,0
2025-04-22T13:03:33.129+03:00,1745316208.34092,40.95215778104961,29.14023037110555,75.7112,-1,-1,-1,-1,30,16.89288593580454,-9999,32018.63784075,-0.54144287109375,0.5687408447265625,0.614166259765625,32018.63533875,-0.8888188977901298,-2.008088838692886,-0.8341097048244945,-0.5628624558448792,-0.203850731253624,-0.1051665171980858,0.06096541881561279,-0.1808232665061951,0.3297424614429474,XArbitraryZVertical,0.5279714184432572,0.6029128032534985,-0.09750249429103762,-0.5901149623698398,-0.6086186766624451,0.7406986951828003,0.2845153212547302,0,0,0,-1,-1,32017.52062666667,unknown,2,2025-04-22T13:03:32.007+03:00,2025-04-21T17:08:51.449+03:00,7397,0.9991471,0,0,6162.221,5,20,2025-04-22T12:58:04.401+03:00,767009012.1094084,0,-21.82,100.4637,1,0.75,2025-04-22T13:03:28.830+03:00,103,1.716666666666667,2025-04-22T09:54:17.825+03:00,0.02225348692287972,0
2025-04-22T13:03:33.140+03:00,1745316208.34092,40.95215778104961,29.14023037110555,75.7112,-1,-1,-1,-1,30,16.89288593580454,-9999,32018.64791675,-0.5368804931640625,0.5572967529296875,0.6218719482421875,32018.64541475,-0.8951698839135654,-2.013763965952836,-0.8309730441488326,-0.4659872055053711,0.003785079345107079,-0.1005060896277428,0.06769293546676636,-0.1703505516052246,0.3250546455383301,XArbitraryZVertical,0.5291506500040746,0.6037210254903195,-0.09589177848804509,-0.5884939760341349,-0.6090899705886841,0.7385876774787903,0.2889589667320251,0,0,0,-1,-1,32017.52062666667,unknown,2,2025-04-22T13:03:32.007+03:00,2025-04-21T17:08:51.449+03:00,7397,0.9991471,0,0,6162.221,5,20,2025-04-22T12:58:04.401+03:00,767009012.1094084,0,-21.82,100.4637,1,0.75,2025-04-22T13:03:28.830+03:00,103,1.716666666666667,2025-04-22T09:54:17.825+03:00,0.02225348692287972,0
2025-04-22T13:03:33.150+03:00,1745316208.34092,40.95215778104961,29.14023037110555,75.7112,-1,-1,-1,-1,30,16.89288593580454,-9999,32018.65799375,-0.531036376953125,0.5319671630859375,0.6403045654296875,32018.65549075,-0.9003761436054077,-2.016549332501634,-0.8281844314175677,-0.4060916602611542,0.202593520283699,-0.09888661652803421,0.07344138622283936,-0.1819565296173096,0.3325890004634857,XArbitraryZVertical,0.5301825808853066,0.6038849500579655,-0.09399628865063181,-0.5877022432002067,-0.6101387143135071,0.7367048859596252,0.2915412187576294,0,0,0,-1,-1,32017.52062666667,unknown,2,2025-04-22T13:03:32.007+03:00,2025-04-21T17:08:51.449+03:00,7397,0.9991471,0,0,6162.221,5,20,2025-04-22T12:58:04.401+03:00,767009012.1094084,0,-21.82,100.4637,1,0.75,2025-04-22T13:03:28.830+03:00,103,1.716666666666667,2025-04-22T09:54:17.825+03:00,0.02225348692287972,0
