loggingTime(txt),locationTimestamp_since1970(s),locationLatitude(WGS84),locationLongitude(WGS84),locationAltitude(m),locationSpeed(m/s),locationSpeedAccuracy(m/s),locationCourse(°),locationCourseAccuracy(°),locationVerticalAccuracy(m),locationHorizontalAccuracy(m),locationFloor(Z),accelerometerTimestamp_sinceReboot(s),accelerometerAccelerationX(G),accelerometerAccelerationY(G),accelerometerAccelerationZ(G),motionTimestamp_sinceReboot(s),motionYaw(rad),motionRoll(rad),motionPitch(rad),motionRotationRateX(rad/s),motionRotationRateY(rad/s),motionRotationRateZ(rad/s),motionUserAccelerationX(G),motionUserAccelerationY(G),motionUserAccelerationZ(G),motionAttitudeReferenceFrame(txt),motionQuaternionX(R),motionQuaternionY(R),motionQuaternionZ(R),motionQuaternionW(R),motionGravityX(G),motionGravityY(G),motionGravityZ(G),motionMagneticFieldX(µT),motionMagneticFieldY(µT),motionMagneticFieldZ(µT),motionHeading(°),motionMagneticFieldCalibrationAccuracy(Z),activityTimestamp_sinceReboot(s),activity(txt),activityActivityConfidence(Z),activityActivityStartDate(txt),pedometerStartDate(txt),pedometerNumberofSteps(N),pedometerAverageActivePace(s/m),pedometerCurrentPace(s/m),pedometerCurrentCadence(steps/s),pedometerDistance(m),pedometerFloorAscended(N),pedometerFloorDescended(N),pedometerEndDate(txt),altimeterTimestamp_sinceReboot(s),altimeterReset(bool),altimeterRelativeAltitude(m),altimeterPressure(kPa),batteryState(N),batteryLevel(R),heartRateBPMTimestamp(txt),heartRateBPM(N),heartRateBPS(R),heartRateVariabilityTimestamp(txt),heartRateVariability(ms),label
2025-04-22T13:45:13.061+03:00,1745318711.972957,40.95229131942952,29.14028466175749,76.45007,-1,-1,-1,-1,30,31.46988262717221,-9999,34092.191099125,-0.825927734375,0.599700927734375,-0.1856689453125,34092.18355912501,-0.2459863570010401,-1.343358147056943,-0.6394004729267271,-0.0261395052075386,0.0693260133266449,0.02131296508014202,0.0148051381111145,-0.01994752883911133,0.01225326955318451,XArbitraryZVertical,0.3166320840581917,0.5561245603106587,-0.1029329163799469,-0.7614948618536019,-0.7817882895469666,0.5967144370079041,-0.1809391975402832,0,0,0,-1,-1,34072.750615375,unknown,2,2025-04-22T13:44:53.593+03:00,2025-04-21T17:08:51.449+03:00,7472,1.022023,0,0,6219.038,5,20,2025-04-22T13:45:01.331+03:00,767011504.0055095,0,-20.21,100.4483,1,0.65,2025-04-22T13:42:20.228+03:00,86,1.433333333333333,2025-04-22T09:54:17.825+03:00,0.02225348692287972,0
2025-04-22T13:45:13.062+03:00,1745318711.972957,40.95229131942952,29.14028466175749,76.45007,-1,-1,-1,-1,30,31.46988262717221,-9999,34092.201175125,-0.77069091796875,0.5980377197265625,-0.1768798828125,34092.193635125,-0.2461876103901323,-1.342999219205173,-0.6397269318389613,-0.01858225464820862,0.02913544699549675,0.02256038971245289,-0.04808688163757324,0.00156480073928833,-0.004249036312103271,XArbitraryZVertical,0.3168229711079608,0.5559094457365181,-0.1029000616712541,-0.7615769748304433,-0.7815334796905518,0.5969763994216919,-0.1811757832765579,0,0,0,-1,-1,34072.750615375,unknown,2,2025-04-22T13:44:53.593+03:00,2025-04-21T17:08:51.449+03:00,7472,1.022023,0,0,6219.038,5,20,2025-04-22T13:45:01.331+03:00,767011504.0055095,0,-20.21,100.4483,1,0.65,2025-04-22T13:42:20.228+03:00,86,1.433333333333333,2025-04-22T09:54:17.825+03:00,0.02225348692287972,0
2025-04-22T13:45:13.063+03:00,1745318711.972957,40.95229131942952,29.14028466175749,76.45007,-1,-1,-1,-1,30,31.46988262717221,-9999,34092.211251125,-0.775970458984375,0.60272216796875,-0.174407958984375,34092.203711125,-0.2463172634639165,-1.34273368754782,-0.6399936554989671,-0.01006093714386225,0.04478231817483902,0.01822715997695923,-0.0080375075340271,0.0005726814270019531,0.0009273737668991089,XArbitraryZVertical,0.3169678208617485,0.555749718432433,-0.1028908016502614,-0.7616345454997502,-0.7813302278518677,0.5971903800964355,-0.1813472956418991,0,0,0,-1,-1,34072.750615375,unknown,2,2025-04-22T13:44:53.593+03:00,2025-04-21T17:08:51.449+03:00,7472,1.022023,0,0,6219.038,5,20,2025-04-22T13:45:01.331+03:00,767011504.0055095,0,-20.21,100.4483,1,0.65,2025-04-22T13:42:20.228+03:00,86,1.433333333333333,2025-04-22T09:54:17.825+03:00,0.02225348692287972,0
2025-04-22T13:45:13.069+03:00,1745318711.972957,40.95229131942952,29.14028466175749,76.45007,-1,-1,-1,-1,30,31.46988262717221,-9999,34092.221327125,-0.788055419921875,0.6027984619140625,-0.168975830078125,34092.213787125,-0.246303500746945,-1.34225825016223,-0.6402144688596849,0.01200541667640209,0.04667282849550247,0.01615465432405472,0.01376616954803467,0.002943813800811768,0.007570847868919373,XArbitraryZVertical,0.3170672418139648,0.5555393096189578,-0.1028887075076671,-0.7617469505091428,-0.7811154723167419,0.5973674654960632,-0.1816888749599457,0,0,0,-1,-1,34072.750615375,unknown,2,2025-04-22T13:44:53.593+03:00,2025-04-21T17:08:51.449+03:00,7472,1.022023,0,0,6219.038,5,20,2025-04-22T13:45:01.331+03:00,767011504.0055095,0,-20.21,100.4483,1,0.65,2025-04-22T13:42:20.228+03:00,86,1.433333333333333,2025-04-22T09:54:17.825+03:00,0.02225348692287972,0
2025-04-22T13:45:13.079+03:00,1745318711.972957,40.95229131942952,29.14028466175749,76.45007,-1,-1,-1,-1,30,31.46988262717221,-9999,34092.23140429167,-0.7782135009765625,0.5897064208984375,-0.16668701171875,34092.223863125,-0.2459853032840832,-1.341666691174844,-0.6403122360122032,0.02907335013151169,0.03714030981063843,0.00715689966455102,-0.00719606876373291,0.006969869136810303,0.009438648819923401,XArbitraryZVertical,0.317044228451867,0.5553504752186431,-0.1029462912719325,-0.7618863056232804,-0.7809507846832275,0.5974458456039429,-0.1821376085281372,0,0,0,-1,-1,34072.750615375,unknown,2,2025-04-22T13:44:53.593+03:00,2025-04-21T17:08:51.449+03:00,7472,1.022023,0,0,6219.038,5,20,2025-04-22T13:45:01.331+03:00,767011504.0055095,0,-20.21,100.4483,1,0.65,2025-04-22T13:42:20.228+03:00,86,1.433333333333333,2025-04-22T09:54:17.825+03:00,0.02225348692287972,0
2025-04-22T13:45:13.089+03:00,1745318711.972957,40.95229131942952,29.14028466175749,76.45007,-1,-1,-1,-1,30,31.46988262717221,-9999,34092.24148029167,-0.776580810546875,0.5886688232421875,-0.164154052734375,34092.23394029167,-0.2457500648988198,-1.341209089269892,-0.6403000011003019,0.01697727292776108,0.02577979862689972,0.001924054231494665,-0.0007264018058776855,-0.002801120281219482,0.01660311222076416,XArbitraryZVertical,0.3169981038370491,0.5552151746218928,-0.1029596075725111,-0.7620023041972122,-0.780874490737915,0.5974360704421997,-0.1824966222047806,0,0,0,-1,-1,34072.750615375,unknown,2,2025-04-22T13:44:53.593+03:00,2025-04-21T17:08:51.449+03:00,7472,1.022023,0,0,6219.038,5,20,2025-04-22T13:45:01.331+03:00,767011504.0055095,0,-20.21,100.4483,1,0.65,2025-04-22T13:42:20.228+03:00,86,1.433333333333333,2025-04-22T09:54:17.825+03:00,0.02225348692287972,0
2025-04-22T13:45:13.099+03:00,1745318711.972957,40.95229131942952,29.14028466175749,76.45007,-1,-1,-1,-1,30,31.46988262717221,-9999,34092.25155629167,-0.77655029296875,0.593505859375,-0.1671295166015625,34092.24401629167,-0.2455042975860354,-1.340851510772606,-0.640293725705927,0.01491784956306219,0.02633346989750862,0.01081927865743637,0.004232108592987061,-0.01073062419891357,0.01647120714187622,XArbitraryZVertical,0.3169460480379203,0.5551187732680581,-0.1029946373882899,-0.762089480544817,-0.7808128595352173,0.5974310040473938,-0.1827767044305801,0,0,0,-1,-1,34072.750615375,unknown,2,2025-04-22T13:44:53.593+03:00,2025-04-21T17:08:51.449+03:00,7472,1.022023,0,0,6219.038,5,20,2025-04-22T13:45:01.331+03:00,767011504.0055095,0,-20.21,100.4483,1,0.65,2025-04-22T13:42:20.228+03:00,86,1.433333333333333,2025-04-22T09:54:17.825+03:00,0.02225348692287972,0
2025-04-22T13:45:13.108+03:00,1745318711.972957,40.95229131942952,29.14028466175749,76.45007,-1,-1,-1,-1,30,31.46988262717221,-9999,34092.26163229167,-0.786163330078125,0.592529296875,-0.17681884765625,34092.25409229167,-0.2453775742241333,-1.340374588904393,-0.6404109721804202,-0.0009718346991576254,0.05650448799133301,0.01903436332941055,0.005007386207580566,-0.005896091461181641,0.01948261260986328,XArbitraryZVertical,0.3169773181232683,0.5549404012770061,-0.1030034289307521,-0.7622051704779231,-0.7806574106216431,0.5975250005722046,-0.183133065700531,0,0,0,-1,-1,34072.750615375,unknown,2,2025-04-22T13:44:53.593+03:00,2025-04-21T17:08:51.449+03:00,7472,1.022023,0,0,6219.038,5,20,2025-04-22T13:45:01.331+03:00,767011504.0055095,0,-20.21,100.4483,1,0.65,2025-04-22T13:42:20.228+03:00,86,1.433333333333333,2025-04-22T09:54:17.825+03:00,0.02225348692287972,0
2025-04-22T13:45:13.118+03:00,1745318711.972957,40.95229131942952,29.14028466175749,76.45007,-1,-1,-1,-1,30,31.46988262717221,-9999,34092.27170829167,-0.7833099365234375,0.5933990478515625,-0.1750335693359375,34092.26416829167,-0.2453519164172304,-1.339759185745395,-0.6405892005301654,0.002051918301731348,0.06340553611516953,0.01991134323179722,-0.002334952354431152,-0.003658652305603027,0.009074285626411438,XArbitraryZVertical,0.3170655628424217,0.5546845108931071,-0.1029704970193751,-0.7623591301359806,-0.7804408073425293,0.597667932510376,-0.1835890412330627,0,0,0,-1,-1,34072.750615375,unknown,2,2025-04-22T13:44:53.593+03:00,2025-04-21T17:08:51.449+03:00,7472,1.022023,0,0,6219.038,5,20,2025-04-22T13:45:01.331+03:00,767011504.0055095,0,-20.21,100.4483,1,0.65,2025-04-22T13:42:20.228+03:00,86,1.433333333333333,2025-04-22T09:54:17.825+03:00,0.02225348692287972,0
2025-04-22T13:45:13.129+03:00,1745318711.972957,40.95229131942952,29.14028466175749,76.45007,-1,-1,-1,-1,30,31.46988262717221,-9999,34092.28178429167,-0.775909423828125,0.60540771484375,-0.169952392578125,34092.27424429167,-0.2451734130775262,-1.339003792527099,-0.6406889572276817,0.01724199019372463,0.06785587966442108,0.01576889678835869,-0.005644679069519043,-0.006378293037414551,0.007147654891014099,XArbitraryZVertical,0.3170905757314416,0.5544106119183868,-0.1029494103829659,-0.7625509161313303,-0.7802440524101257,0.5977479219436646,-0.1841648817062378,0,0,0,-1,-1,34072.750615375,unknown,2,2025-04-22T13:44:53.593+03:00,2025-04-21T17:08:51.449+03:00,7472,1.022023,0,0,6219.038,5,20,2025-04-22T13:45:01.331+03:00,767011504.0055095,0,-20.21,100.4483,1,0.65,2025-04-22T13:42:20.228+03:00,86,1.433333333333333,2025-04-22T09:54:17.825+03:00,0.02225348692287972,0
2025-04-22T13:45:13.139+03:00,1745318711.972957,40.95229131942952,29.14028466175749,76.45007,-1,-1,-1,-1,30,31.46988262717221,-9999,34092.29186129167,-0.7724151611328125,0.6052398681640625,-0.176544189453125,34092.28432029167,-0.2448630639102016,-1.338174615330654,-0.6407718795906082,0.02398165129125118,0.05936625599861145,0.01078479085117579,0.002058148384094238,0.002786815166473389,0.01448176801204681,XArbitraryZVertical,0.3170768913367367,0.5541318158941032,-0.1029617781159609,-0.7627575578794358,-0.7800428867340088,0.5978143811225891,-0.1848003566265106,0,0,0,-1,-1,34072.750615375,unknown,2,2025-04-22T13:44:53.593+03:00,2025-04-21T17:08:51.449+03:00,7472,1.022023,0,0,6219.038,5,20,2025-04-22T13:45:01.331+03:00,767011504.0055095,0,-20.21,100.4483,1,0.65,2025-04-22T13:42:20.228+03:00,86,1.433333333333333,2025-04-22T09:54:17.825+03:00,0.02225348692287972,0
2025-04-22T13:45:13.149+03:00,1745318711.972957,40.95229131942952,29.14028466175749,76.45007,-1,-1,-1,-1,30,31.46988262717221,-9999,34092.30193729167,-0.770111083984375,0.5904541015625,-0.1760711669921875,34092.29439729167,-0.2446252878428472,-1.337534742322255,-0.6407663470044512,0.01667427085340023,0.03940140455961227,-0.006469930056482553,0.006291747093200684,0.01064950227737427,0.01160942018032074,XArbitraryZVertical,0.3170419823631406,0.5539262370464954,-0.1029493275260756,-0.7629230659123327,-0.779927670955658,0.5978099703788757,-0.1853002160787582,0,0,0,-1,-1,34072.750615375,unknown,2,2025-04-22T13:44:53.593+03:00,2025-04-21T17:08:51.449+03:00,7472,1.022023,0,0,6219.038,5,20,2025-04-22T13:45:01.331+03:00,767011504.0055095,0,-20.21,100.4483,1,0.65,2025-04-22T13:42:20.228+03:00,86,1.433333333333333,2025-04-22T09:54:17.825+03:00,0.02225348692287972,0
2025-04-22T13:45:13.159+03:00,1745318711.972957,40.95229131942952,29.14028466175749,76.45007,-1,-1,-1,-1,30,31.46988262717221,-9999,34092.31201329167,-0.767822265625,0.58831787109375,-0.1738128662109375,34092.30447329167,-0.2446187605067976,-1.33725780427172,-0.6406726208316177,-0.009047072380781174,0.02172546833753586,-0.01397711504250765,0.009270250797271729,-0.001940369606018066,0.007794767618179321,XArbitraryZVertical,0.3170209455111539,0.5538349740328908,-0.1028792207183662,-0.7630073001896063,-0.7799305319786072,0.597734808921814,-0.1855290830135345,0,0,0,-1,-1,34072.750615375,unknown,2,2025-04-22T13:44:53.593+03:00,2025-04-21T17:08:51.449+03:00,7472,1.022023,0,0,6219.038,5,20,2025-04-22T13:45:01.331+03:00,767011504.0055095,0,-20.21,100.4483,1,0.65,2025-04-22T13:42:20.228+03:00,86,1.433333333333333,2025-04-22T09:54:17.825+03:00,0.02225348692287972,0
2025-04-22T13:45:13.169+03:00,1745318711.972957,40.95229131942952,29.14028466175749,76.45007,-1,-1,-1,-1,30,31.46988262717221,-9999,34092.32208929167,-0.768524169921875,0.595184326171875,-0.1774444580078125,34092.31454929167,-0.2449394799001193,-1.33735286789235,-0.640554582498677,-0.02874840423464775,0.004511794541031122,-0.02045688591897488,0.01129448413848877,-0.0105736255645752,0.01196366548538208,XArbitraryZVertical,0.3170626239817397,0.5538371932576205,-0.1027356311212289,-0.7630078634313318,-0.7800170183181763,0.5976401567459106,-0.185471311211586,0,0,0,-1,-1,34072.750615375,unknown,2,2025-04-22T13:44:53.593+03:00,2025-04-21T17:08:51.449+03:00,7472,1.022023,0,0,6219.038,5,20,2025-04-22T13:45:01.331+03:00,767011504.0055095,0,-20.21,100.4483,1,0.65,2025-04-22T13:42:20.228+03:00,86,1.433333333333333,2025-04-22T09:54:17.825+03:00,0.02225348692287972,0
2025-04-22T13:45:13.179+03:00,1745318711.972957,40.95229131942952,29.14028466175749,76.45007,-1,-1,-1,-1,30,31.46988262717221,-9999,34092.33216529167,-0.774322509765625,0.59832763671875,-0.179473876953125,34092.32462529167,-0.245362672107915,-1.337610233813195,-0.6404692719158531,-0.02514488250017166,0.002022271510213614,-0.01297020632773638,0.01203268766403198,-0.003852307796478271,0.008875533938407898,XArbitraryZVertical,0.3171360803575478,0.5538804223732368,-0.1025887553823437,-0.7629658059343417,-0.780114471912384,0.5975717902183533,-0.185282364487648,0,0,0,-1,-1,34072.750615375,unknown,2,2025-04-22T13:44:53.593+03:00,2025-04-21T17:08:51.449+03:00,7472,1.022023,0,0,6219.038,5,20,2025-04-22T13:45:01.331+03:00,767011504.0055095,0,-20.21,100.4483,1,0.65,2025-04-22T13:42:20.228+03:00,86,1.433333333333333,2025-04-22T09:54:17.825+03:00,0.02225348692287972,0
2025-04-22T13:45:13.189+03:00,1745318711.972957,40.95229131942952,29.14028466175749,76.45007,-1,-1,-1,-1,30,31.46988262717221,-9999,34092.34224129167,-0.783203125,0.597564697265625,-0.1832122802734375,34092.33470129167,-0.2456850792205356,-1.337793797924545,-0.6404090968837954,-0.01490089949220419,0.004693288821727037,-0.008707085624337196,0.008790433406829834,0.0002393722534179688,0.007001057267189026,XArbitraryZVertical,0.3171944777853907,0.5539079001403683,-0.1024764595032916,-0.7629364934716717,-0.7801831960678101,0.5975235104560852,-0.1851474046707153,0,0,0,-1,-1,34072.750615375,unknown,2,2025-04-22T13:44:53.593+03:00,2025-04-21T17:08:51.449+03:00,7472,1.022023,0,0,6219.038,5,20,2025-04-22T13:45:01.331+03:00,767011504.0055095,0,-20.21,100.4483,1,0.65,2025-04-22T13:42:20.228+03:00,86,1.433333333333333,2025-04-22T09:54:17.825+03:00,0.02225348692287972,0
2025-04-22T13:45:13.199+03:00,1745318711.972957,40.95229131942952,29.14028466175749,76.45007,-1,-1,-1,-1,30,31.46988262717221,-9999,34092.35231829167,-0.7858123779296875,0.6015777587890625,-0.1856231689453125,34092.34477729167,-0.2457964482411002,-1.337787689573963,-0.6403640026679288,0.003241352504119277,0.0141555005684495,-0.00311471289023757,-6.508827209472656e-05,0.0001993179321289062,0.003365218639373779,XArbitraryZVertical,0.3172095039245971,0.5538943303713924,-0.1024191392066874,-0.7629478306031739,-0.7802082896232605,0.5974873900413513,-0.1851584017276764,0,0,0,-1,-1,34072.750615375,unknown,2,2025-04-22T13:44:53.593+03:00,2025-04-21T17:08:51.449+03:00,7472,1.022023,0,0,6219.038,5,20,2025-04-22T13:45:01.331+03:00,767011504.0055095,0,-20.21,100.4483,1,0.65,2025-04-22T13:42:20.228+03:00,86,1.433333333333333,2025-04-22T09:54:17.825+03:00,0.02225348692287972,0
2025-04-22T13:45:13.209+03:00,1745318711.972957,40.95229131942952,29.14028466175749,76.45007,-1,-1,-1,-1,30,31.46988262717221,-9999,34092.36239429167,-0.7876129150390625,0.6061553955078125,-0.181854248046875,34092.35485429167,-0.2456704612931424,-1.337589830679899,-0.6403023251672595,0.01461964193731546,0.01776268519461155,0.0007476360769942403,-0.005330145359039307,0.00200355052947998,-1.192092895507812e-05,XArbitraryZVertical,0.3171626847020848,0.5538476160795167,-0.1024168615159046,-0.7630015477098698,-0.7802075743675232,0.5974379181861877,-0.1853213012218475,0,0,0,-1,-1,34072.750615375,unknown,2,2025-04-22T13:44:53.593+03:00,2025-04-21T17:08:51.449+03:00,7472,1.022023,0,0,6219.038,5,20,2025-04-22T13:45:01.331+03:00,767011504.0055095,0,-20.21,100.4483,1,0.65,2025-04-22T13:42:20.228+03:00,86,1.433333333333333,2025-04-22T09:54:17.825+03:00,0.02225348692287972,0
2025-04-22T13:45:13.219+03:00,1745318711.972957,40.95229131942952,29.14028466175749,76.45007,-1,-1,-1,-1,30,31.46988262717221,-9999,34092.37247029167,-0.783447265625,0.60247802734375,-0.175567626953125,34092.36493029167,-0.2455127306935439,-1.33731693529478,-0.6403316087086769,0.01079267915338278,0.02482352405786514,0.007908344268798828,-0.007717013359069824,0.007885217666625977,0.0009751319885253906,XArbitraryZVertical,0.3171434483188747,0.5537643409878377,-0.1024427405456321,-0.7630665549171296,-0.7801399827003479,0.5974614024162292,-0.1855301707983017,0,0,0,-1,-1,34072.750615375,unknown,2,2025-04-22T13:44:53.593+03:00,2025-04-21T17:08:51.449+03:00,7472,1.022023,0,0,6219.038,5,20,2025-04-22T13:45:01.331+03:00,767011504.0055095,0,-20.21,100.4483,1,0.65,2025-04-22T13:42:20.228+03:00,86,1.433333333333333,2025-04-22T09:54:17.825+03:00,0.02225348692287972,0
2025-04-22T13:45:13.229+03:00,1745318711.972957,40.95229131942952,29.14028466175749,76.45007,-1,-1,-1,-1,30,31.46988262717221,-9999,34092.38254629167,-0.7825927734375,0.5936737060546875,-0.176055908203125,34092.37500629167,-0.2453637892129759,-1.336938536829581,-0.6404525022922335,0.00610857829451561,0.03909021243453026,0.01498815696686506,-0.005156815052032471,0.007498264312744141,0.007967427372932434,XArbitraryZVertical,0.3171648670710874,0.5536263707184084,-0.1024767423530763,-0.7631530581320851,-0.7799992561340332,0.597558319568634,-0.1858085840940475,0,0,0,-1,-1,34072.750615375,unknown,2,2025-04-22T13:44:53.593+03:00,2025-04-21T17:08:51.449+03:00,7472,1.022023,0,0,6219.038,5,20,2025-04-22T13:45:01.331+03:00,767011504.0055095,0,-20.21,100.4483,1,0.65,2025-04-22T13:42:20.228+03:00,86,1.433333333333333,2025-04-22T09:54:17.825+03:00,0.02225348692287972,0
2025-04-22T13:45:13.239+03:00,1745318711.972957,40.95229131942952,29.14028466175749,76.45007,-1,-1,-1,-1,30,31.46988262717221,-9999,34092.39262229167,-0.7740478515625,0.5890045166015625,-0.17474365234375,34092.38508229167,-0.24534032262357,-1.336553189630152,-0.6406267964205398,-0.003632199252024293,0.03155799210071564,0.01610482111573219,-0.003346145153045654,-0.000499725341796875,0.01073099672794342,XArbitraryZVertical,0.3172404551596157,0.5534582232308222,-0.1024780681629511,-0.7632434764245342,-0.7798264026641846,0.5976980924606323,-0.186084970831871,0,0,0,-1,-1,34072.750615375,unknown,2,2025-04-22T13:44:53.593+03:00,2025-04-21T17:08:51.449+03:00,7472,1.022023,0,0,6219.038,5,20,2025-04-22T13:45:01.331+03:00,767011504.0055095,0,-20.21,100.4483,1,0.65,2025-04-22T13:42:20.228+03:00,86,1.433333333333333,2025-04-22T09:54:17.825+03:00,0.02225348692287972,0
2025-04-22T13:45:13.249+03:00,1745318711.972957,40.95229131942952,29.14028466175749,76.45007,-1,-1,-1,-1,30,31.46988262717221,-9999,34092.40269829167,-0.768646240234375,0.5988006591796875,-0.180938720703125,34092.39515829167,-0.2453356046758593,-1.336305590678535,-0.6408218185839905,0.006412578281015158,0.01621885038912296,0.01866525039076805,0.001407742500305176,-0.007751345634460449,0.01080548763275146,XArbitraryZVertical,0.3173215981924692,0.5533367049235969,-0.102500429251101,-0.7632949033862774,-0.7796669602394104,0.5978544354438782,-0.1862509846687317,0,0,0,-1,-1,34072.750615375,unknown,2,2025-04-22T13:44:53.593+03:00,2025-04-21T17:08:51.449+03:00,7472,1.022023,0,0,6219.038,5,20,2025-04-22T13:45:01.331+03:00,767011504.0055095,0,-20.21,100.4483,1,0.65,2025-04-22T13:42:20.228+03:00,86,1.433333333333333,2025-04-22T09:54:17.825+03:00,0.02225348692287972,0
2025-04-22T13:45:13.259+03:00,1745318711.972957,40.95229131942952,29.14028466175749,76.45007,-1,-1,-1,-1,30,31.46988262717221,-9999,34092.41277529167,-0.7706146240234375,0.60870361328125,-0.1879730224609375,34092.40523429167,-0.2450747022263732,-1.336062740699085,-0.6409978261728737,0.02692184783518314,0.005101218353956938,0.0248738769441843,0.01032376289367676,-0.004779696464538574,0.009322360157966614,XArbitraryZVertical,0.3173248648821919,0.5532603566537432,-0.1026155235605648,-0.7633333333683704,-0.779519259929657,0.5979955196380615,-0.186415821313858,0,0,0,-1,-1,34072.750615375,unknown,2,2025-04-22T13:44:53.593+03:00,2025-04-21T17:08:51.449+03:00,7472,1.022023,0,0,6219.038,5,20,2025-04-22T13:45:01.331+03:00,767011504.0055095,0,-20.21,100.4483,1,0.65,2025-04-22T13:42:20.228+03:00,86,1.433333333333333,2025-04-22T09:54:17.825+03:00,0.02225348692287972,0
2025-04-22T13:45:13.269+03:00,1745318711.972957,40.95229131942952,29.14028466175749,76.45007,-1,-1,-1,-1,30,31.46988262717221,-9999,34092.42285129167,-0.7717437744140625,0.6050872802734375,-0.185882568359375,34092.41531129167,-0.2446456645292109,-1.335828823365939,-0.6411339878666265,0.03606188297271729,-0.005514608230441809,0.01373990066349506,0.009804189205169678,0.00786745548248291,7.107853889465332e-05,XArbitraryZVertical,0.3172669282661791,0.5532197625497238,-0.102783959633729,-0.7633641350700855,-0.7793963551521301,0.5981045961380005,-0.1865791827440262,0,0,0,-1,-1,34072.750615375,unknown,2,2025-04-22T13:44:53.593+03:00,2025-04-21T17:08:51.449+03:00,7472,1.022023,0,0,6219.038,5,20,2025-04-22T13:45:01.331+03:00,767011504.0055095,0,-20.21,100.4483,1,0.65,2025-04-22T13:42:20.228+03:00,86,1.433333333333333,2025-04-22T09:54:17.825+03:00,0.02225348692287972,0
2025-04-22T13:45:13.280+03:00,1745318711.972957,40.95229131942952,29.14028466175749,76.45007,-1,-1,-1,-1,30,31.46988262717221,-9999,34092.43292729167,-0.77349853515625,0.6038360595703125,-0.182098388671875,34092.42538729167,-0.2441344324812278,-1.335638419035341,-0.6410991786838035,0.04610918834805489,-0.01518348045647144,-0.001157822320237756,0.007484853267669678,0.008597314357757568,-0.0008895844221115112,XArbitraryZVertical,0.3171228411772483,0.5532331172592259,-0.1029382002435375,-0.7633935833373611,-0.7793810963630676,0.5980767011642456,-0.1867324411869049,0,0,0,-1,-1,34072.750615375,unknown,2,2025-04-22T13:44:53.593+03:00,2025-04-21T17:08:51.449+03:00,7472,1.022023,0,0,6219.038,5,20,2025-04-22T13:45:01.331+03:00,767011504.0055095,0,-20.21,100.4483,1,0.65,2025-04-22T13:42:20.228+03:00,86,1.433333333333333,2025-04-22T09:54:17.825+03:00,0.02225348692287972,0
2025-04-22T13:45:13.290+03:00,1745318711.972957,40.95229131942952,29.14028466175749,76.45007,-1,-1,-1,-1,30,31.46988262717221,-9999,34092.44300329167,-0.7809600830078125,0.6152496337890625,-0.181915283203125,34092.43546329167,-0.243499403199807,-1.335369181235049,-0.6409353962443127,0.05953545123338699,-0.006401240825653076,-0.008321359753608704,0.007133066654205322,0.004364609718322754,0.003936007618904114,XArbitraryZVertical,0.3169024085441903,0.5532542797668361,-0.103087678977389,-0.7634496380156043,-0.779426097869873,0.5979454517364502,-0.186965137720108,0,0,0,-1,-1,34072.750615375,unknown,2,2025-04-22T13:44:53.593+03:00,2025-04-21T17:08:51.449+03:00,7472,1.022023,0,0,6219.038,5,20,2025-04-22T13:45:01.331+03:00,767011504.0055095,0,-20.21,100.4483,1,0.65,2025-04-22T13:42:20.228+03:00,86,1.433333333333333,2025-04-22T09:54:17.825+03:00,0.02225348692287972,0
2025-04-22T13:45:13.300+03:00,1745318711.972957,40.95229131942952,29.14028466175749,76.45007,-1,-1,-1,-1,30,31.46988262717221,-9999,34092.45307929167,-0.786834716796875,0.6162109375,-0.1782379150390625,34092.44553929167,-0.2427327001710784,-1.33491195639177,-0.6406814075606503,0.07465048879384995,0.005678325425833464,-0.01504717208445072,0.002098739147186279,0.01344883441925049,0.004892408847808838,XArbitraryZVertical,0.3166229391175621,0.5532372187672653,-0.1032300581292296,-0.7635587579859213,-0.7794882655143738,0.5977418422698975,-0.1873569935560226,0,0,0,-1,-1,34072.750615375,unknown,2,2025-04-22T13:44:53.593+03:00,2025-04-21T17:08:51.449+03:00,7472,1.022023,0,0,6219.038,5,20,2025-04-22T13:45:01.331+03:00,767011504.0055095,0,-20.21,100.4483,1,0.65,2025-04-22T13:42:20.228+03:00,86,1.433333333333333,2025-04-22T09:54:17.825+03:00,0.02225348692287972,0
2025-04-22T13:45:13.310+03:00,1745318711.972957,40.95229131942952,29.14028466175749,76.45007,-1,-1,-1,-1,30,31.46988262717221,-9999,34092.46315529167,-0.7823028564453125,0.607391357421875,-0.176055908203125,34092.45561529167,-0.2416936592212342,-1.334217178748988,-0.6403404026117467,0.1035816073417664,0.0118207735940814,-0.01462672650814056,-0.006347894668579102,0.02064979076385498,0.008228302001953125,XArbitraryZVertical,0.3162492467444735,0.5531846635693782,-0.1034123416083107,-0.7637270355865154,-0.7795560359954834,0.5974684357643127,-0.1879462897777557,0,0,0,-1,-1,34072.750615375,unknown,2,2025-04-22T13:44:53.593+03:00,2025-04-21T17:08:51.449+03:00,7472,1.022023,0,0,6219.038,5,20,2025-04-22T13:45:01.331+03:00,767011504.0055095,0,-20.21,100.4483,1,0.65,2025-04-22T13:42:20.228+03:00,86,1.433333333333333,2025-04-22T09:54:17.825+03:00,0.02225348692287972,0
2025-04-22T13:45:13.320+03:00,1745318711.972957,40.95229131942952,29.14028466175749,76.45007,-1,-1,-1,-1,30,31.46988262717221,-9999,34092.47323229167,-0.78106689453125,0.598358154296875,-0.1784515380859375,34092.46569129167,-0.2405858331512259,-1.333433253733417,-0.6400048393960257,0.08543029427528381,0.01735668629407883,-0.00921891164034605,-0.004179656505584717,0.01307588815689087,0.01300632953643799,XArbitraryZVertical,0.3158631269396974,0.5531078118985968,-0.1036087691594957,-0.7639158272182925,-0.7796032428741455,0.5971993207931519,-0.188604474067688,0,0,0,-1,-1,34072.750615375,unknown,2,2025-04-22T13:44:53.593+03:00,2025-04-21T17:08:51.449+03:00,7472,1.022023,0,0,6219.038,5,20,2025-04-22T13:45:01.331+03:00,767011504.0055095,0,-20.21,100.4483,1,0.65,2025-04-22T13:42:20.228+03:00,86,1.433333333333333,2025-04-22T09:54:17.825+03:00,0.02225348692287972,0
2025-04-22T13:45:13.330+03:00,1745318711.972957,40.95229131942952,29.14028466175749,76.45007,-1,-1,-1,-1,30,31.46988262717221,-9999,34092.48330829167,-0.775299072265625,0.5864105224609375,-0.185760498046875,34092.47576829167,-0.239758875853795,-1.332810716824314,-0.6397076517620213,0.0606541782617569,0.009190701879560947,-0.0174027718603611,-0.001408755779266357,0.004937231540679932,0.01174816489219666,XArbitraryZVertical,0.3155600984521092,0.5530425086717085,-0.1037353861087111,-0.7640712032130239,-0.7796581983566284,0.5969609022140503,-0.1891316175460815,0,0,0,-1,-1,34072.750615375,unknown,2,2025-04-22T13:44:53.593+03:00,2025-04-21T17:08:51.449+03:00,7472,1.022023,0,0,6219.038,5,20,2025-04-22T13:45:01.331+03:00,767011504.0055095,0,-20.21,100.4483,1,0.65,2025-04-22T13:42:20.228+03:00,86,1.433333333333333,2025-04-22T09:54:17.825+03:00,0.02225348692287972,0
2025-04-22T13:45:13.340+03:00,1745318711.972957,40.95229131942952,29.14028466175749,76.45007,-1,-1,-1,-1,30,31.46988262717221,-9999,34092.49338429167,-0.76885986328125,0.5784912109375,-0.18914794921875,34092.48584429167,-0.2393012356340781,-1.332596121528551,-0.6394131031106535,0.02356593124568462,-0.01746008358895779,-0.02544418722391129,0.001208662986755371,-0.006545186042785645,0.006997913122177124,XArbitraryZVertical,0.315338983426253,0.5530742456176806,-0.1037862270617403,-0.7641326285148856,-0.7797884941101074,0.5967245697975159,-0.1893404126167297,0,0,0,-1,-1,34072.750615375,unknown,2,2025-04-22T13:44:53.593+03:00,2025-04-21T17:08:51.449+03:00,7472,1.022023,0,0,6219.038,5,20,2025-04-22T13:45:01.331+03:00,767011504.0055095,0,-20.21,100.4483,1,0.65,2025-04-22T13:42:20.228+03:00,86,1.433333333333333,2025-04-22T09:54:17.825+03:00,0.02225348692287972,0
2025-04-22T13:45:13.350+03:00,1745318711.972957,40.95229131942952,29.14028466175749,76.45007,-1,-1,-1,-1,30,31.46988262717221,-9999,34092.50346029167,-0.7696990966796875,0.5743865966796875,-0.182861328125,34092.49592029167,-0.2392805348465506,-1.332865254132928,-0.639156775873661,-0.007128064520657063,-0.03431336581707001,-0.02762424945831299,0.009739458560943604,-0.01641041040420532,0.0002017170190811157,XArbitraryZVertical,0.315227336839522,0.553216471979725,-0.103758173232129,-0.7640793885414345,-0.7799877524375916,0.596518874168396,-0.1891665160655975,0,0,0,-1,-1,34072.750615375,unknown,2,2025-04-22T13:44:53.593+03:00,2025-04-21T17:08:51.449+03:00,7472,1.022023,0,0,6219.038,5,20,2025-04-22T13:45:01.331+03:00,767011504.0055095,0,-20.21,100.4483,1,0.65,2025-04-22T13:42:20.228+03:00,86,1.433333333333333,2025-04-22T09:54:17.825+03:00,0.02225348692287972,0
2025-04-22T13:45:13.363+03:00,1745318711.972957,40.95229131942952,29.14028466175749,76.45007,-1,-1,-1,-1,30,31.46988262717221,-9999,34092.51353629167,-0.7810516357421875,0.5768585205078125,-0.1832275390625,34092.50599629167,-0.239462235363744,-1.333282622692948,-0.6389202413787518,-0.001831569708883762,-0.02603466436266899,-0.02965411171317101,0.01227486133575439,-0.02079814672470093,0.004151299595832825,XArbitraryZVertical,0.3151710747074338,0.5533806167938867,-0.1036821101576903,-0.7639941005060268,-0.7802038192749023,0.5963290333747864,-0.1888741701841354,0,0,0,-1,-1,34072.750615375,unknown,2,2025-04-22T13:44:53.593+03:00,2025-04-21T17:08:51.449+03:00,7472,1.022023,0,0,6219.038,5,20,2025-04-22T13:45:01.331+03:00,767011504.0055095,0,-20.21,100.4483,1,0.65,2025-04-22T13:42:20.228+03:00,86,1.433333333333333,2025-04-22T09:54:17.825+03:00,0.02225348692287972,0
2025-04-22T13:45:13.370+03:00,1745318711.972957,40.95229131942952,29.14028466175749,76.45007,-1,-1,-1,-1,30,31.46988262717221,-9999,34092.52361229167,-0.7853240966796875,0.5957489013671875,-0.1834564208984375,34092.51607229167,-0.2395211981956597,-1.333537199281366,-0.6386788101936463,0.009664830751717091,-0.01848134025931358,-0.02155420742928982,0.003887414932250977,-0.02197754383087158,0.005756556987762451,XArbitraryZVertical,0.3150875625852693,0.5535025994843012,-0.1036257508114603,-0.7639478862183304,-0.7803919315338135,0.5961351990699768,-0.1887093931436539,0,0,0,-1,-1,34072.750615375,unknown,2,2025-04-22T13:44:53.593+03:00,2025-04-21T17:08:51.449+03:00,7472,1.022023,0,0,6219.038,5,20,2025-04-22T13:45:01.331+03:00,767011504.0055095,0,-20.21,100.4483,1,0.65,2025-04-22T13:42:20.228+03:00,86,1.433333333333333,2025-04-22T09:54:17.825+03:00,0.02225348692287972,0
2025-04-22T13:45:13.381+03:00,1745318711.972957,40.95229131942952,29.14028466175749,76.45007,-1,-1,-1,-1,30,31.46988262717221,-9999,34092.53368929167,-0.7819061279296875,0.610565185546875,-0.1814727783203125,34092.52614829167,-0.2393344543085605,-1.333576052988425,-0.6384453440620532,0.03563650697469711,-0.004855541978031397,-0.02178430370986462,-0.004972696304321289,-0.008789658546447754,0.005102783441543579,XArbitraryZVertical,0.3149501210578823,0.553579760600442,-0.1036317520191238,-0.7639477239629924,-0.7805343270301819,0.5959477424621582,-0.1887117326259613,0,0,0,-1,-1,34072.750615375,unknown,2,2025-04-22T13:44:53.593+03:00,2025-04-21T17:08:51.449+03:00,7472,1.022023,0,0,6219.038,5,20,2025-04-22T13:45:01.331+03:00,767011504.0055095,0,-20.21,100.4483,1,0.65,2025-04-22T13:42:20.228+03:00,86,1.433333333333333,2025-04-22T09:54:17.825+03:00,0.02225348692287972,0
2025-04-22T13:45:13.391+03:00,1745318711.972957,40.95229131942952,29.14028466175749,76.45007,-1,-1,-1,-1,30,31.46988262717221,-9999,34092.54376529167,-0.779571533203125,0.6115875244140625,-0.18585205078125,34092.53622529167,-0.2389440052856799,-1.333282345084749,-0.6381992974954015,0.04314855486154556,0.01393605582416058,-0.01860432513058186,-0.001788139343261719,0.01138168573379517,0.006922915577888489,XArbitraryZVertical,0.3147689684047661,0.5535636822949738,-0.103659305796986,-0.7640303402309736,-0.7806214094161987,0.5957501530647278,-0.1889754980802536,0,0,0,-1,-1,34072.750615375,unknown,2,2025-04-22T13:44:53.593+03:00,2025-04-21T17:08:51.449+03:00,7472,1.022023,0,0,6219.038,5,20,2025-04-22T13:45:01.331+03:00,767011504.0055095,0,-20.21,100.4483,1,0.65,2025-04-22T13:42:20.228+03:00,86,1.433333333333333,2025-04-22T09:54:17.825+03:00,0.02225348692287972,0
2025-04-22T13:45:13.401+03:00,1745318711.972957,40.95229131942952,29.14028466175749,76.45007,-1,-1,-1,-1,30,31.46988262717221,-9999,34092.55384129167,-0.77496337890625,0.6086578369140625,-0.187164306640625,34092.54630129167,-0.2383884983143094,-1.33282445549746,-0.6379591758680034,0.05861299857497215,0.01642850786447525,-0.01365696918219328,-0.001384735107421875,0.01691520214080811,0.005238890647888184,XArbitraryZVertical,0.3145527541398673,0.5535099261936394,-0.1037259621295292,-0.7641493467462045,-0.7806739211082458,0.5955572724342346,-0.1893666535615921,0,0,0,-1,-1,34072.750615375,unknown,2,2025-04-22T13:44:53.593+03:00,2025-04-21T17:08:51.449+03:00,7472,1.022023,0,0,6219.038,5,20,2025-04-22T13:45:01.331+03:00,767011504.0055095,0,-20.21,100.4483,1,0.65,2025-04-22T13:42:20.228+03:00,86,1.433333333333333,2025-04-22T09:54:17.825+03:00,0.02225348692287972,0
2025-04-22T13:45:13.411+03:00,1745318711.972957,40.95229131942952,29.14028466175749,76.45007,-1,-1,-1,-1,30,31.46988262717221,-9999,34092.56391729167,-0.7804412841796875,0.598876953125,-0.184539794921875,34092.55637729167,-0.2376714264000561,-1.332210381367647,-0.637704076222828,0.06188295781612396,0.02289719320833683,-0.01065139286220074,0.005024552345275879,0.0149533748626709,0.00323641300201416,XArbitraryZVertical,0.3142945735238231,0.5534238602100787,-0.103825368345239,-0.7643043922292452,-0.7807050943374634,0.5953522920608521,-0.189881905913353,0,0,0,-1,-1,34072.750615375,unknown,2,2025-04-22T13:44:53.593+03:00,2025-04-21T17:08:51.449+03:00,7472,1.022023,0,0,6219.038,5,20,2025-04-22T13:45:01.331+03:00,767011504.0055095,0,-20.21,100.4483,1,0.65,2025-04-22T13:42:20.228+03:00,86,1.433333333333333,2025-04-22T09:54:17.825+03:00,0.02225348692287972,0
2025-04-22T13:45:13.421+03:00,1745318711.972957,40.95229131942952,29.14028466175749,76.45007,-1,-1,-1,-1,30,31.46988262717221,-9999,34092.57399329167,-0.781097412109375,0.58258056640625,-0.181121826171875,34092.56645329167,-0.2370354977522766,-1.331626379363492,-0.6375022389795428,0.04233802109956741,0.01929819770157337,-0.003677905071526766,0.002329409122467041,0.007882952690124512,0.004575282335281372,XArbitraryZVertical,0.3140764279838409,0.5533288849192708,-0.1039149165473903,-0.7644506948779339,-0.7807108759880066,0.5951901078224182,-0.1903662830591202,0,0,0,-1,-1,34072.750615375,unknown,2,2025-04-22T13:44:53.593+03:00,2025-04-21T17:08:51.449+03:00,7472,1.022023,0,0,6219.038,5,20,2025-04-22T13:45:01.331+03:00,767011504.0055095,0,-20.21,100.4483,1,0.65,2025-04-22T13:42:20.228+03:00,86,1.433333333333333,2025-04-22T09:54:17.825+03:00,0.02225348692287972,0
2025-04-22T13:45:13.431+03:00,1745318711.972957,40.95229131942952,29.14028466175749,76.45007,-1,-1,-1,-1,30,31.46988262717221,-9999,34092.58406929167,-0.7756500244140625,0.567352294921875,-0.1814422607421875,34092.57652929167,-0.2367108037679911,-1.331290379172069,-0.6373941879544085,0.01051464583724737,0.007037070114165545,0.0002625413471832871,-0.001166343688964844,-0.005625784397125244,0.008270829916000366,XArbitraryZVertical,0.3139652302611053,0.5532665803625205,-0.1039532331377513,-0.7645362598837503,-0.7807093262672424,0.5951033234596252,-0.190643846988678,0,0,0,-1,-1,34072.750615375,unknown,2,2025-04-22T13:44:53.593+03:00,2025-04-21T17:08:51.449+03:00,7472,1.022023,0,0,6219.038,5,20,2025-04-22T13:45:01.331+03:00,767011504.0055095,0,-20.21,100.4483,1,0.65,2025-04-22T13:42:20.228+03:00,86,1.433333333333333,2025-04-22T09:54:17.825+03:00,0.02225348692287972,0
2025-04-22T13:45:13.441+03:00,1745318711.972957,40.95229131942952,29.14028466175749,76.45007,-1,-1,-1,-1,30,31.46988262717221,-9999,34092.59414629167,-0.7777862548828125,0.57562255859375,-0.1860504150390625,34092.58660529167,-0.2367488077838392,-1.331270411017505,-0.6373887220215012,-0.0158208217471838,0.002952313749119639,0.001282265642657876,0.003380119800567627,-0.02399301528930664,0.009736776351928711,XArbitraryZVertical,0.3139748277356151,0.5532537504165577,-0.1039339218052817,-0.7645441707517914,-0.7807086110115051,0.5950989127159119,-0.1906601935625076,0,0,0,-1,-1,34072.750615375,unknown,2,2025-04-22T13:44:53.593+03:00,2025-04-21T17:08:51.449+03:00,7472,1.022023,0,0,6219.038,5,20,2025-04-22T13:45:01.331+03:00,767011504.0055095,0,-20.21,100.4483,1,0.65,2025-04-22T13:42:20.228+03:00,86,1.433333333333333,2025-04-22T09:54:17.825+03:00,0.02225348692287972,0
2025-04-22T13:45:13.451+03:00,1745318711.972957,40.95229131942952,29.14028466175749,76.45007,-1,-1,-1,-1,30,31.46988262717221,-9999,34092.60422229167,-0.78192138671875,0.586669921875,-0.1866455078125,34092.59668229167,-0.2370477363968785,-1.331452497730309,-0.6374132812543567,-0.03119065798819065,-0.001140099484473467,-0.001242244616150856,0.004514515399932861,-0.02459257841110229,0.006569892168045044,XArbitraryZVertical,0.3140568784978427,0.5532729750222016,-0.1038557309625464,-0.764507234174477,-0.7807291746139526,0.5951186418533325,-0.1905145794153214,0,0,0,-1,-1,34072.750615375,unknown,2,2025-04-22T13:44:53.593+03:00,2025-04-21T17:08:51.449+03:00,7472,1.022023,0,0,6219.038,5,20,2025-04-22T13:45:01.331+03:00,767011504.0055095,0,-20.21,100.4483,1,0.65,2025-04-22T13:42:20.228+03:00,86,1.433333333333333,2025-04-22T09:54:17.825+03:00,0.02225348692287972,0
2025-04-22T13:45:13.461+03:00,1745318711.972957,40.95229131942952,29.14028466175749,76.45007,-1,-1,-1,-1,30,31.46988262717221,-9999,34092.61429829167,-0.7789306640625,0.5868682861328125,-0.1837005615234375,34092.60675829167,-0.2374403538100102,-1.331749060644438,-0.6374324343940755,-0.03016054630279541,-0.005596633534878492,-0.00499597005546093,-0.0008723139762878418,-0.0111040472984314,0.003100767731666565,XArbitraryZVertical,0.3141570173106774,0.5533219926878264,-0.1037581547626173,-0.7644436974255996,-0.7807742953300476,0.5951340198516846,-0.1902802884578705,0,0,0,-1,-1,34072.750615375,unknown,2,2025-04-22T13:44:53.593+03:00,2025-04-21T17:08:51.449+03:00,7472,1.022023,0,0,6219.038,5,20,2025-04-22T13:45:01.331+03:00,767011504.0055095,0,-20.21,100.4483,1,0.65,2025-04-22T13:42:20.228+03:00,86,1.433333333333333,2025-04-22T09:54:17.825+03:00,0.02225348692287972,0
2025-04-22T13:45:13.472+03:00,1745318711.972957,40.95229131942952,29.14028466175749,76.45007,-1,-1,-1,-1,30,31.46988262717221,-9999,34092.62437429167,-0.7830963134765625,0.604278564453125,-0.1841278076171875,34092.61683429167,-0.237661568740785,-1.331899145161347,-0.6374522249990977,-0.0005502563435584307,0.008096475154161453,-0.005319577641785145,0.001418411731719971,-0.008419036865234375,0.005635827779769897,XArbitraryZVertical,0.314217511221478,0.5533418182532797,-0.1037031647527101,-0.7644121240347219,-0.780791699886322,0.5951499342918396,-0.1901603788137436,0,0,0,-1,-1,34072.750615375,unknown,2,2025-04-22T13:44:53.593+03:00,2025-04-21T17:08:51.449+03:00,7472,1.022023,0,0,6219.038,5,20,2025-04-22T13:45:01.331+03:00,767011504.0055095,0,-20.21,100.4483,1,0.65,2025-04-22T13:42:20.228+03:00,86,1.433333333333333,2025-04-22T09:54:17.825+03:00,0.02225348692287972,0
2025-04-22T13:45:13.482+03:00,1745318711.972957,40.95229131942952,29.14028466175749,76.45007,-1,-1,-1,-1,30,31.46988262717221,-9999,34092.63445029167,-0.788116455078125,0.618560791015625,-0.186553955078125,34092.62691029167,-0.2375273125707181,-1.331664474965738,-0.6373915441991249,0.02575778029859066,0.02609385177493095,-0.00524607440456748,0.0006001591682434082,-0.0003442168235778809,0.007780700922012329,XArbitraryZVertical,0.3141707631321338,0.5532817382173448,-0.1036991107952292,-0.7644752290102881,-0.7807819247245789,0.5951011776924133,-0.1903520971536636,0,0,0,-1,-1,34072.750615375,unknown,2,2025-04-22T13:44:53.593+03:00,2025-04-21T17:08:51.449+03:00,7472,1.022023,0,0,6219.038,5,20,2025-04-22T13:45:01.331+03:00,767011504.0055095,0,-20.21,100.4483,1,0.65,2025-04-22T13:42:20.228+03:00,86,1.433333333333333,2025-04-22T09:54:17.825+03:00,0.02225348692287972,0
2025-04-22T13:45:13.492+03:00,1745318711.972957,40.95229131942952,29.14028466175749,76.45007,-1,-1,-1,-1,30,31.46988262717221,-9999,34092.64452729167,-0.7784423828125,0.607330322265625,-0.1822509765625,34092.63698629167,-0.2371154258946273,-1.331146400198619,-0.637276374878307,0.04817813634872437,0.02542273513972759,-0.009265849366784096,-0.006344258785247803,0.0215531587600708,0.004188388586044312,XArbitraryZVertical,0.314042319454318,0.5531645399768546,-0.1037399996900023,-0.7646072085025308,-0.7807496786117554,0.5950086116790771,-0.1907728314399719,0,0,0,-1,-1,34072.750615375,unknown,2,2025-04-22T13:44:53.593+03:00,2025-04-21T17:08:51.449+03:00,7472,1.022023,0,0,6219.038,5,20,2025-04-22T13:45:01.331+03:00,767011504.0055095,0,-20.21,100.4483,1,0.65,2025-04-22T13:42:20.228+03:00,86,1.433333333333333,2025-04-22T09:54:17.825+03:00,0.02225348692287972,0
2025-04-22T13:45:13.502+03:00,1745318711.972957,40.95229131942952,29.14028466175749,76.45007,-1,-1,-1,-1,30,31.46988262717221,-9999,34092.65460329167,-0.7777252197265625,0.6057586669921875,-0.1834259033203125,34092.64706329167,-0.2364322397467805,-1.330441584834817,-0.6370592712944034,0.06110591813921928,0.04016066715121269,-0.007748380769044161,-0.002142071723937988,0.01780611276626587,0.007103994488716125,XArbitraryZVertical,0.3138119035484805,0.553032711911276,-0.1038242180106723,-0.7647857416824838,-0.78074049949646,0.5948340892791748,-0.1913538128137589,0,0,0,-1,-1,34072.750615375,unknown,2,2025-04-22T13:44:53.593+03:00,2025-04-21T17:08:51.449+03:00,7472,1.022023,0,0,6219.038,5,20,2025-04-22T13:45:01.331+03:00,767011504.0055095,0,-20.21,100.4483,1,0.65,2025-04-22T13:42:20.228+03:00,86,1.433333333333333,2025-04-22T09:54:17.825+03:00,0.02225348692287972,0
2025-04-22T13:45:13.512+03:00,1745318711.972957,40.95229131942952,29.14028466175749,76.45007,-1,-1,-1,-1,30,31.46988262717221,-9999,34092.66467929167,-0.7782135009765625,0.6039276123046875,-0.1773529052734375,34092.65713929167,-0.2357876224727387,-1.329729591751349,-0.6368316295210233,0.05741071328520775,0.02607887051999569,-0.007755337748676538,0.004826247692108154,0.009947776794433594,0.01001149415969849,XArbitraryZVertical,0.3135887604558869,0.5528933810658583,-0.1038894985892791,-0.7649691886909958,-0.7807356715202332,0.5946511030197144,-0.1919419914484024,0,0,0,-1,-1,34072.750615375,unknown,2,2025-04-22T13:44:53.593+03:00,2025-04-21T17:08:51.449+03:00,7472,1.022023,0,0,6219.038,5,20,2025-04-22T13:45:01.331+03:00,767011504.0055095,0,-20.21,100.4483,1,0.65,2025-04-22T13:42:20.228+03:00,86,1.433333333333333,2025-04-22T09:54:17.825+03:00,0.02225348692287972,0
2025-04-22T13:45:13.522+03:00,1745318711.972957,40.95229131942952,29.14028466175749,76.45007,-1,-1,-1,-1,30,31.46988262717221,-9999,34092.67475529167,-0.7701416015625,0.5880126953125,-0.18792724609375,34092.66721529167,-0.2352950439319601,-1.329249389678078,-0.6366022111222588,0.02008970826864243,0.01516443863511086,-0.01277806051075459,0.000548243522644043,0.01207011938095093,0.01159393787384033,XArbitraryZVertical,0.313394992017381,0.5528189746344808,-0.1039325826752834,-0.7650965265987264,-0.7807758450508118,0.5944666266441345,-0.1923495233058929,0,0,0,-1,-1,34072.750615375,unknown,2,2025-04-22T13:44:53.593+03:00,2025-04-21T17:08:51.449+03:00,7472,1.022023,0,0,6219.038,5,20,2025-04-22T13:45:01.331+03:00,767011504.0055095,0,-20.21,100.4483,1,0.65,2025-04-22T13:42:20.228+03:00,86,1.433333333333333,2025-04-22T09:54:17.825+03:00,0.02225348692287972,0
2025-04-22T13:45:13.532+03:00,1745318711.972957,40.95229131942952,29.14028466175749,76.45007,-1,-1,-1,-1,30,31.46988262717221,-9999,34092.68483129167,-0.7703094482421875,0.5712432861328125,-0.19049072265625,34092.67729129167,-0.2353360938136346,-1.329116452250599,-0.6364315437503411,-0.01588506996631622,0.01821562275290489,-0.01536718476563692,0.007838547229766846,0.0002902746200561523,0.01147782802581787,XArbitraryZVertical,0.3133518233352364,0.5527855305338046,-0.1038439502299011,-0.7651503829918237,-0.7808487415313721,0.5943294167518616,-0.1924775838851929,0,0,0,-1,-1,34072.750615375,unknown,2,2025-04-22T13:44:53.593+03:00,2025-04-21T17:08:51.449+03:00,7472,1.022023,0,0,6219.038,5,20,2025-04-22T13:45:01.331+03:00,767011504.0055095,0,-20.21,100.4483,1,0.65,2025-04-22T13:42:20.228+03:00,86,1.433333333333333,2025-04-22T09:54:17.825+03:00,0.02225348692287972,0
2025-04-22T13:45:13.542+03:00,1745318711.972957,40.95229131942952,29.14028466175749,76.45007,-1,-1,-1,-1,30,31.46988262717221,-9999,34092.69490729167,-0.766357421875,0.5727691650390625,-0.1817626953125,34092.68736729167,-0.2357350650559926,-1.329225758548822,-0.6363520007349873,-0.04088389500975609,0.002460627583786845,-0.01235115528106689,0.01110982894897461,-0.01752907037734985,-0.001627206802368164,XArbitraryZVertical,0.3134277970237418,0.5527759462281471,-0.103684156648968,-0.76514785600836,-0.7809156775474548,0.5942654013633728,-0.1924035400152206,0,0,0,-1,-1,34072.750615375,unknown,2,2025-04-22T13:44:53.593+03:00,2025-04-21T17:08:51.449+03:00,7472,1.022023,0,0,6219.038,5,20,2025-04-22T13:45:01.331+03:00,767011504.0055095,0,-20.21,100.4483,1,0.65,2025-04-22T13:42:20.228+03:00,86,1.433333333333333,2025-04-22T09:54:17.825+03:00,0.02225348692287972,0
2025-04-22T13:45:13.552+03:00,1745318711.972957,40.95229131942952,29.14028466175749,76.45007,-1,-1,-1,-1,30,31.46988262717221,-9999,34092.70498429167,-0.7664947509765625,0.5921630859375,-0.17822265625,34092.69744329167,-0.2362710643322454,-1.329555163043806,-0.6363907165370881,-0.04309485480189323,-0.0009274459443986416,0.002385313622653484,0.01162385940551758,-0.02607464790344238,0.009477868676185608,XArbitraryZVertical,0.3135728167170101,0.5528125325127496,-0.1035425733914066,-0.7650811500044256,-0.7809566259384155,0.5942965745925903,-0.1921407878398895,0,0,0,-1,-1,34072.750615375,unknown,2,2025-04-22T13:44:53.593+03:00,2025-04-21T17:08:51.449+03:00,7472,1.022023,0,0,6219.038,5,20,2025-04-22T13:45:01.331+03:00,767011504.0055095,0,-20.21,100.4483,1,0.65,2025-04-22T13:42:20.228+03:00,86,1.433333333333333,2025-04-22T09:54:17.825+03:00,0.02225348692287972,0
2025-04-22T13:45:13.562+03:00,1745318711.972957,40.95229131942952,29.14028466175749,76.45007,-1,-1,-1,-1,30,31.46988262717221,-9999,34092.71506029167,-0.7835693359375,0.5976409912109375,-0.1822357177734375,34092.70752029167,-0.2368212089262838,-1.329880131443987,-0.6365735530378439,-0.04822836443781853,0.004815927240997553,0.009282900020480156,0.0170433521270752,-0.008552014827728271,0.0118836909532547,XArbitraryZVertical,0.3137738372495991,0.5528249686727514,-0.1034389424918894,-0.7650037785104362,-0.7809135317802429,0.5944436192512512,-0.1918610632419586,0,0,0,-1,-1,34072.750615375,unknown,2,2025-04-22T13:44:53.593+03:00,2025-04-21T17:08:51.449+03:00,7472,1.022023,0,0,6219.038,5,20,2025-04-22T13:45:01.331+03:00,767011504.0055095,0,-20.21,100.4483,1,0.65,2025-04-22T13:42:20.228+03:00,86,1.433333333333333,2025-04-22T09:54:17.825+03:00,0.02225348692287972,0
2025-04-22T13:45:13.572+03:00,1745318711.972957,40.95229131942952,29.14028466175749,76.45007,-1,-1,-1,-1,30,31.46988262717221,-9999,34092.72513629167,-0.78253173828125,0.59051513671875,-0.200042724609375,34092.71759629167,-0.2373135559301586,-1.330182836351575,-0.6367381000520804,-0.03273588791489601,-0.008145078085362911,0.001148708048276603,0.003517568111419678,0.002607166767120361,0.01357711851596832,XArbitraryZVertical,0.3139534644960381,0.5528404353448935,-0.1033484172747624,-0.7649311110343777,-0.7808765172958374,0.5945759415626526,-0.191601350903511,0,0,0,-1,-1,34072.750615375,unknown,2,2025-04-22T13:44:53.593+03:00,2025-04-21T17:08:51.449+03:00,7472,1.022023,0,0,6219.038,5,20,2025-04-22T13:45:01.331+03:00,767011504.0055095,0,-20.21,100.4483,1,0.65,2025-04-22T13:42:20.228+03:00,86,1.433333333333333,2025-04-22T09:54:17.825+03:00,0.02225348692287972,0
2025-04-22T13:45:13.582+03:00,1745318711.972957,40.95229131942952,29.14028466175749,76.45007,-1,-1,-1,-1,30,31.46988262717221,-9999,34092.73521229167,-0.771331787109375,0.60247802734375,-0.1957550048828125,34092.72767229167,-0.2375786839384842,-1.330557886315022,-0.6367716075781245,-0.007602307014167309,-0.0298817977309227,-0.009758800268173218,-0.004410326480865479,-0.0008072257041931152,-0.002437099814414978,XArbitraryZVertical,0.3140194316417171,0.5529375510653241,-0.1033161485750663,-0.7648381741670732,-0.780928909778595,0.5946028828620911,-0.1913037151098251,0,0,0,-1,-1,34072.750615375,unknown,2,2025-04-22T13:44:53.593+03:00,2025-04-21T17:08:51.449+03:00,7472,1.022023,0,0,6219.038,5,20,2025-04-22T13:45:01.331+03:00,767011504.0055095,0,-20.21,100.4483,1,0.65,2025-04-22T13:42:20.228+03:00,86,1.433333333333333,2025-04-22T09:54:17.825+03:00,0.02225348692287972,0
2025-04-22T13:45:13.592+03:00,1745318711.972957,40.95229131942952,29.14028466175749,76.45007,-1,-1,-1,-1,30,31.46988262717221,-9999,34092.74528829167,-0.772552490234375,0.611358642578125,-0.1833343505859375,34092.73774829167,-0.2376742936086661,-1.330960395862062,-0.6366334117359893,-0.002075848169624805,-0.03491823375225067,-0.02632039971649647,0.006107151508331299,2.110004425048828e-05,-0.009018540382385254,XArbitraryZVertical,0.3139753930249821,0.5530958346251817,-0.1033005274926474,-0.7647439317640548,-0.781085729598999,0.594491720199585,-0.1910088956356049,0,0,0,-1,-1,34072.750615375,unknown,2,2025-04-22T13:44:53.593+03:00,2025-04-21T17:08:51.449+03:00,7472,1.022023,0,0,6219.038,5,20,2025-04-22T13:45:01.331+03:00,767011504.0055095,0,-20.21,100.4483,1,0.65,2025-04-22T13:42:20.228+03:00,86,1.433333333333333,2025-04-22T09:54:17.825+03:00,0.02225348692287972,0
2025-04-22T13:45:13.602+03:00,1745318711.972957,40.95229131942952,29.14028466175749,76.45007,-1,-1,-1,-1,30,31.46988262717221,-9999,34092.75536529167,-0.776214599609375,0.592254638671875,-0.184722900390625,34092.74782429167,-0.2378953330080313,-1.331486502842604,-0.6363608022916574,-0.01524011977016926,-0.04382943734526634,-0.04036245122551918,0.01079005002975464,0.0183677077293396,0.004692763090133667,XArbitraryZVertical,0.313911392634222,0.5533005233172462,-0.103215247130309,-0.7646336179102007,-0.7813434600830078,0.5942724943161011,-0.1906363368034363,0,0,0,-1,-1,34072.750615375,unknown,2,2025-04-22T13:44:53.593+03:00,2025-04-21T17:08:51.449+03:00,7472,1.022023,0,0,6219.038,5,20,2025-04-22T13:45:01.331+03:00,767011504.0055095,0,-20.21,100.4483,1,0.65,2025-04-22T13:42:20.228+03:00,86,1.433333333333333,2025-04-22T09:54:17.825+03:00,0.02225348692287972,0
2025-04-22T13:45:13.612+03:00,1745318711.972957,40.95229131942952,29.14028466175749,76.45007,-1,-1,-1,-1,30,31.46988262717221,-9999,34092.76544129167,-0.7751617431640625,0.5884552001953125,-0.1864776611328125,34092.75790129167,-0.2382879445631032,-1.332239619406576,-0.636016435197473,-0.0253036729991436,-0.05180960148572922,-0.0422491654753685,0.005684852600097656,0.005430638790130615,0.006700828671455383,XArbitraryZVertical,0.3138574441415507,0.5535751098431,-0.1030779863351466,-0.7644755680443056,-0.7816857099533081,0.5939955115318298,-0.1900961995124817,0,0,0,-1,-1,34072.750615375,unknown,2,2025-04-22T13:44:53.593+03:00,2025-04-21T17:08:51.449+03:00,7472,1.022023,0,0,6219.038,5,20,2025-04-22T13:45:01.331+03:00,767011504.0055095,0,-20.21,100.4483,1,0.65,2025-04-22T13:42:20.228+03:00,86,1.433333333333333,2025-04-22T09:54:17.825+03:00,0.02225348692287972,0
2025-04-22T13:45:13.623+03:00,1745318711.972957,40.95229131942952,29.14028466175749,76.45007,-1,-1,-1,-1,30,31.46988262717221,-9999,34092.77551729167,-0.783172607421875,0.5988922119140625,-0.1904449462890625,34092.76797729167,-0.2386978264794486,-1.332892716182106,-0.6355379069445918,-0.02221706882119179,-0.04259826242923737,-0.05837780237197876,0.007839739322662354,-0.006803333759307861,0.004487276077270508,XArbitraryZVertical,0.313765384629044,0.5538275625742413,-0.1028773152071857,-0.7643575745163024,-0.7820858955383301,0.5936104655265808,-0.1896526217460632,0,0,0,-1,-1,34072.750615375,unknown,2,2025-04-22T13:44:53.593+03:00,2025-04-21T17:08:51.449+03:00,7472,1.022023,0,0,6219.038,5,20,2025-04-22T13:45:01.331+03:00,767011504.0055095,0,-20.21,100.4483,1,0.65,2025-04-22T13:42:20.228+03:00,86,1.433333333333333,2025-04-22T09:54:17.825+03:00,0.02225348692287972,0
2025-04-22T13:45:13.633+03:00,1745318711.972957,40.95229131942952,29.14028466175749,76.45007,-1,-1,-1,-1,30,31.46988262717221,-9999,34092.78559329167,-0.7753143310546875,0.6129150390625,-0.18548583984375,34092.77805329167,-0.2389505357417986,-1.333604358196988,-0.6349219198402369,0.01042016968131065,-0.06709248572587967,-0.06353437900543213,0.00225675106048584,0.0009099841117858887,-0.000591665506362915,XArbitraryZVertical,0.3135775710392835,0.5541463228884979,-0.1027036975126802,-0.7642270111748316,-0.7825760245323181,0.5931146740913391,-0.189181923866272,0,0,0,-1,-1,34072.750615375,unknown,2,2025-04-22T13:44:53.593+03:00,2025-04-21T17:08:51.449+03:00,7472,1.022023,0,0,6219.038,5,20,2025-04-22T13:45:01.331+03:00,767011504.0055095,0,-20.21,100.4483,1,0.65,2025-04-22T13:42:20.228+03:00,86,1.433333333333333,2025-04-22T09:54:17.825+03:00,0.02225348692287972,0
2025-04-22T13:45:13.643+03:00,1745318711.972957,40.95229131942952,29.14028466175749,76.45007,-1,-1,-1,-1,30,31.46988262717221,-9999,34092.79566929167,-0.772735595703125,0.6084136962890625,-0.1815338134765625,34092.78812929167,-0.2390249150743558,-1.334303755375008,-0.6342512850922526,0.004268001299351454,-0.05574608594179153,-0.06893553584814072,0.002653300762176514,0.01557964086532593,0.0009683370590209961,XArbitraryZVertical,0.3133214976350051,0.5544959904283018,-0.102579443472811,-0.7640950307803851,-0.783094584941864,0.5925745964050293,-0.1887276768684387,0,0,0,-1,-1,34072.750615375,unknown,2,2025-04-22T13:44:53.593+03:00,2025-04-21T17:08:51.449+03:00,7472,1.022023,0,0,6219.038,5,20,2025-04-22T13:45:01.331+03:00,767011504.0055095,0,-20.21,100.4483,1,0.65,2025-04-22T13:42:20.228+03:00,86,1.433333333333333,2025-04-22T09:54:17.825+03:00,0.02225348692287972,0
2025-04-22T13:45:13.653+03:00,1745318711.972957,40.95229131942952,29.14028466175749,76.45007,-1,-1,-1,-1,30,31.46988262717221,-9999,34092.80574629167,-0.773284912109375,0.5880584716796875,-0.1820068359375,34092.79820529167,-0.2392424224941208,-1.335010683839238,-0.6335770440877415,8.710467955097556e-05,-0.0573493055999279,-0.07169550657272339,0.01207077503204346,0.02190601825714111,0.006062179803848267,XArbitraryZVertical,0.313103517065114,0.5548265571055984,-0.1024003487724,-0.7639685290842055,-0.7836162447929382,0.5920313596725464,-0.1882673650979996,0,0,0,-1,-1,34072.750615375,unknown,2,2025-04-22T13:44:53.593+03:00,2025-04-21T17:08:51.449+03:00,7472,1.022023,0,0,6219.038,5,20,2025-04-22T13:45:01.331+03:00,767011504.0055095,0,-20.21,100.4483,1,0.65,2025-04-22T13:42:20.228+03:00,86,1.433333333333333,2025-04-22T09:54:17.825+03:00,0.02225348692287972,0
2025-04-22T13:45:13.663+03:00,1745318711.972957,40.95229131942952,29.14028466175749,76.45007,-1,-1,-1,-1,30,31.46988262717221,-9999,34092.81582229167,-0.7702789306640625,0.589508056640625,-0.183258056640625,34092.80828229167,-0.239466198359768,-1.335731215424127,-0.6329277741503238,-0.006383577361702919,-0.05698658898472786,-0.06457075476646423,0.009665369987487793,0.002760767936706543,0.005373358726501465,XArbitraryZVertical,0.3128957339927732,0.5551578110744434,-0.1022285678629713,-0.7638358784161889,-0.7841251492500305,0.5915079712867737,-0.1877921223640442,0,0,0,-1,-1,34072.750615375,unknown,2,2025-04-22T13:44:53.593+03:00,2025-04-21T17:08:51.449+03:00,7472,1.022023,0,0,6219.038,5,20,2025-04-22T13:45:01.331+03:00,767011504.0055095,0,-20.21,100.4483,1,0.65,2025-04-22T13:42:20.228+03:00,86,1.433333333333333,2025-04-22T09:54:17.825+03:00,0.02225348692287972,0
2025-04-22T13:45:13.673+03:00,1745318711.972957,40.95229131942952,29.14028466175749,76.45007,-1,-1,-1,-1,30,31.46988262717221,-9999,34092.82589829167,-0.783843994140625,0.592681884765625,-0.1821441650390625,34092.81835829167,-0.2393262938986731,-1.335956375775768,-0.6328952158149145,0.05757396295666695,0.03218550235033035,0.168400377035141,0.01488387584686279,-0.004979729652404785,0.005750536918640137,XArbitraryZVertical,0.3128336906333714,0.5552702495124419,-0.1023072180684852,-0.7637690645387042,-0.7841861844062805,0.5914816856384277,-0.1876200586557388,0,0,0,-1,-1,34072.750615375,unknown,2,2025-04-22T13:44:53.593+03:00,2025-04-21T17:08:51.449+03:00,7472,1.022023,0,0,6219.038,5,20,2025-04-22T13:45:01.331+03:00,767011504.0055095,0,-20.21,100.4483,1,0.65,2025-04-22T13:42:20.228+03:00,86,1.433333333333333,2025-04-22T09:54:17.825+03:00,0.02225348692287972,0
2025-04-22T13:45:13.683+03:00,1745318711.972957,40.95229131942952,29.14028466175749,76.45007,-1,-1,-1,-1,30,31.46988262717221,-9999,34092.83597429167,-0.8337249755859375,0.5716400146484375,-0.18194580078125,34092.82843429167,-0.239210395686824,-1.334685086347494,-0.6336229368670565,-0.02854760177433491,0.148723840713501,0.03633049875497818,0.008198797702789307,0.001925826072692871,0.005731076002120972,XArbitraryZVertical,0.3131277803139121,0.5547007553517451,-0.1023756839094369,-0.7640532227186311,-0.7835284471511841,0.5920683145523071,-0.1885161250829697,0,0,0,-1,-1,34072.750615375,unknown,2,2025-04-22T13:44:53.593+03:00,2025-04-21T17:08:51.449+03:00,7472,1.022023,0,0,6219.038,5,20,2025-04-22T13:45:01.331+03:00,767011504.0055095,0,-20.21,100.4483,1,0.65,2025-04-22T13:42:20.228+03:00,86,1.433333333333333,2025-04-22T09:54:17.825+03:00,0.02225348692287972,0
2025-04-22T13:45:13.693+03:00,1745318711.972957,40.95229131942952,29.14028466175749,76.45007,-1,-1,-1,-1,30,31.46988262717221,-9999,34092.84605029167,-0.761627197265625,0.5868682861328125,-0.1748046875,34092.83851029167,-0.2394487429155988,-1.334284606762547,-0.6342321563247982,-0.03340068086981773,-0.01067781075835228,0.0287478119134903,-0.03177839517593384,-0.01277107000350952,0.007226765155792236,XArbitraryZVertical,0.3134331186000029,0.554424952323198,-0.1024086742409546,-0.7641236570897177,-0.7831019163131714,0.5925591588020325,-0.188745304942131,0,0,0,-1,-1,34072.750615375,unknown,2,2025-04-22T13:44:53.593+03:00,2025-04-21T17:08:51.449+03:00,7472,1.022023,0,0,6219.038,5,20,2025-04-22T13:45:01.331+03:00,767011504.0055095,0,-20.21,100.4483,1,0.65,2025-04-22T13:42:20.228+03:00,86,1.433333333333333,2025-04-22T09:54:17.825+03:00,0.02225348692287972,0
2025-04-22T13:45:13.703+03:00,1745318711.972957,40.95229131942952,29.14028466175749,76.45007,-1,-1,-1,-1,30,31.46988262717221,-9999,34092.85612729167,-0.747039794921875,0.5861358642578125,-0.176513671875,34092.84858629167,-0.2397320538732003,-1.334542272903491,-0.6345677804645424,-0.03416820243000984,0.01267118752002716,0.02410219423472881,-0.02203547954559326,-0.01635259389877319,0.008504301309585571,XArbitraryZVertical,0.3136189492545794,0.5544318556664591,-0.1024437143052406,-0.7640376564250305,-0.7829570770263672,0.5928294658660889,-0.1884969472885132,0,0,0,-1,-1,34072.750615375,unknown,2,2025-04-22T13:44:53.593+03:00,2025-04-21T17:08:51.449+03:00,7472,1.022023,0,0,6219.038,5,20,2025-04-22T13:45:01.331+03:00,767011504.0055095,0,-20.21,100.4483,1,0.65,2025-04-22T13:42:20.228+03:00,86,1.433333333333333,2025-04-22T09:54:17.825+03:00,0.02225348692287972,0
