loggingTime(txt),locationTimestamp_since1970(s),locationLatitude(WGS84),locationLongitude(WGS84),locationAltitude(m),locationSpeed(m/s),locationSpeedAccuracy(m/s),locationCourse(°),locationCourseAccuracy(°),locationVerticalAccuracy(m),locationHorizontalAccuracy(m),locationFloor(Z),accelerometerTimestamp_sinceReboot(s),accelerometerAccelerationX(G),accelerometerAccelerationY(G),accelerometerAccelerationZ(G),motionTimestamp_sinceReboot(s),motionYaw(rad),motionRoll(rad),motionPitch(rad),motionRotationRateX(rad/s),motionRotationRateY(rad/s),motionRotationRateZ(rad/s),motionUserAccelerationX(G),motionUserAccelerationY(G),motionUserAccelerationZ(G),motionAttitudeReferenceFrame(txt),motionQuaternionX(R),motionQuaternionY(R),motionQuaternionZ(R),motionQuaternionW(R),motionGravityX(G),motionGravityY(G),motionGravityZ(G),motionMagneticFieldX(µT),motionMagneticFieldY(µT),motionMagneticFieldZ(µT),motionHeading(°),motionMagneticFieldCalibrationAccuracy(Z),activityTimestamp_sinceReboot(s),activity(txt),activityActivityConfidence(Z),activityActivityStartDate(txt),pedometerStartDate(txt),pedometerNumberofSteps(N),pedometerAverageActivePace(s/m),pedometerCurrentPace(s/m),pedometerCurrentCadence(steps/s),pedometerDistance(m),pedometerFloorAscended(N),pedometerFloorDescended(N),pedometerEndDate(txt),altimeterTimestamp_sinceReboot(s),altimeterReset(bool),altimeterRelativeAltitude(m),altimeterPressure(kPa),batteryState(N),batteryLevel(R),heartRateBPMTimestamp(txt),heartRateBPM(N),heartRateBPS(R),heartRateVariabilityTimestamp(txt),heartRateVariability(ms),label
2025-04-22T13:24:23.451+03:00,1745317460.230733,40.95228371877504,29.14028565392042,76.454,-1,-1,-1,-1,30,53.00558272710916,-9999,33161.53999904167,-0.7281494140625,0.6808624267578125,-0.2763519287109375,33161.53496004167,-0.05404005067173063,-1.256031175959562,-0.7330066133682955,-0.02893354929983616,0.07061786204576492,0.1738335341215134,0.009433746337890625,-0.01065981388092041,-0.03006795048713684,XArbitraryZVertical,-0.3046909508073786,-0.5404848378011766,0.1900601268095903,0.760865778817255,-0.7066536545753479,0.6691070795059204,-0.2300791293382645,0,0,0,-1,-1,33150.93533325,unknown,2,2025-04-22T13:24:12.815+03:00,2025-04-21T17:08:51.449+03:00,7440,1.011932,0,0,6196.233,5,20,2025-04-22T13:19:21.305+03:00,767010263.2313154,0,-20.50999,100.4478,1,0.7,2025-04-22T13:24:20.142+03:00,105,1.75,2025-04-22T09:54:17.825+03:00,0.02225348692287972,0
2025-04-22T13:24:23.453+03:00,1745317460.230733,40.95228371877504,29.14028565392042,76.454,-1,-1,-1,-1,30,53.00558272710916,-9999,33161.55007504167,-0.709442138671875,0.6876068115234375,-0.271575927734375,33161.54503704167,-0.0532812627775162,-1.254564492450613,-0.7350042296396841,0.008898782543838024,0.1046674400568008,0.2294440716505051,-0.02502846717834473,0.008257865905761719,-0.04340973496437073,XArbitraryZVertical,-0.3053743382293294,-0.5398119645282745,0.1906802529549247,0.7609141817787689,-0.7050434350967407,0.6705902814865112,-0.2306991070508957,0,0,0,-1,-1,33150.93533325,unknown,2,2025-04-22T13:24:12.815+03:00,2025-04-21T17:08:51.449+03:00,7440,1.011932,0,0,6196.233,5,20,2025-04-22T13:19:21.305+03:00,767010263.2313154,0,-20.50999,100.4478,1,0.7,2025-04-22T13:24:20.142+03:00,105,1.75,2025-04-22T09:54:17.825+03:00,0.02225348692287972,0
2025-04-22T13:24:23.453+03:00,1745317460.230733,40.95228371877504,29.14028565392042,76.454,-1,-1,-1,-1,30,53.00558272710916,-9999,33161.56015204167,-0.7114105224609375,0.6858978271484375,-0.26434326171875,33161.55511404167,-0.05171864090080313,-1.252658055308918,-0.7368033119333327,0.09516729414463043,0.05099748820066452,0.1759674847126007,-0.01164770126342773,0.0134703516960144,-0.04280994832515717,XArbitraryZVertical,-0.3058095488365277,-0.5391177776141758,0.1914825208345706,0.7610301189302321,-0.70345538854599,0.671923816204071,-0.2316650897264481,0,0,0,-1,-1,33150.93533325,unknown,2,2025-04-22T13:24:12.815+03:00,2025-04-21T17:08:51.449+03:00,7440,1.011932,0,0,6196.233,5,20,2025-04-22T13:19:21.305+03:00,767010263.2313154,0,-20.50999,100.4478,1,0.7,2025-04-22T13:24:20.142+03:00,105,1.75,2025-04-22T09:54:17.825+03:00,0.02225348692287972,0
2025-04-22T13:24:23.455+03:00,1745317460.230733,40.95228371877504,29.14028565392042,76.454,-1,-1,-1,-1,30,53.00558272710916,-9999,33161.57022904167,-0.71026611328125,0.67706298828125,-0.2540130615234375,33161.56519104167,-0.04954923560626218,-1.25113023116149,-0.7376521128812613,0.1372875720262527,-0.04137931391596794,0.1046224683523178,-0.006257534027099609,0.01621419191360474,-0.03289681673049927,XArbitraryZVertical,-0.3056900037468699,-0.5387703398701985,0.1923094696092242,0.7611157243735982,-0.7025589942932129,0.672552227973938,-0.2325602918863297,0,0,0,-1,-1,33150.93533325,unknown,2,2025-04-22T13:24:12.815+03:00,2025-04-21T17:08:51.449+03:00,7440,1.011932,0,0,6196.233,5,20,2025-04-22T13:19:21.305+03:00,767010263.2313154,0,-20.50999,100.4478,1,0.7,2025-04-22T13:24:20.142+03:00,105,1.75,2025-04-22T09:54:17.825+03:00,0.02225348692287972,0
2025-04-22T13:24:23.465+03:00,1745317460.230733,40.95228371877504,29.14028565392042,76.454,-1,-1,-1,-1,30,53.00558272710916,-9999,33161.58030604167,-0.6985321044921875,0.6811370849609375,-0.2255401611328125,33161.57526804167,-0.04736419847225599,-1.25048239049881,-0.7380277654277451,0.1322150677442551,-0.1121152639389038,0.09627626091241837,-0.01084434986114502,0.006262123584747314,-0.02679930627346039,XArbitraryZVertical,-0.3053048271957679,-0.5388145038652041,0.1931458885605473,0.7610272002415384,-0.7021682262420654,0.6728301644325256,-0.2329357862472534,0,0,0,-1,-1,33150.93533325,unknown,2,2025-04-22T13:24:12.815+03:00,2025-04-21T17:08:51.449+03:00,7440,1.011932,0,0,6196.233,5,20,2025-04-22T13:19:21.305+03:00,767010263.2313154,0,-20.50999,100.4478,1,0.7,2025-04-22T13:24:20.142+03:00,105,1.75,2025-04-22T09:54:17.825+03:00,0.02225348692287972,0
2025-04-22T13:24:23.475+03:00,1745317460.230733,40.95228371877504,29.14028565392042,76.454,-1,-1,-1,-1,30,53.00558272710916,-9999,33161.59038304167,-0.7044677734375,0.6774749755859375,-0.2088165283203125,33161.58534504167,-0.04534785246425193,-1.250340437580114,-0.738383010002674,0.1126027405261993,-0.1415679752826691,0.06837564706802368,-0.0006825923919677734,0.006136655807495117,-0.003566309809684753,XArbitraryZVertical,-0.3049086617058897,-0.5390274922032467,0.1939895206044407,0.7608205718955444,-0.7019082307815552,0.6730929613113403,-0.2329601347446442,0,0,0,-1,-1,33150.93533325,unknown,2,2025-04-22T13:24:12.815+03:00,2025-04-21T17:08:51.449+03:00,7440,1.011932,0,0,6196.233,5,20,2025-04-22T13:19:21.305+03:00,767010263.2313154,0,-20.50999,100.4478,1,0.7,2025-04-22T13:24:20.142+03:00,105,1.75,2025-04-22T09:54:17.825+03:00,0.02225348692287972,0
2025-04-22T13:24:23.485+03:00,1745317460.230733,40.95228371877504,29.14028565392042,76.454,-1,-1,-1,-1,30,53.00558272710916,-9999,33161.60046004167,-0.725494384765625,0.6624298095703125,-0.1996612548828125,33161.59542204167,-0.04390605515941993,-1.250763793635358,-0.7383708436065443,0.05307483300566673,-0.155698835849762,-0.0008761945064179599,0.002750098705291748,0.008342921733856201,0.02061423659324646,XArbitraryZVertical,-0.304474243660534,-0.5394095559759039,0.1945990490563194,0.7605680495304349,-0.7020145654678345,0.6730839610099792,-0.2326655387878418,0,0,0,-1,-1,33150.93533325,unknown,2,2025-04-22T13:24:12.815+03:00,2025-04-21T17:08:51.449+03:00,7440,1.011932,0,0,6196.233,5,20,2025-04-22T13:19:21.305+03:00,767010263.2313154,0,-20.50999,100.4478,1,0.7,2025-04-22T13:24:20.142+03:00,105,1.75,2025-04-22T09:54:17.825+03:00,0.02225348692287972,0
2025-04-22T13:24:23.495+03:00,1745317460.230733,40.95228371877504,29.14028565392042,76.454,-1,-1,-1,-1,30,53.00558272710916,-9999,33161.61053704167,-0.7197265625,0.6577911376953125,-0.1851348876953125,33161.60549904167,-0.04388373066317149,-1.252248864889411,-0.7380419147372177,-0.05182228609919548,-0.1660106033086777,-0.05282967165112495,-0.01595151424407959,-0.00485682487487793,0.0281703919172287,XArbitraryZVertical,-0.3042001418375222,-0.5400150484769094,0.1947426614021075,0.7602111840559714,-0.7025694847106934,0.6728406548500061,-0.2316920459270477,0,0,0,-1,-1,33150.93533325,unknown,2,2025-04-22T13:24:12.815+03:00,2025-04-21T17:08:51.449+03:00,7440,1.011932,0,0,6196.233,5,20,2025-04-22T13:19:21.305+03:00,767010263.2313154,0,-20.50999,100.4478,1,0.7,2025-04-22T13:24:20.142+03:00,105,1.75,2025-04-22T09:54:17.825+03:00,0.02225348692287972,0
2025-04-22T13:24:23.505+03:00,1745317460.230733,40.95228371877504,29.14028565392042,76.454,-1,-1,-1,-1,30,53.00558272710916,-9999,33161.62061404167,-0.6930084228515625,0.6623992919921875,-0.189971923828125,33161.61557604167,-0.04507249906616244,-1.254715801536776,-0.7376231705408532,-0.09850457310676575,-0.1893587857484818,-0.06792952865362167,-0.0218433141708374,-0.01435822248458862,0.04021123051643372,XArbitraryZVertical,-0.3041240952554583,-0.5408194068766528,0.1945501514684344,0.759719152448473,-0.7034069299697876,0.6725307703018188,-0.230045810341835,0,0,0,-1,-1,33150.93533325,unknown,2,2025-04-22T13:24:12.815+03:00,2025-04-21T17:08:51.449+03:00,7440,1.011932,0,0,6196.233,5,20,2025-04-22T13:19:21.305+03:00,767010263.2313154,0,-20.50999,100.4478,1,0.7,2025-04-22T13:24:20.142+03:00,105,1.75,2025-04-22T09:54:17.825+03:00,0.02225348692287972,0
2025-04-22T13:24:23.518+03:00,1745317460.230733,40.95228371877504,29.14028565392042,76.454,-1,-1,-1,-1,30,53.00558272710916,-9999,33161.63069104167,-0.679962158203125,0.6726531982421875,-0.215972900390625,33161.62565304167,-0.04631527237081468,-1.257364813132026,-0.7372587640818496,-0.06823801249265671,-0.1860082745552063,-0.04537149146199226,0.001182973384857178,-0.01138764619827271,0.04321387410163879,XArbitraryZVertical,-0.3040662386806147,-0.5416780528929128,0.1943799699080242,0.7591739532846984,-0.7042469382286072,0.6722610592842102,-0.2282572239637375,0,0,0,-1,-1,33150.93533325,unknown,2,2025-04-22T13:24:12.815+03:00,2025-04-21T17:08:51.449+03:00,7440,1.011932,0,0,6196.233,5,20,2025-04-22T13:19:21.305+03:00,767010263.2313154,0,-20.50999,100.4478,1,0.7,2025-04-22T13:24:20.142+03:00,105,1.75,2025-04-22T09:54:17.825+03:00,0.02225348692287972,0
2025-04-22T13:24:23.525+03:00,1745317460.230733,40.95228371877504,29.14028565392042,76.454,-1,-1,-1,-1,30,53.00558272710916,-9999,33161.64076804167,-0.6927337646484375,0.6873626708984375,-0.2342376708984375,33161.63573004167,-0.04679683710532974,-1.259370085835575,-0.7369412073287098,-0.005146262235939503,-0.167444571852684,-0.04148786887526512,0.02373862266540527,-0.005018651485443115,0.02112987637519836,XArbitraryZVertical,-0.3038829283187165,-0.5424022797687333,0.194413880262461,0.7587212571501666,-0.704906165599823,0.6720259189605713,-0.2269098609685898,0,0,0,-1,-1,33150.93533325,unknown,2,2025-04-22T13:24:12.815+03:00,2025-04-21T17:08:51.449+03:00,7440,1.011932,0,0,6196.233,5,20,2025-04-22T13:19:21.305+03:00,767010263.2313154,0,-20.50999,100.4478,1,0.7,2025-04-22T13:24:20.142+03:00,105,1.75,2025-04-22T09:54:17.825+03:00,0.02225348692287972,0
2025-04-22T13:24:23.535+03:00,1745317460.230733,40.95228371877504,29.14028565392042,76.454,-1,-1,-1,-1,30,53.00558272710916,-9999,33161.65084504167,-0.7099456787109375,0.689727783203125,-0.2364044189453125,33161.64580704167,-0.04646470178777536,-1.260563859995846,-0.7365290548434558,0.05809422582387924,-0.1363359242677689,-0.02347025275230408,0.02021396160125732,0.01033186912536621,-0.00373607873916626,XArbitraryZVertical,-0.3035224086737254,-0.5429528078883957,0.1946064507684712,0.7584224760193883,-0.7054404020309448,0.6717206835746765,-0.2261527925729752,0,0,0,-1,-1,33150.93533325,unknown,2,2025-04-22T13:24:12.815+03:00,2025-04-21T17:08:51.449+03:00,7440,1.011932,0,0,6196.233,5,20,2025-04-22T13:19:21.305+03:00,767010263.2313154,0,-20.50999,100.4478,1,0.7,2025-04-22T13:24:20.142+03:00,105,1.75,2025-04-22T09:54:17.825+03:00,0.02225348692287972,0
2025-04-22T13:24:23.545+03:00,1745317460.230733,40.95228371877504,29.14028565392042,76.454,-1,-1,-1,-1,30,53.00558272710916,-9999,33161.66092204167,-0.714019775390625,0.6817474365234375,-0.22283935546875,33161.65588404167,-0.04551591939134119,-1.261204595459839,-0.7360274338020153,0.08436950296163559,-0.1335089802742004,-0.03260742500424385,0.001560211181640625,0.01862281560897827,-0.01115033030509949,XArbitraryZVertical,-0.3030145973583008,-0.5433971747841354,0.1949238107917876,0.7582256620535089,-0.7059058547019958,0.6713489890098572,-0.225803330540657,0,0,0,-1,-1,33150.93533325,unknown,2,2025-04-22T13:24:12.815+03:00,2025-04-21T17:08:51.449+03:00,7440,1.011932,0,0,6196.233,5,20,2025-04-22T13:19:21.305+03:00,767010263.2313154,0,-20.50999,100.4478,1,0.7,2025-04-22T13:24:20.142+03:00,105,1.75,2025-04-22T09:54:17.825+03:00,0.02225348692287972,0
2025-04-22T13:24:23.555+03:00,1745317460.230733,40.95228371877504,29.14028565392042,76.454,-1,-1,-1,-1,30,53.00558272710916,-9999,33161.67099904167,-0.711090087890625,0.6663360595703125,-0.204864501953125,33161.66596104167,-0.04455210459529693,-1.261910877352268,-0.7354238723008413,0.08228824287652969,-0.1373742818832397,-0.0410885289311409,-0.007293820381164551,0.0146300196647644,-0.003545463085174561,XArbitraryZVertical,-0.3024578030322987,-0.5438798795406472,0.1952279915948714,0.7580237295832049,-0.7064512372016907,0.6709015369415283,-0.2254279106855392,0,0,0,-1,-1,33150.93533325,unknown,2,2025-04-22T13:24:12.815+03:00,2025-04-21T17:08:51.449+03:00,7440,1.011932,0,0,6196.233,5,20,2025-04-22T13:19:21.305+03:00,767010263.2313154,0,-20.50999,100.4478,1,0.7,2025-04-22T13:24:20.142+03:00,105,1.75,2025-04-22T09:54:17.825+03:00,0.02225348692287972,0
2025-04-22T13:24:23.565+03:00,1745317460.230733,40.95228371877504,29.14028565392042,76.454,-1,-1,-1,-1,30,53.00558272710916,-9999,33161.68107604167,-0.70745849609375,0.6530914306640625,-0.1897430419921875,33161.67603804167,-0.04382770121654565,-1.262755529896124,-0.7349032563848602,0.06010983884334564,-0.1189075261354446,-0.03073235973715782,-0.0048179030418396,0.001649439334869385,0.01392322778701782,XArbitraryZVertical,-0.3019833729359382,-0.5443689583870588,0.1954851991061387,0.7577954246724169,-0.7069740295410156,0.6705153584480286,-0.2249369621276855,0,0,0,-1,-1,33150.93533325,unknown,2,2025-04-22T13:24:12.815+03:00,2025-04-21T17:08:51.449+03:00,7440,1.011932,0,0,6196.233,5,20,2025-04-22T13:19:21.305+03:00,767010263.2313154,0,-20.50999,100.4478,1,0.7,2025-04-22T13:24:20.142+03:00,105,1.75,2025-04-22T09:54:17.825+03:00,0.02225348692287972,0
2025-04-22T13:24:23.575+03:00,1745317460.230733,40.95228371877504,29.14028565392042,76.454,-1,-1,-1,-1,30,53.00558272710916,-9999,33161.69115304167,-0.7087249755859375,0.6536865234375,-0.1900177001953125,33161.68611504167,-0.04307754270899187,-1.263402950788332,-0.7344867652491659,0.09261611104011536,-0.09772633761167526,-0.006548994220793247,-0.001018881797790527,-0.01299518346786499,0.02981580793857574,XArbitraryZVertical,-0.301559926420674,-0.5447749794272423,0.1957510721530886,0.7576035828539747,-0.7073855996131897,0.6702063083648682,-0.2245636582374573,0,0,0,-1,-1,33150.93533325,unknown,2,2025-04-22T13:24:12.815+03:00,2025-04-21T17:08:51.449+03:00,7440,1.011932,0,0,6196.233,5,20,2025-04-22T13:19:21.305+03:00,767010263.2313154,0,-20.50999,100.4478,1,0.7,2025-04-22T13:24:20.142+03:00,105,1.75,2025-04-22T09:54:17.825+03:00,0.02225348692287972,0
2025-04-22T13:24:23.586+03:00,1745317460.230733,40.95228371877504,29.14028565392042,76.454,-1,-1,-1,-1,30,53.00558272710916,-9999,33161.70123004167,-0.7193603515625,0.666015625,-0.2056732177734375,33161.69619204167,-0.04166078351909847,-1.26335509051886,-0.7341015652355725,0.1378741562366486,-0.06082585081458092,0.007822621613740921,0.0007117986679077148,-0.01792764663696289,0.03725200891494751,XArbitraryZVertical,-0.3010344404326916,-0.545014165272096,0.1961731753125746,0.757531395919978,-0.7076209187507629,0.6699203848838806,-0.2246756553649902,0,0,0,-1,-1,33150.93533325,unknown,2,2025-04-22T13:24:12.815+03:00,2025-04-21T17:08:51.449+03:00,7440,1.011932,0,0,6196.233,5,20,2025-04-22T13:19:21.305+03:00,767010263.2313154,0,-20.50999,100.4478,1,0.7,2025-04-22T13:24:20.142+03:00,105,1.75,2025-04-22T09:54:17.825+03:00,0.02225348692287972,0
2025-04-22T13:24:23.596+03:00,1745317460.230733,40.95228371877504,29.14028565392042,76.454,-1,-1,-1,-1,30,53.00558272710916,-9999,33161.71130704167,-0.7198333740234375,0.683929443359375,-0.219635009765625,33161.70626904167,-0.03967040696747536,-1.262563337710628,-0.7337314323299028,0.1901711821556091,-0.03378890454769135,0.01225119177252054,-0.007973253726959229,-0.009764015674591064,0.02633649110794067,XArbitraryZVertical,-0.3004311776855492,-0.5450555591454899,0.1967049570888386,0.7576032829971994,-0.7076791524887085,0.6696455478668213,-0.2253110855817795,0,0,0,-1,-1,33150.93533325,unknown,2,2025-04-22T13:24:12.815+03:00,2025-04-21T17:08:51.449+03:00,7440,1.011932,0,0,6196.233,5,20,2025-04-22T13:19:21.305+03:00,767010263.2313154,0,-20.50999,100.4478,1,0.7,2025-04-22T13:24:20.142+03:00,105,1.75,2025-04-22T09:54:17.825+03:00,0.02225348692287972,0
2025-04-22T13:24:23.606+03:00,1745317460.230733,40.95228371877504,29.14028565392042,76.454,-1,-1,-1,-1,30,53.00558272710916,-9999,33161.72138404167,-0.7090606689453125,0.692169189453125,-0.2186737060546875,33161.71634604167,-0.0369880012804651,-1.261106665820268,-0.7333266409944951,0.2159944474697113,-0.02061937376856804,0.0169212780892849,-0.01451396942138672,0.008404672145843506,0.01051241159439087,XArbitraryZVertical,-0.2996920303807878,-0.5449518872723954,0.1973901308489706,0.7577922891920968,-0.707608163356781,0.6693448424339294,-0.2264242619276047,0,0,0,-1,-1,33150.93533325,unknown,2,2025-04-22T13:24:12.815+03:00,2025-04-21T17:08:51.449+03:00,7440,1.011932,0,0,6196.233,5,20,2025-04-22T13:19:21.305+03:00,767010263.2313154,0,-20.50999,100.4478,1,0.7,2025-04-22T13:24:20.142+03:00,105,1.75,2025-04-22T09:54:17.825+03:00,0.02225348692287972,0
2025-04-22T13:24:23.616+03:00,1745317460.230733,40.95228371877504,29.14028565392042,76.454,-1,-1,-1,-1,30,53.00558272710916,-9999,33161.73146104167,-0.6944122314453125,0.691986083984375,-0.21142578125,33161.72642304167,-0.03410451479120929,-1.259315012350157,-0.7330260342511944,0.2032791823148727,-0.02054187655448914,0.01721129566431046,-0.00609278678894043,0.02179634571075439,0.007630065083503723,XArbitraryZVertical,-0.2989708772706237,-0.544738244593154,0.1981312766130157,0.7580372678790207,-0.7073928117752075,0.6691215038299561,-0.2277533113956451,0,0,0,-1,-1,33150.93533325,unknown,2,2025-04-22T13:24:12.815+03:00,2025-04-21T17:08:51.449+03:00,7440,1.011932,0,0,6196.233,5,20,2025-04-22T13:19:21.305+03:00,767010263.2313154,0,-20.50999,100.4478,1,0.7,2025-04-22T13:24:20.142+03:00,105,1.75,2025-04-22T09:54:17.825+03:00,0.02225348692287972,0
2025-04-22T13:24:23.626+03:00,1745317460.230733,40.95228371877504,29.14028565392042,76.454,-1,-1,-1,-1,30,53.00558272710916,-9999,33161.74153804167,-0.691375732421875,0.682769775390625,-0.2070770263671875,33161.73650004167,-0.03155302100100252,-1.257807053204104,-0.7326860149739831,0.1790707111358643,-0.03174426406621933,0.01035641971975565,0.008626163005828857,0.02420055866241455,0.0151752382516861,XArbitraryZVertical,-0.2982979445393613,-0.5445855581794886,0.1987790991385109,0.7582424410567471,-0.7072649598121643,0.6688687801361084,-0.2288898080587387,0,0,0,-1,-1,33150.93533325,unknown,2,2025-04-22T13:24:12.815+03:00,2025-04-21T17:08:51.449+03:00,7440,1.011932,0,0,6196.233,5,20,2025-04-22T13:19:21.305+03:00,767010263.2313154,0,-20.50999,100.4478,1,0.7,2025-04-22T13:24:20.142+03:00,105,1.75,2025-04-22T09:54:17.825+03:00,0.02225348692287972,0
2025-04-22T13:24:23.636+03:00,1745317460.230733,40.95228371877504,29.14028565392042,76.454,-1,-1,-1,-1,30,53.00558272710916,-9999,33161.75161504167,-0.700042724609375,0.667144775390625,-0.208221435546875,33161.74657704167,-0.02942393182318772,-1.256652436724251,-0.7323756068181896,0.1425252109766006,-0.01454503647983074,0.02194809541106224,0.01631027460098267,0.01825153827667236,0.02180846035480499,XArbitraryZVertical,-0.2977164728553591,-0.5444994859459626,0.1993284329822768,0.7583885602147283,-0.7071976661682129,0.6686379909515381,-0.2297704219818115,0,0,0,-1,-1,33150.93533325,unknown,2,2025-04-22T13:24:12.815+03:00,2025-04-21T17:08:51.449+03:00,7440,1.011932,0,0,6196.233,5,20,2025-04-22T13:19:21.305+03:00,767010263.2313154,0,-20.50999,100.4478,1,0.7,2025-04-22T13:24:20.142+03:00,105,1.75,2025-04-22T09:54:17.825+03:00,0.02225348692287972,0
2025-04-22T13:24:23.646+03:00,1745317460.230733,40.95228371877504,29.14028565392042,76.454,-1,-1,-1,-1,30,53.00558272710916,-9999,33161.76169204167,-0.71795654296875,0.660247802734375,-0.212860107421875,33161.75665404167,-0.02782150709140008,-1.25568821740645,-0.7322424998403771,0.1170852407813072,0.01123449578881264,0.02570255286991596,0.01138174533843994,0.004388689994812012,0.02337230741977692,XArbitraryZVertical,-0.2973263822845742,-0.5443869270382956,0.1997558863627673,0.7585099253013972,-0.7070603966712952,0.6685389876365662,-0.2304797917604446,0,0,0,-1,-1,33150.93533325,unknown,2,2025-04-22T13:24:12.815+03:00,2025-04-21T17:08:51.449+03:00,7440,1.011932,0,0,6196.233,5,20,2025-04-22T13:19:21.305+03:00,767010263.2313154,0,-20.50999,100.4478,1,0.7,2025-04-22T13:24:20.142+03:00,105,1.75,2025-04-22T09:54:17.825+03:00,0.02225348692287972,0
2025-04-22T13:24:23.656+03:00,1745317460.230733,40.95228371877504,29.14028565392042,76.454,-1,-1,-1,-1,30,53.00558272710916,-9999,33161.77176904167,-0.731842041015625,0.6604766845703125,-0.2268218994140625,33161.76673104167,-0.02651796882725498,-1.254799943696702,-0.732020714892717,0.1037092506885529,0.03811990469694138,0.009573649615049362,-0.003467977046966553,-0.007180213928222656,0.02071991562843323,XArbitraryZVertical,-0.2969768890798156,-0.5442681093919416,0.2000570262424179,0.7586528702459111,-0.7069965004920959,0.6683740615844727,-0.2311539053916931,0,0,0,-1,-1,33150.93533325,unknown,2,2025-04-22T13:24:12.815+03:00,2025-04-21T17:08:51.449+03:00,7440,1.011932,0,0,6196.233,5,20,2025-04-22T13:19:21.305+03:00,767010263.2313154,0,-20.50999,100.4478,1,0.7,2025-04-22T13:24:20.142+03:00,105,1.75,2025-04-22T09:54:17.825+03:00,0.02225348692287972,0
2025-04-22T13:24:23.666+03:00,1745317460.230733,40.95228371877504,29.14028565392042,76.454,-1,-1,-1,-1,30,53.00558272710916,-9999,33161.78184604167,-0.7303314208984375,0.66357421875,-0.2379608154296875,33161.77680704167,-0.02554361980137628,-1.253762069841036,-0.7318223114092287,0.08211534470319748,0.08226692676544189,0.01381809636950493,-0.02062636613845825,-0.007536232471466064,0.01143938302993774,XArbitraryZVertical,-0.2967409233612786,-0.5440407922612167,0.2002179020018423,0.758865763490942,-0.7068821787834167,0.6682264804840088,-0.2319288849830627,0,0,0,-1,-1,33150.93533325,unknown,2,2025-04-22T13:24:12.815+03:00,2025-04-21T17:08:51.449+03:00,7440,1.011932,0,0,6196.233,5,20,2025-04-22T13:19:21.305+03:00,767010263.2313154,0,-20.50999,100.4478,1,0.7,2025-04-22T13:24:20.142+03:00,105,1.75,2025-04-22T09:54:17.825+03:00,0.02225348692287972,0
2025-04-22T13:24:23.676+03:00,1745317460.230733,40.95228371877504,29.14028565392042,76.454,-1,-1,-1,-1,30,53.00558272710916,-9999,33161.79192304167,-0.713897705078125,0.6694183349609375,-0.2383575439453125,33161.78688504167,-0.02464092979621846,-1.252360725168124,-0.7317487385579824,0.08227619528770447,0.1106751337647438,0.03025699034333229,-0.02592557668685913,-0.007100045680999756,-0.002157509326934814,XArbitraryZVertical,-0.2966080647716269,-0.5436509450807422,0.200332353883509,0.7591667866242371,-0.7066031098365784,0.6681717038154602,-0.2329346090555191,0,0,0,-1,-1,33150.93533325,unknown,2,2025-04-22T13:24:12.815+03:00,2025-04-21T17:08:51.449+03:00,7440,1.011932,0,0,6196.233,5,20,2025-04-22T13:19:21.305+03:00,767010263.2313154,0,-20.50999,100.4478,1,0.7,2025-04-22T13:24:20.142+03:00,105,1.75,2025-04-22T09:54:17.825+03:00,0.02225348692287972,0
2025-04-22T13:24:23.686+03:00,1745317460.230733,40.95228371877504,29.14028565392042,76.454,-1,-1,-1,-1,30,53.00558272710916,-9999,33161.80200004167,-0.698455810546875,0.6700439453125,-0.234039306640625,33161.79696104167,-0.02358455038078916,-1.250557117009366,-0.7318186059190551,0.07029683142900467,0.1311695426702499,0.03587709367275238,-0.01479446887969971,5.018711090087891e-05,-0.005384236574172974,XArbitraryZVertical,-0.2965281330894838,-0.5431151586891567,0.2004852068571491,0.7595410855125551,-0.7061375379562378,0.6682237386703491,-0.2341939806938171,0,0,0,-1,-1,33150.93533325,unknown,2,2025-04-22T13:24:12.815+03:00,2025-04-21T17:08:51.449+03:00,7440,1.011932,0,0,6196.233,5,20,2025-04-22T13:19:21.305+03:00,767010263.2313154,0,-20.50999,100.4478,1,0.7,2025-04-22T13:24:20.142+03:00,105,1.75,2025-04-22T09:54:17.825+03:00,0.02225348692287972,0
2025-04-22T13:24:23.696+03:00,1745317460.230733,40.95228371877504,29.14028565392042,76.454,-1,-1,-1,-1,30,53.00558272710916,-9999,33161.81207704167,-0.6884613037109375,0.6715545654296875,-0.225677490234375,33161.80703804167,-0.02291084137973875,-1.248720918683978,-0.7321939081560637,0.02313704043626785,0.1609828323125839,0.04922112822532654,0.002129673957824707,0.001052677631378174,-0.0003985464572906494,XArbitraryZVertical,-0.2966710600666072,-0.5424766509442761,0.2005720042451665,0.7599184339364937,-0.7054681777954102,0.6685028672218323,-0.2354107350111008,0,0,0,-1,-1,33150.93533325,unknown,2,2025-04-22T13:24:12.815+03:00,2025-04-21T17:08:51.449+03:00,7440,1.011932,0,0,6196.233,5,20,2025-04-22T13:19:21.305+03:00,767010263.2313154,0,-20.50999,100.4478,1,0.7,2025-04-22T13:24:20.142+03:00,105,1.75,2025-04-22T09:54:17.825+03:00,0.02225348692287972,0
2025-04-22T13:24:23.707+03:00,1745317460.230733,40.95228371877504,29.14028565392042,76.454,-1,-1,-1,-1,30,53.00558272710916,-9999,33161.82215404167,-0.6898345947265625,0.6739044189453125,-0.222900390625,33161.81711504167,-0.02273709778576518,-1.247080302580311,-0.7328397144933871,-0.007107813376933336,0.1579163372516632,0.04767296463251114,0.01361644268035889,0.001335501670837402,0.007258713245391846,XArbitraryZVertical,-0.2970323781112007,-0.5418085717765909,0.2005716893956403,0.7602539959316313,-0.7046716809272766,0.6689830422401428,-0.2364304810762405,0,0,0,-1,-1,33150.93533325,unknown,2,2025-04-22T13:24:12.815+03:00,2025-04-21T17:08:51.449+03:00,7440,1.011932,0,0,6196.233,5,20,2025-04-22T13:19:21.305+03:00,767010263.2313154,0,-20.50999,100.4478,1,0.7,2025-04-22T13:24:20.142+03:00,105,1.75,2025-04-22T09:54:17.825+03:00,0.02225348692287972,0
2025-04-22T13:24:23.717+03:00,1745317460.230733,40.95228371877504,29.14028565392042,76.454,-1,-1,-1,-1,30,53.00558272710916,-9999,33161.83223104167,-0.690704345703125,0.66796875,-0.2341461181640625,33161.82719204167,-0.0230487227855936,-1.245943639848051,-0.7335429045242351,-0.05028404667973518,0.1328040659427643,0.04221188649535179,0.01648706197738647,0.004200398921966553,0.0142722874879837,XArbitraryZVertical,-0.2974963831456264,-0.5412535113745137,0.2004770282746286,0.7604928337673127,-0.7039564251899719,0.6695055365562439,-0.2370810806751251,0,0,0,-1,-1,33150.93533325,unknown,2,2025-04-22T13:24:12.815+03:00,2025-04-21T17:08:51.449+03:00,7440,1.011932,0,0,6196.233,5,20,2025-04-22T13:19:21.305+03:00,767010263.2313154,0,-20.50999,100.4478,1,0.7,2025-04-22T13:24:20.142+03:00,105,1.75,2025-04-22T09:54:17.825+03:00,0.02225348692287972,0
2025-04-22T13:24:23.727+03:00,1745317460.230733,40.95228371877504,29.14028565392042,76.454,-1,-1,-1,-1,30,53.00558272710916,-9999,33161.84230804167,-0.6909942626953125,0.662139892578125,-0.236785888671875,33161.83726904167,-0.02391434531672033,-1.245564260753569,-0.7342877436830464,-0.09301552921533585,0.08590074628591537,0.04049507901072502,0.01212489604949951,0.001175463199615479,0.007376134395599365,XArbitraryZVertical,-0.2980499835841335,-0.5408991051929677,0.200295420821681,0.7605760931429848,-0.7033937573432922,0.6700586080551147,-0.2371887266635895,0,0,0,-1,-1,33150.93533325,unknown,2,2025-04-22T13:24:12.815+03:00,2025-04-21T17:08:51.449+03:00,7440,1.011932,0,0,6196.233,5,20,2025-04-22T13:19:21.305+03:00,767010263.2313154,0,-20.50999,100.4478,1,0.7,2025-04-22T13:24:20.142+03:00,105,1.75,2025-04-22T09:54:17.825+03:00,0.02225348692287972,0
2025-04-22T13:24:23.737+03:00,1745317460.230733,40.95228371877504,29.14028565392042,76.454,-1,-1,-1,-1,30,53.00558272710916,-9999,33161.85238504167,-0.7025604248046875,0.661285400390625,-0.23541259765625,33161.84734604167,-0.0257911771918427,-1.246274900752705,-0.7349305303469682,-0.1896741688251495,0.05517984926700592,0.004989550914615393,0.01316666603088379,-0.006946265697479248,-0.0004632920026779175,XArbitraryZVertical,-0.2987291987357024,-0.5408189659711061,0.199863916622886,0.7604801066850135,-0.7031537294387817,0.6705356240272522,-0.2365514189004898,0,0,0,-1,-1,33150.93533325,unknown,2,2025-04-22T13:24:12.815+03:00,2025-04-21T17:08:51.449+03:00,7440,1.011932,0,0,6196.233,5,20,2025-04-22T13:19:21.305+03:00,767010263.2313154,0,-20.50999,100.4478,1,0.7,2025-04-22T13:24:20.142+03:00,105,1.75,2025-04-22T09:54:17.825+03:00,0.02225348692287972,0
2025-04-22T13:24:23.747+03:00,1745317460.230733,40.95228371877504,29.14028565392042,76.454,-1,-1,-1,-1,30,53.00558272710916,-9999,33161.86246204167,-0.7102813720703125,0.6588897705078125,-0.2407684326171875,33161.85742304167,-0.02909177970879446,-1.24828545032816,-0.7352770945805063,-0.2810315787792206,0.005409296602010727,-0.06627468019723892,0.006142020225524902,-0.009797215461730957,-0.0005320608615875244,XArbitraryZVertical,-0.29955216238586,-0.5410514724594484,0.1990048936571243,0.7602163544158652,-0.7034076452255249,0.6707926988601685,-0.2350636124610901,0,0,0,-1,-1,33150.93533325,unknown,2,2025-04-22T13:24:12.815+03:00,2025-04-21T17:08:51.449+03:00,7440,1.011932,0,0,6196.233,5,20,2025-04-22T13:19:21.305+03:00,767010263.2313154,0,-20.50999,100.4478,1,0.7,2025-04-22T13:24:20.142+03:00,105,1.75,2025-04-22T09:54:17.825+03:00,0.02225348692287972,0
2025-04-22T13:24:23.757+03:00,1745317460.230733,40.95228371877504,29.14028565392042,76.454,-1,-1,-1,-1,30,53.00558272710916,-9999,33161.87253904167,-0.7037811279296875,0.6548309326171875,-0.2456512451171875,33161.86750004167,-0.03376431479582171,-1.251662648204882,-0.735214308140349,-0.3650838732719421,-0.03993980959057808,-0.1221107766032219,-0.00428926944732666,-0.01091039180755615,-0.005703389644622803,XArbitraryZVertical,-0.3004583004926919,-0.5416409003682686,0.1977186997613512,0.7597744025395756,-0.7042373418807983,0.6707461476325989,-0.2326998859643936,0,0,0,-1,-1,33150.93533325,unknown,2,2025-04-22T13:24:12.815+03:00,2025-04-21T17:08:51.449+03:00,7440,1.011932,0,0,6196.233,5,20,2025-04-22T13:19:21.305+03:00,767010263.2313154,0,-20.50999,100.4478,1,0.7,2025-04-22T13:24:20.142+03:00,105,1.75,2025-04-22T09:54:17.825+03:00,0.02225348692287972,0
2025-04-22T13:24:23.767+03:00,1745317460.230733,40.95228371877504,29.14028565392042,76.454,-1,-1,-1,-1,30,53.00558272710916,-9999,33161.88261604167,-0.6891632080078125,0.651702880859375,-0.2581329345703125,33161.87757704167,-0.03925668982941541,-1.25589824009105,-0.7351067508857945,-0.3959903120994568,-0.07093387842178345,-0.1319395452737808,-0.002768218517303467,-0.0140044093132019,-0.01306051015853882,XArbitraryZVertical,-0.3014892401466283,-0.5424348599378211,0.1962406763909418,0.7591826080754712,-0.7052853107452393,0.6706663370132446,-0.2297373265028,0,0,0,-1,-1,33150.93533325,unknown,2,2025-04-22T13:24:12.815+03:00,2025-04-21T17:08:51.449+03:00,7440,1.011932,0,0,6196.233,5,20,2025-04-22T13:19:21.305+03:00,767010263.2313154,0,-20.50999,100.4478,1,0.7,2025-04-22T13:24:20.142+03:00,105,1.75,2025-04-22T09:54:17.825+03:00,0.02225348692287972,0
2025-04-22T13:24:23.777+03:00,1745317460.230733,40.95228371877504,29.14028565392042,76.454,-1,-1,-1,-1,30,53.00558272710916,-9999,33161.89269304167,-0.684326171875,0.65826416015625,-0.26739501953125,33161.88765404167,-0.04501769599775332,-1.260514631382813,-0.7351003282729202,-0.4114425182342529,-0.08251889795064926,-0.1272883266210556,0.01238799095153809,-0.01891297101974487,-0.02632725238800049,XArbitraryZVertical,-0.3025993496963804,-0.5433171017441595,0.1947502393109801,0.758493546249888,-0.7063424587249756,0.6706615686416626,-0.2264803200960159,0,0,0,-1,-1,33150.93533325,unknown,2,2025-04-22T13:24:12.815+03:00,2025-04-21T17:08:51.449+03:00,7440,1.011932,0,0,6196.233,5,20,2025-04-22T13:19:21.305+03:00,767010263.2313154,0,-20.50999,100.4478,1,0.7,2025-04-22T13:24:20.142+03:00,105,1.75,2025-04-22T09:54:17.825+03:00,0.02225348692287972,0
2025-04-22T13:24:23.788+03:00,1745317460.230733,40.95228371877504,29.14028565392042,76.454,-1,-1,-1,-1,30,53.00558272710916,-9999,33161.90277004167,-0.68914794921875,0.6693267822265625,-0.2730255126953125,33161.89773104167,-0.0503823444412333,-1.264814002915737,-0.7353528958104888,-0.3469286561012268,-0.06470008194446564,-0.07372570037841797,0.02305072546005249,-0.0157586932182312,-0.0423261970281601,XArbitraryZVertical,-0.3037349946149331,-0.5441046658327039,0.1934387983007443,0.7578102714310267,-0.7071479558944702,0.6708489060401917,-0.2233903259038925,0,0,0,-1,-1,33150.93533325,unknown,2,2025-04-22T13:24:12.815+03:00,2025-04-21T17:08:51.449+03:00,7440,1.011932,0,0,6196.233,5,20,2025-04-22T13:19:21.305+03:00,767010263.2313154,0,-20.50999,100.4478,1,0.7,2025-04-22T13:24:20.142+03:00,105,1.75,2025-04-22T09:54:17.825+03:00,0.02225348692287972,0
2025-04-22T13:24:23.798+03:00,1745317460.230733,40.95228371877504,29.14028565392042,76.454,-1,-1,-1,-1,30,53.00558272710916,-9999,33161.91284704167,-0.703033447265625,0.684539794921875,-0.274810791015625,33161.90780804167,-0.05339445610298535,-1.266985170039364,-0.7361076572198874,-0.1582348793745041,0.03558817133307457,0.0606084056198597,0.02117395401000977,-0.006659448146820068,-0.04910998046398163,XArbitraryZVertical,-0.3046267242208059,-0.5443813767012693,0.1928390564485052,0.7574063920435232,-0.707148015499115,0.6714084148406982,-0.2217029482126236,0,0,0,-1,-1,33150.93533325,unknown,2,2025-04-22T13:24:12.815+03:00,2025-04-21T17:08:51.449+03:00,7440,1.011932,0,0,6196.233,5,20,2025-04-22T13:19:21.305+03:00,767010263.2313154,0,-20.50999,100.4478,1,0.7,2025-04-22T13:24:20.142+03:00,105,1.75,2025-04-22T09:54:17.825+03:00,0.02225348692287972,0
2025-04-22T13:24:23.808+03:00,1745317460.230733,40.95228371877504,29.14028565392042,76.454,-1,-1,-1,-1,30,53.00558272710916,-9999,33161.92292404167,-0.7362060546875,0.700531005859375,-0.2557220458984375,33161.91788504167,-0.05569808371689879,-1.267191402387208,-0.7376873743427722,-0.2843343615531921,0.192762479186058,0.09747380763292313,0.009693324565887451,0.00550687313079834,-0.05375413596630096,XArbitraryZVertical,-0.3058226650914898,-0.5439233713200379,0.1924404934178565,0.757354829528566,-0.7061806321144104,0.6725783348083496,-0.2212397307157516,0,0,0,-1,-1,33150.93533325,unknown,2,2025-04-22T13:24:12.815+03:00,2025-04-21T17:08:51.449+03:00,7440,1.011932,0,0,6196.233,5,20,2025-04-22T13:19:21.305+03:00,767010263.2313154,0,-20.50999,100.4478,1,0.7,2025-04-22T13:24:20.142+03:00,105,1.75,2025-04-22T09:54:17.825+03:00,0.02225348692287972,0
2025-04-22T13:24:23.818+03:00,1745317460.230733,40.95228371877504,29.14028565392042,76.454,-1,-1,-1,-1,30,53.00558272710916,-9999,33161.93300104167,-0.7578887939453125,0.6853790283203125,-0.2089996337890625,33161.92796204167,-0.05946558908426301,-1.26790117642588,-0.7396827594071557,-0.365302175283432,0.1537506282329559,0.1255829483270645,-0.0166395902633667,0.0205875039100647,-0.04672154784202576,XArbitraryZVertical,-0.3075218661096489,-0.5433796274838633,0.1916817861883849,0.7572496490102695,-0.7050553560256958,0.6740536093711853,-0.220337763428688,0,0,0,-1,-1,33150.93533325,unknown,2,2025-04-22T13:24:12.815+03:00,2025-04-21T17:08:51.449+03:00,7440,1.011932,0,0,6196.233,5,20,2025-04-22T13:19:21.305+03:00,767010263.2313154,0,-20.50999,100.4478,1,0.7,2025-04-22T13:24:20.142+03:00,105,1.75,2025-04-22T09:54:17.825+03:00,0.02225348692287972,0
2025-04-22T13:24:23.828+03:00,1745317460.230733,40.95228371877504,29.14028565392042,76.454,-1,-1,-1,-1,30,53.00558272710916,-9999,33161.94307804167,-0.71575927734375,0.6486663818359375,-0.2112274169921875,33161.93803904167,-0.06339192564906143,-1.269234592945137,-0.7415023408703186,-0.2521354258060455,0.07233194261789322,0.02370638027787209,-0.05204939842224121,0.0215790867805481,-0.005988568067550659,XArbitraryZVertical,-0.3091376144610803,-0.5430631158653999,0.1909114982020449,0.757013339260685,-0.7041761875152588,0.6753965616226196,-0.2190327793359756,0,0,0,-1,-1,33150.93533325,unknown,2,2025-04-22T13:24:12.815+03:00,2025-04-21T17:08:51.449+03:00,7440,1.011932,0,0,6196.233,5,20,2025-04-22T13:19:21.305+03:00,767010263.2313154,0,-20.50999,100.4478,1,0.7,2025-04-22T13:24:20.142+03:00,105,1.75,2025-04-22T09:54:17.825+03:00,0.02225348692287972,0
2025-04-22T13:24:23.838+03:00,1745317460.230733,40.95228371877504,29.14028565392042,76.454,-1,-1,-1,-1,30,53.00558272710916,-9999,33161.95315504167,-0.678436279296875,0.6423492431640625,-0.2229461669921875,33161.94811604167,-0.06644388567388733,-1.271547358416738,-0.7417895878328635,-0.227527529001236,-0.1093265414237976,-0.06921078264713287,-0.03088659048080444,-0.01542168855667114,0.0140230655670166,XArbitraryZVertical,-0.3098529413940558,-0.5434316513568903,0.1901952396391162,0.7566366113888645,-0.7044954299926758,0.6756083965301514,-0.2173463851213455,0,0,0,-1,-1,33150.93533325,unknown,2,2025-04-22T13:24:12.815+03:00,2025-04-21T17:08:51.449+03:00,7440,1.011932,0,0,6196.233,5,20,2025-04-22T13:19:21.305+03:00,767010263.2313154,0,-20.50999,100.4478,1,0.7,2025-04-22T13:24:20.142+03:00,105,1.75,2025-04-22T09:54:17.825+03:00,0.02225348692287972,0
2025-04-22T13:24:23.848+03:00,1745317460.230733,40.95228371877504,29.14028565392042,76.454,-1,-1,-1,-1,30,53.00558272710916,-9999,33161.96323204167,-0.656005859375,0.684539794921875,-0.214691162109375,33161.95819304167,-0.06917810295693776,-1.274575822840405,-0.7421058363093732,-0.150917187333107,-0.1090740710496902,0.01203654147684574,0.01512670516967773,-0.03614741563796997,-0.007842466235160828,XArbitraryZVertical,-0.3104259908522677,-0.54411485790584,0.1897200096433413,0.7560297316542874,-0.704945981502533,0.6758415102958679,-0.2151494473218918,0,0,0,-1,-1,33150.93533325,unknown,2,2025-04-22T13:24:12.815+03:00,2025-04-21T17:08:51.449+03:00,7440,1.011932,0,0,6196.233,5,20,2025-04-22T13:19:21.305+03:00,767010263.2313154,0,-20.50999,100.4478,1,0.7,2025-04-22T13:24:20.142+03:00,105,1.75,2025-04-22T09:54:17.825+03:00,0.02225348692287972,0
2025-04-22T13:24:23.859+03:00,1745317460.230733,40.95228371877504,29.14028565392042,76.454,-1,-1,-1,-1,30,53.00558272710916,-9999,33161.97330904167,-0.683135986328125,0.7020721435546875,-0.219970703125,33161.96827004167,-0.07020180677102637,-1.275834752218474,-0.7432802456027875,-0.09124878793954849,0.06941231340169907,0.2482538819313049,0.0431099534034729,-0.01050806045532227,-0.002720162272453308,XArbitraryZVertical,-0.3110200666462684,-0.5442895036127438,0.1898602276340569,0.7556245241922184,-0.7044563293457031,0.6767066121101379,-0.2140309065580368,0,0,0,-1,-1,33150.93533325,unknown,2,2025-04-22T13:24:12.815+03:00,2025-04-21T17:08:51.449+03:00,7440,1.011932,0,0,6196.233,5,20,2025-04-22T13:19:21.305+03:00,767010263.2313154,0,-20.50999,100.4478,1,0.7,2025-04-22T13:24:20.142+03:00,105,1.75,2025-04-22T09:54:17.825+03:00,0.02225348692287972,0
2025-04-22T13:24:23.870+03:00,1745317460.230733,40.95228371877504,29.14028565392042,76.454,-1,-1,-1,-1,30,53.00558272710916,-9999,33161.98338604167,-0.7393951416015625,0.68878173828125,-0.218963623046875,33161.97834704167,-0.07108173968785515,-1.274374437603459,-0.7461788566963693,-0.2119955867528915,0.2178437262773514,0.1664355099201202,0.03583663702011108,0.02303582429885864,-0.003348886966705322,XArbitraryZVertical,-0.3124710443294107,-0.5432486101817781,0.1901181067948202,0.7557101953264539,-0.7022642493247986,0.6788378953933716,-0.2144855856895447,0,0,0,-1,-1,33150.93533325,unknown,2,2025-04-22T13:24:12.815+03:00,2025-04-21T17:08:51.449+03:00,7440,1.011932,0,0,6196.233,5,20,2025-04-22T13:19:21.305+03:00,767010263.2313154,0,-20.50999,100.4478,1,0.7,2025-04-22T13:24:20.142+03:00,105,1.75,2025-04-22T09:54:17.825+03:00,0.02225348692287972,0
2025-04-22T13:24:23.878+03:00,1745317460.230733,40.95228371877504,29.14028565392042,76.454,-1,-1,-1,-1,30,53.00558272710916,-9999,33161.99346304167,-0.7728424072265625,0.5823974609375,-0.1817626953125,33161.98842404167,-0.07443569090577305,-1.274764384641845,-0.7474535153830255,-0.3307419121265411,0.1499232649803162,-0.02187795005738735,-0.01471269130706787,0.01941484212875366,-0.007171213626861572,XArbitraryZVertical,-0.3138162125191695,-0.5427152319028899,0.1892714734661295,0.7557485486172277,-0.7015196084976196,0.6797733306884766,-0.213959127664566,0,0,0,-1,-1,33150.93533325,unknown,2,2025-04-22T13:24:12.815+03:00,2025-04-21T17:08:51.449+03:00,7440,1.011932,0,0,6196.233,5,20,2025-04-22T13:19:21.305+03:00,767010263.2313154,0,-20.50999,100.4478,1,0.7,2025-04-22T13:24:20.142+03:00,105,1.75,2025-04-22T09:54:17.825+03:00,0.02225348692287972,0
2025-04-22T13:24:23.888+03:00,1745317460.230733,40.95228371877504,29.14028565392042,76.454,-1,-1,-1,-1,30,53.00558272710916,-9999,33162.00354004167,-0.6760406494140625,0.594268798828125,-0.16961669921875,33161.99850104167,-0.08010375558472371,-1.277253268600139,-0.7489462872721682,-0.5250433087348938,0.1273366659879684,0.05734932795166969,-0.07190191745758057,-0.05193066596984863,0.01369169354438782,XArbitraryZVertical,-0.3156707815749851,-0.5425796192593878,0.1879437579454993,0.7554048623707879,-0.7010778784751892,0.6808673739433289,-0.2119186222553253,0,0,0,-1,-1,33150.93533325,unknown,2,2025-04-22T13:24:12.815+03:00,2025-04-21T17:08:51.449+03:00,7440,1.011932,0,0,6196.233,5,20,2025-04-22T13:19:21.305+03:00,767010263.2313154,0,-20.50999,100.4478,1,0.7,2025-04-22T13:24:20.142+03:00,105,1.75,2025-04-22T09:54:17.825+03:00,0.02225348692287972,0
2025-04-22T13:24:23.898+03:00,1745317460.230733,40.95228371877504,29.14028565392042,76.454,-1,-1,-1,-1,30,53.00558272710916,-9999,33162.01361604167,-0.6189727783203125,0.7645111083984375,-0.192718505859375,33162.00857804167,-0.08532631269073546,-1.280255637312342,-0.7504969083704849,-0.2033012211322784,-0.02391117438673973,0.004352689255028963,-0.02139323949813843,-0.1217759251594543,0.04079359769821167,XArbitraryZVertical,-0.3173778897910047,-0.5426935232987016,0.1868866538893467,0.7548696999334003,-0.7006984353065491,0.6820022463798523,-0.2095100283622742,0,0,0,-1,-1,33150.93533325,unknown,2,2025-04-22T13:24:12.815+03:00,2025-04-21T17:08:51.449+03:00,7440,1.011932,0,0,6196.233,5,20,2025-04-22T13:19:21.305+03:00,767010263.2313154,0,-20.50999,100.4478,1,0.7,2025-04-22T13:24:20.142+03:00,105,1.75,2025-04-22T09:54:17.825+03:00,0.02225348692287972,0
2025-04-22T13:24:23.908+03:00,1745317460.230733,40.95228371877504,29.14028565392042,76.454,-1,-1,-1,-1,30,53.00558272710916,-9999,33162.02369304167,-0.6658782958984375,0.837554931640625,-0.2532501220703125,33162.01865504167,-0.08387446896510953,-1.280127193168106,-0.7499546204197387,0.4064705967903137,-0.122448593378067,-0.03048102557659149,0.07721596956253052,0.01866590976715088,0.03044576942920685,XArbitraryZVertical,-0.3167962045970735,-0.5429430634768642,0.1872603388242497,0.754841984515135,-0.7010257244110107,0.6816055774688721,-0.2097059935331345,0,0,0,-1,-1,33150.93533325,unknown,2,2025-04-22T13:24:12.815+03:00,2025-04-21T17:08:51.449+03:00,7440,1.011932,0,0,6196.233,5,20,2025-04-22T13:19:21.305+03:00,767010263.2313154,0,-20.50999,100.4478,1,0.7,2025-04-22T13:24:20.142+03:00,105,1.75,2025-04-22T09:54:17.825+03:00,0.02225348692287972,0
2025-04-22T13:24:23.918+03:00,1745317460.230733,40.95228371877504,29.14028565392042,76.454,-1,-1,-1,-1,30,53.00558272710916,-9999,33162.03377004167,-0.7079315185546875,0.744049072265625,-0.2606353759765625,33162.02873204167,-0.07778001670618688,-1.276890466939397,-0.7485817143160867,0.424386739730835,-0.04132604971528053,0.02174516208469868,0.05760735273361206,0.1509882807731628,-0.01739989221096039,XArbitraryZVertical,-0.3149398339984379,-0.5428540330055334,0.188661114741777,0.7553338536056108,-0.7012382745742798,0.6806003451347351,-0.2122447937726974,0,0,0,-1,-1,33150.93533325,unknown,2,2025-04-22T13:24:12.815+03:00,2025-04-21T17:08:51.449+03:00,7440,1.011932,0,0,6196.233,5,20,2025-04-22T13:19:21.305+03:00,767010263.2313154,0,-20.50999,100.4478,1,0.7,2025-04-22T13:24:20.142+03:00,105,1.75,2025-04-22T09:54:17.825+03:00,0.02225348692287972,0
2025-04-22T13:24:23.928+03:00,1745317460.230733,40.95228371877504,29.14028565392042,76.454,-1,-1,-1,-1,30,53.00558272710916,-9999,33162.04384704167,-0.731781005859375,0.6213836669921875,-0.1829986572265625,33162.03880904167,-0.07451556744321333,-1.274462156920166,-0.7480162405874657,0.06395411491394043,0.07591096311807632,0.0001122377580031753,0.005684912204742432,0.1133321523666382,-0.05725708603858948,XArbitraryZVertical,-0.314074572274084,-0.542519541052666,0.1893526419981013,0.7557614498412834,-0.7010890245437622,0.6801859140396118,-0.2140594273805618,0,0,0,-1,-1,33150.93533325,unknown,2,2025-04-22T13:24:12.815+03:00,2025-04-21T17:08:51.449+03:00,7440,1.011932,0,0,6196.233,5,20,2025-04-22T13:19:21.305+03:00,767010263.2313154,0,-20.50999,100.4478,1,0.7,2025-04-22T13:24:20.142+03:00,105,1.75,2025-04-22T09:54:17.825+03:00,0.02225348692287972,0
2025-04-22T13:24:23.939+03:00,1745317460.230733,40.95228371877504,29.14028565392042,76.454,-1,-1,-1,-1,30,53.00558272710916,-9999,33162.05392404167,-0.7252044677734375,0.59967041015625,-0.1590576171875,33162.04888604167,-0.07496465076347364,-1.27392469041779,-0.7479823690230437,-0.08817522972822189,0.0794212743639946,-0.01998903602361679,-0.024208664894104,-0.02085942029953003,0.000911414623260498,XArbitraryZVertical,-0.3142346948905347,-0.5422500385847527,0.1890889789437831,0.7559542134387351,-0.7009957432746887,0.6801611185073853,-0.2144429087638855,0,0,0,-1,-1,33150.93533325,unknown,2,2025-04-22T13:24:12.815+03:00,2025-04-21T17:08:51.449+03:00,7440,1.011932,0,0,6196.233,5,20,2025-04-22T13:19:21.305+03:00,767010263.2313154,0,-20.50999,100.4478,1,0.7,2025-04-22T13:24:20.142+03:00,105,1.75,2025-04-22T09:54:17.825+03:00,0.02225348692287972,0
2025-04-22T13:24:23.949+03:00,1745317460.230733,40.95228371877504,29.14028565392042,76.454,-1,-1,-1,-1,30,53.00558272710916,-9999,33162.06400104167,-0.6878662109375,0.6315765380859375,-0.1878509521484375,33162.05896304167,-0.07652048779579321,-1.27446387155823,-0.7482382702082531,-0.1545770913362503,0.02354582399129868,0.00472486624494195,-0.03233146667480469,-0.08484399318695068,0.05665022134780884,XArbitraryZVertical,-0.3147001849013829,-0.5421777794235777,0.1886578977365937,0.7559201543390953,-0.7009449005126953,0.6803486943244934,-0.2140140980482101,0,0,0,-1,-1,33150.93533325,unknown,2,2025-04-22T13:24:12.815+03:00,2025-04-21T17:08:51.449+03:00,7440,1.011932,0,0,6196.233,5,20,2025-04-22T13:19:21.305+03:00,767010263.2313154,0,-20.50999,100.4478,1,0.7,2025-04-22T13:24:20.142+03:00,105,1.75,2025-04-22T09:54:17.825+03:00,0.02225348692287972,0
2025-04-22T13:24:23.959+03:00,1745317460.230733,40.95228371877504,29.14028565392042,76.454,-1,-1,-1,-1,30,53.00558272710916,-9999,33162.07407804167,-0.6690673828125,0.6478271484375,-0.1959228515625,33162.06904004167,-0.07927042478660659,-1.276273037464459,-0.7489449530458859,-0.2615642845630646,-0.006780923344194889,0.009098575450479984,-0.001796603202819824,-0.06042885780334473,0.03597027063369751,XArbitraryZVertical,-0.3155364224825803,-0.542341008209517,0.1881035046164642,0.7555925275525271,-0.7008706331253052,0.6808664202690125,-0.2126059979200363,0,0,0,-1,-1,33150.93533325,unknown,2,2025-04-22T13:24:12.815+03:00,2025-04-21T17:08:51.449+03:00,7440,1.011932,0,0,6196.233,5,20,2025-04-22T13:19:21.305+03:00,767010263.2313154,0,-20.50999,100.4478,1,0.7,2025-04-22T13:24:20.142+03:00,105,1.75,2025-04-22T09:54:17.825+03:00,0.02225348692287972,0
2025-04-22T13:24:23.969+03:00,1745317460.230733,40.95228371877504,29.14028565392042,76.454,-1,-1,-1,-1,30,53.00558272710916,-9999,33162.08415504167,-0.6848297119140625,0.675140380859375,-0.207244873046875,33162.07911704167,-0.08240073805306491,-1.278524705086595,-0.7496465465206579,-0.1861638575792313,-0.01656065136194229,-0.003297407180070877,0.02970147132873535,-0.03771871328353882,0.01511934399604797,XArbitraryZVertical,-0.3164328847005634,-0.5426098440713405,0.1874756523478584,0.755180408873814,-0.7008897066116333,0.6813800930976868,-0.2108895778656006,0,0,0,-1,-1,33150.93533325,unknown,2,2025-04-22T13:24:12.815+03:00,2025-04-21T17:08:51.449+03:00,7440,1.011932,0,0,6196.233,5,20,2025-04-22T13:19:21.305+03:00,767010263.2313154,0,-20.50999,100.4478,1,0.7,2025-04-22T13:24:20.142+03:00,105,1.75,2025-04-22T09:54:17.825+03:00,0.02225348692287972,0
2025-04-22T13:24:23.979+03:00,1745317460.230733,40.95228371877504,29.14028565392042,76.454,-1,-1,-1,-1,30,53.00558272710916,-9999,33162.09423204167,-0.7020111083984375,0.6999969482421875,-0.2321319580078125,33162.08919404167,-0.08387654742927161,-1.279675786469118,-0.7499623811103285,-0.0481167659163475,-0.01058771274983883,0.004805259872227907,0.02467167377471924,-0.01933413743972778,0.01005448400974274,XArbitraryZVertical,-0.3168418879478715,-0.5427713842725502,0.1871902625174612,0.7549636216013978,-0.700925886631012,0.6816112399101257,-0.2100208848714828,0,0,0,-1,-1,33150.93533325,unknown,2,2025-04-22T13:24:12.815+03:00,2025-04-21T17:08:51.449+03:00,7440,1.011932,0,0,6196.233,5,20,2025-04-22T13:19:21.305+03:00,767010263.2313154,0,-20.50999,100.4478,1,0.7,2025-04-22T13:24:20.142+03:00,105,1.75,2025-04-22T09:54:17.825+03:00,0.02225348692287972,0
2025-04-22T13:24:23.989+03:00,1745317460.230733,40.95228371877504,29.14028565392042,76.454,-1,-1,-1,-1,30,53.00558272710916,-9999,33162.10430904167,-0.7066802978515625,0.6939544677734375,-0.231353759765625,33162.09927104167,-0.08414817781224009,-1.279900363694234,-0.7501077936939767,-0.006455339025706053,0.00275578978471458,0.01144625153392553,0.003246307373046875,0.01214516162872314,-0.01398083567619324,XArbitraryZVertical,-0.3169481423559677,-0.5427949499395963,0.1871645761100705,0.7549084378783735,-0.7008780241012573,0.6817176342010498,-0.2098350375890732,0,0,0,-1,-1,33150.93533325,unknown,2,2025-04-22T13:24:12.815+03:00,2025-04-21T17:08:51.449+03:00,7440,1.011932,0,0,6196.233,5,20,2025-04-22T13:19:21.305+03:00,767010263.2313154,0,-20.50999,100.4478,1,0.7,2025-04-22T13:24:20.142+03:00,105,1.75,2025-04-22T09:54:17.825+03:00,0.02225348692287972,0
2025-04-22T13:24:23.999+03:00,1745317460.230733,40.95228371877504,29.14028565392042,76.454,-1,-1,-1,-1,30,53.00558272710916,-9999,33162.11438604167,-0.708251953125,0.6873016357421875,-0.22369384765625,33162.10934804167,-0.08391247806498349,-1.279621781201489,-0.7503098534385888,0.03733901306986809,0.01035645138472319,0.02028368599712849,-0.004726111888885498,0.01642239093780518,-0.02502505481243134,XArbitraryZVertical,-0.3169846697546859,-0.5427019011131302,0.1872667199861985,0.7549346693593354,-0.7006875872612,0.6818654537200928,-0.2099907249212265,0,0,0,-1,-1,33150.93533325,unknown,2,2025-04-22T13:24:12.815+03:00,2025-04-21T17:08:51.449+03:00,7440,1.011932,0,0,6196.233,5,20,2025-04-22T13:19:21.305+03:00,767010263.2313154,0,-20.50999,100.4478,1,0.7,2025-04-22T13:24:20.142+03:00,105,1.75,2025-04-22T09:54:17.825+03:00,0.02225348692287972,0
2025-04-22T13:24:24.009+03:00,1745317460.230733,40.95228371877504,29.14028565392042,76.454,-1,-1,-1,-1,30,53.00558272710916,-9999,33162.12446304167,-0.704345703125,0.680389404296875,-0.23712158203125,33162.11942504167,-0.08297281735895251,-1.278921014407875,-0.7504558933654144,0.06984362751245499,-0.00335916131734848,0.03714292496442795,-0.007669627666473389,0.006946682929992676,-0.01322546601295471,XArbitraryZVertical,-0.3168491854377712,-0.5425680366233555,0.1875518061478753,0.7550169809691746,-0.7004448771476746,0.6819722652435303,-0.2104530334472656,0,0,0,-1,-1,33150.93533325,unknown,2,2025-04-22T13:24:12.815+03:00,2025-04-21T17:08:51.449+03:00,7440,1.011932,0,0,6196.233,5,20,2025-04-22T13:19:21.305+03:00,767010263.2313154,0,-20.50999,100.4478,1,0.7,2025-04-22T13:24:20.142+03:00,105,1.75,2025-04-22T09:54:17.825+03:00,0.02225348692287972,0
2025-04-22T13:24:24.035+03:00,1745317460.230733,40.95228371877504,29.14028565392042,76.454,-1,-1,-1,-1,30,53.00558272710916,-9999,33162.13454004167,-0.7034149169921875,0.66204833984375,-0.2339630126953125,33162.12950204167,-0.08222224328478346,-1.278407120860487,-0.7507045326710741,0.01422856748104095,0.008697235956788063,0.04422480240464211,-0.005529344081878662,0.002843320369720459,-0.02092532813549042,XArbitraryZVertical,-0.3167854293027429,-0.5424619288409737,0.1878242074713469,0.7550522870317798,-0.7001742720603943,0.68215411901474,-0.2107640951871872,0,0,0,-1,-1,33150.93533325,unknown,2,2025-04-22T13:24:12.815+03:00,2025-04-21T17:08:51.449+03:00,7440,1.011932,0,0,6196.233,5,20,2025-04-22T13:19:21.305+03:00,767010263.2313154,0,-20.50999,100.4478,1,0.7,2025-04-22T13:24:20.142+03:00,105,1.75,2025-04-22T09:54:17.825+03:00,0.02225348692287972,0
2025-04-22T13:24:24.038+03:00,1745317460.230733,40.95228371877504,29.14028565392042,76.454,-1,-1,-1,-1,30,53.00558272710916,-9999,33162.14461704167,-0.7015838623046875,0.660003662109375,-0.2222442626953125,33162.13957904167,-0.08214582712331056,-1.278209828031531,-0.7511184325395223,-0.01651929132640362,0.02201776765286922,0.0515347458422184,-0.003094732761383057,-0.01448798179626465,-0.02712470293045044,XArbitraryZVertical,-0.3169357661845099,-0.542347964487173,0.1879390163700501,0.755042572149854,-0.6998624205589294,0.6824566721916199,-0.210820809006691,0,0,0,-1,-1,33150.93533325,unknown,2,2025-04-22T13:24:12.815+03:00,2025-04-21T17:08:51.449+03:00,7440,1.011932,0,0,6196.233,5,20,2025-04-22T13:19:21.305+03:00,767010263.2313154,0,-20.50999,100.4478,1,0.7,2025-04-22T13:24:20.142+03:00,105,1.75,2025-04-22T09:54:17.825+03:00,0.02225348692287972,0
2025-04-22T13:24:24.040+03:00,1745317460.230733,40.95228371877504,29.14028565392042,76.454,-1,-1,-1,-1,30,53.00558272710916,-9999,33162.15469404167,-0.69415283203125,0.6680755615234375,-0.2247467041015625,33162.14965604167,-0.08225802358884395,-1.278113524270339,-0.7516547430423641,-0.0288033876568079,0.01195474714040756,0.05041541904211044,-0.003297686576843262,-0.02432507276535034,-0.01400986313819885,XArbitraryZVertical,-0.3171728732515854,-0.5422269520724373,0.1880332750554935,0.7550065034881235,-0.6994916200637817,0.6828485727310181,-0.21078260242939,0,0,0,-1,-1,33150.93533325,unknown,2,2025-04-22T13:24:12.815+03:00,2025-04-21T17:08:51.449+03:00,7440,1.011932,0,0,6196.233,5,20,2025-04-22T13:19:21.305+03:00,767010263.2313154,0,-20.50999,100.4478,1,0.7,2025-04-22T13:24:20.142+03:00,105,1.75,2025-04-22T09:54:17.825+03:00,0.02225348692287972,0
2025-04-22T13:24:24.049+03:00,1745317460.230733,40.95228371877504,29.14028565392042,76.454,-1,-1,-1,-1,30,53.00558272710916,-9999,33162.16477104167,-0.6849822998046875,0.6829986572265625,-0.2164154052734375,33162.15973304167,-0.08233429038684983,-1.278136217993965,-0.7521407217336523,-0.003098624292761087,-0.006932723335921764,0.03985142707824707,0.001455247402191162,-0.01859176158905029,-0.01343485713005066,XArbitraryZVertical,-0.3173704842107253,-0.5421627875307767,0.1881457124580805,0.7549415512871143,-0.6991786360740662,0.6832035183906555,-0.2106709778308868,0,0,0,-1,-1,33150.93533325,unknown,2,2025-04-22T13:24:12.815+03:00,2025-04-21T17:08:51.449+03:00,7440,1.011932,0,0,6196.233,5,20,2025-04-22T13:19:21.305+03:00,767010263.2313154,0,-20.50999,100.4478,1,0.7,2025-04-22T13:24:20.142+03:00,105,1.75,2025-04-22T09:54:17.825+03:00,0.02225348692287972,0
2025-04-22T13:24:24.060+03:00,1745317460.230733,40.95228371877504,29.14028565392042,76.454,-1,-1,-1,-1,30,53.00558272710916,-9999,33162.17484804167,-0.68212890625,0.6995697021484375,-0.2047882080078125,33162.16981004167,-0.08199082480991368,-1.278117675734791,-0.7523860704969068,0.0339861586689949,-0.03759556263685226,0.02242157235741615,0.01192605495452881,-0.007235288619995117,-0.01014387607574463,XArbitraryZVertical,-0.3173695354443673,-0.5421796896866548,0.1883419448670739,0.7548807797125625,-0.6990140676498413,0.6833826899528503,-0.2106355279684067,0,0,0,-1,-1,33150.93533325,unknown,2,2025-04-22T13:24:12.815+03:00,2025-04-21T17:08:51.449+03:00,7440,1.011932,0,0,6196.233,5,20,2025-04-22T13:19:21.305+03:00,767010263.2313154,0,-20.50999,100.4478,1,0.7,2025-04-22T13:24:20.142+03:00,105,1.75,2025-04-22T09:54:17.825+03:00,0.02225348692287972,0
2025-04-22T13:24:24.070+03:00,1745317460.230733,40.95228371877504,29.14028565392042,76.454,-1,-1,-1,-1,30,53.00558272710916,-9999,33162.18492504167,-0.686370849609375,0.7060546875,-0.20025634765625,33162.17988704167,-0.08156285296866302,-1.278371508677075,-0.7524318882752568,0.01934223622083664,-0.06666955351829529,0.001943061011843383,0.01605421304702759,0.01091980934143066,0.001434236764907837,XArbitraryZVertical,-0.3172464537600661,-0.5423376634150913,0.1885566753339404,0.7547654971374853,-0.6990376114845276,0.6834161281585693,-0.2104490995407104,0,0,0,-1,-1,33150.93533325,unknown,2,2025-04-22T13:24:12.815+03:00,2025-04-21T17:08:51.449+03:00,7440,1.011932,0,0,6196.233,5,20,2025-04-22T13:19:21.305+03:00,767010263.2313154,0,-20.50999,100.4478,1,0.7,2025-04-22T13:24:20.142+03:00,105,1.75,2025-04-22T09:54:17.825+03:00,0.02225348692287972,0
2025-04-22T13:24:24.080+03:00,1745317460.230733,40.95228371877504,29.14028565392042,76.454,-1,-1,-1,-1,30,53.00558272710916,-9999,33162.19500204167,-0.6980438232421875,0.7035675048828125,-0.2052154541015625,33162.18996404167,-0.08144845921130092,-1.278902375818057,-0.7524398963068719,-0.00645527197048068,-0.05744756013154984,0.003526843152940273,0.01539754867553711,0.02183914184570312,0.008599311113357544,XArbitraryZVertical,-0.3171683313887287,-0.5425551466743755,0.1886863796959849,0.7546094519800814,-0.6991437673568726,0.6834219694137573,-0.2100763320922852,0,0,0,-1,-1,33150.93533325,unknown,2,2025-04-22T13:24:12.815+03:00,2025-04-21T17:08:51.449+03:00,7440,1.011932,0,0,6196.233,5,20,2025-04-22T13:19:21.305+03:00,767010263.2313154,0,-20.50999,100.4478,1,0.7,2025-04-22T13:24:20.142+03:00,105,1.75,2025-04-22T09:54:17.825+03:00,0.02225348692287972,0
2025-04-22T13:24:24.090+03:00,1745317460.230733,40.95228371877504,29.14028565392042,76.454,-1,-1,-1,-1,30,53.00558272710916,-9999,33162.20507904167,-0.7071075439453125,0.691558837890625,-0.2201690673828125,33162.20004104167,-0.08161169876945218,-1.279514812171009,-0.752492189635793,-0.02762274257838726,-0.04700490832328796,0.001075203530490398,0.005863666534423828,0.02157211303710938,0.007504761219024658,XArbitraryZVertical,-0.317174082817729,-0.5427537721880964,0.1887366842752716,0.7544517032840324,-0.6992382407188416,0.6834601759910583,-0.2096378952264786,0,0,0,-1,-1,33150.93533325,unknown,2,2025-04-22T13:24:12.815+03:00,2025-04-21T17:08:51.449+03:00,7440,1.011932,0,0,6196.233,5,20,2025-04-22T13:19:21.305+03:00,767010263.2313154,0,-20.50999,100.4478,1,0.7,2025-04-22T13:24:20.142+03:00,105,1.75,2025-04-22T09:54:17.825+03:00,0.02225348692287972,0
2025-04-22T13:24:24.100+03:00,1745317460.230733,40.95228371877504,29.14028565392042,76.454,-1,-1,-1,-1,30,53.00558272710916,-9999,33162.21515604167,-0.7061004638671875,0.6767578125,-0.234619140625,33162.21011804167,-0.08212424546166631,-1.280269493867767,-0.7525624762907377,-0.05467779561877251,-0.04059041664004326,-0.006003744900226593,-0.005056500434875488,0.01358628273010254,-0.005320101976394653,XArbitraryZVertical,-0.3172678687243263,-0.5429483492285826,0.1886829697230177,0.7542857136485085,-0.6993502974510193,0.6835114359855652,-0.209096372127533,0,0,0,-1,-1,33150.93533325,unknown,2,2025-04-22T13:24:12.815+03:00,2025-04-21T17:08:51.449+03:00,7440,1.011932,0,0,6196.233,5,20,2025-04-22T13:19:21.305+03:00,767010263.2313154,0,-20.50999,100.4478,1,0.7,2025-04-22T13:24:20.142+03:00,105,1.75,2025-04-22T09:54:17.825+03:00,0.02225348692287972,0
