loggingTime(txt),locationTimestamp_since1970(s),locationLatitude(WGS84),locationLongitude(WGS84),locationAltitude(m),locationSpeed(m/s),locationSpeedAccuracy(m/s),locationCourse(°),locationCourseAccuracy(°),locationVerticalAccuracy(m),locationHorizontalAccuracy(m),locationFloor(Z),accelerometerTimestamp_sinceReboot(s),accelerometerAccelerationX(G),accelerometerAccelerationY(G),accelerometerAccelerationZ(G),motionTimestamp_sinceReboot(s),motionYaw(rad),motionRoll(rad),motionPitch(rad),motionRotationRateX(rad/s),motionRotationRateY(rad/s),motionRotationRateZ(rad/s),motionUserAccelerationX(G),motionUserAccelerationY(G),motionUserAccelerationZ(G),motionAttitudeReferenceFrame(txt),motionQuaternionX(R),motionQuaternionY(R),motionQuaternionZ(R),motionQuaternionW(R),motionGravityX(G),motionGravityY(G),motionGravityZ(G),motionMagneticFieldX(µT),motionMagneticFieldY(µT),motionMagneticFieldZ(µT),motionHeading(°),motionMagneticFieldCalibrationAccuracy(Z),activityTimestamp_sinceReboot(s),activity(txt),activityActivityConfidence(Z),activityActivityStartDate(txt),pedometerStartDate(txt),pedometerNumberofSteps(N),pedometerAverageActivePace(s/m),pedometerCurrentPace(s/m),pedometerCurrentCadence(steps/s),pedometerDistance(m),pedometerFloorAscended(N),pedometerFloorDescended(N),pedometerEndDate(txt),altimeterTimestamp_sinceReboot(s),altimeterReset(bool),altimeterRelativeAltitude(m),altimeterPressure(kPa),batteryState(N),batteryLevel(R),heartRateBPMTimestamp(txt),heartRateBPM(N),heartRateBPS(R),heartRateVariabilityTimestamp(txt),heartRateVariability(ms),label
2025-04-22T13:36:36.502+03:00,1745318195.342109,40.95217608864979,29.14027786161256,75.95301,-1,-1,-1,-1,30,21.25043575116273,-9999,33847.84218425,-0.7715606689453125,0.565948486328125,-0.2748870849609375,33847.83714625,-0.2934662319020494,-1.223511086314112,-0.5965386664859647,0.03884409740567207,-0.09379804134368896,-0.05598079040646553,-0.0007445216178894043,-0.007247507572174072,0.003212630748748779,XArbitraryZVertical,-0.3182460426946336,-0.5078757068791426,0.05254913505920728,0.7987616629935601,-0.7778961658477783,0.5617823600769043,-0.2815634310245514,0,0,0,-1,-1,33839.37413354167,unknown,2,2025-04-22T13:36:28.007+03:00,2025-04-21T17:08:51.449+03:00,7462,1.01963,0,0,6211.912,5,20,2025-04-22T13:34:37.085+03:00,767010995.8481008,0,-20.18999,100.4446,1,0.65,2025-04-22T13:36:14.479+03:00,85,1.416666666666667,2025-04-22T09:54:17.825+03:00,0.02225348692287972,0
2025-04-22T13:36:36.504+03:00,1745318195.342109,40.95217608864979,29.14027786161256,75.95301,-1,-1,-1,-1,30,21.25043575116273,-9999,33847.85226125,-0.7618408203125,0.5709686279296875,-0.27392578125,33847.84722325,-0.2936152376474402,-1.224522760892604,-0.5960707053519143,-0.01106433942914009,-0.08507779240608215,-0.02818724513053894,0.007187604904174805,0.00339353084564209,0.006237894296646118,XArbitraryZVertical,-0.3180820165873204,-0.5083218303217353,0.05251524816252437,0.7985453679394461,-0.77842777967453,0.5613951086997986,-0.280865490436554,0,0,0,-1,-1,33839.37413354167,unknown,2,2025-04-22T13:36:28.007+03:00,2025-04-21T17:08:51.449+03:00,7462,1.01963,0,0,6211.912,5,20,2025-04-22T13:34:37.085+03:00,767010995.8481008,0,-20.18999,100.4446,1,0.65,2025-04-22T13:36:14.479+03:00,85,1.416666666666667,2025-04-22T09:54:17.825+03:00,0.02225348692287972,0
2025-04-22T13:36:36.504+03:00,1745318195.342109,40.95217608864979,29.14027786161256,75.95301,-1,-1,-1,-1,30,21.25043575116273,-9999,33847.86233725,-0.7741546630859375,0.5686187744140625,-0.280364990234375,33847.85729925,-0.2937473420259926,-1.225171509045327,-0.5957954104750676,0.00474072340875864,-0.0483245737850666,-0.03099874407052994,0.009056210517883301,0.006795287132263184,0.005571544170379639,XArbitraryZVertical,-0.3179954473325549,-0.5085985566934159,0.05248598737496189,0.7984056132214949,-0.778755247592926,0.561167299747467,-0.2804127931594849,0,0,0,-1,-1,33839.37413354167,unknown,2,2025-04-22T13:36:28.007+03:00,2025-04-21T17:08:51.449+03:00,7462,1.01963,0,0,6211.912,5,20,2025-04-22T13:34:37.085+03:00,767010995.8481008,0,-20.18999,100.4446,1,0.65,2025-04-22T13:36:14.479+03:00,85,1.416666666666667,2025-04-22T09:54:17.825+03:00,0.02225348692287972,0
2025-04-22T13:36:36.511+03:00,1745318195.342109,40.95217608864979,29.14027786161256,75.95301,-1,-1,-1,-1,30,21.25043575116273,-9999,33847.87241425,-0.785797119140625,0.5738525390625,-0.282073974609375,33847.86737625,-0.2937448278836037,-1.225601511112352,-0.5956462524904368,0.004140446893870831,-0.04922738298773766,-0.02320500276982784,0.01834970712661743,0.009543180465698242,0.004151016473770142,XArbitraryZVertical,-0.3179276855645938,-0.5087915977577915,0.05251220390600511,0.7983077870201306,-0.7789544463157654,0.5610438585281372,-0.2801061868667603,0,0,0,-1,-1,33839.37413354167,unknown,2,2025-04-22T13:36:28.007+03:00,2025-04-21T17:08:51.449+03:00,7462,1.01963,0,0,6211.912,5,20,2025-04-22T13:34:37.085+03:00,767010995.8481008,0,-20.18999,100.4446,1,0.65,2025-04-22T13:36:14.479+03:00,85,1.416666666666667,2025-04-22T09:54:17.825+03:00,0.02225348692287972,0
2025-04-22T13:36:36.521+03:00,1745318195.342109,40.95217608864979,29.14027786161256,75.95301,-1,-1,-1,-1,30,21.25043575116273,-9999,33847.88249025001,-0.7682647705078125,0.561126708984375,-0.2727203369140625,33847.87745225,-0.2937833805524572,-1.225989352000966,-0.5956103624694254,-0.01017950288951397,-0.03235505893826485,-0.01083188969641924,-0.01114004850387573,0.009862959384918213,-0.005467385053634644,XArbitraryZVertical,-0.3179138231702285,-0.5089453039010152,0.05254801130014055,0.7982131582096972,-0.779082179069519,0.5610141158103943,-0.2798109650611877,0,0,0,-1,-1,33839.37413354167,unknown,2,2025-04-22T13:36:28.007+03:00,2025-04-21T17:08:51.449+03:00,7462,1.01963,0,0,6211.912,5,20,2025-04-22T13:34:37.085+03:00,767010995.8481008,0,-20.18999,100.4446,1,0.65,2025-04-22T13:36:14.479+03:00,85,1.416666666666667,2025-04-22T09:54:17.825+03:00,0.02225348692287972,0
2025-04-22T13:36:36.531+03:00,1745318195.342109,40.95217608864979,29.14027786161256,75.95301,-1,-1,-1,-1,30,21.25043575116273,-9999,33847.89256725,-0.7813873291015625,0.5455322265625,-0.2755279541015625,33847.88752925,-0.2939830255596382,-1.226189504730311,-0.5956787296718725,-0.02252964675426483,0.0007104822434484959,-0.005999317392706871,0.008838295936584473,0.007685363292694092,0.004983872175216675,XArbitraryZVertical,-0.3179849656518774,-0.5089838222904816,0.05251995250897408,0.7981621095181398,-0.779102087020874,0.5610707402229309,-0.2796420753002167,0,0,0,-1,-1,33839.37413354167,unknown,2,2025-04-22T13:36:28.007+03:00,2025-04-21T17:08:51.449+03:00,7462,1.01963,0,0,6211.912,5,20,2025-04-22T13:34:37.085+03:00,767010995.8481008,0,-20.18999,100.4446,1,0.65,2025-04-22T13:36:14.479+03:00,85,1.416666666666667,2025-04-22T09:54:17.825+03:00,0.02225348692287972,0
2025-04-22T13:36:36.541+03:00,1745318195.342109,40.95217608864979,29.14027786161256,75.95301,-1,-1,-1,-1,30,21.25043575116273,-9999,33847.90264425,-0.7844085693359375,0.555450439453125,-0.2776947021484375,33847.89760525,-0.2942131781547445,-1.226322020490634,-0.5956894223850384,-0.02159800752997398,-0.01154105644673109,-0.004615505691617727,0.004108965396881104,-0.01167172193527222,0.005305826663970947,XArbitraryZVertical,-0.3180440933901612,-0.5089986137693356,0.05245231384975219,0.7981334441276831,-0.7791333198547363,0.5610795617103577,-0.2795367240905762,0,0,0,-1,-1,33839.37413354167,unknown,2,2025-04-22T13:36:28.007+03:00,2025-04-21T17:08:51.449+03:00,7462,1.01963,0,0,6211.912,5,20,2025-04-22T13:34:37.085+03:00,767010995.8481008,0,-20.18999,100.4446,1,0.65,2025-04-22T13:36:14.479+03:00,85,1.416666666666667,2025-04-22T09:54:17.825+03:00,0.02225348692287972,0
2025-04-22T13:36:36.551+03:00,1745318195.342109,40.95217608864979,29.14027786161256,75.95301,-1,-1,-1,-1,30,21.25043575116273,-9999,33847.91272025,-0.7703857421875,0.562957763671875,-0.2765045166015625,33847.90768225,-0.294463931196789,-1.226619353036801,-0.5956196962047766,-0.01782057993113995,-0.01807378977537155,-0.007279199548065662,-0.007032096385955811,-0.01143085956573486,0.002066135406494141,XArbitraryZVertical,-0.3180740210799592,-0.5090872068859719,0.05237932889969657,0.7980698220863908,-0.7792532444000244,0.5610218644142151,-0.2793182730674744,0,0,0,-1,-1,33839.37413354167,unknown,2,2025-04-22T13:36:28.007+03:00,2025-04-21T17:08:51.449+03:00,7462,1.01963,0,0,6211.912,5,20,2025-04-22T13:34:37.085+03:00,767010995.8481008,0,-20.18999,100.4446,1,0.65,2025-04-22T13:36:14.479+03:00,85,1.416666666666667,2025-04-22T09:54:17.825+03:00,0.02225348692287972,0
2025-04-22T13:36:36.561+03:00,1745318195.342109,40.95217608864979,29.14027786161256,75.95301,-1,-1,-1,-1,30,21.25043575116273,-9999,33847.92279725,-0.77459716796875,0.5584869384765625,-0.2762908935546875,33847.91775825001,-0.2947378004469488,-1.226930219824878,-0.5955936120624097,-0.02332493290305138,-0.01143706031143665,-0.005453269463032484,0.004283666610717773,0.001636922359466553,0.002561181783676147,XArbitraryZVertical,-0.3181258516262323,-0.5091713679420395,0.05231194976154287,0.7979998450589167,-0.7793537974357605,0.5610002279281616,-0.2790809273719788,0,0,0,-1,-1,33839.37413354167,unknown,2,2025-04-22T13:36:28.007+03:00,2025-04-21T17:08:51.449+03:00,7462,1.01963,0,0,6211.912,5,20,2025-04-22T13:34:37.085+03:00,767010995.8481008,0,-20.18999,100.4446,1,0.65,2025-04-22T13:36:14.479+03:00,85,1.416666666666667,2025-04-22T09:54:17.825+03:00,0.02225348692287972,0
2025-04-22T13:36:36.571+03:00,1745318195.342109,40.95217608864979,29.14027786161256,75.95301,-1,-1,-1,-1,30,21.25043575116273,-9999,33847.93287325,-0.7826995849609375,0.561279296875,-0.2738494873046875,33847.92783525,-0.2949978121131918,-1.227122646147418,-0.595701692434094,-0.01786412112414837,0.001435860991477966,-0.003542185295373201,0.008949458599090576,-0.001428008079528809,0.002726465463638306,XArbitraryZVertical,-0.3182274624741382,-0.5091915444393726,0.05227015366003174,0.7979491736957236,-0.7793503403663635,0.5610896944999695,-0.2789105176925659,0,0,0,-1,-1,33839.37413354167,unknown,2,2025-04-22T13:36:28.007+03:00,2025-04-21T17:08:51.449+03:00,7462,1.01963,0,0,6211.912,5,20,2025-04-22T13:34:37.085+03:00,767010995.8481008,0,-20.18999,100.4446,1,0.65,2025-04-22T13:36:14.479+03:00,85,1.416666666666667,2025-04-22T09:54:17.825+03:00,0.02225348692287972,0
2025-04-22T13:36:36.581+03:00,1745318195.342109,40.95217608864979,29.14027786161256,75.95301,-1,-1,-1,-1,30,21.25043575116273,-9999,33847.94295025,-0.77874755859375,0.5630340576171875,-0.2738037109375,33847.93791125,-0.2951956793539222,-1.227237650819377,-0.5958142978056408,-0.01281496789306402,-0.003261622507125139,-0.003283159574493766,-0.002033710479736328,-0.001475393772125244,0.004110932350158691,XArbitraryZVertical,-0.3183169345370763,-0.5091900503159343,0.05224211643410248,0.797916386455554,-0.7793230414390564,0.5611829161643982,-0.2787996530532837,0,0,0,-1,-1,33839.37413354167,unknown,2,2025-04-22T13:36:28.007+03:00,2025-04-21T17:08:51.449+03:00,7462,1.01963,0,0,6211.912,5,20,2025-04-22T13:34:37.085+03:00,767010995.8481008,0,-20.18999,100.4446,1,0.65,2025-04-22T13:36:14.479+03:00,85,1.416666666666667,2025-04-22T09:54:17.825+03:00,0.02225348692287972,0
2025-04-22T13:36:36.591+03:00,1745318195.342109,40.95217608864979,29.14027786161256,75.95301,-1,-1,-1,-1,30,21.25043575116273,-9999,33847.95302625,-0.775299072265625,0.5593719482421875,-0.2733612060546875,33847.94798825,-0.2953347119941026,-1.227307273047534,-0.5959845335182798,-0.01521420944482088,0.001845788210630417,4.685710882768035e-05,-0.001722812652587891,0.001527011394500732,0.005062103271484375,XArbitraryZVertical,-0.3184141983293964,-0.5091716780919449,0.05224708687096574,0.7978889627737247,-0.7792524695396423,0.5613238215446472,-0.278713196516037,0,0,0,-1,-1,33839.37413354167,unknown,2,2025-04-22T13:36:28.007+03:00,2025-04-21T17:08:51.449+03:00,7462,1.01963,0,0,6211.912,5,20,2025-04-22T13:34:37.085+03:00,767010995.8481008,0,-20.18999,100.4446,1,0.65,2025-04-22T13:36:14.479+03:00,85,1.416666666666667,2025-04-22T09:54:17.825+03:00,0.02225348692287972,0
2025-04-22T13:36:36.601+03:00,1745318195.342109,40.95217608864979,29.14027786161256,75.95301,-1,-1,-1,-1,30,21.25043575116273,-9999,33847.96310325,-0.7784576416015625,0.55706787109375,-0.27471923828125,33847.95806525,-0.2955004994779484,-1.227365092920966,-0.5960259250025971,-0.01512625906616449,0.003105529583990574,-0.0005524539737962186,0.003230512142181396,-0.0002162456512451172,0.006138354539871216,XArbitraryZVertical,-0.3184703941332272,-0.5091625113696382,0.05220217542104793,0.7978752586046478,-0.7792466282844543,0.5613580942153931,-0.2786602973937988,0,0,0,-1,-1,33839.37413354167,unknown,2,2025-04-22T13:36:28.007+03:00,2025-04-21T17:08:51.449+03:00,7462,1.01963,0,0,6211.912,5,20,2025-04-22T13:34:37.085+03:00,767010995.8481008,0,-20.18999,100.4446,1,0.65,2025-04-22T13:36:14.479+03:00,85,1.416666666666667,2025-04-22T09:54:17.825+03:00,0.02225348692287972,0
2025-04-22T13:36:36.611+03:00,1745318195.342109,40.95217608864979,29.14027786161256,75.95301,-1,-1,-1,-1,30,21.25043575116273,-9999,33847.97317925,-0.774505615234375,0.559906005859375,-0.276763916015625,33847.96814125,-0.2956932517795661,-1.227484895211238,-0.5961549167092719,-0.01627088524401188,-0.003804042004048824,-0.002116262214258313,0.001532495021820068,-0.004412293434143066,0.004525303840637207,XArbitraryZVertical,-0.3185645647519747,-0.5091613896622526,0.05218173191169035,0.7978397991915638,-0.7792119383811951,0.5614648461341858,-0.2785426080226898,0,0,0,-1,-1,33839.37413354167,unknown,2,2025-04-22T13:36:28.007+03:00,2025-04-21T17:08:51.449+03:00,7462,1.01963,0,0,6211.912,5,20,2025-04-22T13:34:37.085+03:00,767010995.8481008,0,-20.18999,100.4446,1,0.65,2025-04-22T13:36:14.479+03:00,85,1.416666666666667,2025-04-22T09:54:17.825+03:00,0.02225348692287972,0
2025-04-22T13:36:36.621+03:00,1745318195.342109,40.95217608864979,29.14027786161256,75.95301,-1,-1,-1,-1,30,21.25043575116273,-9999,33847.983255125,-0.7753143310546875,0.56524658203125,-0.275115966796875,33847.978217125,-0.295874610753152,-1.227618082501483,-0.5961055159684533,-0.01286829821765423,-0.0003825454041361809,-0.0034360580611974,0.002312839031219482,-0.003806829452514648,0.002935469150543213,XArbitraryZVertical,-0.3185887977097661,-0.5091926107816133,0.05211628873013056,0.7978144375973636,-0.779275119304657,0.5614239573478699,-0.2784481346607208,0,0,0,-1,-1,33839.37413354167,unknown,2,2025-04-22T13:36:28.007+03:00,2025-04-21T17:08:51.449+03:00,7462,1.01963,0,0,6211.912,5,20,2025-04-22T13:34:37.085+03:00,767010995.8481008,0,-20.18999,100.4446,1,0.65,2025-04-22T13:36:14.479+03:00,85,1.416666666666667,2025-04-22T09:54:17.825+03:00,0.02225348692287972,0
2025-04-22T13:36:36.631+03:00,1745318195.342109,40.95217608864979,29.14027786161256,75.95301,-1,-1,-1,-1,30,21.25043575116273,-9999,33847.993331125,-0.7783660888671875,0.564239501953125,-0.2738494873046875,33847.988293125,-0.2960417615650733,-1.227712876532962,-0.596024934124716,-0.01141501124948263,0.00317117664963007,-0.0004421325284056365,0.005494594573974609,0.002088665962219238,0.002495318651199341,XArbitraryZVertical,-0.3185987710610721,-0.5092151861160571,0.05204137081269943,0.7978008566405469,-0.7793439626693726,0.5613572597503662,-0.2783894240856171,0,0,0,-1,-1,33839.37413354167,unknown,2,2025-04-22T13:36:28.007+03:00,2025-04-21T17:08:51.449+03:00,7462,1.01963,0,0,6211.912,5,20,2025-04-22T13:34:37.085+03:00,767010995.8481008,0,-20.18999,100.4446,1,0.65,2025-04-22T13:36:14.479+03:00,85,1.416666666666667,2025-04-22T09:54:17.825+03:00,0.02225348692287972,0
2025-04-22T13:36:36.641+03:00,1745318195.342109,40.95217608864979,29.14027786161256,75.95301,-1,-1,-1,-1,30,21.25043575116273,-9999,33848.00340812501,-0.7788238525390625,0.5638885498046875,-0.2759552001953125,33847.998370125,-0.2961928033246037,-1.227739324638514,-0.5960650292980204,-0.01080767624080181,0.007602543104439974,-0.006451888475567102,0.001559257507324219,0.003642380237579346,0.004145592451095581,XArbitraryZVertical,-0.3186515283702234,-0.5091960075349582,0.0519969565320711,0.7977949393772804,-0.7793301939964294,0.5613904595375061,-0.2783612608909607,0,0,0,-1,-1,33839.37413354167,unknown,2,2025-04-22T13:36:28.007+03:00,2025-04-21T17:08:51.449+03:00,7462,1.01963,0,0,6211.912,5,20,2025-04-22T13:34:37.085+03:00,767010995.8481008,0,-20.18999,100.4446,1,0.65,2025-04-22T13:36:14.479+03:00,85,1.416666666666667,2025-04-22T09:54:17.825+03:00,0.02225348692287972,0
2025-04-22T13:36:36.652+03:00,1745318195.342109,40.95217608864979,29.14027786161256,75.95301,-1,-1,-1,-1,30,21.25043575116273,-9999,33848.013485125,-0.7791900634765625,0.5641632080078125,-0.2755584716796875,33848.008446125,-0.2963030684746007,-1.227697670892887,-0.5960904724995886,-0.008177272044122219,0.01105000451207161,-0.002305612899363041,0.0007560849189758301,0.003087341785430908,0.00385284423828125,XArbitraryZVertical,-0.3186901697439838,-0.5091582189488163,0.05195367605799298,0.7978065534525819,-0.7793052792549133,0.5614114999771118,-0.2783889770507812,0,0,0,-1,-1,33839.37413354167,unknown,2,2025-04-22T13:36:28.007+03:00,2025-04-21T17:08:51.449+03:00,7462,1.01963,0,0,6211.912,5,20,2025-04-22T13:34:37.085+03:00,767010995.8481008,0,-20.18999,100.4446,1,0.65,2025-04-22T13:36:14.479+03:00,85,1.416666666666667,2025-04-22T09:54:17.825+03:00,0.02225348692287972,0
2025-04-22T13:36:36.662+03:00,1745318195.342109,40.95217608864979,29.14027786161256,75.95301,-1,-1,-1,-1,30,21.25043575116273,-9999,33848.023561125,-0.77777099609375,0.5631561279296875,-0.2756500244140625,33848.018523125,-0.29642827517062,-1.227684140218141,-0.5960717531605265,-0.008198710158467293,0.009735070168972015,-0.003591453656554222,-0.0001838803291320801,0.002767086029052734,0.00247839093208313,XArbitraryZVertical,-0.3187154259304483,-0.5091355244989325,0.05189618695585068,0.7978145660335596,-0.7793112397193909,0.5613960027694702,-0.2784029841423035,0,0,0,-1,-1,33839.37413354167,unknown,2,2025-04-22T13:36:28.007+03:00,2025-04-21T17:08:51.449+03:00,7462,1.01963,0,0,6211.912,5,20,2025-04-22T13:34:37.085+03:00,767010995.8481008,0,-20.18999,100.4446,1,0.65,2025-04-22T13:36:14.479+03:00,85,1.416666666666667,2025-04-22T09:54:17.825+03:00,0.02225348692287972,0
2025-04-22T13:36:36.672+03:00,1745318195.342109,40.95217608864979,29.14027786161256,75.95301,-1,-1,-1,-1,30,21.25043575116273,-9999,33848.033638125,-0.776641845703125,0.5628662109375,-0.276214599609375,33848.028599125,-0.2965495999302259,-1.227688284359231,-0.5960760695887386,-0.00583861768245697,0.007921990007162094,-0.002435641828924417,0.0004559159278869629,0.002229511737823486,0.002993106842041016,XArbitraryZVertical,-0.3187477892813784,-0.5091172239244768,0.05184966356681237,0.7978164535997924,-0.7793102860450745,0.5613995790481567,-0.2783989906311035,0,0,0,-1,-1,33839.37413354167,unknown,2,2025-04-22T13:36:28.007+03:00,2025-04-21T17:08:51.449+03:00,7462,1.01963,0,0,6211.912,5,20,2025-04-22T13:34:37.085+03:00,767010995.8481008,0,-20.18999,100.4446,1,0.65,2025-04-22T13:36:14.479+03:00,85,1.416666666666667,2025-04-22T09:54:17.825+03:00,0.02225348692287972,0
2025-04-22T13:36:36.682+03:00,1745318195.342109,40.95217608864979,29.14027786161256,75.95301,-1,-1,-1,-1,30,21.25043575116273,-9999,33848.043714125,-0.7738494873046875,0.5617218017578125,-0.27459716796875,33848.038676125,-0.2966641378070088,-1.227729496434152,-0.596081658943262,-0.005386279430240393,0.001197108533233404,-0.003680603113025427,0.002097070217132568,0.00179755687713623,0.002135962247848511,XArbitraryZVertical,-0.3187779912492115,-0.5091146254473288,0.05181219533790121,0.7978083835416652,-0.779318630695343,0.5614042282104492,-0.2783657908439636,0,0,0,-1,-1,33839.37413354167,unknown,2,2025-04-22T13:36:28.007+03:00,2025-04-21T17:08:51.449+03:00,7462,1.01963,0,0,6211.912,5,20,2025-04-22T13:34:37.085+03:00,767010995.8481008,0,-20.18999,100.4446,1,0.65,2025-04-22T13:36:14.479+03:00,85,1.416666666666667,2025-04-22T09:54:17.825+03:00,0.02225348692287972,0
2025-04-22T13:36:36.692+03:00,1745318195.342109,40.95217608864979,29.14027786161256,75.95301,-1,-1,-1,-1,30,21.25043575116273,-9999,33848.053791125,-0.774993896484375,0.5616302490234375,-0.2759246826171875,33848.048752125,-0.2967871011561935,-1.227776495975698,-0.5960733834325396,-0.01087185833603144,0.007082161959260702,-0.001845418708398938,0.004174470901489258,0.0004311203956604004,0.003169029951095581,XArbitraryZVertical,-0.3188049795008143,-0.5091149434495404,0.05176823393356729,0.7978002572672126,-0.7793360948562622,0.5613973736763,-0.2783307135105133,0,0,0,-1,-1,33839.37413354167,unknown,2,2025-04-22T13:36:28.007+03:00,2025-04-21T17:08:51.449+03:00,7462,1.01963,0,0,6211.912,5,20,2025-04-22T13:34:37.085+03:00,767010995.8481008,0,-20.18999,100.4446,1,0.65,2025-04-22T13:36:14.479+03:00,85,1.416666666666667,2025-04-22T09:54:17.825+03:00,0.02225348692287972,0
2025-04-22T13:36:36.705+03:00,1745318195.342109,40.95217608864979,29.14027786161256,75.95301,-1,-1,-1,-1,30,21.25043575116273,-9999,33848.06386712501,-0.7756195068359375,0.5565338134765625,-0.27606201171875,33848.058829125,-0.2969431703529125,-1.227807588731396,-0.5960832585785841,-0.01272288896143436,0.004798633977770805,-0.0003316113725304604,0.005215466022491455,0.0004534721374511719,0.00244101881980896,XArbitraryZVertical,-0.3188475984529565,-0.5091010711828446,0.0517138032695484,0.7977955951594005,-0.7793395519256592,0.5614055395126343,-0.2783046066761017,0,0,0,-1,-1,33839.37413354167,unknown,2,2025-04-22T13:36:28.007+03:00,2025-04-21T17:08:51.449+03:00,7462,1.01963,0,0,6211.912,5,20,2025-04-22T13:34:37.085+03:00,767010995.8481008,0,-20.18999,100.4446,1,0.65,2025-04-22T13:36:14.479+03:00,85,1.416666666666667,2025-04-22T09:54:17.825+03:00,0.02225348692287972,0
2025-04-22T13:36:36.712+03:00,1745318195.342109,40.95217608864979,29.14027786161256,75.95301,-1,-1,-1,-1,30,21.25043575116273,-9999,33848.073944125,-0.775604248046875,0.560638427734375,-0.27130126953125,33848.068906125,-0.2970898340149393,-1.227841231197031,-0.596157377538948,-0.01053137332201004,0.006088403053581715,-0.0005329463165253401,0.003476738929748535,-0.00307154655456543,0.002171933650970459,XArbitraryZVertical,-0.3189117435117125,-0.5090806134057423,0.0516821243254725,0.7977851781789562,-0.779309868812561,0.5614668726921082,-0.2782644629478455,0,0,0,-1,-1,33839.37413354167,unknown,2,2025-04-22T13:36:28.007+03:00,2025-04-21T17:08:51.449+03:00,7462,1.01963,0,0,6211.912,5,20,2025-04-22T13:34:37.085+03:00,767010995.8481008,0,-20.18999,100.4446,1,0.65,2025-04-22T13:36:14.479+03:00,85,1.416666666666667,2025-04-22T09:54:17.825+03:00,0.02225348692287972,0
2025-04-22T13:36:36.722+03:00,1745318195.342109,40.95217608864979,29.14027786161256,75.95301,-1,-1,-1,-1,30,21.25043575116273,-9999,33848.084020125,-0.7799530029296875,0.561920166015625,-0.272308349609375,33848.078982125,-0.2972615866170683,-1.227858898673536,-0.5962492302617239,-0.01425746828317642,0.01305889431387186,0.001880909665487707,0.003875553607940674,-0.003498494625091553,0.005162060260772705,XArbitraryZVertical,-0.3189893496903455,-0.5090472754072816,0.05164308564856869,0.7977779218104933,-0.7792661786079407,0.5615428686141968,-0.2782333195209503,0,0,0,-1,-1,33839.37413354167,unknown,2,2025-04-22T13:36:28.007+03:00,2025-04-21T17:08:51.449+03:00,7462,1.01963,0,0,6211.912,5,20,2025-04-22T13:34:37.085+03:00,767010995.8481008,0,-20.18999,100.4446,1,0.65,2025-04-22T13:36:14.479+03:00,85,1.416666666666667,2025-04-22T09:54:17.825+03:00,0.02225348692287972,0
2025-04-22T13:36:36.732+03:00,1745318195.342109,40.95217608864979,29.14027786161256,75.95301,-1,-1,-1,-1,30,21.25043575116273,-9999,33848.094097125,-0.779510498046875,0.5571441650390625,-0.2773895263671875,33848.089059125,-0.2974669904818656,-1.227846588772562,-0.5963479938773738,-0.01633526757359505,0.01307487301528454,4.180008545517921e-06,0.001164853572845459,0.001363635063171387,0.007136642932891846,XArbitraryZVertical,-0.3190788664968568,-0.5089956202192852,0.05158784026090107,0.7977786496967547,-0.7792105078697205,0.5616245865821838,-0.2782242596149445,0,0,0,-1,-1,33839.37413354167,unknown,2,2025-04-22T13:36:28.007+03:00,2025-04-21T17:08:51.449+03:00,7462,1.01963,0,0,6211.912,5,20,2025-04-22T13:34:37.085+03:00,767010995.8481008,0,-20.18999,100.4446,1,0.65,2025-04-22T13:36:14.479+03:00,85,1.416666666666667,2025-04-22T09:54:17.825+03:00,0.02225348692287972,0
2025-04-22T13:36:36.742+03:00,1745318195.342109,40.95217608864979,29.14027786161256,75.95301,-1,-1,-1,-1,30,21.25043575116273,-9999,33848.104173125,-0.7731781005859375,0.564239501953125,-0.275726318359375,33848.099135125,-0.2976587070468096,-1.2278641731503,-0.5964156990114839,-0.01157513353973627,0.007372512482106686,0.0008904800051823258,-0.002253472805023193,-0.00436866283416748,0.003036081790924072,XArbitraryZVertical,-0.3191525069652745,-0.508962456350737,0.05153380709976936,0.7977738608108823,-0.779179573059082,0.5616806149482727,-0.2781977951526642,0,0,0,-1,-1,33839.37413354167,unknown,2,2025-04-22T13:36:28.007+03:00,2025-04-21T17:08:51.449+03:00,7462,1.01963,0,0,6211.912,5,20,2025-04-22T13:34:37.085+03:00,767010995.8481008,0,-20.18999,100.4446,1,0.65,2025-04-22T13:36:14.479+03:00,85,1.416666666666667,2025-04-22T09:54:17.825+03:00,0.02225348692287972,0
2025-04-22T13:36:36.752+03:00,1745318195.342109,40.95217608864979,29.14027786161256,75.95301,-1,-1,-1,-1,30,21.25043575116273,-9999,33848.114250125,-0.7718963623046875,0.568511962890625,-0.2746734619140625,33848.109212125,-0.2977944617874419,-1.227872323782575,-0.5964514671987938,-0.009820376522839069,0.009537396021187305,-0.002991609741002321,0.003894388675689697,-0.0009803175926208496,0.001664936542510986,XArbitraryZVertical,-0.3192002224564697,-0.5089389795456528,0.05149134643484455,0.7977724506131758,-0.7791628837585449,0.5617101788520813,-0.2781846523284912,0,0,0,-1,-1,33839.37413354167,unknown,2,2025-04-22T13:36:28.007+03:00,2025-04-21T17:08:51.449+03:00,7462,1.01963,0,0,6211.912,5,20,2025-04-22T13:34:37.085+03:00,767010995.8481008,0,-20.18999,100.4446,1,0.65,2025-04-22T13:36:14.479+03:00,85,1.416666666666667,2025-04-22T09:54:17.825+03:00,0.02225348692287972,0
2025-04-22T13:36:36.762+03:00,1745318195.342109,40.95217608864979,29.14027786161256,75.95301,-1,-1,-1,-1,30,21.25043575116273,-9999,33848.124327125,-0.7743988037109375,0.56268310546875,-0.275604248046875,33848.119288125,-0.2979329089116223,-1.227866008588285,-0.5964799104492555,-0.01190416608005762,0.009315155446529388,-0.004449624102562666,0.008226335048675537,0.007098555564880371,0.003846466541290283,XArbitraryZVertical,-0.3192462401129064,-0.5089103315929824,0.0514433573529527,0.7977754312719738,-0.779146134853363,0.5617337226867676,-0.2781842350959778,0,0,0,-1,-1,33839.37413354167,unknown,2,2025-04-22T13:36:28.007+03:00,2025-04-21T17:08:51.449+03:00,7462,1.01963,0,0,6211.912,5,20,2025-04-22T13:34:37.085+03:00,767010995.8481008,0,-20.18999,100.4446,1,0.65,2025-04-22T13:36:14.479+03:00,85,1.416666666666667,2025-04-22T09:54:17.825+03:00,0.02225348692287972,0
2025-04-22T13:36:36.772+03:00,1745318195.342109,40.95217608864979,29.14027786161256,75.95301,-1,-1,-1,-1,30,21.25043575116273,-9999,33848.134403125,-0.7738037109375,0.56201171875,-0.277008056640625,33848.129365125,-0.2980895434067181,-1.227902932143543,-0.5964997907526585,-0.01293880399316549,0.005711632315069437,-0.002013097982853651,0.005510032176971436,0.002824962139129639,0.003478288650512695,XArbitraryZVertical,-0.3192925827243073,-0.5088972402830649,0.05139254733889171,0.7977684882728675,-0.7791458368301392,0.5617501735687256,-0.2781516909599304,0,0,0,-1,-1,33839.37413354167,unknown,2,2025-04-22T13:36:28.007+03:00,2025-04-21T17:08:51.449+03:00,7462,1.01963,0,0,6211.912,5,20,2025-04-22T13:34:37.085+03:00,767010995.8481008,0,-20.18999,100.4446,1,0.65,2025-04-22T13:36:14.479+03:00,85,1.416666666666667,2025-04-22T09:54:17.825+03:00,0.02225348692287972,0
2025-04-22T13:36:36.783+03:00,1745318195.342109,40.95217608864979,29.14027786161256,75.95301,-1,-1,-1,-1,30,21.25043575116273,-9999,33848.144480125,-0.773895263671875,0.562255859375,-0.27581787109375,33848.139441125,-0.298262635460455,-1.227940923880363,-0.5965434160255487,-0.01563072763383389,0.003966729156672955,-0.003048002254217863,0.004688739776611328,-0.0006595849990844727,0.0008921921253204346,XArbitraryZVertical,-0.3193519348012922,-0.5088785696708501,0.05134220095283637,0.7977599584618512,-0.7791334390640259,0.5617862343788147,-0.2781138718128204,0,0,0,-1,-1,33839.37413354167,unknown,2,2025-04-22T13:36:28.007+03:00,2025-04-21T17:08:51.449+03:00,7462,1.01963,0,0,6211.912,5,20,2025-04-22T13:34:37.085+03:00,767010995.8481008,0,-20.18999,100.4446,1,0.65,2025-04-22T13:36:14.479+03:00,85,1.416666666666667,2025-04-22T09:54:17.825+03:00,0.02225348692287972,0
2025-04-22T13:36:36.793+03:00,1745318195.342109,40.95217608864979,29.14027786161256,75.95301,-1,-1,-1,-1,30,21.25043575116273,-9999,33848.154556125,-0.775054931640625,0.5582122802734375,-0.2743072509765625,33848.149518125,-0.2984792602368476,-1.227977296559581,-0.5965777554355173,-0.02059006690979004,0.00998360849916935,-0.0009760630782693624,0.00548940896987915,0.001143038272857666,0.001360923051834106,XArbitraryZVertical,-0.3194189525732768,-0.5088536164318093,0.05127156724980132,0.7977535822084926,-0.7791253924369812,0.5618146657943726,-0.2780790627002716,0,0,0,-1,-1,33839.37413354167,unknown,2,2025-04-22T13:36:28.007+03:00,2025-04-21T17:08:51.449+03:00,7462,1.01963,0,0,6211.912,5,20,2025-04-22T13:34:37.085+03:00,767010995.8481008,0,-20.18999,100.4446,1,0.65,2025-04-22T13:36:14.479+03:00,85,1.416666666666667,2025-04-22T09:54:17.825+03:00,0.02225348692287972,0
2025-04-22T13:36:36.803+03:00,1745318195.342109,40.95217608864979,29.14027786161256,75.95301,-1,-1,-1,-1,30,21.25043575116273,-9999,33848.164633125,-0.773712158203125,0.5607452392578125,-0.274139404296875,33848.15959412501,-0.2987277534368477,-1.228066349171857,-0.5966259721453252,-0.02159128151834011,0.00645265681669116,-0.002171089872717857,0.004283308982849121,-0.002650558948516846,0.003311872482299805,XArbitraryZVertical,-0.319497914345545,-0.5088426077506787,0.0512006685653291,0.7977335266583646,-0.7791246175765991,0.5618545413017273,-0.2780005633831024,0,0,0,-1,-1,33839.37413354167,unknown,2,2025-04-22T13:36:28.007+03:00,2025-04-21T17:08:51.449+03:00,7462,1.01963,0,0,6211.912,5,20,2025-04-22T13:34:37.085+03:00,767010995.8481008,0,-20.18999,100.4446,1,0.65,2025-04-22T13:36:14.479+03:00,85,1.416666666666667,2025-04-22T09:54:17.825+03:00,0.02225348692287972,0
2025-04-22T13:36:36.813+03:00,1745318195.342109,40.95217608864979,29.14027786161256,75.95301,-1,-1,-1,-1,30,21.25043575116273,-9999,33848.174709125,-0.7728424072265625,0.5613555908203125,-0.27569580078125,33848.169671125,-0.298991061924876,-1.228210862869814,-0.5966945671381817,-0.01972973346710205,0.005471814423799515,-0.0001433591824024916,0.004454970359802246,-0.002569913864135742,0.003811925649642944,XArbitraryZVertical,-0.3195868314608467,-0.508848444165839,0.05113863034055821,0.7976981951830923,-0.7791284918785095,0.5619112849235535,-0.2778750360012054,0,0,0,-1,-1,33839.37413354167,unknown,2,2025-04-22T13:36:28.007+03:00,2025-04-21T17:08:51.449+03:00,7462,1.01963,0,0,6211.912,5,20,2025-04-22T13:34:37.085+03:00,767010995.8481008,0,-20.18999,100.4446,1,0.65,2025-04-22T13:36:14.479+03:00,85,1.416666666666667,2025-04-22T09:54:17.825+03:00,0.02225348692287972,0
2025-04-22T13:36:36.823+03:00,1745318195.342109,40.95217608864979,29.14027786161256,75.95301,-1,-1,-1,-1,30,21.25043575116273,-9999,33848.184786125,-0.7760772705078125,0.561431884765625,-0.27593994140625,33848.179748125,-0.2992435848787385,-1.228300801383663,-0.5967358968889936,-0.02077182754874229,0.00959518738090992,0.0002933992072939873,0.006701111793518066,-0.0003001093864440918,0.002391248941421509,XArbitraryZVertical,-0.3196642656595078,-0.508838105695272,0.05106434064996044,0.7976783452736036,-0.7791314125061035,0.5619454979896545,-0.2777970731258392,0,0,0,-1,-1,33839.37413354167,unknown,2,2025-04-22T13:36:28.007+03:00,2025-04-21T17:08:51.449+03:00,7462,1.01963,0,0,6211.912,5,20,2025-04-22T13:34:37.085+03:00,767010995.8481008,0,-20.18999,100.4446,1,0.65,2025-04-22T13:36:14.479+03:00,85,1.416666666666667,2025-04-22T09:54:17.825+03:00,0.02225348692287972,0
2025-04-22T13:36:36.833+03:00,1745318195.342109,40.95217608864979,29.14027786161256,75.95301,-1,-1,-1,-1,30,21.25043575116273,-9999,33848.194862125,-0.779022216796875,0.5634918212890625,-0.276397705078125,33848.189824125,-0.2994779465226193,-1.22834709462648,-0.5967961187779814,-0.0156811960041523,0.01115420088171959,-0.002942607738077641,0.004484832286834717,-0.001219689846038818,0.002679556608200073,XArbitraryZVertical,-0.3197451893090641,-0.508810549252141,0.05099572441702951,0.7976679471837613,-0.7791124582290649,0.5619953274726868,-0.2777496874332428,0,0,0,-1,-1,33839.37413354167,unknown,2,2025-04-22T13:36:28.007+03:00,2025-04-21T17:08:51.449+03:00,7462,1.01963,0,0,6211.912,5,20,2025-04-22T13:34:37.085+03:00,767010995.8481008,0,-20.18999,100.4446,1,0.65,2025-04-22T13:36:14.479+03:00,85,1.416666666666667,2025-04-22T09:54:17.825+03:00,0.02225348692287972,0
2025-04-22T13:36:36.843+03:00,1745318195.342109,40.95217608864979,29.14027786161256,75.95301,-1,-1,-1,-1,30,21.25043575116273,-9999,33848.204939125,-0.7774810791015625,0.5638885498046875,-0.27593994140625,33848.199901125,-0.2996991600096648,-1.228372210608036,-0.5969240504313773,-0.01811359263956547,0.007948420941829681,-0.002074350602924824,0.0006704330444335938,0.001283764839172363,0.0008505284786224365,XArbitraryZVertical,-0.3198486291544368,-0.5087670258470597,0.05094866824213494,0.7976571793087989,-0.7790516018867493,0.5621011257171631,-0.2777059376239777,0,0,0,-1,-1,33839.37413354167,unknown,2,2025-04-22T13:36:28.007+03:00,2025-04-21T17:08:51.449+03:00,7462,1.01963,0,0,6211.912,5,20,2025-04-22T13:34:37.085+03:00,767010995.8481008,0,-20.18999,100.4446,1,0.65,2025-04-22T13:36:14.479+03:00,85,1.416666666666667,2025-04-22T09:54:17.825+03:00,0.02225348692287972,0
2025-04-22T13:36:36.853+03:00,1745318195.342109,40.95217608864979,29.14027786161256,75.95301,-1,-1,-1,-1,30,21.25043575116273,-9999,33848.215015125,-0.7737579345703125,0.5636138916015625,-0.2751312255859375,33848.209977125,-0.2999045037621242,-1.228415004394886,-0.5970049037208135,-0.01416865270584822,0.006545467767864466,-0.003513256553560495,-0.0001692771911621094,0.001628994941711426,0.002053171396255493,XArbitraryZVertical,-0.3199299334245984,-0.5087397472046702,0.05089703005645994,0.7976454328609893,-0.7790209054946899,0.5621680021286011,-0.2776574194431305,0,0,0,-1,-1,33839.37413354167,unknown,2,2025-04-22T13:36:28.007+03:00,2025-04-21T17:08:51.449+03:00,7462,1.01963,0,0,6211.912,5,20,2025-04-22T13:34:37.085+03:00,767010995.8481008,0,-20.18999,100.4446,1,0.65,2025-04-22T13:36:14.479+03:00,85,1.416666666666667,2025-04-22T09:54:17.825+03:00,0.02225348692287972,0
2025-04-22T13:36:36.863+03:00,1745318195.342109,40.95217608864979,29.14027786161256,75.95301,-1,-1,-1,-1,30,21.25043575116273,-9999,33848.225092125,-0.775543212890625,0.5644989013671875,-0.2736968994140625,33848.220054125,-0.300090293487786,-1.228401759886442,-0.5970500034203564,-0.01632974110543728,0.01224549859762192,-0.001104127848520875,0.004396140575408936,0.0004624724388122559,0.001978695392608643,XArbitraryZVertical,-0.3199943807272044,-0.5086983334555735,0.05083391678528947,0.7976499839290663,-0.7789933085441589,0.5622052550315857,-0.2776592075824738,0,0,0,-1,-1,33839.37413354167,unknown,2,2025-04-22T13:36:28.007+03:00,2025-04-21T17:08:51.449+03:00,7462,1.01963,0,0,6211.912,5,20,2025-04-22T13:34:37.085+03:00,767010995.8481008,0,-20.18999,100.4446,1,0.65,2025-04-22T13:36:14.479+03:00,85,1.416666666666667,2025-04-22T09:54:17.825+03:00,0.02225348692287972,0
2025-04-22T13:36:36.873+03:00,1745318195.342109,40.95217608864979,29.14027786161256,75.95301,-1,-1,-1,-1,30,21.25043575116273,-9999,33848.235169125,-0.7758026123046875,0.5631103515625,-0.2735137939453125,33848.230130125,-0.3002869733794563,-1.228372488264557,-0.5971271059285507,-0.01986668445169926,0.01223005168139935,-0.001389352371916175,0.004301369190216064,0.001863539218902588,0.003756940364837646,XArbitraryZVertical,-0.3200739503880969,-0.5086442252210485,0.05077318260040975,0.7976564038536583,-0.7789443135261536,0.5622690320014954,-0.2776674330234528,0,0,0,-1,-1,33839.37413354167,unknown,2,2025-04-22T13:36:28.007+03:00,2025-04-21T17:08:51.449+03:00,7462,1.01963,0,0,6211.912,5,20,2025-04-22T13:34:37.085+03:00,767010995.8481008,0,-20.18999,100.4446,1,0.65,2025-04-22T13:36:14.479+03:00,85,1.416666666666667,2025-04-22T09:54:17.825+03:00,0.02225348692287972,0
2025-04-22T13:36:36.883+03:00,1745318195.342109,40.95217608864979,29.14027786161256,75.95301,-1,-1,-1,-1,30,21.25043575116273,-9999,33848.245245125,-0.773406982421875,0.5624237060546875,-0.2735748291015625,33848.240207125,-0.3004929578833675,-1.228371667275534,-0.5971982323884548,-0.01542353350669146,0.009025669656693935,0.002605489222332835,0.002081513404846191,0.001697897911071777,0.003698378801345825,XArbitraryZVertical,-0.3201529240677214,-0.5086008128264105,0.05071155322370268,0.797656289946596,-0.7789063453674316,0.5623278617858887,-0.2776546478271484,0,0,0,-1,-1,33839.37413354167,unknown,2,2025-04-22T13:36:28.007+03:00,2025-04-21T17:08:51.449+03:00,7462,1.01963,0,0,6211.912,5,20,2025-04-22T13:34:37.085+03:00,767010995.8481008,0,-20.18999,100.4446,1,0.65,2025-04-22T13:36:14.479+03:00,85,1.416666666666667,2025-04-22T09:54:17.825+03:00,0.02225348692287972,0
2025-04-22T13:36:36.894+03:00,1745318195.342109,40.95217608864979,29.14027786161256,75.95301,-1,-1,-1,-1,30,21.25043575116273,-9999,33848.25532212501,-0.773681640625,0.5608673095703125,-0.2758331298828125,33848.250283125,-0.3007003537561322,-1.228377273749656,-0.5972728780588996,-0.0202848669141531,0.01293252781033516,0.000632086768746376,0.005385100841522217,0.0002018213272094727,0.003908783197402954,XArbitraryZVertical,-0.3202334106981188,-0.5085592280679671,0.05065142382721705,0.7976542586957127,-0.7788683176040649,0.562389612197876,-0.2776361405849457,0,0,0,-1,-1,33839.37413354167,unknown,2,2025-04-22T13:36:28.007+03:00,2025-04-21T17:08:51.449+03:00,7462,1.01963,0,0,6211.912,5,20,2025-04-22T13:34:37.085+03:00,767010995.8481008,0,-20.18999,100.4446,1,0.65,2025-04-22T13:36:14.479+03:00,85,1.416666666666667,2025-04-22T09:54:17.825+03:00,0.02225348692287972,0
2025-04-22T13:36:36.903+03:00,1745318195.342109,40.95217608864979,29.14027786161256,75.95301,-1,-1,-1,-1,30,21.25043575116273,-9999,33848.265398125,-0.7745819091796875,0.5615997314453125,-0.277435302734375,33848.260360125,-0.3009425425937549,-1.228389686138864,-0.5973761030064115,-0.01958399079740047,0.01166080124676228,2.525222953408957e-05,0.005730628967285156,-0.001302599906921387,0.003254026174545288,XArbitraryZVertical,-0.320333222725027,-0.5085107000057895,0.05058678589892544,0.7976492234288904,-0.7788170576095581,0.5624749660491943,-0.2776069939136505,0,0,0,-1,-1,33839.37413354167,unknown,2,2025-04-22T13:36:28.007+03:00,2025-04-21T17:08:51.449+03:00,7462,1.01963,0,0,6211.912,5,20,2025-04-22T13:34:37.085+03:00,767010995.8481008,0,-20.18999,100.4446,1,0.65,2025-04-22T13:36:14.479+03:00,85,1.416666666666667,2025-04-22T09:54:17.825+03:00,0.02225348692287972,0
2025-04-22T13:36:36.915+03:00,1745318195.342109,40.95217608864979,29.14027786161256,75.95301,-1,-1,-1,-1,30,21.25043575116273,-9999,33848.275475125,-0.7741241455078125,0.562957763671875,-0.276275634765625,33848.270437125,-0.3011872203434063,-1.228431410879435,-0.5974465023063357,-0.02312865853309631,0.0081986915320158,0.0008433752809651196,0.003934860229492188,-0.001925349235534668,0.0007973313331604004,XArbitraryZVertical,-0.320420659739876,-0.5084781200460103,0.05051632019335347,0.7976393526428244,-0.7787913680076599,0.5625331401824951,-0.277561217546463,0,0,0,-1,-1,33839.37413354167,unknown,2,2025-04-22T13:36:28.007+03:00,2025-04-21T17:08:51.449+03:00,7462,1.01963,0,0,6211.912,5,20,2025-04-22T13:34:37.085+03:00,767010995.8481008,0,-20.18999,100.4446,1,0.65,2025-04-22T13:36:14.479+03:00,85,1.416666666666667,2025-04-22T09:54:17.825+03:00,0.02225348692287972,0
2025-04-22T13:36:36.925+03:00,1745318195.342109,40.95217608864979,29.14027786161256,75.95301,-1,-1,-1,-1,30,21.25043575116273,-9999,33848.285551125,-0.77313232421875,0.566253662109375,-0.2758636474609375,33848.280513125,-0.3013827343219114,-1.228478335706262,-0.5974961510332201,-0.01370086800307035,0.006447064224630594,-0.003710397053509951,0.004882931709289551,0.0002308487892150879,0.001071840524673462,XArbitraryZVertical,-0.3204877177879789,-0.508458434924256,0.05046027813905685,0.7976285102520076,-0.778778076171875,0.5625742077827454,-0.2775152921676636,0,0,0,-1,-1,33839.37413354167,unknown,2,2025-04-22T13:36:28.007+03:00,2025-04-21T17:08:51.449+03:00,7462,1.01963,0,0,6211.912,5,20,2025-04-22T13:34:37.085+03:00,767010995.8481008,0,-20.18999,100.4446,1,0.65,2025-04-22T13:36:14.479+03:00,85,1.416666666666667,2025-04-22T09:54:17.825+03:00,0.02225348692287972,0
2025-04-22T13:36:36.934+03:00,1745318195.342109,40.95217608864979,29.14027786161256,75.95301,-1,-1,-1,-1,30,21.25043575116273,-9999,33848.295628125,-0.7747650146484375,0.566802978515625,-0.2776641845703125,33848.29059012501,-0.3015621974660772,-1.228503925977541,-0.5975163928836328,-0.01160123199224472,0.009192517027258873,-0.005775145720690489,0.005077600479125977,0.002075672149658203,0.002009421586990356,XArbitraryZVertical,-0.3205402571963138,-0.5084369971500785,0.05039868899318489,0.7976249425609516,-0.7787744402885437,0.5625908970832825,-0.2774915397167206,0,0,0,-1,-1,33839.37413354167,unknown,2,2025-04-22T13:36:28.007+03:00,2025-04-21T17:08:51.449+03:00,7462,1.01963,0,0,6211.912,5,20,2025-04-22T13:34:37.085+03:00,767010995.8481008,0,-20.18999,100.4446,1,0.65,2025-04-22T13:36:14.479+03:00,85,1.416666666666667,2025-04-22T09:54:17.825+03:00,0.02225348692287972,0
2025-04-22T13:36:36.944+03:00,1745318195.342109,40.95217608864979,29.14027786161256,75.95301,-1,-1,-1,-1,30,21.25043575116273,-9999,33848.305704125,-0.776153564453125,0.566680908203125,-0.277618408203125,33848.300666125,-0.3017028356366541,-1.22851683611648,-0.5975023783096186,-0.01041099801659584,0.006034074816852808,-0.008495131507515907,0.004356265068054199,0.004482865333557129,0.0008728206157684326,XArbitraryZVertical,-0.320570443418309,-0.5084215995665092,0.05034058863082175,0.7976263307539062,-0.7787855267524719,0.562579333782196,-0.2774841487407684,0,0,0,-1,-1,33839.37413354167,unknown,2,2025-04-22T13:36:28.007+03:00,2025-04-21T17:08:51.449+03:00,7462,1.01963,0,0,6211.912,5,20,2025-04-22T13:34:37.085+03:00,767010995.8481008,0,-20.18999,100.4446,1,0.65,2025-04-22T13:36:14.479+03:00,85,1.416666666666667,2025-04-22T09:54:17.825+03:00,0.02225348692287972,0
2025-04-22T13:36:36.954+03:00,1745318195.342109,40.95217608864979,29.14027786161256,75.95301,-1,-1,-1,-1,30,21.25043575116273,-9999,33848.315781125,-0.7749481201171875,0.56512451171875,-0.2773284912109375,33848.310743125,-0.3018965630974444,-1.228579251520149,-0.5974858684862647,-0.01106373872607946,0.007834105752408504,-0.00845305435359478,0.002307116985321045,0.003642082214355469,-0.0003628134727478027,XArbitraryZVertical,-0.3206119491796169,-0.5084177889617847,0.05026852753214032,0.7976166559840303,-0.7788116335868835,0.5625656843185425,-0.2774386703968048,0,0,0,-1,-1,33839.37413354167,unknown,2,2025-04-22T13:36:28.007+03:00,2025-04-21T17:08:51.449+03:00,7462,1.01963,0,0,6211.912,5,20,2025-04-22T13:34:37.085+03:00,767010995.8481008,0,-20.18999,100.4446,1,0.65,2025-04-22T13:36:14.479+03:00,85,1.416666666666667,2025-04-22T09:54:17.825+03:00,0.02225348692287972,0
2025-04-22T13:36:36.964+03:00,1745318195.342109,40.95217608864979,29.14027786161256,75.95301,-1,-1,-1,-1,30,21.25043575116273,-9999,33848.325858125,-0.7752838134765625,0.5631103515625,-0.2763214111328125,33848.320819125,-0.3020522287208265,-1.228596882113694,-0.5974630404012293,-0.008835938759148121,0.008383048698306084,-0.006895604077726603,0.002980232238769531,0.003538906574249268,0.0001465678215026855,XArbitraryZVertical,-0.3206425596007288,-0.5084031210176621,0.05020264946119601,0.7976178345817604,-0.7788285613059998,0.5625467896461487,-0.2774292230606079,0,0,0,-1,-1,33839.37413354167,unknown,2,2025-04-22T13:36:28.007+03:00,2025-04-21T17:08:51.449+03:00,7462,1.01963,0,0,6211.912,5,20,2025-04-22T13:34:37.085+03:00,767010995.8481008,0,-20.18999,100.4446,1,0.65,2025-04-22T13:36:14.479+03:00,85,1.416666666666667,2025-04-22T09:54:17.825+03:00,0.02225348692287972,0
2025-04-22T13:36:36.974+03:00,1745318195.342109,40.95217608864979,29.14027786161256,75.95301,-1,-1,-1,-1,30,21.25043575116273,-9999,33848.335934125,-0.7755126953125,0.5615386962890625,-0.274993896484375,33848.330896125,-0.3022012314351022,-1.228606567392679,-0.5974603007096057,-0.01241948828101158,0.005414157174527645,-0.006387206725776196,0.004556059837341309,0.0009014010429382324,0.0007804036140441895,XArbitraryZVertical,-0.3206791657069786,-0.5083834834187224,0.05014397731988079,0.7976193425738871,-0.778832733631134,0.5625445246696472,-0.2774222195148468,0,0,0,-1,-1,33839.37413354167,unknown,2,2025-04-22T13:36:28.007+03:00,2025-04-21T17:08:51.449+03:00,7462,1.01963,0,0,6211.912,5,20,2025-04-22T13:34:37.085+03:00,767010995.8481008,0,-20.18999,100.4446,1,0.65,2025-04-22T13:36:14.479+03:00,85,1.416666666666667,2025-04-22T09:54:17.825+03:00,0.02225348692287972,0
2025-04-22T13:36:36.984+03:00,1745318195.342109,40.95217608864979,29.14027786161256,75.95301,-1,-1,-1,-1,30,21.25043575116273,-9999,33848.346011125,-0.7751617431640625,0.559600830078125,-0.273651123046875,33848.340972125,-0.3023795438845819,-1.228658542706989,-0.5974874030213423,-0.01452658139169216,0.00329721043817699,-0.003893689019605517,0.003213346004486084,-0.0003111958503723145,0.001665592193603516,XArbitraryZVertical,-0.3207333017315375,-0.5083717515913813,0.05008906608916909,0.7976085148972712,-0.7788327932357788,0.5625669360160828,-0.2773766219615936,0,0,0,-1,-1,33839.37413354167,unknown,2,2025-04-22T13:36:28.007+03:00,2025-04-21T17:08:51.449+03:00,7462,1.01963,0,0,6211.912,5,20,2025-04-22T13:34:37.085+03:00,767010995.8481008,0,-20.18999,100.4446,1,0.65,2025-04-22T13:36:14.479+03:00,85,1.416666666666667,2025-04-22T09:54:17.825+03:00,0.02225348692287972,0
2025-04-22T13:36:36.994+03:00,1745318195.342109,40.95217608864979,29.14027786161256,75.95301,-1,-1,-1,-1,30,21.25043575116273,-9999,33848.356087125,-0.7754669189453125,0.558258056640625,-0.2764892578125,33848.35104912501,-0.3025787170127188,-1.228724294471468,-0.597533857208585,-0.01864569261670113,0.003985371440649033,-0.001288851257413626,0.003969907760620117,-0.002134859561920166,0.004047036170959473,XArbitraryZVertical,-0.3207996163635625,-0.5083593994605639,0.05003366641631922,0.7975932133584287,-0.7788264751434326,0.5626053810119629,-0.2773166596889496,0,0,0,-1,-1,33839.37413354167,unknown,2,2025-04-22T13:36:28.007+03:00,2025-04-21T17:08:51.449+03:00,7462,1.01963,0,0,6211.912,5,20,2025-04-22T13:34:37.085+03:00,767010995.8481008,0,-20.18999,100.4446,1,0.65,2025-04-22T13:36:14.479+03:00,85,1.416666666666667,2025-04-22T09:54:17.825+03:00,0.02225348692287972,0
2025-04-22T13:36:37.004+03:00,1745318195.342109,40.95217608864979,29.14027786161256,75.95301,-1,-1,-1,-1,30,21.25043575116273,-9999,33848.366164125,-0.7742919921875,0.561279296875,-0.27630615234375,33848.361125125,-0.30279901286185,-1.228813612439731,-0.5975836663959246,-0.01650131493806839,0.002143529243767262,-0.005156826693564653,0.004441320896148682,-0.004190206527709961,0.00158768892288208,XArbitraryZVertical,-0.3208719594998852,-0.5083525674051583,0.04997459930022293,0.7975721996005645,-0.7788248658180237,0.5626465678215027,-0.2772377133369446,0,0,0,-1,-1,33839.37413354167,unknown,2,2025-04-22T13:36:28.007+03:00,2025-04-21T17:08:51.449+03:00,7462,1.01963,0,0,6211.912,5,20,2025-04-22T13:34:37.085+03:00,767010995.8481008,0,-20.18999,100.4446,1,0.65,2025-04-22T13:36:14.479+03:00,85,1.416666666666667,2025-04-22T09:54:17.825+03:00,0.02225348692287972,0
2025-04-22T13:36:37.015+03:00,1745318195.342109,40.95217608864979,29.14027786161256,75.95301,-1,-1,-1,-1,30,21.25043575116273,-9999,33848.376240125,-0.77142333984375,0.5649871826171875,-0.27642822265625,33848.371202125,-0.3029848040270225,-1.228914674213077,-0.5976210171639202,-0.0120391882956028,-0.0007390761747956276,-0.00800667516887188,0.003381311893463135,-0.002557873725891113,0.000647425651550293,XArbitraryZVertical,-0.3209306226725979,-0.5083577324575923,0.04992760759347278,0.7975481478561056,-0.7788329124450684,0.5626774430274963,-0.2771519124507904,0,0,0,-1,-1,33839.37413354167,unknown,2,2025-04-22T13:36:28.007+03:00,2025-04-21T17:08:51.449+03:00,7462,1.01963,0,0,6211.912,5,20,2025-04-22T13:34:37.085+03:00,767010995.8481008,0,-20.18999,100.4446,1,0.65,2025-04-22T13:36:14.479+03:00,85,1.416666666666667,2025-04-22T09:54:17.825+03:00,0.02225348692287972,0
2025-04-22T13:36:37.025+03:00,1745318195.342109,40.95217608864979,29.14027786161256,75.95301,-1,-1,-1,-1,30,21.25043575116273,-9999,33848.38631712501,-0.775787353515625,0.566375732421875,-0.2763214111328125,33848.381279125,-0.3031491794985376,-1.228987436595465,-0.5976176528456645,-0.01271509937942028,0.002252452308312058,-0.0103675676509738,0.006592392921447754,0.00115281343460083,0.001201748847961426,XArbitraryZVertical,-0.3209693250500356,-0.5083608480933738,0.04987274833710444,0.7975340503385586,-0.7788549065589905,0.5626746416091919,-0.2770958840847015,0,0,0,-1,-1,33839.37413354167,unknown,2,2025-04-22T13:36:28.007+03:00,2025-04-21T17:08:51.449+03:00,7462,1.01963,0,0,6211.912,5,20,2025-04-22T13:34:37.085+03:00,767010995.8481008,0,-20.18999,100.4446,1,0.65,2025-04-22T13:36:14.479+03:00,85,1.416666666666667,2025-04-22T09:54:17.825+03:00,0.02225348692287972,0
2025-04-22T13:36:37.035+03:00,1745318195.342109,40.95217608864979,29.14027786161256,75.95301,-1,-1,-1,-1,30,21.25043575116273,-9999,33848.396393125,-0.77777099609375,0.566680908203125,-0.2757720947265625,33848.391355125,-0.3033032589456193,-1.229047225185262,-0.5976057695577908,-0.01094223279505968,0.002338206162676215,-0.009712163358926773,0.005272448062896729,0.002978384494781494,0.0003944635391235352,XArbitraryZVertical,-0.3210025685770623,-0.5083616596318389,0.0498174552617821,0.7975235946972576,-0.7788777947425842,0.562664806842804,-0.2770515382289886,0,0,0,-1,-1,33839.37413354167,unknown,2,2025-04-22T13:36:28.007+03:00,2025-04-21T17:08:51.449+03:00,7462,1.01963,0,0,6211.912,5,20,2025-04-22T13:34:37.085+03:00,767010995.8481008,0,-20.18999,100.4446,1,0.65,2025-04-22T13:36:14.479+03:00,85,1.416666666666667,2025-04-22T09:54:17.825+03:00,0.02225348692287972,0
2025-04-22T13:36:37.045+03:00,1745318195.342109,40.95217608864979,29.14027786161256,75.95301,-1,-1,-1,-1,30,21.25043575116273,-9999,33848.406470125,-0.774505615234375,0.5634002685546875,-0.2754058837890625,33848.401432125,-0.3034534885697447,-1.229099563199457,-0.5976048449049544,-0.009806394577026367,0.001247907988727093,-0.006531550083309412,0.001243889331817627,0.004291355609893799,0.001437216997146606,XArbitraryZVertical,-0.321039125904472,-0.5083585543260255,0.04976570883696999,0.7975140099043959,-0.7788926362991333,0.5626640319824219,-0.2770109176635742,0,0,0,-1,-1,33839.37413354167,unknown,2,2025-04-22T13:36:28.007+03:00,2025-04-21T17:08:51.449+03:00,7462,1.01963,0,0,6211.912,5,20,2025-04-22T13:34:37.085+03:00,767010995.8481008,0,-20.18999,100.4446,1,0.65,2025-04-22T13:36:14.479+03:00,85,1.416666666666667,2025-04-22T09:54:17.825+03:00,0.02225348692287972,0
2025-04-22T13:36:37.055+03:00,1745318195.342109,40.95217608864979,29.14027786161256,75.95301,-1,-1,-1,-1,30,21.25043575116273,-9999,33848.416547125,-0.77227783203125,0.5601959228515625,-0.275054931640625,33848.41150812501,-0.3035684709187307,-1.229138652522853,-0.5975892234954635,-0.008297979831695557,0.002628224436193705,-0.005507830996066332,0.003032982349395752,0.002809047698974609,0.001775950193405151,XArbitraryZVertical,-0.3210615115342564,-0.5083579048813424,0.04972154127724795,0.7975083267658557,-0.7789119482040405,0.5626511573791504,-0.2769834995269775,0,0,0,-1,-1,33839.37413354167,unknown,2,2025-04-22T13:36:28.007+03:00,2025-04-21T17:08:51.449+03:00,7462,1.01963,0,0,6211.912,5,20,2025-04-22T13:34:37.085+03:00,767010995.8481008,0,-20.18999,100.4446,1,0.65,2025-04-22T13:36:14.479+03:00,85,1.416666666666667,2025-04-22T09:54:17.825+03:00,0.02225348692287972,0
2025-04-22T13:36:37.065+03:00,1745318195.342109,40.95217608864979,29.14027786161256,75.95301,-1,-1,-1,-1,30,21.25043575116273,-9999,33848.426623125,-0.7748870849609375,0.559661865234375,-0.27349853515625,33848.421585125,-0.3037139738979446,-1.22918239059615,-0.5975851381174265,-0.01196042634546757,0.003904610872268677,-0.004453385714441538,0.006068527698516846,-0.001658439636230469,0.001788437366485596,XArbitraryZVertical,-0.3210959004150737,-0.5083525751887792,0.04966937820040292,0.7975010645559354,-0.7789261937141418,0.5626477599143982,-0.2769501507282257,0,0,0,-1,-1,33839.37413354167,unknown,2,2025-04-22T13:36:28.007+03:00,2025-04-21T17:08:51.449+03:00,7462,1.01963,0,0,6211.912,5,20,2025-04-22T13:34:37.085+03:00,767010995.8481008,0,-20.18999,100.4446,1,0.65,2025-04-22T13:36:14.479+03:00,85,1.416666666666667,2025-04-22T09:54:17.825+03:00,0.02225348692287972,0
2025-04-22T13:36:37.075+03:00,1745318195.342109,40.95217608864979,29.14027786161256,75.95301,-1,-1,-1,-1,30,21.25043575116273,-9999,33848.436700125,-0.7743377685546875,0.5600128173828125,-0.27471923828125,33848.431661125,-0.3038746896546017,-1.229254503496269,-0.5975878921727253,-0.01491280645132065,0.001276337541639805,-0.004182275850325823,0.005400419235229492,-0.003552913665771484,0.003150850534439087,XArbitraryZVertical,-0.321135999908242,-0.5083551354129735,0.04961768770951372,0.7974864569020541,-0.7789446115493774,0.5626500248908997,-0.2768934369087219,0,0,0,-1,-1,33839.37413354167,unknown,2,2025-04-22T13:36:28.007+03:00,2025-04-21T17:08:51.449+03:00,7462,1.01963,0,0,6211.912,5,20,2025-04-22T13:34:37.085+03:00,767010995.8481008,0,-20.18999,100.4446,1,0.65,2025-04-22T13:36:14.479+03:00,85,1.416666666666667,2025-04-22T09:54:17.825+03:00,0.02225348692287972,0
2025-04-22T13:36:37.085+03:00,1745318195.342109,40.95217608864979,29.14027786161256,75.95301,-1,-1,-1,-1,30,21.25043575116273,-9999,33848.44677612501,-0.7745361328125,0.5603485107421875,-0.27471923828125,33848.441738125,-0.3040441059335972,-1.229326753142294,-0.5975899798711254,-0.01491347141563892,0.001102299429476261,-0.002456347923725843,0.004335939884185791,-0.001967668533325195,0.003521353006362915,XArbitraryZVertical,-0.3211780624002568,-0.5083564448284446,0.04956236095543727,0.7974720705477941,-0.7789634466171265,0.5626517534255981,-0.2768367528915405,0,0,0,-1,-1,33839.37413354167,unknown,2,2025-04-22T13:36:28.007+03:00,2025-04-21T17:08:51.449+03:00,7462,1.01963,0,0,6211.912,5,20,2025-04-22T13:34:37.085+03:00,767010995.8481008,0,-20.18999,100.4446,1,0.65,2025-04-22T13:36:14.479+03:00,85,1.416666666666667,2025-04-22T09:54:17.825+03:00,0.02225348692287972,0
2025-04-22T13:36:37.095+03:00,1745318195.342109,40.95217608864979,29.14027786161256,75.95301,-1,-1,-1,-1,30,21.25043575116273,-9999,33848.456853125,-0.7771148681640625,0.562103271484375,-0.275726318359375,33848.451814125,-0.3042194655674713,-1.229405901113969,-0.5975996627617433,-0.01380746066570282,0.001279932446777821,-0.002948766341432929,0.004734158515930176,-0.001914680004119873,0.001748889684677124,XArbitraryZVertical,-0.3212242810524788,-0.5083584541718916,0.04950795702586135,0.7974555755498021,-0.7789802551269531,0.562659740447998,-0.2767732739448547,0,0,0,-1,-1,33839.37413354167,unknown,2,2025-04-22T13:36:28.007+03:00,2025-04-21T17:08:51.449+03:00,7462,1.01963,0,0,6211.912,5,20,2025-04-22T13:34:37.085+03:00,767010995.8481008,0,-20.18999,100.4446,1,0.65,2025-04-22T13:36:14.479+03:00,85,1.416666666666667,2025-04-22T09:54:17.825+03:00,0.02225348692287972,0
2025-04-22T13:36:37.105+03:00,1745318195.342109,40.95217608864979,29.14027786161256,75.95301,-1,-1,-1,-1,30,21.25043575116273,-9999,33848.466929125,-0.7783355712890625,0.564117431640625,-0.2751617431640625,33848.461891125,-0.3043803149373797,-1.229445634022347,-0.5976467828652187,-0.01002677157521248,0.002844606060534716,-0.003302667289972305,0.002965450286865234,-0.0008091330528259277,0.001434445381164551,XArbitraryZVertical,-0.321281735500714,-0.508341712126312,0.0494638693586218,0.7974459254766519,-0.7789663672447205,0.5626987218856812,-0.2767334878444672,0,0,0,-1,-1,33839.37413354167,unknown,2,2025-04-22T13:36:28.007+03:00,2025-04-21T17:08:51.449+03:00,7462,1.01963,0,0,6211.912,5,20,2025-04-22T13:34:37.085+03:00,767010995.8481008,0,-20.18999,100.4446,1,0.65,2025-04-22T13:36:14.479+03:00,85,1.416666666666667,2025-04-22T09:54:17.825+03:00,0.02225348692287972,0
2025-04-22T13:36:37.115+03:00,1745318195.342109,40.95217608864979,29.14027786161256,75.95301,-1,-1,-1,-1,30,21.25043575116273,-9999,33848.477006125,-0.7766876220703125,0.5636444091796875,-0.272918701171875,33848.471968125,-0.304497687904313,-1.229455284645559,-0.5976819342935592,-0.008847257122397423,0.006135208066552877,-0.003588956780731678,0.0003706812858581543,0.0008249878883361816,0.0005353093147277832,XArbitraryZVertical,-0.3213244438824708,-0.5083216746681399,0.04942884228758571,0.7974436459325921,-0.7789503931999207,0.5627277493476868,-0.2767193615436554,0,0,0,-1,-1,33839.37413354167,unknown,2,2025-04-22T13:36:28.007+03:00,2025-04-21T17:08:51.449+03:00,7462,1.01963,0,0,6211.912,5,20,2025-04-22T13:34:37.085+03:00,767010995.8481008,0,-20.18999,100.4446,1,0.65,2025-04-22T13:36:14.479+03:00,85,1.416666666666667,2025-04-22T09:54:17.825+03:00,0.02225348692287972,0
2025-04-22T13:36:37.125+03:00,1745318195.342109,40.95217608864979,29.14027786161256,75.95301,-1,-1,-1,-1,30,21.25043575116273,-9999,33848.487082125,-0.7767791748046875,0.5652923583984375,-0.274078369140625,33848.482044125,-0.304603676931542,-1.229462688542777,-0.5976929421595102,-0.006306468043476343,0.005798185244202614,-0.004780921619385481,0.001206159591674805,0.001395821571350098,0.002907842397689819,XArbitraryZVertical,-0.3213552770179757,-0.5083060141884223,0.04939093425235806,0.7974436616171308,-0.7789467573165894,0.5627368688583374,-0.2767115533351898,0,0,0,-1,-1,33839.37413354167,unknown,2,2025-04-22T13:36:28.007+03:00,2025-04-21T17:08:51.449+03:00,7462,1.01963,0,0,6211.912,5,20,2025-04-22T13:34:37.085+03:00,767010995.8481008,0,-20.18999,100.4446,1,0.65,2025-04-22T13:36:14.479+03:00,85,1.416666666666667,2025-04-22T09:54:17.825+03:00,0.02225348692287972,0
2025-04-22T13:36:37.135+03:00,1745318195.342109,40.95217608864979,29.14027786161256,75.95301,-1,-1,-1,-1,30,21.25043575116273,-9999,33848.497159125,-0.776275634765625,0.5649566650390625,-0.2756500244140625,33848.492121125,-0.3047050648071514,-1.229475838030587,-0.5976878511913571,-0.006249476689845324,0.006159309763461351,-0.00788909662514925,0.002280592918395996,0.002178072929382324,0.003875106573104858,XArbitraryZVertical,-0.3213788659222897,-0.5082957071896802,0.04935120174184203,0.7974430079399635,-0.7789528369903564,0.5627326965332031,-0.2767021954059601,0,0,0,-1,-1,33839.37413354167,unknown,2,2025-04-22T13:36:28.007+03:00,2025-04-21T17:08:51.449+03:00,7462,1.01963,0,0,6211.912,5,20,2025-04-22T13:34:37.085+03:00,767010995.8481008,0,-20.18999,100.4446,1,0.65,2025-04-22T13:36:14.479+03:00,85,1.416666666666667,2025-04-22T09:54:17.825+03:00,0.02225348692287972,0
