loggingTime(txt),locationTimestamp_since1970(s),locationLatitude(WGS84),locationLongitude(WGS84),locationAltitude(m),locationSpeed(m/s),locationSpeedAccuracy(m/s),locationCourse(°),locationCourseAccuracy(°),locationVerticalAccuracy(m),locationHorizontalAccuracy(m),locationFloor(Z),accelerometerTimestamp_sinceReboot(s),accelerometerAccelerationX(G),accelerometerAccelerationY(G),accelerometerAccelerationZ(G),motionTimestamp_sinceReboot(s),motionYaw(rad),motionRoll(rad),motionPitch(rad),motionRotationRateX(rad/s),motionRotationRateY(rad/s),motionRotationRateZ(rad/s),motionUserAccelerationX(G),motionUserAccelerationY(G),motionUserAccelerationZ(G),motionAttitudeReferenceFrame(txt),motionQuaternionX(R),motionQuaternionY(R),motionQuaternionZ(R),motionQuaternionW(R),motionGravityX(G),motionGravityY(G),motionGravityZ(G),motionMagneticFieldX(µT),motionMagneticFieldY(µT),motionMagneticFieldZ(µT),motionHeading(°),motionMagneticFieldCalibrationAccuracy(Z),activityTimestamp_sinceReboot(s),activity(txt),activityActivityConfidence(Z),activityActivityStartDate(txt),pedometerStartDate(txt),pedometerNumberofSteps(N),pedometerAverageActivePace(s/m),pedometerCurrentPace(s/m),pedometerCurrentCadence(steps/s),pedometerDistance(m),pedometerFloorAscended(N),pedometerFloorDescended(N),pedometerEndDate(txt),altimeterTimestamp_sinceReboot(s),altimeterReset(bool),altimeterRelativeAltitude(m),altimeterPressure(kPa),batteryState(N),batteryLevel(R),heartRateBPMTimestamp(txt),heartRateBPM(N),heartRateBPS(R),heartRateVariabilityTimestamp(txt),heartRateVariability(ms),label
2025-04-22T13:11:07.534+03:00,1745316666.526832,40.95226099598197,29.1402868059831,76.34336,-1,-1,-1,-1,30,26.71322490203158,-9999,32422.26158991667,-0.6959228515625,0.6440582275390625,-0.370635986328125,32422.25655191667,-0.1301279275359662,-1.054895345236496,-0.6972027208385186,0.03101014345884323,-0.0296504870057106,0.01870889216661453,0.04201436042785645,-0.01648068428039551,0.01995265483856201,XArbitraryZVertical,-0.3252931478162091,-0.4528632550176028,0.1187628609578656,0.8215805105340918,-0.6668617725372314,0.6420757174491882,-0.3781984746456146,0,0,0,-1,-1,32415.617399125,unknown,2,2025-04-22T13:11:00.860+03:00,2025-04-21T17:08:51.449+03:00,7412,1.006994,0,0,6173.501,5,20,2025-04-22T13:10:22.167+03:00,767009460.9675541,0,-21.89,100.4651,1,0.7,2025-04-22T13:09:01.195+03:00,86,1.433333333333333,2025-04-22T09:54:17.825+03:00,0.02225348692287972,0
2025-04-22T13:11:07.537+03:00,1745316666.526832,40.95226099598197,29.1402868059831,76.34336,-1,-1,-1,-1,30,26.71322490203158,-9999,32422.27166591667,-0.6467742919921875,0.64141845703125,-0.369110107421875,32422.26662791667,-0.1297368934509454,-1.054914252496824,-0.6972662478757591,0.02629887871444225,-0.01370041444897652,0.01941043511033058,-0.01593631505966187,-0.007572531700134277,0.01334342360496521,XArbitraryZVertical,-0.3252288655821567,-0.4529274942556933,0.1189421746956064,0.8215445919782364,-0.6668334007263184,0.6421244144439697,-0.3781657516956329,0,0,0,-1,-1,32415.617399125,unknown,2,2025-04-22T13:11:00.860+03:00,2025-04-21T17:08:51.449+03:00,7412,1.006994,0,0,6173.501,5,20,2025-04-22T13:10:22.167+03:00,767009460.9675541,0,-21.89,100.4651,1,0.7,2025-04-22T13:09:01.195+03:00,86,1.433333333333333,2025-04-22T09:54:17.825+03:00,0.02225348692287972,0
2025-04-22T13:11:07.539+03:00,1745316666.526832,40.95226099598197,29.1402868059831,76.34336,-1,-1,-1,-1,30,26.71322490203158,-9999,32422.28174291667,-0.6654052734375,0.638092041015625,-0.3751678466796875,32422.27670491667,-0.1293509637653164,-1.054897564667756,-0.6971804510613004,0.02659955061972141,-0.01997455582022667,0.02268212847411633,0.002385258674621582,0.003769516944885254,0.007629126310348511,XArbitraryZVertical,-0.3251081812454543,-0.452993014076523,0.1190769489588802,0.8215366425447601,-0.6668749451637268,0.6420586109161377,-0.3782039880752563,0,0,0,-1,-1,32415.617399125,unknown,2,2025-04-22T13:11:00.860+03:00,2025-04-21T17:08:51.449+03:00,7412,1.006994,0,0,6173.501,5,20,2025-04-22T13:10:22.167+03:00,767009460.9675541,0,-21.89,100.4651,1,0.7,2025-04-22T13:09:01.195+03:00,86,1.433333333333333,2025-04-22T09:54:17.825+03:00,0.02225348692287972,0
2025-04-22T13:11:07.541+03:00,1745316666.526832,40.95226099598197,29.1402868059831,76.34336,-1,-1,-1,-1,30,26.71322490203158,-9999,32422.29181891667,-0.6593780517578125,0.644317626953125,-0.3773040771484375,32422.28678091667,-0.128822997628624,-1.054678795053572,-0.6973280536532791,0.03100348636507988,-0.01419349946081638,0.02007456123828888,0.01149743795394897,-0.004232466220855713,0.005378395318984985,XArbitraryZVertical,-0.3250606276629981,-0.452972435767744,0.1192944939248727,0.8215352650027146,-0.6667097806930542,0.6421718001365662,-0.3783031105995178,0,0,0,-1,-1,32415.617399125,unknown,2,2025-04-22T13:11:00.860+03:00,2025-04-21T17:08:51.449+03:00,7412,1.006994,0,0,6173.501,5,20,2025-04-22T13:10:22.167+03:00,767009460.9675541,0,-21.89,100.4651,1,0.7,2025-04-22T13:09:01.195+03:00,86,1.433333333333333,2025-04-22T09:54:17.825+03:00,0.02225348692287972,0
2025-04-22T13:11:07.549+03:00,1745316666.526832,40.95226099598197,29.1402868059831,76.34336,-1,-1,-1,-1,30,26.71322490203158,-9999,32422.30189591667,-0.6628265380859375,0.6478271484375,-0.3756256103515625,32422.29685791667,-0.1282395830450567,-1.054383095184029,-0.6975202026009312,0.03598226606845856,-0.01526941731572151,0.02071984484791756,0.003328382968902588,-1.573562622070312e-05,0.0009522140026092529,XArbitraryZVertical,-0.3250229604985638,-0.4529242922919379,0.1195332433327683,0.8215420145063136,-0.6664905548095703,0.6423190832138062,-0.3784393072128296,0,0,0,-1,-1,32415.617399125,unknown,2,2025-04-22T13:11:00.860+03:00,2025-04-21T17:08:51.449+03:00,7412,1.006994,0,0,6173.501,5,20,2025-04-22T13:10:22.167+03:00,767009460.9675541,0,-21.89,100.4651,1,0.7,2025-04-22T13:09:01.195+03:00,86,1.433333333333333,2025-04-22T09:54:17.825+03:00,0.02225348692287972,0
2025-04-22T13:11:07.559+03:00,1745316666.526832,40.95226099598197,29.1402868059831,76.34336,-1,-1,-1,-1,30,26.71322490203158,-9999,32422.31197191667,-0.6613006591796875,0.6438751220703125,-0.373291015625,32422.30693391667,-0.1276409904593637,-1.054090091851532,-0.697583633397031,0.03726790472865105,-0.01301704719662666,0.0239829495549202,0.005440354347229004,0.005093097686767578,0.001798719167709351,XArbitraryZVertical,-0.3249302958832154,-0.4528941124315113,0.1197470892773134,0.821564151629756,-0.6663442254066467,0.6423676609992981,-0.3786144554615021,0,0,0,-1,-1,32415.617399125,unknown,2,2025-04-22T13:11:00.860+03:00,2025-04-21T17:08:51.449+03:00,7412,1.006994,0,0,6173.501,5,20,2025-04-22T13:10:22.167+03:00,767009460.9675541,0,-21.89,100.4651,1,0.7,2025-04-22T13:09:01.195+03:00,86,1.433333333333333,2025-04-22T09:54:17.825+03:00,0.02225348692287972,0
2025-04-22T13:11:07.570+03:00,1745316666.526832,40.95226099598197,29.1402868059831,76.34336,-1,-1,-1,-1,30,26.71322490203158,-9999,32422.32204891667,-0.661590576171875,0.6422576904296875,-0.372406005859375,32422.31701091667,-0.1270816359508362,-1.053846796392909,-0.6976604124734772,0.03269472718238831,-0.01134218648076057,0.02236134931445122,0.00431358814239502,0.003355920314788818,0.004606723785400391,XArbitraryZVertical,-0.3248488778903597,-0.4528764347353491,0.1199561052575837,0.8215757545958534,-0.6662093997001648,0.6424264907836914,-0.3787522912025452,0,0,0,-1,-1,32415.617399125,unknown,2,2025-04-22T13:11:00.860+03:00,2025-04-21T17:08:51.449+03:00,7412,1.006994,0,0,6173.501,5,20,2025-04-22T13:10:22.167+03:00,767009460.9675541,0,-21.89,100.4651,1,0.7,2025-04-22T13:09:01.195+03:00,86,1.433333333333333,2025-04-22T09:54:17.825+03:00,0.02225348692287972,0
2025-04-22T13:11:07.579+03:00,1745316666.526832,40.95226099598197,29.1402868059831,76.34336,-1,-1,-1,-1,30,26.71322490203158,-9999,32422.33212491667,-0.6637115478515625,0.6419677734375,-0.372344970703125,32422.32708691667,-0.1265544539034445,-1.053609133277604,-0.6977417588036779,0.03499290347099304,-0.007767025381326675,0.01936336234211922,0.004498541355133057,0.0008521676063537598,0.006097257137298584,XArbitraryZVertical,-0.3247763034844229,-0.4528553525966704,0.120154011761396,0.8215871470258633,-0.6660739183425903,0.6424888372421265,-0.3788847625255585,0,0,0,-1,-1,32415.617399125,unknown,2,2025-04-22T13:11:00.860+03:00,2025-04-21T17:08:51.449+03:00,7412,1.006994,0,0,6173.501,5,20,2025-04-22T13:10:22.167+03:00,767009460.9675541,0,-21.89,100.4651,1,0.7,2025-04-22T13:09:01.195+03:00,86,1.433333333333333,2025-04-22T09:54:17.825+03:00,0.02225348692287972,0
2025-04-22T13:11:07.589+03:00,1745316666.526832,40.95226099598197,29.1402868059831,76.34336,-1,-1,-1,-1,30,26.71322490203158,-9999,32422.34220191667,-0.6675262451171875,0.6421661376953125,-0.3722381591796875,32422.33716391667,-0.1260454949462207,-1.053368201280078,-0.6977913122325149,0.03140935301780701,-0.009341219440102577,0.01781207323074341,0.003570795059204102,-0.0005133748054504395,0.006638705730438232,XArbitraryZVertical,-0.3246953969476206,-0.4528335211931255,0.1203361683451327,0.8216043760137396,-0.6659548282623291,0.6425268054008484,-0.379029393196106,0,0,0,-1,-1,32415.617399125,unknown,2,2025-04-22T13:11:00.860+03:00,2025-04-21T17:08:51.449+03:00,7412,1.006994,0,0,6173.501,5,20,2025-04-22T13:10:22.167+03:00,767009460.9675541,0,-21.89,100.4651,1,0.7,2025-04-22T13:09:01.195+03:00,86,1.433333333333333,2025-04-22T09:54:17.825+03:00,0.02225348692287972,0
2025-04-22T13:11:07.599+03:00,1745316666.526832,40.95226099598197,29.1402868059831,76.34336,-1,-1,-1,-1,30,26.71322490203158,-9999,32422.35227791667,-0.6676788330078125,0.6385650634765625,-0.371734619140625,32422.34723991667,-0.1256760400680089,-1.053267276700185,-0.6977575018223289,0.02528181858360767,-0.008420698344707489,0.01509638130664825,-0.0003853440284729004,-0.0001670718193054199,0.006838768720626831,XArbitraryZVertical,-0.3246043008990527,-0.4528557999844645,0.1204632849883493,0.8216094419924865,-0.6659353971481323,0.6425009369850159,-0.3791073560714722,0,0,0,-1,-1,32415.617399125,unknown,2,2025-04-22T13:11:00.860+03:00,2025-04-21T17:08:51.449+03:00,7412,1.006994,0,0,6173.501,5,20,2025-04-22T13:10:22.167+03:00,767009460.9675541,0,-21.89,100.4651,1,0.7,2025-04-22T13:09:01.195+03:00,86,1.433333333333333,2025-04-22T09:54:17.825+03:00,0.02225348692287972,0
2025-04-22T13:11:07.609+03:00,1745316666.526832,40.95226099598197,29.1402868059831,76.34336,-1,-1,-1,-1,30,26.71322490203158,-9999,32422.36235491667,-0.6664276123046875,0.6357421875,-0.37353515625,32422.35731691667,-0.1253614787722878,-1.053161736915628,-0.6977882574761702,0.01805905811488628,-0.0072403852827847,0.0128547977656126,-0.002105653285980225,-0.001975834369659424,0.00689929723739624,XArbitraryZVertical,-0.3245517074545706,-0.4528600470442998,0.1205828575254077,0.8216104701059147,-0.6658783555030823,0.6425244808197021,-0.3791679441928864,0,0,0,-1,-1,32415.617399125,unknown,2,2025-04-22T13:11:00.860+03:00,2025-04-21T17:08:51.449+03:00,7412,1.006994,0,0,6173.501,5,20,2025-04-22T13:10:22.167+03:00,767009460.9675541,0,-21.89,100.4651,1,0.7,2025-04-22T13:09:01.195+03:00,86,1.433333333333333,2025-04-22T09:54:17.825+03:00,0.02225348692287972,0
2025-04-22T13:11:07.619+03:00,1745316666.526832,40.95226099598197,29.1402868059831,76.34336,-1,-1,-1,-1,30,26.71322490203158,-9999,32422.37243191667,-0.6669464111328125,0.634429931640625,-0.3783111572265625,32422.36739291667,-0.1250619531707264,-1.053023450483885,-0.6978303528885194,0.01995116844773293,-0.004640674218535423,0.01395571511238813,-0.0003505945205688477,-0.00551760196685791,0.00771033763885498,XArbitraryZVertical,-0.3245090797506649,-0.4528471709368678,0.1206937959868321,0.8216180682801898,-0.6658023595809937,0.6425567269325256,-0.3792465925216675,0,0,0,-1,-1,32415.617399125,unknown,2,2025-04-22T13:11:00.860+03:00,2025-04-21T17:08:51.449+03:00,7412,1.006994,0,0,6173.501,5,20,2025-04-22T13:10:22.167+03:00,767009460.9675541,0,-21.89,100.4651,1,0.7,2025-04-22T13:09:01.195+03:00,86,1.433333333333333,2025-04-22T09:54:17.825+03:00,0.02225348692287972,0
2025-04-22T13:11:07.629+03:00,1745316666.526832,40.95226099598197,29.1402868059831,76.34336,-1,-1,-1,-1,30,26.71322490203158,-9999,32422.38250791667,-0.66583251953125,0.636810302734375,-0.381744384765625,32422.37746991667,-0.1247458018301181,-1.05285051158135,-0.697839667775213,0.02252404764294624,-0.0009071887470781803,0.01065552607178688,-0.0007876157760620117,-0.007386326789855957,0.002939701080322266,XArbitraryZVertical,-0.3244516742876442,-0.4528263909461688,0.1207979159382305,0.8216368501725749,-0.6657315492630005,0.6425638794898987,-0.3793587386608124,0,0,0,-1,-1,32415.617399125,unknown,2,2025-04-22T13:11:00.860+03:00,2025-04-21T17:08:51.449+03:00,7412,1.006994,0,0,6173.501,5,20,2025-04-22T13:10:22.167+03:00,767009460.9675541,0,-21.89,100.4651,1,0.7,2025-04-22T13:09:01.195+03:00,86,1.433333333333333,2025-04-22T09:54:17.825+03:00,0.02225348692287972,0
2025-04-22T13:11:07.640+03:00,1745316666.526832,40.95226099598197,29.1402868059831,76.34336,-1,-1,-1,-1,30,26.71322490203158,-9999,32422.39258491667,-0.663726806640625,0.6386871337890625,-0.382476806640625,32422.38754591667,-0.1244199502765191,-1.052624907217303,-0.6978823849070388,0.01799793913960457,0.004253151826560497,0.01203927118331194,-0.001446366310119629,-0.007266461849212646,-0.001119852066040039,XArbitraryZVertical,-0.3244086152352772,-0.4527818143517357,0.1209056254634676,0.821662620375456,-0.6656221151351929,0.6425966024398804,-0.3794953525066376,0,0,0,-1,-1,32415.617399125,unknown,2,2025-04-22T13:11:00.860+03:00,2025-04-21T17:08:51.449+03:00,7412,1.006994,0,0,6173.501,5,20,2025-04-22T13:10:22.167+03:00,767009460.9675541,0,-21.89,100.4651,1,0.7,2025-04-22T13:09:01.195+03:00,86,1.433333333333333,2025-04-22T09:54:17.825+03:00,0.02225348692287972,0
2025-04-22T13:11:07.650+03:00,1745316666.526832,40.95226099598197,29.1402868059831,76.34336,-1,-1,-1,-1,30,26.71322490203158,-9999,32422.40266091667,-0.664825439453125,0.638031005859375,-0.381683349609375,32422.39762291667,-0.124140085677693,-1.052418465887614,-0.6979042322466782,0.02381880953907967,0.002713844878599048,0.008985690772533417,0.0007061362266540527,-0.003682196140289307,-0.002545803785324097,XArbitraryZVertical,-0.3243664966456464,-0.4527399776545115,0.1209924866934926,0.8216894717973441,-0.6655315160751343,0.6426133513450623,-0.3796257674694061,0,0,0,-1,-1,32415.617399125,unknown,2,2025-04-22T13:11:00.860+03:00,2025-04-21T17:08:51.449+03:00,7412,1.006994,0,0,6173.501,5,20,2025-04-22T13:10:22.167+03:00,767009460.9675541,0,-21.89,100.4651,1,0.7,2025-04-22T13:09:01.195+03:00,86,1.433333333333333,2025-04-22T09:54:17.825+03:00,0.02225348692287972,0
2025-04-22T13:11:07.660+03:00,1745316666.526832,40.95226099598197,29.1402868059831,76.34336,-1,-1,-1,-1,30,26.71322490203158,-9999,32422.41273791667,-0.6633453369140625,0.6393890380859375,-0.38238525390625,32422.40769891667,-0.1238951553836761,-1.052247070310136,-0.6978858860265719,0.01772875897586346,0.00505056930705905,0.005014684516936541,0.001063287258148193,-0.004507303237915039,-0.002273321151733398,XArbitraryZVertical,-0.324314078106798,-0.4527113099236766,0.1210608234839689,0.8217159125197068,-0.6654767394065857,0.6425992846488953,-0.3797456920146942,0,0,0,-1,-1,32415.617399125,unknown,2,2025-04-22T13:11:00.860+03:00,2025-04-21T17:08:51.449+03:00,7412,1.006994,0,0,6173.501,5,20,2025-04-22T13:10:22.167+03:00,767009460.9675541,0,-21.89,100.4651,1,0.7,2025-04-22T13:09:01.195+03:00,86,1.433333333333333,2025-04-22T09:54:17.825+03:00,0.02225348692287972,0
2025-04-22T13:11:07.670+03:00,1745316666.526832,40.95226099598197,29.1402868059831,76.34336,-1,-1,-1,-1,30,26.71322490203158,-9999,32422.42281391667,-0.6618194580078125,0.6386566162109375,-0.381195068359375,32422.41777591667,-0.1236888151107869,-1.052114769523677,-0.6978429235306063,0.01899189688265324,-1.183385029435158e-05,0.001068412559106946,0.001769423484802246,-0.003925144672393799,-0.002492040395736694,XArbitraryZVertical,-0.3242581939849354,-0.4526951755709464,0.1211136519260856,0.8217390411518551,-0.665450394153595,0.6425663828849792,-0.3798474073410034,0,0,0,-1,-1,32415.617399125,unknown,2,2025-04-22T13:11:00.860+03:00,2025-04-21T17:08:51.449+03:00,7412,1.006994,0,0,6173.501,5,20,2025-04-22T13:10:22.167+03:00,767009460.9675541,0,-21.89,100.4651,1,0.7,2025-04-22T13:09:01.195+03:00,86,1.433333333333333,2025-04-22T09:54:17.825+03:00,0.02225348692287972,0
2025-04-22T13:11:07.680+03:00,1745316666.526832,40.95226099598197,29.1402868059831,76.34336,-1,-1,-1,-1,30,26.71322490203158,-9999,32422.43289091667,-0.6616058349609375,0.6392059326171875,-0.3833160400390625,32422.42785191667,-0.1235244583969376,-1.052022918484189,-0.6977557946581429,0.01803489029407501,0.001638393849134445,-0.002745966659858823,0.003354787826538086,-0.003370046615600586,-0.001533448696136475,XArbitraryZVertical,-0.3241916809854895,-0.4526937319089059,0.1211449815286455,0.8217614564771003,-0.6654641032218933,0.6424996256828308,-0.3799362778663635,0,0,0,-1,-1,32415.617399125,unknown,2,2025-04-22T13:11:00.860+03:00,2025-04-21T17:08:51.449+03:00,7412,1.006994,0,0,6173.501,5,20,2025-04-22T13:10:22.167+03:00,767009460.9675541,0,-21.89,100.4651,1,0.7,2025-04-22T13:09:01.195+03:00,86,1.433333333333333,2025-04-22T09:54:17.825+03:00,0.02225348692287972,0
2025-04-22T13:11:07.690+03:00,1745316666.526832,40.95226099598197,29.1402868059831,76.34336,-1,-1,-1,-1,30,26.71322490203158,-9999,32422.44296691667,-0.6604156494140625,0.6373748779296875,-0.3823394775390625,32422.43792891667,-0.1233820624387716,-1.0519432663903,-0.6976401644474192,0.01761331222951412,0.002301787491887808,-0.005303932819515467,0.003678977489471436,-0.00346451997756958,-0.002298057079315186,XArbitraryZVertical,-0.3241179797864008,-0.452696877564254,0.1211622834779989,0.8217862811770296,-0.6654984354972839,0.6424109935760498,-0.3800261318683624,0,0,0,-1,-1,32415.617399125,unknown,2,2025-04-22T13:11:00.860+03:00,2025-04-21T17:08:51.449+03:00,7412,1.006994,0,0,6173.501,5,20,2025-04-22T13:10:22.167+03:00,767009460.9675541,0,-21.89,100.4651,1,0.7,2025-04-22T13:09:01.195+03:00,86,1.433333333333333,2025-04-22T09:54:17.825+03:00,0.02225348692287972,0
2025-04-22T13:11:07.700+03:00,1745316666.526832,40.95226099598197,29.1402868059831,76.34336,-1,-1,-1,-1,30,26.71322490203158,-9999,32422.45304391667,-0.6620025634765625,0.63824462890625,-0.3804931640625,32422.44800491667,-0.1232811441670979,-1.051848291797192,-0.6975057987508959,0.01156853605061769,0.009339523501694202,-0.007040280848741531,0.00521320104598999,-0.004002392292022705,-0.002832949161529541,XArbitraryZVertical,-0.3240470860295988,-0.4526890629755101,0.121155473711296,0.8218196093263676,-0.6655373573303223,0.6423079967498779,-0.3801321983337402,0,0,0,-1,-1,32415.617399125,unknown,2,2025-04-22T13:11:00.860+03:00,2025-04-21T17:08:51.449+03:00,7412,1.006994,0,0,6173.501,5,20,2025-04-22T13:10:22.167+03:00,767009460.9675541,0,-21.89,100.4651,1,0.7,2025-04-22T13:09:01.195+03:00,86,1.433333333333333,2025-04-22T09:54:17.825+03:00,0.02225348692287972,0
2025-04-22T13:11:07.710+03:00,1745316666.526832,40.95226099598197,29.1402868059831,76.34336,-1,-1,-1,-1,30,26.71322490203158,-9999,32422.46311991667,-0.6627349853515625,0.6367950439453125,-0.3799285888671875,32422.45808191667,-0.1232349672958133,-1.051752008921933,-0.6973838471709394,0.004195041488856077,0.008527525700628757,-0.00582641176879406,0.004634261131286621,-0.005160212516784668,-0.0007921159267425537,XArbitraryZVertical,-0.3239936678681679,-0.4526704931300604,0.1211290747127119,0.8218546806995626,-0.6655686497688293,0.6422145366668701,-0.3802350461483002,0,0,0,-1,-1,32415.617399125,unknown,2,2025-04-22T13:11:00.860+03:00,2025-04-21T17:08:51.449+03:00,7412,1.006994,0,0,6173.501,5,20,2025-04-22T13:10:22.167+03:00,767009460.9675541,0,-21.89,100.4651,1,0.7,2025-04-22T13:09:01.195+03:00,86,1.433333333333333,2025-04-22T09:54:17.825+03:00,0.02225348692287972,0
2025-04-22T13:11:07.720+03:00,1745316666.526832,40.95226099598197,29.1402868059831,76.34336,-1,-1,-1,-1,30,26.71322490203158,-9999,32422.47319691667,-0.661865234375,0.6339263916015625,-0.38134765625,32422.46815791667,-0.1232337931544771,-1.051687685171963,-0.6972820041416987,0.0006966466316953301,0.005684002302587032,-0.006084105931222439,0.001553714275360107,-0.004410743713378906,-4.547834396362305e-05,XArbitraryZVertical,-0.3239565265532278,-0.4526555192322192,0.1210942426926248,0.8218826818885708,-0.6656008958816528,0.6421364545822144,-0.3803102970123291,0,0,0,-1,-1,32415.617399125,unknown,2,2025-04-22T13:11:00.860+03:00,2025-04-21T17:08:51.449+03:00,7412,1.006994,0,0,6173.501,5,20,2025-04-22T13:10:22.167+03:00,767009460.9675541,0,-21.89,100.4651,1,0.7,2025-04-22T13:09:01.195+03:00,86,1.433333333333333,2025-04-22T09:54:17.825+03:00,0.02225348692287972,0
2025-04-22T13:11:07.730+03:00,1745316666.526832,40.95226099598197,29.1402868059831,76.34336,-1,-1,-1,-1,30,26.71322490203158,-9999,32422.48327291667,-0.6631927490234375,0.6362152099609375,-0.3800048828125,32422.47823491667,-0.1232705912812298,-1.051629697295582,-0.6972111036492619,-0.0001286669867113233,0.007310926914215088,-0.00601646164432168,0.003860056400299072,-0.007515013217926025,-0.0006556808948516846,XArbitraryZVertical,-0.3239399731415658,-0.4526335667522042,0.1210523834939904,0.8219074813485298,-0.6656184196472168,0.6420820951461792,-0.3803715109825134,0,0,0,-1,-1,32415.617399125,unknown,2,2025-04-22T13:11:00.860+03:00,2025-04-21T17:08:51.449+03:00,7412,1.006994,0,0,6173.501,5,20,2025-04-22T13:10:22.167+03:00,767009460.9675541,0,-21.89,100.4651,1,0.7,2025-04-22T13:09:01.195+03:00,86,1.433333333333333,2025-04-22T09:54:17.825+03:00,0.02225348692287972,0
2025-04-22T13:11:07.741+03:00,1745316666.526832,40.95226099598197,29.1402868059831,76.34336,-1,-1,-1,-1,30,26.71322490203158,-9999,32422.49334991667,-0.6641387939453125,0.640960693359375,-0.3804168701171875,32422.48831191667,-0.123271615507684,-1.051562108620299,-0.6971460711442713,0.002371442038565874,0.008147626183927059,-0.003769985400140285,0.003748536109924316,-0.007785558700561523,5.093216896057129e-05,XArbitraryZVertical,-0.3239182515074605,-0.4526128125372086,0.1210251055705757,0.8219315091829991,-0.665628969669342,0.642032265663147,-0.3804372251033783,0,0,0,-1,-1,32415.617399125,unknown,2,2025-04-22T13:11:00.860+03:00,2025-04-21T17:08:51.449+03:00,7412,1.006994,0,0,6173.501,5,20,2025-04-22T13:10:22.167+03:00,767009460.9675541,0,-21.89,100.4651,1,0.7,2025-04-22T13:09:01.195+03:00,86,1.433333333333333,2025-04-22T09:54:17.825+03:00,0.02225348692287972,0
2025-04-22T13:11:07.750+03:00,1745316666.526832,40.95226099598197,29.1402868059831,76.34336,-1,-1,-1,-1,30,26.71322490203158,-9999,32422.50342591667,-0.6614990234375,0.6409912109375,-0.37921142578125,32422.49838791667,-0.1232407888635906,-1.05144326720538,-0.6970806449575033,0.005157641135156155,0.01137644238770008,-0.004916476085782051,0.001512050628662109,-0.002379477024078369,0.0005933642387390137,XArbitraryZVertical,-0.3238922421337068,-0.4525761762398541,0.1210024828650537,0.8219653761548961,-0.6656203866004944,0.6419820785522461,-0.3805372416973114,0,0,0,-1,-1,32415.617399125,unknown,2,2025-04-22T13:11:00.860+03:00,2025-04-21T17:08:51.449+03:00,7412,1.006994,0,0,6173.501,5,20,2025-04-22T13:10:22.167+03:00,767009460.9675541,0,-21.89,100.4651,1,0.7,2025-04-22T13:09:01.195+03:00,86,1.433333333333333,2025-04-22T09:54:17.825+03:00,0.02225348692287972,0
2025-04-22T13:11:07.760+03:00,1745316666.526832,40.95226099598197,29.1402868059831,76.34336,-1,-1,-1,-1,30,26.71322490203158,-9999,32422.513502,-0.6618804931640625,0.6419677734375,-0.378814697265625,32422.50846491667,-0.123194726465804,-1.051309080815043,-0.6970097644484918,0.007033372297883034,0.008646768517792225,-0.002714807633310556,0.002782225608825684,-0.001043438911437988,0.0006595253944396973,XArbitraryZVertical,-0.3238615632601062,-0.4525363301875203,0.1209823743277108,0.8220023201557228,-0.6656087636947632,0.6419277787208557,-0.3806491196155548,0,0,0,-1,-1,32415.617399125,unknown,2,2025-04-22T13:11:00.860+03:00,2025-04-21T17:08:51.449+03:00,7412,1.006994,0,0,6173.501,5,20,2025-04-22T13:10:22.167+03:00,767009460.9675541,0,-21.89,100.4651,1,0.7,2025-04-22T13:09:01.195+03:00,86,1.433333333333333,2025-04-22T09:54:17.825+03:00,0.02225348692287972,0
2025-04-22T13:11:07.770+03:00,1745316666.526832,40.95226099598197,29.1402868059831,76.34336,-1,-1,-1,-1,30,26.71322490203158,-9999,32422.523578,-0.662689208984375,0.6419830322265625,-0.3790435791015625,32422.51854,-0.1231356606039373,-1.051154535810845,-0.6969314432902994,0.007464804220944643,0.009861436672508717,-0.00633297860622406,0.003743529319763184,0.0001915097236633301,0.002572566270828247,XArbitraryZVertical,-0.3238262047947242,-0.4524910501834954,0.120962524634079,0.8220439989348588,-0.6655934453010559,0.6418676972389221,-0.3807768821716309,0,0,0,-1,-1,32415.617399125,unknown,2,2025-04-22T13:11:00.860+03:00,2025-04-21T17:08:51.449+03:00,7412,1.006994,0,0,6173.501,5,20,2025-04-22T13:10:22.167+03:00,767009460.9675541,0,-21.89,100.4651,1,0.7,2025-04-22T13:09:01.195+03:00,86,1.433333333333333,2025-04-22T09:54:17.825+03:00,0.02225348692287972,0
2025-04-22T13:11:07.781+03:00,1745316666.526832,40.95226099598197,29.1402868059831,76.34336,-1,-1,-1,-1,30,26.71322490203158,-9999,32422.533655,-0.661834716796875,0.64178466796875,-0.3821258544921875,32422.528617,-0.1230643357147215,-1.05097650433961,-0.6968325176922189,0.01174190733581781,0.01204902306199074,-0.008128847926855087,0.00318145751953125,5.376338958740234e-05,0.002203822135925293,XArbitraryZVertical,-0.3237812187743323,-0.4524403534869951,0.1209388461088606,0.8220930925865747,-0.6655807495117188,0.641791820526123,-0.3809269070625305,0,0,0,-1,-1,32415.617399125,unknown,2,2025-04-22T13:11:00.860+03:00,2025-04-21T17:08:51.449+03:00,7412,1.006994,0,0,6173.501,5,20,2025-04-22T13:10:22.167+03:00,767009460.9675541,0,-21.89,100.4651,1,0.7,2025-04-22T13:09:01.195+03:00,86,1.433333333333333,2025-04-22T09:54:17.825+03:00,0.02225348692287972,0
2025-04-22T13:11:07.791+03:00,1745316666.526832,40.95226099598197,29.1402868059831,76.34336,-1,-1,-1,-1,30,26.71322490203158,-9999,32422.543731,-0.662261962890625,0.6403656005859375,-0.3823699951171875,32422.538693,-0.1230056895186875,-1.05082457950781,-0.6967190090206535,0.007689109072089195,0.009870823472738266,-0.008783719502389431,0.003766655921936035,0.0004459619522094727,0.0003879964351654053,XArbitraryZVertical,-0.3237316727614439,-0.4523999329557405,0.1209106189158882,0.8221390073343524,-0.6655860543251038,0.641704797744751,-0.3810642063617706,0,0,0,-1,-1,32415.617399125,unknown,2,2025-04-22T13:11:00.860+03:00,2025-04-21T17:08:51.449+03:00,7412,1.006994,0,0,6173.501,5,20,2025-04-22T13:10:22.167+03:00,767009460.9675541,0,-21.89,100.4651,1,0.7,2025-04-22T13:09:01.195+03:00,86,1.433333333333333,2025-04-22T09:54:17.825+03:00,0.02225348692287972,0
2025-04-22T13:11:07.801+03:00,1745316666.526832,40.95226099598197,29.1402868059831,76.34336,-1,-1,-1,-1,30,26.71322490203158,-9999,32422.553808,-0.6613922119140625,0.6376495361328125,-0.3817291259765625,32422.54877,-0.1229935053884484,-1.050734137769676,-0.6966071064750929,0.003212068695574999,0.008615676313638687,-0.007438423112034798,0.003886044025421143,-0.0004905462265014648,-0.001408249139785767,XArbitraryZVertical,-0.3236895656602848,-0.4523770877245091,0.1208736562785302,0.8221735689577742,-0.6656138896942139,0.6416189670562744,-0.3811600804328918,0,0,0,-1,-1,32415.617399125,unknown,2,2025-04-22T13:11:00.860+03:00,2025-04-21T17:08:51.449+03:00,7412,1.006994,0,0,6173.501,5,20,2025-04-22T13:10:22.167+03:00,767009460.9675541,0,-21.89,100.4651,1,0.7,2025-04-22T13:09:01.195+03:00,86,1.433333333333333,2025-04-22T09:54:17.825+03:00,0.02225348692287972,0
2025-04-22T13:11:07.811+03:00,1745316666.526832,40.95226099598197,29.1402868059831,76.34336,-1,-1,-1,-1,30,26.71322490203158,-9999,32422.563884,-0.6602325439453125,0.638214111328125,-0.3839111328125,32422.558846,-0.1230033740075264,-1.050648496014625,-0.6965158850138526,-6.788031896576285e-05,0.008313940837979317,-0.007394480984658003,0.003217637538909912,-0.003624856472015381,-0.0002539753913879395,XArbitraryZVertical,-0.3236604049169144,-0.4523503322582095,0.1208334015842474,0.8222058021526196,-0.6656321883201599,0.6415489912033081,-0.3812462389469147,0,0,0,-1,-1,32415.617399125,unknown,2,2025-04-22T13:11:00.860+03:00,2025-04-21T17:08:51.449+03:00,7412,1.006994,0,0,6173.501,5,20,2025-04-22T13:10:22.167+03:00,767009460.9675541,0,-21.89,100.4651,1,0.7,2025-04-22T13:09:01.195+03:00,86,1.433333333333333,2025-04-22T09:54:17.825+03:00,0.02225348692287972,0
2025-04-22T13:11:07.821+03:00,1745316666.526832,40.95226099598197,29.1402868059831,76.34336,-1,-1,-1,-1,30,26.71322490203158,-9999,32422.573961,-0.6613922119140625,0.6403350830078125,-0.3807525634765625,32422.568923,-0.1231053328288239,-1.050645790258326,-0.6964495681779168,-0.009154452942311764,0.004430918022990227,-0.005198105238378048,0.006366312503814697,-0.004733681678771973,-0.002382516860961914,XArbitraryZVertical,-0.3236570569753414,-0.4523400364679364,0.1207748333585557,0.8222214161872022,-0.6656680703163147,0.6414980888366699,-0.3812692165374756,0,0,0,-1,-1,32415.617399125,unknown,2,2025-04-22T13:11:00.860+03:00,2025-04-21T17:08:51.449+03:00,7412,1.006994,0,0,6173.501,5,20,2025-04-22T13:10:22.167+03:00,767009460.9675541,0,-21.89,100.4651,1,0.7,2025-04-22T13:09:01.195+03:00,86,1.433333333333333,2025-04-22T09:54:17.825+03:00,0.02225348692287972,0
2025-04-22T13:11:07.831+03:00,1745316666.526832,40.95226099598197,29.1402868059831,76.34336,-1,-1,-1,-1,30,26.71322490203158,-9999,32422.584038,-0.6598968505859375,0.6376190185546875,-0.3769073486328125,32422.578999,-0.123228963334644,-1.05068747326996,-0.6964345697902004,-0.007883059792220592,0.002650328679010272,-0.005031125154346228,0.004071235656738281,-0.001594126224517822,-0.0009711384773254395,XArbitraryZVertical,-0.3236764946177361,-0.4523388221762177,0.1207270900991192,0.8222214405556749,-0.6656923294067383,0.6414865851402283,-0.3812462389469147,0,0,0,-1,-1,32415.617399125,unknown,2,2025-04-22T13:11:00.860+03:00,2025-04-21T17:08:51.449+03:00,7412,1.006994,0,0,6173.501,5,20,2025-04-22T13:10:22.167+03:00,767009460.9675541,0,-21.89,100.4651,1,0.7,2025-04-22T13:09:01.195+03:00,86,1.433333333333333,2025-04-22T09:54:17.825+03:00,0.02225348692287972,0
2025-04-22T13:11:07.841+03:00,1745316666.526832,40.95226099598197,29.1402868059831,76.34336,-1,-1,-1,-1,30,26.71322490203158,-9999,32422.594114,-0.662872314453125,0.638519287109375,-0.372711181640625,32422.589076,-0.1233634260227002,-1.050751706794271,-0.6964197159963686,-0.007763683795928955,0.0004205307923257351,-0.008900664746761322,0.005401015281677246,-0.002650797367095947,0.002637684345245361,XArbitraryZVertical,-0.3236970760011299,-0.4523451048214596,0.1206785705515429,0.8222170203037976,-0.6657251119613647,0.6414752006530762,-0.381208211183548,0,0,0,-1,-1,32415.617399125,unknown,2,2025-04-22T13:11:00.860+03:00,2025-04-21T17:08:51.449+03:00,7412,1.006994,0,0,6173.501,5,20,2025-04-22T13:10:22.167+03:00,767009460.9675541,0,-21.89,100.4651,1,0.7,2025-04-22T13:09:01.195+03:00,86,1.433333333333333,2025-04-22T09:54:17.825+03:00,0.02225348692287972,0
2025-04-22T13:11:07.851+03:00,1745316666.526832,40.95226099598197,29.1402868059831,76.34336,-1,-1,-1,-1,30,26.71322490203158,-9999,32422.604191,-0.662139892578125,0.63739013671875,-0.37628173828125,32422.599152,-0.1234832999244596,-1.050816798534059,-0.6963677058376659,-0.003866946324706078,0.003499677404761314,-0.01089723687618971,0.003440558910369873,-0.003663778305053711,0.006791830062866211,XArbitraryZVertical,-0.3236994331909904,-0.4523582127649202,0.120627122027395,0.8222164120998033,-0.6657788157463074,0.6414353251457214,-0.3811814486980438,0,0,0,-1,-1,32415.617399125,unknown,2,2025-04-22T13:11:00.860+03:00,2025-04-21T17:08:51.449+03:00,7412,1.006994,0,0,6173.501,5,20,2025-04-22T13:10:22.167+03:00,767009460.9675541,0,-21.89,100.4651,1,0.7,2025-04-22T13:09:01.195+03:00,86,1.433333333333333,2025-04-22T09:54:17.825+03:00,0.02225348692287972,0
2025-04-22T13:11:07.861+03:00,1745316666.526832,40.95226099598197,29.1402868059831,76.34336,-1,-1,-1,-1,30,26.71322490203158,-9999,32422.614267,-0.6583404541015625,0.6394500732421875,-0.3794097900390625,32422.609229,-0.1236305423939811,-1.050876202569574,-0.6963262482329464,-0.01085175201296806,0.003934704698622227,-0.008751860819756985,0.001624643802642822,-0.003464162349700928,0.006902784109115601,XArbitraryZVertical,-0.3237125733866714,-0.4523634046728229,0.12056611678671,0.8222172252604321,-0.6658244132995605,0.6414034962654114,-0.3811550438404083,0,0,0,-1,-1,32415.617399125,unknown,2,2025-04-22T13:11:00.860+03:00,2025-04-21T17:08:51.449+03:00,7412,1.006994,0,0,6173.501,5,20,2025-04-22T13:10:22.167+03:00,767009460.9675541,0,-21.89,100.4651,1,0.7,2025-04-22T13:09:01.195+03:00,86,1.433333333333333,2025-04-22T09:54:17.825+03:00,0.02225348692287972,0
2025-04-22T13:11:07.871+03:00,1745316666.526832,40.95226099598197,29.1402868059831,76.34336,-1,-1,-1,-1,30,26.71322490203158,-9999,32422.624344,-0.658355712890625,0.6366119384765625,-0.3713226318359375,32422.619305,-0.1238578088605301,-1.050980390466547,-0.6963374034248986,-0.01824069209396839,0.006277221255004406,-0.007209890522062778,0.006540954113006592,-0.002129912376403809,0.00167238712310791,XArbitraryZVertical,-0.3237621554508697,-0.4523682072115167,0.1204922576706627,0.8222059342484758,-0.6658579707145691,0.641412079334259,-0.381082147359848,0,0,0,-1,-1,32415.617399125,unknown,2,2025-04-22T13:11:00.860+03:00,2025-04-21T17:08:51.449+03:00,7412,1.006994,0,0,6173.501,5,20,2025-04-22T13:10:22.167+03:00,767009460.9675541,0,-21.89,100.4651,1,0.7,2025-04-22T13:09:01.195+03:00,86,1.433333333333333,2025-04-22T09:54:17.825+03:00,0.02225348692287972,0
2025-04-22T13:11:07.881+03:00,1745316666.526832,40.95226099598197,29.1402868059831,76.34336,-1,-1,-1,-1,30,26.71322490203158,-9999,32422.63442,-0.6601104736328125,0.6361236572265625,-0.36920166015625,32422.629382,-0.1241089176091387,-1.051046757340611,-0.696378938881648,-0.02321960404515266,0.01067529805004597,-0.008562309667468071,0.007946908473968506,-0.003840267658233643,0.006314635276794434,XArbitraryZVertical,-0.3238316017322094,-0.4523502535107989,0.1204099485620567,0.8222004663960852,-0.6658600568771362,0.6414439082145691,-0.3810246884822845,0,0,0,-1,-1,32415.617399125,unknown,2,2025-04-22T13:11:00.860+03:00,2025-04-21T17:08:51.449+03:00,7412,1.006994,0,0,6173.501,5,20,2025-04-22T13:10:22.167+03:00,767009460.9675541,0,-21.89,100.4651,1,0.7,2025-04-22T13:09:01.195+03:00,86,1.433333333333333,2025-04-22T09:54:17.825+03:00,0.02225348692287972,0
2025-04-22T13:11:07.892+03:00,1745316666.526832,40.95226099598197,29.1402868059831,76.34336,-1,-1,-1,-1,30,26.71322490203158,-9999,32422.644497,-0.6598663330078125,0.638763427734375,-0.3750152587890625,32422.639458,-0.1243942183161266,-1.051096011219577,-0.6964406213351084,-0.02410830184817314,0.01442263275384903,-0.003803507890552282,0.006161391735076904,-0.005596518516540527,0.01224368810653687,XArbitraryZVertical,-0.3239178293464648,-0.4523174442355135,0.120315652148047,0.8221985089328584,-0.6658446788787842,0.6414912343025208,-0.3809723258018494,0,0,0,-1,-1,32415.617399125,unknown,2,2025-04-22T13:11:00.860+03:00,2025-04-21T17:08:51.449+03:00,7412,1.006994,0,0,6173.501,5,20,2025-04-22T13:10:22.167+03:00,767009460.9675541,0,-21.89,100.4651,1,0.7,2025-04-22T13:09:01.195+03:00,86,1.433333333333333,2025-04-22T09:54:17.825+03:00,0.02225348692287972,0
2025-04-22T13:11:07.902+03:00,1745316666.526832,40.95226099598197,29.1402868059831,76.34336,-1,-1,-1,-1,30,26.71322490203158,-9999,32422.654573,-0.6605682373046875,0.6384735107421875,-0.3747711181640625,32422.649535,-0.1246975776751185,-1.051131677286233,-0.6965399734963075,-0.02873467840254307,0.01437289826571941,-0.0005999581189826131,0.005722939968109131,-0.003429710865020752,0.008083701133728027,XArbitraryZVertical,-0.3240240807773304,-0.4522719709462963,0.1202210258145023,0.8221954680012157,-0.6658028960227966,0.6415674686431885,-0.3809169232845306,0,0,0,-1,-1,32415.617399125,unknown,2,2025-04-22T13:11:00.860+03:00,2025-04-21T17:08:51.449+03:00,7412,1.006994,0,0,6173.501,5,20,2025-04-22T13:10:22.167+03:00,767009460.9675541,0,-21.89,100.4651,1,0.7,2025-04-22T13:09:01.195+03:00,86,1.433333333333333,2025-04-22T09:54:17.825+03:00,0.02225348692287972,0
2025-04-22T13:11:07.912+03:00,1745316666.526832,40.95226099598197,29.1402868059831,76.34336,-1,-1,-1,-1,30,26.71322490203158,-9999,32422.66465,-0.6622161865234375,0.6387786865234375,-0.3726043701171875,32422.659612,-0.1250056206574166,-1.05119303037574,-0.6966734243186965,-0.0254757683724165,0.01052356511354446,-0.001552837202325463,0.004908919334411621,-0.003425300121307373,0.00549781322479248,XArbitraryZVertical,-0.3241435208929277,-0.4522325183439335,0.1201370319246692,0.8221822166415134,-0.6657518148422241,0.6416698098182678,-0.3808334469795227,0,0,0,-1,-1,32415.617399125,unknown,2,2025-04-22T13:11:00.860+03:00,2025-04-21T17:08:51.449+03:00,7412,1.006994,0,0,6173.501,5,20,2025-04-22T13:10:22.167+03:00,767009460.9675541,0,-21.89,100.4651,1,0.7,2025-04-22T13:09:01.195+03:00,86,1.433333333333333,2025-04-22T09:54:17.825+03:00,0.02225348692287972,0
2025-04-22T13:11:07.922+03:00,1745316666.526832,40.95226099598197,29.1402868059831,76.34336,-1,-1,-1,-1,30,26.71322490203158,-9999,32422.674726,-0.663543701171875,0.6429290771484375,-0.377593994140625,32422.669688,-0.125299332741295,-1.05130788752969,-0.6967644883630192,-0.02043786644935608,0.006510714069008827,-0.00383170391432941,0.004337430000305176,-0.003525674343109131,0.007864266633987427,XArbitraryZVertical,-0.3242394922657369,-0.4522220234870963,0.1200571742885911,0.8221618277365638,-0.6657448410987854,0.6417396664619446,-0.3807279765605927,0,0,0,-1,-1,32415.617399125,unknown,2,2025-04-22T13:11:00.860+03:00,2025-04-21T17:08:51.449+03:00,7412,1.006994,0,0,6173.501,5,20,2025-04-22T13:10:22.167+03:00,767009460.9675541,0,-21.89,100.4651,1,0.7,2025-04-22T13:09:01.195+03:00,86,1.433333333333333,2025-04-22T09:54:17.825+03:00,0.02225348692287972,0
2025-04-22T13:11:07.932+03:00,1745316666.526832,40.95226099598197,29.1402868059831,76.34336,-1,-1,-1,-1,30,26.71322490203158,-9999,32422.684803,-0.6613616943359375,0.642608642578125,-0.3837432861328125,32422.679765,-0.1255702498840239,-1.0514628430933,-0.6968313446025994,-0.01920722052454948,0.00153193436563015,-0.004347824957221746,0.002360284328460693,3.945827484130859e-05,0.005130589008331299,XArbitraryZVertical,-0.3243182017854663,-0.4522343641081359,0.119987259267895,0.822134263739745,-0.6657666563987732,0.6417909264564514,-0.3806035816669464,0,0,0,-1,-1,32415.617399125,unknown,2,2025-04-22T13:11:00.860+03:00,2025-04-21T17:08:51.449+03:00,7412,1.006994,0,0,6173.501,5,20,2025-04-22T13:10:22.167+03:00,767009460.9675541,0,-21.89,100.4651,1,0.7,2025-04-22T13:09:01.195+03:00,86,1.433333333333333,2025-04-22T09:54:17.825+03:00,0.02225348692287972,0
2025-04-22T13:11:07.942+03:00,1745316666.526832,40.95226099598197,29.1402868059831,76.34336,-1,-1,-1,-1,30,26.71322490203158,-9999,32422.694879,-0.6614532470703125,0.64227294921875,-0.38360595703125,32422.689841,-0.1258275975211714,-1.051625193679807,-0.6968443590182003,-0.01445760484784842,0.001714494079351425,-0.01128143165260553,0.0043221116065979,0.001891016960144043,-0.001726031303405762,XArbitraryZVertical,-0.3243718734011399,-0.452257925969324,0.1199109987961626,0.8221112260562576,-0.6658211350440979,0.6418009400367737,-0.380491316318512,0,0,0,-1,-1,32415.617399125,unknown,2,2025-04-22T13:11:00.860+03:00,2025-04-21T17:08:51.449+03:00,7412,1.006994,0,0,6173.501,5,20,2025-04-22T13:10:22.167+03:00,767009460.9675541,0,-21.89,100.4651,1,0.7,2025-04-22T13:09:01.195+03:00,86,1.433333333333333,2025-04-22T09:54:17.825+03:00,0.02225348692287972,0
2025-04-22T13:11:07.952+03:00,1745316666.526832,40.95226099598197,29.1402868059831,76.34336,-1,-1,-1,-1,30,26.71322490203158,-9999,32422.704956,-0.6620635986328125,0.644256591796875,-0.3792266845703125,32422.699918,-0.1260619970193564,-1.051737701867018,-0.6968263104747219,-0.01503897365182638,0.003717191284522414,-0.01194828655570745,0.005153179168701172,-0.0001093149185180664,-0.00391620397567749,XArbitraryZVertical,-0.3244109039448372,-0.4522681533001456,0.1198284665504527,0.822102263291992,-0.6658740043640137,0.641787052154541,-0.3804221749305725,0,0,0,-1,-1,32415.617399125,unknown,2,2025-04-22T13:11:00.860+03:00,2025-04-21T17:08:51.449+03:00,7412,1.006994,0,0,6173.501,5,20,2025-04-22T13:10:22.167+03:00,767009460.9675541,0,-21.89,100.4651,1,0.7,2025-04-22T13:09:01.195+03:00,86,1.433333333333333,2025-04-22T09:54:17.825+03:00,0.02225348692287972,0
2025-04-22T13:11:07.962+03:00,1745316666.526832,40.95226099598197,29.1402868059831,76.34336,-1,-1,-1,-1,30,26.71322490203158,-9999,32422.715032,-0.663970947265625,0.6450042724609375,-0.3728790283203125,32422.709994,-0.1263098957773177,-1.051864627047034,-0.6967866686944956,-0.01325612049549818,0.005249707028269768,-0.01363919395953417,0.003255128860473633,0.002209901809692383,-0.001195728778839111,XArbitraryZVertical,-0.324443501679349,-0.4522845246886134,0.1197374663403244,0.8220936238946767,-0.6659443378448486,0.6417566537857056,-0.3803502321243286,0,0,0,-1,-1,32415.617399125,unknown,2,2025-04-22T13:11:00.860+03:00,2025-04-21T17:08:51.449+03:00,7412,1.006994,0,0,6173.501,5,20,2025-04-22T13:10:22.167+03:00,767009460.9675541,0,-21.89,100.4651,1,0.7,2025-04-22T13:09:01.195+03:00,86,1.433333333333333,2025-04-22T09:54:17.825+03:00,0.02225348692287972,0
2025-04-22T13:11:07.986+03:00,1745316666.526832,40.95226099598197,29.1402868059831,76.34336,-1,-1,-1,-1,30,26.71322490203158,-9999,32422.725109,-0.6672821044921875,0.6393890380859375,-0.3717041015625,32422.720071,-0.1265921525328136,-1.051989088599177,-0.6967670792325313,-0.01735552400350571,0.009065218269824982,-0.00998240802437067,0.002626776695251465,0.003659307956695557,0.005029499530792236,XArbitraryZVertical,-0.3244920259284476,-0.4522920554264325,0.1196368090929826,0.8220850614771518,-0.6660026907920837,0.6417416334152222,-0.3802736401557922,0,0,0,-1,-1,32415.617399125,unknown,2,2025-04-22T13:11:00.860+03:00,2025-04-21T17:08:51.449+03:00,7412,1.006994,0,0,6173.501,5,20,2025-04-22T13:10:22.167+03:00,767009460.9675541,0,-21.89,100.4651,1,0.7,2025-04-22T13:09:01.195+03:00,86,1.433333333333333,2025-04-22T09:54:17.825+03:00,0.02225348692287972,0
2025-04-22T13:11:07.987+03:00,1745316666.526832,40.95226099598197,29.1402868059831,76.34336,-1,-1,-1,-1,30,26.71322490203158,-9999,32422.735185,-0.667694091796875,0.63800048828125,-0.37371826171875,32422.730147,-0.1269061678275236,-1.052094013368187,-0.6968054234293065,-0.02206865325570107,0.01211280655115843,-0.008406815119087696,-0.0002995729446411133,-0.0009325146675109863,0.008395910263061523,XArbitraryZVertical,-0.324572114088893,-0.4522799670504273,0.1195341589892698,0.822075007523017,-0.6660212278366089,0.6417710781097412,-0.3801915347576141,0,0,0,-1,-1,32415.617399125,unknown,2,2025-04-22T13:11:00.860+03:00,2025-04-21T17:08:51.449+03:00,7412,1.006994,0,0,6173.501,5,20,2025-04-22T13:10:22.167+03:00,767009460.9675541,0,-21.89,100.4651,1,0.7,2025-04-22T13:09:01.195+03:00,86,1.433333333333333,2025-04-22T09:54:17.825+03:00,0.02225348692287972,0
2025-04-22T13:11:07.992+03:00,1745316666.526832,40.95226099598197,29.1402868059831,76.34336,-1,-1,-1,-1,30,26.71322490203158,-9999,32422.745262,-0.667022705078125,0.6392974853515625,-0.37261962890625,32422.740224,-0.1272035333653713,-1.052108179648987,-0.6968379008719825,-0.01771065592765808,0.02033105492591858,-0.00897033978253603,-0.0004190802574157715,-0.0041465163230896,0.006331503391265869,XArbitraryZVertical,-0.3246514962143228,-0.4522339008830221,0.1194221626785734,0.8220853268763588,-0.6660085320472717,0.6417959928512573,-0.3801718056201935,0,0,0,-1,-1,32415.617399125,unknown,2,2025-04-22T13:11:00.860+03:00,2025-04-21T17:08:51.449+03:00,7412,1.006994,0,0,6173.501,5,20,2025-04-22T13:10:22.167+03:00,767009460.9675541,0,-21.89,100.4651,1,0.7,2025-04-22T13:09:01.195+03:00,86,1.433333333333333,2025-04-22T09:54:17.825+03:00,0.02225348692287972,0
2025-04-22T13:11:08.002+03:00,1745316666.526832,40.95226099598197,29.1402868059831,76.34336,-1,-1,-1,-1,30,26.71322490203158,-9999,32422.755339,-0.666412353515625,0.640472412109375,-0.374755859375,32422.7503,-0.1274656644521548,-1.052037785134283,-0.6968663683227028,-0.01727789454162121,0.0274781808257103,-0.007998685352504253,-0.001667141914367676,-0.003908932209014893,0.007757902145385742,XArbitraryZVertical,-0.3247263592177488,-0.4521592411587551,0.1193099627692523,0.8221131036153554,-0.6659659147262573,0.6418178081512451,-0.3802096247673035,0,0,0,-1,-1,32415.617399125,unknown,2,2025-04-22T13:11:00.860+03:00,2025-04-21T17:08:51.449+03:00,7412,1.006994,0,0,6173.501,5,20,2025-04-22T13:10:22.167+03:00,767009460.9675541,0,-21.89,100.4651,1,0.7,2025-04-22T13:09:01.195+03:00,86,1.433333333333333,2025-04-22T09:54:17.825+03:00,0.02225348692287972,0
2025-04-22T13:11:08.012+03:00,1745316666.526832,40.95226099598197,29.1402868059831,76.34336,-1,-1,-1,-1,30,26.71322490203158,-9999,32422.765415,-0.6640167236328125,0.6404571533203125,-0.37762451171875,32422.760377,-0.127719032846671,-1.051906688745164,-0.6968935620410477,-0.0167364738881588,0.03250090032815933,-0.008447161875665188,-0.001121878623962402,-0.001564741134643555,0.005913883447647095,XArbitraryZVertical,-0.3248023600393594,-0.4520612017591137,0.1191912336119218,0.8221540989505473,-0.6659007668495178,0.6418386697769165,-0.3802881836891174,0,0,0,-1,-1,32415.617399125,unknown,2,2025-04-22T13:11:00.860+03:00,2025-04-21T17:08:51.449+03:00,7412,1.006994,0,0,6173.501,5,20,2025-04-22T13:10:22.167+03:00,767009460.9675541,0,-21.89,100.4651,1,0.7,2025-04-22T13:09:01.195+03:00,86,1.433333333333333,2025-04-22T09:54:17.825+03:00,0.02225348692287972,0
2025-04-22T13:11:08.022+03:00,1745316666.526832,40.95226099598197,29.1402868059831,76.34336,-1,-1,-1,-1,30,26.71322490203158,-9999,32422.775492,-0.6629791259765625,0.6392059326171875,-0.377349853515625,32422.770453,-0.1279525393765791,-1.051736900667094,-0.6969122438443507,-0.01529310550540686,0.02858199365437031,-0.00745769776403904,0.001152992248535156,-0.001563727855682373,0.003808438777923584,XArbitraryZVertical,-0.3248727032644021,-0.4519513791787254,0.1190722046342631,0.8222040112603596,-0.6658258438110352,0.6418529748916626,-0.3803953528404236,0,0,0,-1,-1,32415.617399125,unknown,2,2025-04-22T13:11:00.860+03:00,2025-04-21T17:08:51.449+03:00,7412,1.006994,0,0,6173.501,5,20,2025-04-22T13:10:22.167+03:00,767009460.9675541,0,-21.89,100.4651,1,0.7,2025-04-22T13:09:01.195+03:00,86,1.433333333333333,2025-04-22T09:54:17.825+03:00,0.02225348692287972,0
2025-04-22T13:11:08.032+03:00,1745316666.526832,40.95226099598197,29.1402868059831,76.34336,-1,-1,-1,-1,30,26.71322490203158,-9999,32422.785568,-0.662200927734375,0.643310546875,-0.3786163330078125,32422.78053,-0.1281512906883682,-1.051582370584375,-0.6968929091028598,-0.01159077882766724,0.02331133186817169,-0.01018930226564407,0.002844512462615967,-0.002510249614715576,0.003475010395050049,XArbitraryZVertical,-0.3249190624328517,-0.4518577123127315,0.1189606430217854,0.8222533562663137,-0.665777862071991,0.6418381333351135,-0.3805044293403625,0,0,0,-1,-1,32415.617399125,unknown,2,2025-04-22T13:11:00.860+03:00,2025-04-21T17:08:51.449+03:00,7412,1.006994,0,0,6173.501,5,20,2025-04-22T13:10:22.167+03:00,767009460.9675541,0,-21.89,100.4651,1,0.7,2025-04-22T13:09:01.195+03:00,86,1.433333333333333,2025-04-22T09:54:17.825+03:00,0.02225348692287972,0
2025-04-22T13:11:08.043+03:00,1745316666.526832,40.95226099598197,29.1402868059831,76.34336,-1,-1,-1,-1,30,26.71322490203158,-9999,32422.795645,-0.6645660400390625,0.645294189453125,-0.3797607421875,32422.790606,-0.1283181919149064,-1.051427796752961,-0.6968383557424597,-0.005345133598893881,0.02451081946492195,-0.01499111391603947,0.00327378511428833,-0.0006526708602905273,0.002618700265884399,XArbitraryZVertical,-0.3249441545236127,-0.4517731535183461,0.118853605127996,0.8223052625050941,-0.6657493114471436,0.6417962908744812,-0.3806246221065521,0,0,0,-1,-1,32415.617399125,unknown,2,2025-04-22T13:11:00.860+03:00,2025-04-21T17:08:51.449+03:00,7412,1.006994,0,0,6173.501,5,20,2025-04-22T13:10:22.167+03:00,767009460.9675541,0,-21.89,100.4651,1,0.7,2025-04-22T13:09:01.195+03:00,86,1.433333333333333,2025-04-22T09:54:17.825+03:00,0.02225348692287972,0
2025-04-22T13:11:08.053+03:00,1745316666.526832,40.95226099598197,29.1402868059831,76.34336,-1,-1,-1,-1,30,26.71322490203158,-9999,32422.805721,-0.665924072265625,0.6449737548828125,-0.37890625,32422.800683,-0.1284783375544347,-1.051288185864214,-0.6967518170787187,-0.002989301458001137,0.024563018232584,-0.017785569652915,0.001773595809936523,0.003854095935821533,0.001213371753692627,XArbitraryZVertical,-0.3249539577656528,-0.4516993592265428,0.1187438336591411,0.82235791545787,-0.6657445430755615,0.6417299509048462,-0.3807452321052551,0,0,0,-1,-1,32415.617399125,unknown,2,2025-04-22T13:11:00.860+03:00,2025-04-21T17:08:51.449+03:00,7412,1.006994,0,0,6173.501,5,20,2025-04-22T13:10:22.167+03:00,767009460.9675541,0,-21.89,100.4651,1,0.7,2025-04-22T13:09:01.195+03:00,86,1.433333333333333,2025-04-22T09:54:17.825+03:00,0.02225348692287972,0
2025-04-22T13:11:08.063+03:00,1745316666.526832,40.95226099598197,29.1402868059831,76.34336,-1,-1,-1,-1,30,26.71322490203158,-9999,32422.815798,-0.6641998291015625,0.6429901123046875,-0.3806304931640625,32422.81076,-0.1286693708326176,-1.051165150467896,-0.6966375666418601,-0.002869858639314771,0.02858399227261543,-0.0176245141774416,-0.0004374384880065918,0.003773868083953857,0.002064108848571777,XArbitraryZVertical,-0.3249586883368186,-0.451630484878589,0.1186173411443135,0.8224120850520821,-0.6657612919807434,0.6416423320770264,-0.3808635175228119,0,0,0,-1,-1,32415.617399125,unknown,2,2025-04-22T13:11:00.860+03:00,2025-04-21T17:08:51.449+03:00,7412,1.006994,0,0,6173.501,5,20,2025-04-22T13:10:22.167+03:00,767009460.9675541,0,-21.89,100.4651,1,0.7,2025-04-22T13:09:01.195+03:00,86,1.433333333333333,2025-04-22T09:54:17.825+03:00,0.02225348692287972,0
2025-04-22T13:11:08.073+03:00,1745316666.526832,40.95226099598197,29.1402868059831,76.34336,-1,-1,-1,-1,30,26.71322490203158,-9999,32422.825874,-0.66534423828125,0.6404571533203125,-0.3795166015625,32422.820836,-0.1288743691953615,-1.051027426679211,-0.6965066068710363,-0.008040386252105236,0.02825562283396721,-0.01864184252917767,0.001017332077026367,0.001951694488525391,0.000839531421661377,XArbitraryZVertical,-0.3249607241045103,-0.451555151689626,0.1184785973930055,0.8224726645372902,-0.6657817363739014,0.6415418386459351,-0.3809969425201416,0,0,0,-1,-1,32415.617399125,unknown,2,2025-04-22T13:11:00.860+03:00,2025-04-21T17:08:51.449+03:00,7412,1.006994,0,0,6173.501,5,20,2025-04-22T13:10:22.167+03:00,767009460.9675541,0,-21.89,100.4651,1,0.7,2025-04-22T13:09:01.195+03:00,86,1.433333333333333,2025-04-22T09:54:17.825+03:00,0.02225348692287972,0
2025-04-22T13:11:08.083+03:00,1745316666.526832,40.95226099598197,29.1402868059831,76.34336,-1,-1,-1,-1,30,26.71322490203158,-9999,32422.835951,-0.661407470703125,0.6365509033203125,-0.3772735595703125,32422.830913,-0.1291492775686762,-1.050935782126011,-0.6964001815113339,-0.0148646691814065,0.02605458721518517,-0.01804392971098423,0.001438379287719727,0.0009347796440124512,0.0004613995552062988,XArbitraryZVertical,-0.3249856129030598,-0.451484667243394,0.1183245862997555,0.8225237239152803,-0.6658061146736145,0.6414602398872375,-0.3810918927192688,0,0,0,-1,-1,32415.617399125,unknown,2,2025-04-22T13:11:00.860+03:00,2025-04-21T17:08:51.449+03:00,7412,1.006994,0,0,6173.501,5,20,2025-04-22T13:10:22.167+03:00,767009460.9675541,0,-21.89,100.4651,1,0.7,2025-04-22T13:09:01.195+03:00,86,1.433333333333333,2025-04-22T09:54:17.825+03:00,0.02225348692287972,0
2025-04-22T13:11:08.093+03:00,1745316666.526832,40.95226099598197,29.1402868059831,76.34336,-1,-1,-1,-1,30,26.71322490203158,-9999,32422.846027,-0.66064453125,0.6349334716796875,-0.377685546875,32422.840989,-0.1294353169721721,-1.050871475663825,-0.6963332490054868,-0.01672408916056156,0.02799416705965996,-0.0138350697234273,0.003251612186431885,-0.003164350986480713,0.003851890563964844,XArbitraryZVertical,-0.3250272216141648,-0.4514192338727001,0.1181801615346602,0.8225638429437854,-0.6658187508583069,0.6414088606834412,-0.3811559677124023,0,0,0,-1,-1,32415.617399125,unknown,2,2025-04-22T13:11:00.860+03:00,2025-04-21T17:08:51.449+03:00,7412,1.006994,0,0,6173.501,5,20,2025-04-22T13:10:22.167+03:00,767009460.9675541,0,-21.89,100.4651,1,0.7,2025-04-22T13:09:01.195+03:00,86,1.433333333333333,2025-04-22T09:54:17.825+03:00,0.02225348692287972,0
2025-04-22T13:11:08.103+03:00,1745316666.526832,40.95226099598197,29.1402868059831,76.34336,-1,-1,-1,-1,30,26.71322490203158,-9999,32422.856104,-0.6613311767578125,0.63629150390625,-0.37933349609375,32422.851066,-0.1296959977704255,-1.050741165895283,-0.6962902086298826,-0.01016605459153652,0.0315265841782093,-0.01338179968297482,0.005514800548553467,-0.007113873958587646,0.004150807857513428,XArbitraryZVertical,-0.3250765067881295,-0.4513280642895874,0.1180411992124129,0.8226144195343923,-0.6657931208610535,0.6413758397102356,-0.381256490945816,0,0,0,-1,-1,32415.617399125,unknown,2,2025-04-22T13:11:00.860+03:00,2025-04-21T17:08:51.449+03:00,7412,1.006994,0,0,6173.501,5,20,2025-04-22T13:10:22.167+03:00,767009460.9675541,0,-21.89,100.4651,1,0.7,2025-04-22T13:09:01.195+03:00,86,1.433333333333333,2025-04-22T09:54:17.825+03:00,0.02225348692287972,0
2025-04-22T13:11:08.113+03:00,1745316666.526832,40.95226099598197,29.1402868059831,76.34336,-1,-1,-1,-1,30,26.71322490203158,-9999,32422.866181,-0.6622161865234375,0.63873291015625,-0.3796234130859375,32422.861142,-0.1299589064449417,-1.050597964517626,-0.6962386305389665,-0.01566175371408463,0.030381690710783,-0.01351469103246927,0.004115521907806396,-0.005868911743164062,0.002431511878967285,XArbitraryZVertical,-0.3251236574754909,-0.451232209921809,0.1178971999771113,0.8226689174085798,-0.6657670736312866,0.6413362622261047,-0.3813681900501251,0,0,0,-1,-1,32415.617399125,unknown,2,2025-04-22T13:11:00.860+03:00,2025-04-21T17:08:51.449+03:00,7412,1.006994,0,0,6173.501,5,20,2025-04-22T13:10:22.167+03:00,767009460.9675541,0,-21.89,100.4651,1,0.7,2025-04-22T13:09:01.195+03:00,86,1.433333333333333,2025-04-22T09:54:17.825+03:00,0.02225348692287972,0
2025-04-22T13:11:08.123+03:00,1745316666.526832,40.95226099598197,29.1402868059831,76.34336,-1,-1,-1,-1,30,26.71322490203158,-9999,32422.876257,-0.660797119140625,0.6393280029296875,-0.379608154296875,32422.871219,-0.1302028899637535,-1.050443397064067,-0.6961987968588789,-0.01557493582367897,0.03121606074273586,-0.01314584352076054,0.003270089626312256,-0.003045916557312012,0.001066982746124268,XArbitraryZVertical,-0.3251718441869116,-0.4511334014357462,0.1177619271698254,0.8227235099840896,-0.665730357170105,0.6413057446479797,-0.3814838528633118,0,0,0,-1,-1,32415.617399125,unknown,2,2025-04-22T13:11:00.860+03:00,2025-04-21T17:08:51.449+03:00,7412,1.006994,0,0,6173.501,5,20,2025-04-22T13:10:22.167+03:00,767009460.9675541,0,-21.89,100.4651,1,0.7,2025-04-22T13:09:01.195+03:00,86,1.433333333333333,2025-04-22T09:54:17.825+03:00,0.02225348692287972,0
2025-04-22T13:11:08.134+03:00,1745316666.526832,40.95226099598197,29.1402868059831,76.34336,-1,-1,-1,-1,30,26.71322490203158,-9999,32422.886334,-0.662933349609375,0.64202880859375,-0.3760223388671875,32422.881295,-0.1304224122405122,-1.050248351812513,-0.6961470826486176,-0.006666927132755518,0.03772003203630447,-0.01636693626642227,0.004628241062164307,-0.002945184707641602,0.002174615859985352,XArbitraryZVertical,-0.3252121358985848,-0.4510232535880802,0.1176272518524655,0.8227872338503744,-0.6656847596168518,0.6412660479545593,-0.3816301822662354,0,0,0,-1,-1,32415.617399125,unknown,2,2025-04-22T13:11:00.860+03:00,2025-04-21T17:08:51.449+03:00,7412,1.006994,0,0,6173.501,5,20,2025-04-22T13:10:22.167+03:00,767009460.9675541,0,-21.89,100.4651,1,0.7,2025-04-22T13:09:01.195+03:00,86,1.433333333333333,2025-04-22T09:54:17.825+03:00,0.02225348692287972,0
2025-04-22T13:11:08.144+03:00,1745316666.526832,40.95226099598197,29.1402868059831,76.34336,-1,-1,-1,-1,30,26.71322490203158,-9999,32422.89641,-0.65985107421875,0.64093017578125,-0.376708984375,32422.891372,-0.1306139903918516,-1.050052468957779,-0.6960834622723041,-0.00980646163225174,0.03042330406606197,-0.01121022459119558,0.004375219345092773,-0.0006075501441955566,0.004019081592559814,XArbitraryZVertical,-0.3252413777476096,-0.4509186218431069,0.1175010009205846,0.8228510861876657,-0.6656453609466553,0.6412172317504883,-0.3817808926105499,0,0,0,-1,-1,32415.617399125,unknown,2,2025-04-22T13:11:00.860+03:00,2025-04-21T17:08:51.449+03:00,7412,1.006994,0,0,6173.501,5,20,2025-04-22T13:10:22.167+03:00,767009460.9675541,0,-21.89,100.4651,1,0.7,2025-04-22T13:09:01.195+03:00,86,1.433333333333333,2025-04-22T09:54:17.825+03:00,0.02225348692287972,0
2025-04-22T13:11:08.154+03:00,1745316666.526832,40.95226099598197,29.1402868059831,76.34336,-1,-1,-1,-1,30,26.71322490203158,-9999,32422.906487,-0.6570892333984375,0.63909912109375,-0.37548828125,32422.901448,-0.1308555632326824,-1.049920674228375,-0.696038853838915,-0.01441239845007658,0.0281074196100235,-0.01351838652044535,0.003617286682128906,0.001318752765655518,0.006211519241333008,XArbitraryZVertical,-0.3252857209000439,-0.4508300990499521,0.1173692592432751,0.8229008613493919,-0.6656198501586914,0.6411830186843872,-0.3818828463554382,0,0,0,-1,-1,32415.617399125,unknown,2,2025-04-22T13:11:00.860+03:00,2025-04-21T17:08:51.449+03:00,7412,1.006994,0,0,6173.501,5,20,2025-04-22T13:10:22.167+03:00,767009460.9675541,0,-21.89,100.4651,1,0.7,2025-04-22T13:09:01.195+03:00,86,1.433333333333333,2025-04-22T09:54:17.825+03:00,0.02225348692287972,0
2025-04-22T13:11:08.164+03:00,1745316666.526832,40.95226099598197,29.1402868059831,76.34336,-1,-1,-1,-1,30,26.71322490203158,-9999,32422.916563,-0.65966796875,0.638519287109375,-0.376007080078125,32422.911525,-0.1311604934948622,-1.049849894442459,-0.6960197008682374,-0.0228081475943327,0.02446701005101204,-0.01297676656395197,0.009124636650085449,-0.001428365707397461,0.005333960056304932,XArbitraryZVertical,-0.3253509358751444,-0.4507535196188763,0.1172275930952789,0.8229372226642092,-0.6656034588813782,0.6411682963371277,-0.3819360733032227,0,0,0,-1,-1,32415.617399125,unknown,2,2025-04-22T13:11:00.860+03:00,2025-04-21T17:08:51.449+03:00,7412,1.006994,0,0,6173.501,5,20,2025-04-22T13:10:22.167+03:00,767009460.9675541,0,-21.89,100.4651,1,0.7,2025-04-22T13:09:01.195+03:00,86,1.433333333333333,2025-04-22T09:54:17.825+03:00,0.02225348692287972,0
2025-04-22T13:11:08.174+03:00,1745316666.526832,40.95226099598197,29.1402868059831,76.34336,-1,-1,-1,-1,30,26.71322490203158,-9999,32422.92664,-0.6577911376953125,0.63604736328125,-0.3796234130859375,32422.921602,-0.1314866612068927,-1.049828657674487,-0.6960574330533235,-0.02188323065638542,0.02443372085690498,-0.00903928279876709,0.006242156028747559,-0.002205014228820801,0.00625157356262207,XArbitraryZVertical,-0.3254407839722418,-0.4506874868142582,0.1170991555710254,0.822956164129041,-0.6655744314193726,0.6411972641944885,-0.3819381594657898,0,0,0,-1,-1,32415.617399125,unknown,2,2025-04-22T13:11:00.860+03:00,2025-04-21T17:08:51.449+03:00,7412,1.006994,0,0,6173.501,5,20,2025-04-22T13:10:22.167+03:00,767009460.9675541,0,-21.89,100.4651,1,0.7,2025-04-22T13:09:01.195+03:00,86,1.433333333333333,2025-04-22T09:54:17.825+03:00,0.02225348692287972,0
