loggingTime(txt),locationTimestamp_since1970(s),locationLatitude(WGS84),locationLongitude(WGS84),locationAltitude(m),locationSpeed(m/s),locationSpeedAccuracy(m/s),locationCourse(°),locationCourseAccuracy(°),locationVerticalAccuracy(m),locationHorizontalAccuracy(m),locationFloor(Z),accelerometerTimestamp_sinceReboot(s),accelerometerAccelerationX(G),accelerometerAccelerationY(G),accelerometerAccelerationZ(G),motionTimestamp_sinceReboot(s),motionYaw(rad),motionRoll(rad),motionPitch(rad),motionRotationRateX(rad/s),motionRotationRateY(rad/s),motionRotationRateZ(rad/s),motionUserAccelerationX(G),motionUserAccelerationY(G),motionUserAccelerationZ(G),motionAttitudeReferenceFrame(txt),motionQuaternionX(R),motionQuaternionY(R),motionQuaternionZ(R),motionQuaternionW(R),motionGravityX(G),motionGravityY(G),motionGravityZ(G),motionMagneticFieldX(µT),motionMagneticFieldY(µT),motionMagneticFieldZ(µT),motionHeading(°),motionMagneticFieldCalibrationAccuracy(Z),activityTimestamp_sinceReboot(s),activity(txt),activityActivityConfidence(Z),activityActivityStartDate(txt),pedometerStartDate(txt),pedometerNumberofSteps(N),pedometerAverageActivePace(s/m),pedometerCurrentPace(s/m),pedometerCurrentCadence(steps/s),pedometerDistance(m),pedometerFloorAscended(N),pedometerFloorDescended(N),pedometerEndDate(txt),altimeterTimestamp_sinceReboot(s),altimeterReset(bool),altimeterRelativeAltitude(m),altimeterPressure(kPa),batteryState(N),batteryLevel(R),heartRateBPMTimestamp(txt),heartRateBPM(N),heartRateBPS(R),heartRateVariabilityTimestamp(txt),heartRateVariability(ms),label
2025-04-22T13:18:56.200+03:00,1745317135.028596,40.9522634397247,29.14028108201103,76.21932,-1,-1,-1,-1,30,24.85156048724523,-9999,32849.541218375,-0.6323089599609375,0.5356597900390625,-0.581512451171875,32849.531141375,0.1758821688682196,-0.8050432795859659,-0.5664395357001114,0.03428602963685989,0.01049154065549374,-0.007735532242804766,0.08221244812011719,-0.002085268497467041,0.04139095544815063,XArbitraryZVertical,0.2230854697718259,0.3972613065893852,-0.1866369881067825,-0.8703923414715573,-0.6082744002342224,0.5366310477256775,-0.5848326683044434,0,0,0,-1,-1,32846.292754625,unknown,2,2025-04-22T13:18:52.929+03:00,2025-04-21T17:08:51.449+03:00,7440,1.01013,0,0,6196.233,5,20,2025-04-22T13:18:52.929+03:00,767009935.5997123,0,-20.39,100.4473,1,0.7,2025-04-22T13:17:51.654+03:00,90,1.5,2025-04-22T09:54:17.825+03:00,0.02225348692287972,0
2025-04-22T13:18:56.201+03:00,1745317135.028596,40.9522634397247,29.14028108201103,76.21932,-1,-1,-1,-1,30,24.85156048724523,-9999,32849.551295375,-0.6497650146484375,0.514007568359375,-0.579833984375,32849.541218375,0.1761514657680777,-0.8045087165091815,-0.5661649310705508,0.03045081347227097,0.05589843541383743,-2.275127917528152e-05,0.01419579982757568,-0.004203379154205322,0.01337581872940063,XArbitraryZVertical,0.2229597216127724,0.3970629795477306,-0.1866462536442401,-0.8705130729434005,-0.6080678105354309,0.5363993644714355,-0.5852599143981934,0,0,0,-1,-1,32846.292754625,unknown,2,2025-04-22T13:18:52.929+03:00,2025-04-21T17:08:51.449+03:00,7440,1.01013,0,0,6196.233,5,20,2025-04-22T13:18:52.929+03:00,767009935.5997123,0,-20.39,100.4473,1,0.7,2025-04-22T13:17:51.654+03:00,90,1.5,2025-04-22T09:54:17.825+03:00,0.02225348692287972,0
2025-04-22T13:18:56.202+03:00,1745317135.028596,40.9522634397247,29.14028108201103,76.21932,-1,-1,-1,-1,30,24.85156048724523,-9999,32849.561372375,-0.5962982177734375,0.50738525390625,-0.5683746337890625,32849.551295375,0.1763237554337339,-0.8040102475141534,-0.5660613448259127,0.004534461535513401,0.02241364680230618,0.005572383757680655,-0.05066174268722534,-0.009868502616882324,0.0007627010345458984,XArbitraryZVertical,0.2229259627941677,0.3968668391244783,-0.1866474838151776,-0.8706108415858608,-0.6078159809112549,0.53631192445755,-0.5856014490127563,0,0,0,-1,-1,32846.292754625,unknown,2,2025-04-22T13:18:52.929+03:00,2025-04-21T17:08:51.449+03:00,7440,1.01013,0,0,6196.233,5,20,2025-04-22T13:18:52.929+03:00,767009935.5997123,0,-20.39,100.4473,1,0.7,2025-04-22T13:17:51.654+03:00,90,1.5,2025-04-22T09:54:17.825+03:00,0.02225348692287972,0
2025-04-22T13:18:56.213+03:00,1745317135.028596,40.9522634397247,29.14028108201103,76.21932,-1,-1,-1,-1,30,24.85156048724523,-9999,32849.57144837501,-0.58721923828125,0.528839111328125,-0.576141357421875,32849.561372375,0.1763353911895195,-0.8039308565036669,-0.5660720147062731,-0.003824135754257441,0.005311891902238131,0.007407834753394127,-0.008170843124389648,-0.03255212306976318,0.01499766111373901,XArbitraryZVertical,0.2229358106338943,0.3968334120355868,-0.1866455765030153,-0.8706239624541804,-0.6077653765678406,0.5363209247589111,-0.5856457352638245,0,0,0,-1,-1,32846.292754625,unknown,2,2025-04-22T13:18:52.929+03:00,2025-04-21T17:08:51.449+03:00,7440,1.01013,0,0,6196.233,5,20,2025-04-22T13:18:52.929+03:00,767009935.5997123,0,-20.39,100.4473,1,0.7,2025-04-22T13:17:51.654+03:00,90,1.5,2025-04-22T09:54:17.825+03:00,0.02225348692287972,0
2025-04-22T13:18:56.225+03:00,1745317135.028596,40.9522634397247,29.14028108201103,76.21932,-1,-1,-1,-1,30,24.85156048724523,-9999,32849.581525375,-0.6125335693359375,0.533050537109375,-0.5916595458984375,32849.57144837501,0.176400085474358,-0.8037673253663522,-0.566124621043362,0.001740206265822053,0.01907956972718239,0.006168232765048742,0.02453476190567017,-0.01456058025360107,0.01506221294403076,XArbitraryZVertical,0.2229616404705991,0.3967686081144901,-0.1866647422533228,-0.8706428123222663,-0.6076493263244629,0.5363653302192688,-0.5857255458831787,0,0,0,-1,-1,32846.292754625,unknown,2,2025-04-22T13:18:52.929+03:00,2025-04-21T17:08:51.449+03:00,7440,1.01013,0,0,6196.233,5,20,2025-04-22T13:18:52.929+03:00,767009935.5997123,0,-20.39,100.4473,1,0.7,2025-04-22T13:17:51.654+03:00,90,1.5,2025-04-22T09:54:17.825+03:00,0.02225348692287972,0
2025-04-22T13:18:56.233+03:00,1745317135.028596,40.9522634397247,29.14028108201103,76.21932,-1,-1,-1,-1,30,24.85156048724523,-9999,32849.591602375,-0.61163330078125,0.5350341796875,-0.595977783203125,32849.581525375,0.1765179529352326,-0.8034773746744737,-0.5662035565762538,0.009400255978107452,0.01781137101352215,0.005474745761603117,0.003735005855560303,-0.002496421337127686,-0.0008280277252197266,XArbitraryZVertical,0.2230004453722334,0.3966542948592897,-0.1866975863899925,-0.8706779453536947,-0.6074489951133728,0.5364319086074829,-0.5858723521232605,0,0,0,-1,-1,32846.292754625,unknown,2,2025-04-22T13:18:52.929+03:00,2025-04-21T17:08:51.449+03:00,7440,1.01013,0,0,6196.233,5,20,2025-04-22T13:18:52.929+03:00,767009935.5997123,0,-20.39,100.4473,1,0.7,2025-04-22T13:17:51.654+03:00,90,1.5,2025-04-22T09:54:17.825+03:00,0.02225348692287972,0
2025-04-22T13:18:56.243+03:00,1745317135.028596,40.9522634397247,29.14028108201103,76.21932,-1,-1,-1,-1,30,24.85156048724523,-9999,32849.601678375,-0.598419189453125,0.547149658203125,-0.5897674560546875,32849.591602375,0.1766486738784117,-0.803280107309653,-0.5661377960932387,0.01500501204282045,0.01253924518823624,-2.927600871771574e-05,-0.007784008979797363,-0.003539621829986572,-0.009762704372406006,XArbitraryZVertical,0.2229636776421211,0.3965840095014264,-0.186720958263619,-0.8707143476873749,-0.6073588132858276,0.536376416683197,-0.5860166549682617,0,0,0,-1,-1,32846.292754625,unknown,2,2025-04-22T13:18:52.929+03:00,2025-04-21T17:08:51.449+03:00,7440,1.01013,0,0,6196.233,5,20,2025-04-22T13:18:52.929+03:00,767009935.5997123,0,-20.39,100.4473,1,0.7,2025-04-22T13:17:51.654+03:00,90,1.5,2025-04-22T09:54:17.825+03:00,0.02225348692287972,0
2025-04-22T13:18:56.253+03:00,1745317135.028596,40.9522634397247,29.14028108201103,76.21932,-1,-1,-1,-1,30,24.85156048724523,-9999,32849.611755375,-0.6031036376953125,0.550811767578125,-0.5856170654296875,32849.601678375,0.1768118927338589,-0.8030638617426857,-0.5659748083644818,0.02390769496560097,0.01667406968772411,-8.333817822858691e-05,0.006113946437835693,0.005799055099487305,-0.005984842777252197,XArbitraryZVertical,0.2228789700255113,0.3965105402071428,-0.1867392755708616,-0.8707656254195613,-0.6072949767112732,0.5362388491630554,-0.586208701133728,0,0,0,-1,-1,32846.292754625,unknown,2,2025-04-22T13:18:52.929+03:00,2025-04-21T17:08:51.449+03:00,7440,1.01013,0,0,6196.233,5,20,2025-04-22T13:18:52.929+03:00,767009935.5997123,0,-20.39,100.4473,1,0.7,2025-04-22T13:17:51.654+03:00,90,1.5,2025-04-22T09:54:17.825+03:00,0.02225348692287972,0
2025-04-22T13:18:56.263+03:00,1745317135.028596,40.9522634397247,29.14028108201103,76.21932,-1,-1,-1,-1,30,24.85156048724523,-9999,32849.621832375,-0.6083221435546875,0.53704833984375,-0.582000732421875,32849.611755375,0.1770372268869902,-0.8027699562801048,-0.5658063373499019,0.02781042270362377,0.01741642504930496,-0.001342147821560502,0.006937384605407715,0.01573741436004639,-0.0002809762954711914,XArbitraryZVertical,0.2227867691699297,0.3964102502777933,-0.1867750623669412,-0.8708272224188792,-0.6071876287460327,0.5360966920852661,-0.586449921131134,0,0,0,-1,-1,32846.292754625,unknown,2,2025-04-22T13:18:52.929+03:00,2025-04-21T17:08:51.449+03:00,7440,1.01013,0,0,6196.233,5,20,2025-04-22T13:18:52.929+03:00,767009935.5997123,0,-20.39,100.4473,1,0.7,2025-04-22T13:17:51.654+03:00,90,1.5,2025-04-22T09:54:17.825+03:00,0.02225348692287972,0
2025-04-22T13:18:56.273+03:00,1745317135.028596,40.9522634397247,29.14028108201103,76.21932,-1,-1,-1,-1,30,24.85156048724523,-9999,32849.631909375,-0.60675048828125,0.527313232421875,-0.582427978515625,32849.621832375,0.1772209016111911,-0.8025051924884332,-0.5656265529661028,0.01865420863032341,0.01340037770569324,-0.003575740847736597,-0.0002897381782531738,0.006932258605957031,0.003654599189758301,XArbitraryZVertical,0.2226950803288485,0.3963181629647001,-0.186794017773502,-0.8708884943690969,-0.6071016192436218,0.5359448790550232,-0.586677610874176,0,0,0,-1,-1,32846.292754625,unknown,2,2025-04-22T13:18:52.929+03:00,2025-04-21T17:08:51.449+03:00,7440,1.01013,0,0,6196.233,5,20,2025-04-22T13:18:52.929+03:00,767009935.5997123,0,-20.39,100.4473,1,0.7,2025-04-22T13:17:51.654+03:00,90,1.5,2025-04-22T09:54:17.825+03:00,0.02225348692287972,0
2025-04-22T13:18:56.283+03:00,1745317135.028596,40.9522634397247,29.14028108201103,76.21932,-1,-1,-1,-1,30,24.85156048724523,-9999,32849.641985375,-0.604278564453125,0.529144287109375,-0.583831787109375,32849.631909375,0.177333392048609,-0.8023447624390181,-0.5654937479781059,0.01488563604652882,0.008683720603585243,-0.000555150443688035,-0.0004547834396362305,-0.006841123104095459,0.005312085151672363,XArbitraryZVertical,0.2226286675414149,0.396262853443583,-0.1868018637362344,-0.8709289100577483,-0.6070586442947388,0.5358327627182007,-0.5868244767189026,0,0,0,-1,-1,32846.292754625,unknown,2,2025-04-22T13:18:52.929+03:00,2025-04-21T17:08:51.449+03:00,7440,1.01013,0,0,6196.233,5,20,2025-04-22T13:18:52.929+03:00,767009935.5997123,0,-20.39,100.4473,1,0.7,2025-04-22T13:17:51.654+03:00,90,1.5,2025-04-22T09:54:17.825+03:00,0.02225348692287972,0
2025-04-22T13:18:56.293+03:00,1745317135.028596,40.9522634397247,29.14028108201103,76.21932,-1,-1,-1,-1,30,24.85156048724523,-9999,32849.652062375,-0.605804443359375,0.53253173828125,-0.58404541015625,32849.641985375,0.1774266769275812,-0.8022023727015192,-0.5653532259091749,0.01345791574567556,0.0127788633108139,-0.002093126066029072,0.001850366592407227,-0.008309364318847656,0.003146767616271973,XArbitraryZVertical,0.2225609353620965,0.3962133481139968,-0.1868019936817626,-0.8709687210986209,-0.6070291996002197,0.5357140898704529,-0.5869632363319397,0,0,0,-1,-1,32846.292754625,unknown,2,2025-04-22T13:18:52.929+03:00,2025-04-21T17:08:51.449+03:00,7440,1.01013,0,0,6196.233,5,20,2025-04-22T13:18:52.929+03:00,767009935.5997123,0,-20.39,100.4473,1,0.7,2025-04-22T13:17:51.654+03:00,90,1.5,2025-04-22T09:54:17.825+03:00,0.02225348692287972,0
2025-04-22T13:18:56.303+03:00,1745317135.028596,40.9522634397247,29.14028108201103,76.21932,-1,-1,-1,-1,30,24.85156048724523,-9999,32849.662139375,-0.60736083984375,0.5321502685546875,-0.5843353271484375,32849.652062375,0.1775230864593856,-0.802024560794303,-0.5652465483581046,0.01311363559216261,0.01343167014420033,-0.003616687143221498,0.002504229545593262,-0.004252076148986816,0.003584325313568115,XArbitraryZVertical,0.2225109647899025,0.3961482675701377,-0.1868055153176312,-0.8710102657269172,-0.6069658398628235,0.5356240272521973,-0.5871108174324036,0,0,0,-1,-1,32846.292754625,unknown,2,2025-04-22T13:18:52.929+03:00,2025-04-21T17:08:51.449+03:00,7440,1.01013,0,0,6196.233,5,20,2025-04-22T13:18:52.929+03:00,767009935.5997123,0,-20.39,100.4473,1,0.7,2025-04-22T13:17:51.654+03:00,90,1.5,2025-04-22T09:54:17.825+03:00,0.02225348692287972,0
2025-04-22T13:18:56.313+03:00,1745317135.028596,40.9522634397247,29.14028108201103,76.21932,-1,-1,-1,-1,30,24.85156048724523,-9999,32849.672215375,-0.6026763916015625,0.532196044921875,-0.584136962890625,32849.662139375,0.1775923046382316,-0.801875203625259,-0.5651509417920138,0.00836655031889677,0.01031976658850908,-0.003248105524107814,0.0001187324523925781,-0.003011643886566162,0.003237545490264893,XArbitraryZVertical,0.2224686441503146,0.3960923523745118,-0.1868022824815585,-0.8710472078310039,-0.6069149971008301,0.5355433225631714,-0.5872371196746826,0,0,0,-1,-1,32846.292754625,unknown,2,2025-04-22T13:18:52.929+03:00,2025-04-21T17:08:51.449+03:00,7440,1.01013,0,0,6196.233,5,20,2025-04-22T13:18:52.929+03:00,767009935.5997123,0,-20.39,100.4473,1,0.7,2025-04-22T13:17:51.654+03:00,90,1.5,2025-04-22T09:54:17.825+03:00,0.02225348692287972,0
2025-04-22T13:18:56.323+03:00,1745317135.028596,40.9522634397247,29.14028108201103,76.21932,-1,-1,-1,-1,30,24.85156048724523,-9999,32849.682292375,-0.6009368896484375,0.5339202880859375,-0.5840301513671875,32849.672215375,0.1776622319603555,-0.8017360747414506,-0.5650510183210083,0.008781670592725277,0.008498364128172398,-0.001071271020919085,0.00245589017868042,-0.003400266170501709,0.00360339879989624,XArbitraryZVertical,0.2224233009998557,0.3960410099911169,-0.1867997276856488,-0.8710827449898426,-0.6068717837333679,0.5354589223861694,-0.5873587727546692,0,0,0,-1,-1,32846.292754625,unknown,2,2025-04-22T13:18:52.929+03:00,2025-04-21T17:08:51.449+03:00,7440,1.01013,0,0,6196.233,5,20,2025-04-22T13:18:52.929+03:00,767009935.5997123,0,-20.39,100.4473,1,0.7,2025-04-22T13:17:51.654+03:00,90,1.5,2025-04-22T09:54:17.825+03:00,0.02225348692287972,0
2025-04-22T13:18:56.333+03:00,1745317135.028596,40.9522634397247,29.14028108201103,76.21932,-1,-1,-1,-1,30,24.85156048724523,-9999,32849.692369375,-0.6009674072265625,0.5328369140625,-0.582061767578125,32849.682292375,0.1777539768150878,-0.8015622080833658,-0.5650134056010246,0.00792999193072319,0.008368934504687786,0.001404936076141894,0.00595402717590332,-0.001964688301086426,0.003310918807983398,XArbitraryZVertical,0.2224046329395437,0.3959760593590343,-0.1868137745585588,-0.8711139882567978,-0.6067840456962585,0.5354271531105042,-0.5874782800674438,0,0,0,-1,-1,32846.292754625,unknown,2,2025-04-22T13:18:52.929+03:00,2025-04-21T17:08:51.449+03:00,7440,1.01013,0,0,6196.233,5,20,2025-04-22T13:18:52.929+03:00,767009935.5997123,0,-20.39,100.4473,1,0.7,2025-04-22T13:17:51.654+03:00,90,1.5,2025-04-22T09:54:17.825+03:00,0.02225348692287972,0
2025-04-22T13:18:56.343+03:00,1745317135.028596,40.9522634397247,29.14028108201103,76.21932,-1,-1,-1,-1,30,24.85156048724523,-9999,32849.702446375,-0.6000213623046875,0.527496337890625,-0.5815887451171875,32849.692369375,0.1778259575045386,-0.8014457095605489,-0.5650860132705481,0.0006274710758589208,0.003419050015509129,0.001993960700929165,0.005644023418426514,-0.001858174800872803,0.004849910736083984,XArbitraryZVertical,0.2224335916748164,0.395932242163736,-0.1868448933416468,-0.8711198291255577,-0.6066876649856567,0.535488486289978,-0.5875219106674194,0,0,0,-1,-1,32846.292754625,unknown,2,2025-04-22T13:18:52.929+03:00,2025-04-21T17:08:51.449+03:00,7440,1.01013,0,0,6196.233,5,20,2025-04-22T13:18:52.929+03:00,767009935.5997123,0,-20.39,100.4473,1,0.7,2025-04-22T13:17:51.654+03:00,90,1.5,2025-04-22T09:54:17.825+03:00,0.02225348692287972,0
2025-04-22T13:18:56.353+03:00,1745317135.028596,40.9522634397247,29.14028108201103,76.21932,-1,-1,-1,-1,30,24.85156048724523,-9999,32849.712522375,-0.6017303466796875,0.5324249267578125,-0.58197021484375,32849.702446375,0.1778348923257709,-0.8014096924593731,-0.5651382439866648,0.001761178718879819,0.005812166724354029,0.00292473565787077,0.005709588527679443,-0.006601929664611816,0.005462646484375,XArbitraryZVertical,0.2224584324330533,0.3959167350598942,-0.1868538900216755,-0.8711187115038787,-0.6066464781761169,0.5355325937271118,-0.5875243544578552,0,0,0,-1,-1,32846.292754625,unknown,2,2025-04-22T13:18:52.929+03:00,2025-04-21T17:08:51.449+03:00,7440,1.01013,0,0,6196.233,5,20,2025-04-22T13:18:52.929+03:00,767009935.5997123,0,-20.39,100.4473,1,0.7,2025-04-22T13:17:51.654+03:00,90,1.5,2025-04-22T09:54:17.825+03:00,0.02225348692287972,0
2025-04-22T13:18:56.364+03:00,1745317135.028596,40.9522634397247,29.14028108201103,76.21932,-1,-1,-1,-1,30,24.85156048724523,-9999,32849.722599375,-0.6066436767578125,0.5376129150390625,-0.5817413330078125,32849.712522375,0.177881056444631,-0.8013304767317176,-0.5650948314203197,0.008085653185844421,0.01065192930400372,0.002686249557882547,0.005618691444396973,-0.005665004253387451,0.006076216697692871,XArbitraryZVertical,0.2224373707356244,0.3958880268817502,-0.1868575985305515,-0.8711362975524928,-0.6066166162490845,0.535495936870575,-0.5875885486602783,0,0,0,-1,-1,32846.292754625,unknown,2,2025-04-22T13:18:52.929+03:00,2025-04-21T17:08:51.449+03:00,7440,1.01013,0,0,6196.233,5,20,2025-04-22T13:18:52.929+03:00,767009935.5997123,0,-20.39,100.4473,1,0.7,2025-04-22T13:17:51.654+03:00,90,1.5,2025-04-22T09:54:17.825+03:00,0.02225348692287972,0
2025-04-22T13:18:56.374+03:00,1745317135.028596,40.9522634397247,29.14028108201103,76.21932,-1,-1,-1,-1,30,24.85156048724523,-9999,32849.732676375,-0.604034423828125,0.536590576171875,-0.5834503173828125,32849.722599375,0.1779989158962726,-0.8011429972008569,-0.5650293045637466,0.0121744042262435,0.0123134758323431,0.005667125806212425,0.001780092716217041,0.0008447170257568359,0.005649745464324951,XArbitraryZVertical,0.2224023915863382,0.3958204703849788,-0.1868766375635728,-0.8711717669694674,-0.6065316200256348,0.5354405641555786,-0.5877266526222229,0,0,0,-1,-1,32846.292754625,unknown,2,2025-04-22T13:18:52.929+03:00,2025-04-21T17:08:51.449+03:00,7440,1.01013,0,0,6196.233,5,20,2025-04-22T13:18:52.929+03:00,767009935.5997123,0,-20.39,100.4473,1,0.7,2025-04-22T13:17:51.654+03:00,90,1.5,2025-04-22T09:54:17.825+03:00,0.02225348692287972,0
2025-04-22T13:18:56.384+03:00,1745317135.028596,40.9522634397247,29.14028108201103,76.21932,-1,-1,-1,-1,30,24.85156048724523,-9999,32849.742752375,-0.6008453369140625,0.5323333740234375,-0.5836944580078125,32849.732676375,0.17809523400378,-0.8009938339163885,-0.564995600088798,0.007673329673707485,0.009607104584574699,0.001264620805159211,0.0009881854057312012,0.002139747142791748,0.004532039165496826,XArbitraryZVertical,0.2223822571659245,0.3957666887493516,-0.1868960873236471,-0.8711972204722068,-0.6064569354057312,0.535412073135376,-0.5878297090530396,0,0,0,-1,-1,32846.292754625,unknown,2,2025-04-22T13:18:52.929+03:00,2025-04-21T17:08:51.449+03:00,7440,1.01013,0,0,6196.233,5,20,2025-04-22T13:18:52.929+03:00,767009935.5997123,0,-20.39,100.4473,1,0.7,2025-04-22T13:17:51.654+03:00,90,1.5,2025-04-22T09:54:17.825+03:00,0.02225348692287972,0
2025-04-22T13:18:56.394+03:00,1745317135.028596,40.9522634397247,29.14028108201103,76.21932,-1,-1,-1,-1,30,24.85156048724523,-9999,32849.752829375,-0.6025238037109375,0.530303955078125,-0.583831787109375,32849.742752375,0.1781404399010313,-0.8009014110667081,-0.5649644359991917,0.002542749978601933,0.007257130928337574,0.0002331785508431494,0.005340397357940674,-0.0008246898651123047,0.00427931547164917,XArbitraryZVertical,0.2223680722864078,0.3957319155621035,-0.1869000469380681,-0.8712157900010521,-0.6064145565032959,0.53538578748703,-0.5878973603248596,0,0,0,-1,-1,32846.292754625,unknown,2,2025-04-22T13:18:52.929+03:00,2025-04-21T17:08:51.449+03:00,7440,1.01013,0,0,6196.233,5,20,2025-04-22T13:18:52.929+03:00,767009935.5997123,0,-20.39,100.4473,1,0.7,2025-04-22T13:17:51.654+03:00,90,1.5,2025-04-22T09:54:17.825+03:00,0.02225348692287972,0
2025-04-22T13:18:56.404+03:00,1745317135.028596,40.9522634397247,29.14028108201103,76.21932,-1,-1,-1,-1,30,24.85156048724523,-9999,32849.762906375,-0.6012115478515625,0.5301666259765625,-0.5803680419921875,32849.752829375,0.1781282772615902,-0.8008535027492628,-0.5649754816171818,-0.005245997570455074,0.005101502407342196,0.002198025584220886,0.004926502704620361,-0.004953861236572266,0.004029512405395508,XArbitraryZVertical,0.2223798734007761,0.3957095281461789,-0.1868913525873515,-0.8712248192339944,-0.6063821911811829,0.535395085811615,-0.5879223346710205,0,0,0,-1,-1,32846.292754625,unknown,2,2025-04-22T13:18:52.929+03:00,2025-04-21T17:08:51.449+03:00,7440,1.01013,0,0,6196.233,5,20,2025-04-22T13:18:52.929+03:00,767009935.5997123,0,-20.39,100.4473,1,0.7,2025-04-22T13:17:51.654+03:00,90,1.5,2025-04-22T09:54:17.825+03:00,0.02225348692287972,0
2025-04-22T13:18:56.414+03:00,1745317135.028596,40.9522634397247,29.14028108201103,76.21932,-1,-1,-1,-1,30,24.85156048724523,-9999,32849.77298337501,-0.60211181640625,0.5269622802734375,-0.580596923828125,32849.762906375,0.178064552704139,-0.8008756472899257,-0.5650510753667091,-0.01241975463926792,-0.001727375201880932,0.0001087756245397031,0.004300117492675781,-0.004590511322021484,0.006078422069549561,XArbitraryZVertical,0.2224240773650003,0.395710988773647,-0.1868793073534885,-0.8712153976049265,-0.6063660979270935,0.5354589819908142,-0.5878806710243225,0,0,0,-1,-1,32846.292754625,unknown,2,2025-04-22T13:18:52.929+03:00,2025-04-21T17:08:51.449+03:00,7440,1.01013,0,0,6196.233,5,20,2025-04-22T13:18:52.929+03:00,767009935.5997123,0,-20.39,100.4473,1,0.7,2025-04-22T13:17:51.654+03:00,90,1.5,2025-04-22T09:54:17.825+03:00,0.02225348692287972,0
2025-04-22T13:18:56.424+03:00,1745317135.028596,40.9522634397247,29.14028108201103,76.21932,-1,-1,-1,-1,30,24.85156048724523,-9999,32849.783059375,-0.605377197265625,0.5298614501953125,-0.5809173583984375,32849.77298337501,0.1779579443883273,-0.8009609368991192,-0.5651636727245349,-0.01197134517133236,-0.002371660433709621,0.001452839700505137,0.005207240581512451,-0.008652925491333008,0.008517682552337646,XArbitraryZVertical,0.2224873350374306,0.3957346049749661,-0.1868620543157214,-0.8711922464985291,-0.6063729524612427,0.535554051399231,-0.5877870321273804,0,0,0,-1,-1,32846.292754625,unknown,2,2025-04-22T13:18:52.929+03:00,2025-04-21T17:08:51.449+03:00,7440,1.01013,0,0,6196.233,5,20,2025-04-22T13:18:52.929+03:00,767009935.5997123,0,-20.39,100.4473,1,0.7,2025-04-22T13:17:51.654+03:00,90,1.5,2025-04-22T09:54:17.825+03:00,0.02225348692287972,0
2025-04-22T13:18:56.434+03:00,1745317135.028596,40.9522634397247,29.14028108201103,76.21932,-1,-1,-1,-1,30,24.85156048724523,-9999,32849.793136375,-0.608551025390625,0.531219482421875,-0.581573486328125,32849.783059375,0.1778411595361007,-0.8010390814268175,-0.5652582379847458,-0.01332343183457851,0.0002534170635044575,-0.0007794218836352229,0.001554667949676514,-0.007008492946624756,0.006451427936553955,XArbitraryZVertical,0.2225452537529477,0.3957542661230789,-0.1868364558269706,-0.8711739467673493,-0.6063824892044067,0.53563392162323,-0.5877043604850769,0,0,0,-1,-1,32846.292754625,unknown,2,2025-04-22T13:18:52.929+03:00,2025-04-21T17:08:51.449+03:00,7440,1.01013,0,0,6196.233,5,20,2025-04-22T13:18:52.929+03:00,767009935.5997123,0,-20.39,100.4473,1,0.7,2025-04-22T13:17:51.654+03:00,90,1.5,2025-04-22T09:54:17.825+03:00,0.02225348692287972,0
2025-04-22T13:18:56.444+03:00,1745317135.028596,40.9522634397247,29.14028108201103,76.21932,-1,-1,-1,-1,30,24.85156048724523,-9999,32849.803213375,-0.607208251953125,0.53265380859375,-0.5856781005859375,32849.793136375,0.1776883359988912,-0.8011254869783636,-0.5653388794230525,-0.01610090956091881,-0.0001826090738177299,-0.003243544837459922,-0.000348210334777832,-0.004894554615020752,0.006674110889434814,XArbitraryZVertical,0.2226033198104068,0.3957736614508038,-0.1867935886868323,-0.8711595905893059,-0.6064022779464722,0.5357019901275635,-0.5876219272613525,0,0,0,-1,-1,32846.292754625,unknown,2,2025-04-22T13:18:52.929+03:00,2025-04-21T17:08:51.449+03:00,7440,1.01013,0,0,6196.233,5,20,2025-04-22T13:18:52.929+03:00,767009935.5997123,0,-20.39,100.4473,1,0.7,2025-04-22T13:17:51.654+03:00,90,1.5,2025-04-22T09:54:17.825+03:00,0.02225348692287972,0
2025-04-22T13:18:56.454+03:00,1745317135.028596,40.9522634397247,29.14028108201103,76.21932,-1,-1,-1,-1,30,24.85156048724523,-9999,32849.813290375,-0.60308837890625,0.5326690673828125,-0.586456298828125,32849.803213375,0.1775166452521968,-0.8012600445360546,-0.5654475363700437,-0.01607347838580608,-0.00476777320727706,-0.00337483873590827,-0.001775801181793213,-0.003399372100830078,0.003408670425415039,XArbitraryZVertical,0.2226731060212556,0.3958115283065258,-0.1867528065281148,-0.8711333081333111,-0.6064395308494568,0.5357937216758728,-0.5874998569488525,0,0,0,-1,-1,32846.292754625,unknown,2,2025-04-22T13:18:52.929+03:00,2025-04-21T17:08:51.449+03:00,7440,1.01013,0,0,6196.233,5,20,2025-04-22T13:18:52.929+03:00,767009935.5997123,0,-20.39,100.4473,1,0.7,2025-04-22T13:17:51.654+03:00,90,1.5,2025-04-22T09:54:17.825+03:00,0.02225348692287972,0
2025-04-22T13:18:56.464+03:00,1745317135.028596,40.9522634397247,29.14028108201103,76.21932,-1,-1,-1,-1,30,24.85156048724523,-9999,32849.823366375,-0.6018218994140625,0.5318603515625,-0.5832672119140625,32849.813290375,0.1773203834271511,-0.8014442893273895,-0.5655862341263644,-0.02448294125497341,-0.01032525859773159,-0.003409193595871329,0.001376569271087646,-0.003012955188751221,0.000361323356628418,XArbitraryZVertical,0.2227564970900941,0.3958678421657962,-0.1867121394664135,-0.8710951020418887,-0.6064943671226501,0.5359108448028564,-0.5873363614082336,0,0,0,-1,-1,32846.292754625,unknown,2,2025-04-22T13:18:52.929+03:00,2025-04-21T17:08:51.449+03:00,7440,1.01013,0,0,6196.233,5,20,2025-04-22T13:18:52.929+03:00,767009935.5997123,0,-20.39,100.4473,1,0.7,2025-04-22T13:17:51.654+03:00,90,1.5,2025-04-22T09:54:17.825+03:00,0.02225348692287972,0
2025-04-22T13:18:56.484+03:00,1745317135.028596,40.9522634397247,29.14028108201103,76.21932,-1,-1,-1,-1,30,24.85156048724523,-9999,32849.833443375,-0.6041107177734375,0.5296173095703125,-0.584747314453125,32849.823366375,0.1770844302491797,-0.8016667491857346,-0.5657706546547764,-0.02701054699718952,-0.009703408926725388,0.0001607738668099046,0.004610002040863037,-0.003946781158447266,0.003194153308868408,XArbitraryZVertical,0.2228645335420834,0.3959356450042896,-0.1866664547003172,-0.8710464842330808,-0.6065540313720703,0.5360665321350098,-0.5871327519416809,0,0,0,-1,-1,32846.292754625,unknown,2,2025-04-22T13:18:52.929+03:00,2025-04-21T17:08:51.449+03:00,7440,1.01013,0,0,6196.233,5,20,2025-04-22T13:18:52.929+03:00,767009935.5997123,0,-20.39,100.4473,1,0.7,2025-04-22T13:17:51.654+03:00,90,1.5,2025-04-22T09:54:17.825+03:00,0.02225348692287972,0
2025-04-22T13:18:56.485+03:00,1745317135.028596,40.9522634397247,29.14028108201103,76.21932,-1,-1,-1,-1,30,24.85156048724523,-9999,32849.84352037501,-0.6065826416015625,0.53826904296875,-0.5830078125,32849.833443375,0.1768821701457973,-0.8018252259229515,-0.5659481985911372,-0.01874562911689281,-0.0009548589587211609,0.003615592606365681,0.003734469413757324,-0.006522834300994873,0.00373375415802002,XArbitraryZVertical,0.2229688171085107,0.3959794154977798,-0.1866271392386046,-0.8710083475680682,-0.6065787076950073,0.5362164378166199,-0.5869703888893127,0,0,0,-1,-1,32846.292754625,unknown,2,2025-04-22T13:18:52.929+03:00,2025-04-21T17:08:51.449+03:00,7440,1.01013,0,0,6196.233,5,20,2025-04-22T13:18:52.929+03:00,767009935.5997123,0,-20.39,100.4473,1,0.7,2025-04-22T13:17:51.654+03:00,90,1.5,2025-04-22T09:54:17.825+03:00,0.02225348692287972,0
2025-04-22T13:18:56.494+03:00,1745317135.028596,40.9522634397247,29.14028108201103,76.21932,-1,-1,-1,-1,30,24.85156048724523,-9999,32849.853596375,-0.6020355224609375,0.5439605712890625,-0.57977294921875,32849.84352037501,0.1767994486098484,-0.8018410497989765,-0.5660790536153629,-0.008738000877201557,0.005885736551135778,0.005742392968386412,0.0007025003433227539,-0.002727031707763672,0.002530932426452637,XArbitraryZVertical,0.2230419756307166,0.3959751270400079,-0.1866158573145569,-0.8709938651577041,-0.6065374612808228,0.5363268852233887,-0.5869119763374329,0,0,0,-1,-1,32846.292754625,unknown,2,2025-04-22T13:18:52.929+03:00,2025-04-21T17:08:51.449+03:00,7440,1.01013,0,0,6196.233,5,20,2025-04-22T13:18:52.929+03:00,767009935.5997123,0,-20.39,100.4473,1,0.7,2025-04-22T13:17:51.654+03:00,90,1.5,2025-04-22T09:54:17.825+03:00,0.02225348692287972,0
2025-04-22T13:18:56.505+03:00,1745317135.028596,40.9522634397247,29.14028108201103,76.21932,-1,-1,-1,-1,30,24.85156048724523,-9999,32849.863673375,-0.5960845947265625,0.538421630859375,-0.5820465087890625,32849.853596375,0.1768234761794697,-0.8017527915848622,-0.5661410929339185,-0.00158222031313926,0.007593488320708275,0.007839832454919815,0.001984834671020508,0.007810115814208984,0.007077932357788086,XArbitraryZVertical,0.2230730723397378,0.3959384356900959,-0.1866273646275649,-0.8710000799613267,-0.606461763381958,0.5363792181015015,-0.5869423151016235,0,0,0,-1,-1,32846.292754625,unknown,2,2025-04-22T13:18:52.929+03:00,2025-04-21T17:08:51.449+03:00,7440,1.01013,0,0,6196.233,5,20,2025-04-22T13:18:52.929+03:00,767009935.5997123,0,-20.39,100.4473,1,0.7,2025-04-22T13:17:51.654+03:00,90,1.5,2025-04-22T09:54:17.825+03:00,0.02225348692287972,0
2025-04-22T13:18:56.515+03:00,1745317135.028596,40.9522634397247,29.14028108201103,76.21932,-1,-1,-1,-1,30,24.85156048724523,-9999,32849.873750375,-0.59466552734375,0.53668212890625,-0.58575439453125,32849.863673375,0.1768549158580683,-0.801688952014237,-0.5661786402285831,-0.0006130959372967482,0.005658701993525028,0.006064302753657103,0.008662045001983643,0.004833519458770752,0.006065070629119873,XArbitraryZVertical,0.2230895158865414,0.3959135561841843,-0.1866405036058255,-0.8710043979842994,-0.6064098477363586,0.536410927772522,-0.5869670510292053,0,0,0,-1,-1,32846.292754625,unknown,2,2025-04-22T13:18:52.929+03:00,2025-04-21T17:08:51.449+03:00,7440,1.01013,0,0,6196.233,5,20,2025-04-22T13:18:52.929+03:00,767009935.5997123,0,-20.39,100.4473,1,0.7,2025-04-22T13:17:51.654+03:00,90,1.5,2025-04-22T09:54:17.825+03:00,0.02225348692287972,0
2025-04-22T13:18:56.525+03:00,1745317135.028596,40.9522634397247,29.14028108201103,76.21932,-1,-1,-1,-1,30,24.85156048724523,-9999,32849.883827375,-0.59521484375,0.5365447998046875,-0.5850677490234375,32849.873750375,0.1768314418714721,-0.8016897973886868,-0.5662468701631403,-0.01089402940124273,-0.001459727995097637,0.006131247617304325,0.01171857118606567,6.097555160522461e-05,0.002087056636810303,XArbitraryZVertical,0.2231244494280998,0.3959102458049458,-0.1866423106701405,-0.8709966269251276,-0.6063840389251709,0.536468505859375,-0.586941123008728,0,0,0,-1,-1,32846.292754625,unknown,2,2025-04-22T13:18:52.929+03:00,2025-04-21T17:08:51.449+03:00,7440,1.01013,0,0,6196.233,5,20,2025-04-22T13:18:52.929+03:00,767009935.5997123,0,-20.39,100.4473,1,0.7,2025-04-22T13:17:51.654+03:00,90,1.5,2025-04-22T09:54:17.825+03:00,0.02225348692287972,0
2025-04-22T13:18:56.535+03:00,1745317135.028596,40.9522634397247,29.14028108201103,76.21932,-1,-1,-1,-1,30,24.85156048724523,-9999,32849.893903375,-0.598602294921875,0.530426025390625,-0.584503173828125,32849.883827375,0.176762064010077,-0.8018347312768066,-0.5663478655067942,-0.01336144842207432,-0.01741605624556541,0.003607103833928704,0.01074230670928955,0.000311434268951416,0.0006797909736633301,XArbitraryZVertical,0.2231696178786224,0.3959640975432219,-0.1866459882463911,-0.8709597306650384,-0.6064301133155823,0.5365537405014038,-0.5868155360221863,0,0,0,-1,-1,32846.292754625,unknown,2,2025-04-22T13:18:52.929+03:00,2025-04-21T17:08:51.449+03:00,7440,1.01013,0,0,6196.233,5,20,2025-04-22T13:18:52.929+03:00,767009935.5997123,0,-20.39,100.4473,1,0.7,2025-04-22T13:17:51.654+03:00,90,1.5,2025-04-22T09:54:17.825+03:00,0.02225348692287972,0
2025-04-22T13:18:56.545+03:00,1745317135.028596,40.9522634397247,29.14028108201103,76.21932,-1,-1,-1,-1,30,24.85156048724523,-9999,32849.903980375,-0.605499267578125,0.531768798828125,-0.584503173828125,32849.893903375,0.176652336668359,-0.8021031616131764,-0.5664780358673503,-0.01921620778739452,-0.02377601899206638,0.003556337673217058,0.01030027866363525,-0.003613054752349854,0.00284874439239502,XArbitraryZVertical,0.2232242240644358,0.3960667239911863,-0.1866509539231879,-0.870898086662677,-0.6065374612808228,0.5366635918617249,-0.5866041779518127,0,0,0,-1,-1,32846.292754625,unknown,2,2025-04-22T13:18:52.929+03:00,2025-04-21T17:08:51.449+03:00,7440,1.01013,0,0,6196.233,5,20,2025-04-22T13:18:52.929+03:00,767009935.5997123,0,-20.39,100.4473,1,0.7,2025-04-22T13:17:51.654+03:00,90,1.5,2025-04-22T09:54:17.825+03:00,0.02225348692287972,0
2025-04-22T13:18:56.555+03:00,1745317135.028596,40.9522634397247,29.14028108201103,76.21932,-1,-1,-1,-1,30,24.85156048724523,-9999,32849.914057375,-0.6063385009765625,0.5362701416015625,-0.585205078125,32849.903980375,0.1765067787426535,-0.8024278062106835,-0.5666275450839674,-0.02465997636318207,-0.02701176144182682,0.001721153268590569,0.004131078720092773,-0.00633317232131958,0.002489209175109863,XArbitraryZVertical,0.2232892906307233,0.3961895160310439,-0.1866500116845944,-0.8708258143623241,-0.6066702008247375,0.5367897152900696,-0.5863515138626099,0,0,0,-1,-1,32846.292754625,unknown,2,2025-04-22T13:18:52.929+03:00,2025-04-21T17:08:51.449+03:00,7440,1.01013,0,0,6196.233,5,20,2025-04-22T13:18:52.929+03:00,767009935.5997123,0,-20.39,100.4473,1,0.7,2025-04-22T13:17:51.654+03:00,90,1.5,2025-04-22T09:54:17.825+03:00,0.02225348692287972,0
2025-04-22T13:18:56.565+03:00,1745317135.028596,40.9522634397247,29.14028108201103,76.21932,-1,-1,-1,-1,30,24.85156048724523,-9999,32849.924133375,-0.604400634765625,0.5349273681640625,-0.583953857421875,32849.914057375,0.1763216407823383,-0.8028077553579401,-0.5667866090653868,-0.01982560567557812,-0.03080762922763824,-0.0004629384784493595,-0.0001783967018127441,-0.00201183557510376,0.001055002212524414,XArbitraryZVertical,0.2233613029524685,0.3963318219376311,-0.186639751636179,-0.8707447520608113,-0.6068314909934998,0.536923885345459,-0.5860616564750671,0,0,0,-1,-1,32846.292754625,unknown,2,2025-04-22T13:18:52.929+03:00,2025-04-21T17:08:51.449+03:00,7440,1.01013,0,0,6196.233,5,20,2025-04-22T13:18:52.929+03:00,767009935.5997123,0,-20.39,100.4473,1,0.7,2025-04-22T13:17:51.654+03:00,90,1.5,2025-04-22T09:54:17.825+03:00,0.02225348692287972,0
2025-04-22T13:18:56.575+03:00,1745317135.028596,40.9522634397247,29.14028108201103,76.21932,-1,-1,-1,-1,30,24.85156048724523,-9999,32849.934210375,-0.6033935546875,0.5340423583984375,-0.5826568603515625,32849.924133375,0.1761765087114757,-0.8032058537692813,-0.5668955558062969,-0.01567160710692406,-0.03072533756494522,3.05452267639339e-05,0.002408444881439209,-0.001447618007659912,0.001154184341430664,XArbitraryZVertical,0.2234013931039772,0.3964872200121626,-0.1866401445810761,-0.8706636705082953,-0.6070227026939392,0.5370157957077026,-0.5857794284820557,0,0,0,-1,-1,32846.292754625,unknown,2,2025-04-22T13:18:52.929+03:00,2025-04-21T17:08:51.449+03:00,7440,1.01013,0,0,6196.233,5,20,2025-04-22T13:18:52.929+03:00,767009935.5997123,0,-20.39,100.4473,1,0.7,2025-04-22T13:17:51.654+03:00,90,1.5,2025-04-22T09:54:17.825+03:00,0.02225348692287972,0
2025-04-22T13:18:56.587+03:00,1745317135.028596,40.9522634397247,29.14028108201103,76.21932,-1,-1,-1,-1,30,24.85156048724523,-9999,32849.944287375,-0.6026763916015625,0.5373992919921875,-0.5807037353515625,32849.934210375,0.1760666818092482,-0.8035803018466079,-0.5670156234303854,-0.007997242733836174,-0.0284113846719265,-0.0004974596668034792,0.003435790538787842,-0.002845942974090576,0.002377450466156006,XArbitraryZVertical,0.2234416529595171,0.3966361031210824,-0.1866552810715686,-0.8705822035158729,-0.6071955561637878,0.5371171236038208,-0.5855072736740112,0,0,0,-1,-1,32846.292754625,unknown,2,2025-04-22T13:18:52.929+03:00,2025-04-21T17:08:51.449+03:00,7440,1.01013,0,0,6196.233,5,20,2025-04-22T13:18:52.929+03:00,767009935.5997123,0,-20.39,100.4473,1,0.7,2025-04-22T13:17:51.654+03:00,90,1.5,2025-04-22T09:54:17.825+03:00,0.02225348692287972,0
2025-04-22T13:18:56.596+03:00,1745317135.028596,40.9522634397247,29.14028108201103,76.21932,-1,-1,-1,-1,30,24.85156048724523,-9999,32849.95436466667,-0.600006103515625,0.535980224609375,-0.576690673828125,32849.944287375,0.1760128323596038,-0.8038901458236845,-0.5671046569623315,-0.007215071935206652,-0.02956267073750496,-0.0008572527440264821,0.00439143180847168,-0.001425683498382568,0.003666698932647705,XArbitraryZVertical,0.2234630289942895,0.3967635730298409,-0.1866821193186745,-0.8705128327743895,-0.6073424816131592,0.5371922254562378,-0.5852859020233154,0,0,0,-1,-1,32846.292754625,unknown,2,2025-04-22T13:18:52.929+03:00,2025-04-21T17:08:51.449+03:00,7440,1.01013,0,0,6196.233,5,20,2025-04-22T13:18:52.929+03:00,767009935.5997123,0,-20.39,100.4473,1,0.7,2025-04-22T13:17:51.654+03:00,90,1.5,2025-04-22T09:54:17.825+03:00,0.02225348692287972,0
2025-04-22T13:18:56.627+03:00,1745317135.028596,40.9522634397247,29.14028108201103,76.21932,-1,-1,-1,-1,30,24.85156048724523,-9999,32849.96444066667,-0.598602294921875,0.525146484375,-0.5727386474609375,32849.95436466667,0.1759326850527907,-0.8042007537609844,-0.5672069197006641,-0.01367962919175625,-0.0329696498811245,-0.0009262285893782973,0.006074786186218262,0.0006701350212097168,0.006094932556152344,XArbitraryZVertical,0.2234954233838576,0.3968881757044247,-0.1866998933432885,-0.8704439755691811,-0.6074846982955933,0.5372784733772278,-0.5850591659545898,0,0,0,-1,-1,32846.292754625,unknown,2,2025-04-22T13:18:52.929+03:00,2025-04-21T17:08:51.449+03:00,7440,1.01013,0,0,6196.233,5,20,2025-04-22T13:18:52.929+03:00,767009935.5997123,0,-20.39,100.4473,1,0.7,2025-04-22T13:17:51.654+03:00,90,1.5,2025-04-22T09:54:17.825+03:00,0.02225348692287972,0
2025-04-22T13:18:56.628+03:00,1745317135.028596,40.9522634397247,29.14028108201103,76.21932,-1,-1,-1,-1,30,24.85156048724523,-9999,32849.97451766667,-0.6047210693359375,0.5258636474609375,-0.5767974853515625,32849.96444066667,0.1758063094185222,-0.804525836274583,-0.5673425252025948,-0.01956761255860329,-0.02380544692277908,-0.001087083481252193,0.008287668228149414,-0.007943451404571533,0.01140111684799194,XArbitraryZVertical,0.2235504839403457,0.3970134071002386,-0.1867050910872879,-0.8703715593177337,-0.6076223254203796,0.537392795085907,-0.5848110914230347,0,0,0,-1,-1,32846.292754625,unknown,2,2025-04-22T13:18:52.929+03:00,2025-04-21T17:08:51.449+03:00,7440,1.01013,0,0,6196.233,5,20,2025-04-22T13:18:52.929+03:00,767009935.5997123,0,-20.39,100.4473,1,0.7,2025-04-22T13:17:51.654+03:00,90,1.5,2025-04-22T09:54:17.825+03:00,0.02225348692287972,0
2025-04-22T13:18:56.629+03:00,1745317135.028596,40.9522634397247,29.14028108201103,76.21932,-1,-1,-1,-1,30,24.85156048724523,-9999,32849.98459466667,-0.6107330322265625,0.535552978515625,-0.5793914794921875,32849.97451766667,0.1756953600868461,-0.8047741225502091,-0.56748667541469,-0.01623127050697803,-0.01950850151479244,0.003090184414759278,0.006225466728210449,-0.01383274793624878,0.009762167930603027,XArbitraryZVertical,0.2236134523537957,0.3971067823704215,-0.1867099392301346,-0.8703117045591727,-0.6077116727828979,0.5375143885612488,-0.5846064686775208,0,0,0,-1,-1,32846.292754625,unknown,2,2025-04-22T13:18:52.929+03:00,2025-04-21T17:08:51.449+03:00,7440,1.01013,0,0,6196.233,5,20,2025-04-22T13:18:52.929+03:00,767009935.5997123,0,-20.39,100.4473,1,0.7,2025-04-22T13:17:51.654+03:00,90,1.5,2025-04-22T09:54:17.825+03:00,0.02225348692287972,0
2025-04-22T13:18:56.636+03:00,1745317135.028596,40.9522634397247,29.14028108201103,76.21932,-1,-1,-1,-1,30,24.85156048724523,-9999,32849.99467166667,-0.6092529296875,0.536651611328125,-0.5790557861328125,32849.98459466667,0.1755902129164555,-0.8050059515475896,-0.5676007879915554,-0.01433110516518354,-0.02010318636894226,0.002848102943971753,-0.001922965049743652,-0.005277276039123535,0.00558096170425415,XArbitraryZVertical,0.2236634386646523,0.3971940777147416,-0.1867101748042397,-0.8702590141344216,-0.6078029870986938,0.5376105904579163,-0.5844230651855469,0,0,0,-1,-1,32846.292754625,unknown,2,2025-04-22T13:18:52.929+03:00,2025-04-21T17:08:51.449+03:00,7440,1.01013,0,0,6196.233,5,20,2025-04-22T13:18:52.929+03:00,767009935.5997123,0,-20.39,100.4473,1,0.7,2025-04-22T13:17:51.654+03:00,90,1.5,2025-04-22T09:54:17.825+03:00,0.02225348692287972,0
2025-04-22T13:18:56.646+03:00,1745317135.028596,40.9522634397247,29.14028108201103,76.21932,-1,-1,-1,-1,30,24.85156048724523,-9999,32850.00474766667,-0.6056365966796875,0.5384674072265625,-0.5807342529296875,32849.99467166667,0.1754992357134046,-0.8052701206145079,-0.5677195882135255,-0.01344593707472086,-0.02496725134551525,0.004384846892207861,-0.002470791339874268,-0.0009981393814086914,0.004628419876098633,XArbitraryZVertical,0.2237096784785872,0.397296944980617,-0.1867210388623573,-0.8701978663016783,-0.6079112887382507,0.5377107858657837,-0.5842182636260986,0,0,0,-1,-1,32846.292754625,unknown,2,2025-04-22T13:18:52.929+03:00,2025-04-21T17:08:51.449+03:00,7440,1.01013,0,0,6196.233,5,20,2025-04-22T13:18:52.929+03:00,767009935.5997123,0,-20.39,100.4473,1,0.7,2025-04-22T13:17:51.654+03:00,90,1.5,2025-04-22T09:54:17.825+03:00,0.02225348692287972,0
2025-04-22T13:18:56.656+03:00,1745317135.028596,40.9522634397247,29.14028108201103,76.21932,-1,-1,-1,-1,30,24.85156048724523,-9999,32850.01482466667,-0.60491943359375,0.544921875,-0.5838470458984375,32850.00474766667,0.1754496404882491,-0.8055295767623517,-0.5678236822255271,-0.008053834550082684,-0.02541839145123959,0.004835986532270908,0.0008294582366943359,-0.0001551508903503418,0.00357741117477417,XArbitraryZVertical,0.2237416004785958,0.3974026281631955,-0.1867468249145461,-0.8701358381754668,-0.6080224514007568,0.5377985239028931,-0.5840216875076294,0,0,0,-1,-1,32846.292754625,unknown,2,2025-04-22T13:18:52.929+03:00,2025-04-21T17:08:51.449+03:00,7440,1.01013,0,0,6196.233,5,20,2025-04-22T13:18:52.929+03:00,767009935.5997123,0,-20.39,100.4473,1,0.7,2025-04-22T13:17:51.654+03:00,90,1.5,2025-04-22T09:54:17.825+03:00,0.02225348692287972,0
2025-04-22T13:18:56.666+03:00,1745317135.028596,40.9522634397247,29.14028108201103,76.21932,-1,-1,-1,-1,30,24.85156048724523,-9999,32850.02490166667,-0.60272216796875,0.5456390380859375,-0.5847930908203125,32850.01482466667,0.1754399478505219,-0.8058294456669144,-0.5679237653927536,-0.009507853537797928,-0.03515111282467842,0.01039350405335426,0.003346145153045654,0.005390942096710205,0.0007333159446716309,XArbitraryZVertical,0.2237600305077145,0.3975304097346768,-0.1867937982764847,-0.8700626106621596,-0.6081587076187134,0.537882924079895,-0.5838020443916321,0,0,0,-1,-1,32846.292754625,unknown,2,2025-04-22T13:18:52.929+03:00,2025-04-21T17:08:51.449+03:00,7440,1.01013,0,0,6196.233,5,20,2025-04-22T13:18:52.929+03:00,767009935.5997123,0,-20.39,100.4473,1,0.7,2025-04-22T13:17:51.654+03:00,90,1.5,2025-04-22T09:54:17.825+03:00,0.02225348692287972,0
2025-04-22T13:18:56.676+03:00,1745317135.028596,40.9522634397247,29.14028108201103,76.21932,-1,-1,-1,-1,30,24.85156048724523,-9999,32850.03497866667,-0.6057281494140625,0.5392303466796875,-0.582672119140625,32850.02490166667,0.1754455131370183,-0.8061602307060409,-0.5680650353961325,-0.007147494703531265,-0.03423258662223816,0.008065102621912956,0.004644036293029785,0.00811004638671875,-0.001534700393676758,XArbitraryZVertical,0.2237908353409324,0.3976726486398789,-0.1868581124920928,-0.869975907026367,-0.6082969903945923,0.5380020141601562,-0.5835482478141785,0,0,0,-1,-1,32846.292754625,unknown,2,2025-04-22T13:18:52.929+03:00,2025-04-21T17:08:51.449+03:00,7440,1.01013,0,0,6196.233,5,20,2025-04-22T13:18:52.929+03:00,767009935.5997123,0,-20.39,100.4473,1,0.7,2025-04-22T13:17:51.654+03:00,90,1.5,2025-04-22T09:54:17.825+03:00,0.02225348692287972,0
2025-04-22T13:18:56.686+03:00,1745317135.028596,40.9522634397247,29.14028108201103,76.21932,-1,-1,-1,-1,30,24.85156048724523,-9999,32850.04505466667,-0.6135101318359375,0.5386505126953125,-0.5839385986328125,32850.03497866667,0.1754728549613138,-0.8064610494390743,-0.5681929609783617,-0.002773518674075603,-0.02736536040902138,0.009217452257871628,0.004617273807525635,0.002997338771820068,5.042552947998047e-05,XArbitraryZVertical,0.2238141627709504,0.3978044946864078,-0.1869262155532393,-0.8698950020156826,-0.6084228157997131,0.5381098389625549,-0.5833176374435425,0,0,0,-1,-1,32846.292754625,unknown,2,2025-04-22T13:18:52.929+03:00,2025-04-21T17:08:51.449+03:00,7440,1.01013,0,0,6196.233,5,20,2025-04-22T13:18:52.929+03:00,767009935.5997123,0,-20.39,100.4473,1,0.7,2025-04-22T13:17:51.654+03:00,90,1.5,2025-04-22T09:54:17.825+03:00,0.02225348692287972,0
2025-04-22T13:18:56.696+03:00,1745317135.028596,40.9522634397247,29.14028108201103,76.21932,-1,-1,-1,-1,30,24.85156048724523,-9999,32850.05513166667,-0.614990234375,0.539642333984375,-0.583740234375,32850.04505466667,0.1755348117209919,-0.8066575559546374,-0.568253911007364,0.0007293369853869081,-0.01945097744464874,0.007789465598762035,-0.002249777317047119,0.0005503296852111816,-0.0002138614654541016,XArbitraryZVertical,0.223810564324493,0.3978959086129161,-0.1869858942726844,-0.8698413084510339,-0.6085137724876404,0.5381612181663513,-0.5831753611564636,0,0,0,-1,-1,32846.292754625,unknown,2,2025-04-22T13:18:52.929+03:00,2025-04-21T17:08:51.449+03:00,7440,1.01013,0,0,6196.233,5,20,2025-04-22T13:18:52.929+03:00,767009935.5997123,0,-20.39,100.4473,1,0.7,2025-04-22T13:17:51.654+03:00,90,1.5,2025-04-22T09:54:17.825+03:00,0.02225348692287972,0
2025-04-22T13:18:56.706+03:00,1745317135.028596,40.9522634397247,29.14028108201103,76.21932,-1,-1,-1,-1,30,24.85156048724523,-9999,32850.06520866667,-0.6082916259765625,0.5365753173828125,-0.5830841064453125,32850.05513166667,0.1756091813821338,-0.80681507413847,-0.5682785655083703,-0.0005189531948417425,-0.02196906320750713,0.01096059195697308,-0.00695878267288208,0.00153660774230957,-0.001051366329193115,XArbitraryZVertical,0.2237920019170895,0.3979723522397331,-0.1870402264953603,-0.8697993926915397,-0.6085960268974304,0.5381819605827332,-0.5830702781677246,0,0,0,-1,-1,32846.292754625,unknown,2,2025-04-22T13:18:52.929+03:00,2025-04-21T17:08:51.449+03:00,7440,1.01013,0,0,6196.233,5,20,2025-04-22T13:18:52.929+03:00,767009935.5997123,0,-20.39,100.4473,1,0.7,2025-04-22T13:17:51.654+03:00,90,1.5,2025-04-22T09:54:17.825+03:00,0.02225348692287972,0
2025-04-22T13:18:56.716+03:00,1745317135.028596,40.9522634397247,29.14028108201103,76.21932,-1,-1,-1,-1,30,24.85156048724523,-9999,32850.07528466667,-0.605987548828125,0.5372314453125,-0.5819091796875,32850.06520866667,0.1756778109114065,-0.8070028323293595,-0.5683444565653788,-0.002594354562461376,-0.02050432562828064,0.01255342736840248,-0.002053141593933105,0.0001230239868164062,5.960464477539062e-08,XArbitraryZVertical,0.2237900682953556,0.3980606059382903,-0.187102684777102,-0.8697461264381774,-0.6086798906326294,0.5382375121116638,-0.5829315185546875,0,0,0,-1,-1,32846.292754625,unknown,2,2025-04-22T13:18:52.929+03:00,2025-04-21T17:08:51.449+03:00,7440,1.01013,0,0,6196.233,5,20,2025-04-22T13:18:52.929+03:00,767009935.5997123,0,-20.39,100.4473,1,0.7,2025-04-22T13:17:51.654+03:00,90,1.5,2025-04-22T09:54:17.825+03:00,0.02225348692287972,0
2025-04-22T13:18:56.726+03:00,1745317135.028596,40.9522634397247,29.14028108201103,76.21932,-1,-1,-1,-1,30,24.85156048724523,-9999,32850.08536166667,-0.6043243408203125,0.5378875732421875,-0.579986572265625,32850.07528466667,0.1757404524168764,-0.8071829557327043,-0.5684669274774429,-0.007857493124902248,-0.01852020248770714,0.01405148860067129,0.00282597541809082,-0.001444995403289795,-0.0001094341278076172,XArbitraryZVertical,0.2238151871700361,0.3981439741374541,-0.1871716919539378,-0.869686642353228,-0.6087372303009033,0.5383407473564148,-0.5827762484550476,0,0,0,-1,-1,32846.292754625,unknown,2,2025-04-22T13:18:52.929+03:00,2025-04-21T17:08:51.449+03:00,7440,1.01013,0,0,6196.233,5,20,2025-04-22T13:18:52.929+03:00,767009935.5997123,0,-20.39,100.4473,1,0.7,2025-04-22T13:17:51.654+03:00,90,1.5,2025-04-22T09:54:17.825+03:00,0.02225348692287972,0
2025-04-22T13:18:56.737+03:00,1745317135.028596,40.9522634397247,29.14028108201103,76.21932,-1,-1,-1,-1,30,24.85156048724523,-9999,32850.09543866667,-0.605865478515625,0.538482666015625,-0.580078125,32850.08536166667,0.1757754712038016,-0.8073835263698296,-0.5686063333023283,-0.002487761434167624,-0.02165660820901394,0.01046367827802896,0.003346443176269531,-0.0004333257675170898,0.002096951007843018,XArbitraryZVertical,0.2238514051402515,0.3982328529825098,-0.1872339593273272,-0.8696232392562986,-0.608799934387207,0.5384581685066223,-0.5826022624969482,0,0,0,-1,-1,32846.292754625,unknown,2,2025-04-22T13:18:52.929+03:00,2025-04-21T17:08:51.449+03:00,7440,1.01013,0,0,6196.233,5,20,2025-04-22T13:18:52.929+03:00,767009935.5997123,0,-20.39,100.4473,1,0.7,2025-04-22T13:17:51.654+03:00,90,1.5,2025-04-22T09:54:17.825+03:00,0.02225348692287972,0
2025-04-22T13:18:56.747+03:00,1745317135.028596,40.9522634397247,29.14028108201103,76.21932,-1,-1,-1,-1,30,24.85156048724523,-9999,32850.10551566667,-0.610260009765625,0.538970947265625,-0.58026123046875,32850.09543866667,0.175879831157145,-0.8074740030020995,-0.5687398508938012,0.0009210179559886456,-0.01081601157784462,0.01394173316657543,0.004537343978881836,-0.001110374927520752,0.003380715847015381,XArbitraryZVertical,0.2238814943572805,0.398281707695941,-0.187313012893618,-0.8695761291303854,-0.6088007092475891,0.5385707020759583,-0.5824975371360779,0,0,0,-1,-1,32846.292754625,unknown,2,2025-04-22T13:18:52.929+03:00,2025-04-21T17:08:51.449+03:00,7440,1.01013,0,0,6196.233,5,20,2025-04-22T13:18:52.929+03:00,767009935.5997123,0,-20.39,100.4473,1,0.7,2025-04-22T13:17:51.654+03:00,90,1.5,2025-04-22T09:54:17.825+03:00,0.02225348692287972,0
2025-04-22T13:18:56.757+03:00,1745317135.028596,40.9522634397247,29.14028108201103,76.21932,-1,-1,-1,-1,30,24.85156048724523,-9999,32850.11559166667,-0.607818603515625,0.536041259765625,-0.57470703125,32850.10551566667,0.1760635917058842,-0.8074304090321804,-0.5688620053195714,0.006003128364682198,-0.005859868600964546,0.01511592231690884,-0.0004336237907409668,-3.838539123535156e-05,0.002141058444976807,XArbitraryZVertical,0.2239032808137182,0.3982813676506511,-0.1874095973642367,-0.869549829229722,-0.608727753162384,0.5386736392974854,-0.5824785232543945,0,0,0,-1,-1,32846.292754625,unknown,2,2025-04-22T13:18:52.929+03:00,2025-04-21T17:08:51.449+03:00,7440,1.01013,0,0,6196.233,5,20,2025-04-22T13:18:52.929+03:00,767009935.5997123,0,-20.39,100.4473,1,0.7,2025-04-22T13:17:51.654+03:00,90,1.5,2025-04-22T09:54:17.825+03:00,0.02225348692287972,0
2025-04-22T13:18:56.767+03:00,1745317135.028596,40.9522634397247,29.14028108201103,76.21932,-1,-1,-1,-1,30,24.85156048724523,-9999,32850.12566866667,-0.6026763916015625,0.534698486328125,-0.576812744140625,32850.11559166667,0.1762357733714951,-0.8073980342543885,-0.5689344635616528,0.005906921345740557,-0.009154798462986946,0.01237869169563055,-0.0008011460304260254,-0.002113699913024902,0.005963742733001709,XArbitraryZVertical,0.2239042384497179,0.3982854268399253,-0.1874936437429613,-0.8695295302066121,-0.6086806654930115,0.5387346744537354,-0.5824711918830872,0,0,0,-1,-1,32846.292754625,unknown,2,2025-04-22T13:18:52.929+03:00,2025-04-21T17:08:51.449+03:00,7440,1.01013,0,0,6196.233,5,20,2025-04-22T13:18:52.929+03:00,767009935.5997123,0,-20.39,100.4473,1,0.7,2025-04-22T13:17:51.654+03:00,90,1.5,2025-04-22T09:54:17.825+03:00,0.02225348692287972,0
2025-04-22T13:18:56.777+03:00,1745317135.028596,40.9522634397247,29.14028108201103,76.21932,-1,-1,-1,-1,30,24.85156048724523,-9999,32850.13574566667,-0.598297119140625,0.5331878662109375,-0.582977294921875,32850.12566866667,0.1763608765819712,-0.8074820531184966,-0.5690148064135464,-0.003256216878071427,-0.01837918907403946,0.01535823568701744,0.004404544830322266,-0.004348099231719971,0.007530629634857178,XArbitraryZVertical,0.2239071504699325,0.3983346540433621,-0.1875715971497626,-0.8694894651792511,-0.608698308467865,0.5388023257255554,-0.5823901891708374,0,0,0,-1,-1,32846.292754625,unknown,2,2025-04-22T13:18:52.929+03:00,2025-04-21T17:08:51.449+03:00,7440,1.01013,0,0,6196.233,5,20,2025-04-22T13:18:52.929+03:00,767009935.5997123,0,-20.39,100.4473,1,0.7,2025-04-22T13:17:51.654+03:00,90,1.5,2025-04-22T09:54:17.825+03:00,0.02225348692287972,0
2025-04-22T13:18:56.787+03:00,1745317135.028596,40.9522634397247,29.14028108201103,76.21932,-1,-1,-1,-1,30,24.85156048724523,-9999,32850.14582266667,-0.5957794189453125,0.524688720703125,-0.583984375,32850.13574566667,0.1764268161769079,-0.8076759110976536,-0.5691740093829399,-0.009950737468898296,-0.02486145682632923,0.01603740826249123,0.009094059467315674,-0.004360079765319824,0.0006241798400878906,XArbitraryZVertical,0.2239465851734369,0.3984237455091103,-0.1876500491150563,-0.8694215883977484,-0.6087492108345032,0.5389364361763,-0.5822128653526306,0,0,0,-1,-1,32846.292754625,unknown,2,2025-04-22T13:18:52.929+03:00,2025-04-21T17:08:51.449+03:00,7440,1.01013,0,0,6196.233,5,20,2025-04-22T13:18:52.929+03:00,767009935.5997123,0,-20.39,100.4473,1,0.7,2025-04-22T13:17:51.654+03:00,90,1.5,2025-04-22T09:54:17.825+03:00,0.02225348692287972,0
2025-04-22T13:18:56.797+03:00,1745317135.028596,40.9522634397247,29.14028108201103,76.21932,-1,-1,-1,-1,30,24.85156048724523,-9999,32850.15589866667,-0.5966339111328125,0.521728515625,-0.5840606689453125,32850.14582266667,0.1764277139033777,-0.8079794060870173,-0.5693853459499143,-0.02034878544509411,-0.03568347916007042,0.01881801523268223,0.01211804151535034,-0.01155716180801392,-0.002095997333526611,XArbitraryZVertical,0.2240118503982024,0.3985523879619159,-0.1877217465949648,-0.8693302777019758,-0.6088435053825378,0.5391144752502441,-0.5819493532180786,0,0,0,-1,-1,32846.292754625,unknown,2,2025-04-22T13:18:52.929+03:00,2025-04-21T17:08:51.449+03:00,7440,1.01013,0,0,6196.233,5,20,2025-04-22T13:18:52.929+03:00,767009935.5997123,0,-20.39,100.4473,1,0.7,2025-04-22T13:17:51.654+03:00,90,1.5,2025-04-22T09:54:17.825+03:00,0.02225348692287972,0
2025-04-22T13:18:56.807+03:00,1745317135.028596,40.9522634397247,29.14028108201103,76.21932,-1,-1,-1,-1,30,24.85156048724523,-9999,32850.16597566667,-0.5974884033203125,0.5272064208984375,-0.5828094482421875,32850.15589866667,0.1763729054151056,-0.8083815732388185,-0.5696736032947911,-0.02957377396523952,-0.04089668393135071,0.01799546368420124,0.01315516233444214,-0.01837641000747681,-0.002265095710754395,XArbitraryZVertical,0.2241131082713976,0.3987163775169621,-0.1877938635159718,-0.8692134327453837,-0.6089651584625244,0.5393572449684143,-0.5815971493721008,0,0,0,-1,-1,32846.292754625,unknown,2,2025-04-22T13:18:52.929+03:00,2025-04-21T17:08:51.449+03:00,7440,1.01013,0,0,6196.233,5,20,2025-04-22T13:18:52.929+03:00,767009935.5997123,0,-20.39,100.4473,1,0.7,2025-04-22T13:17:51.654+03:00,90,1.5,2025-04-22T09:54:17.825+03:00,0.02225348692287972,0
2025-04-22T13:18:56.817+03:00,1745317135.028596,40.9522634397247,29.14028108201103,76.21932,-1,-1,-1,-1,30,24.85156048724523,-9999,32850.17605266667,-0.6006317138671875,0.52728271484375,-0.5819549560546875,32850.16597566667,0.1761294818603204,-0.8089592439483403,-0.5701095590812599,-0.05752045661211014,-0.0507889911532402,0.01753047667443752,0.01187121868133545,-0.01445579528808594,-0.001436591148376465,XArbitraryZVertical,0.2243011030857341,0.3989330558482722,-0.1878298748693708,-0.8690576776187154,-0.6091307997703552,0.5397242903709412,-0.5810828804969788,0,0,0,-1,-1,32846.292754625,unknown,2,2025-04-22T13:18:52.929+03:00,2025-04-21T17:08:51.449+03:00,7440,1.01013,0,0,6196.233,5,20,2025-04-22T13:18:52.929+03:00,767009935.5997123,0,-20.39,100.4473,1,0.7,2025-04-22T13:17:51.654+03:00,90,1.5,2025-04-22T09:54:17.825+03:00,0.02225348692287972,0
2025-04-22T13:18:56.827+03:00,1745317135.028596,40.9522634397247,29.14028108201103,76.21932,-1,-1,-1,-1,30,24.85156048724523,-9999,32850.18612966667,-0.6048431396484375,0.520263671875,-0.5798492431640625,32850.17605266667,0.1755768613214435,-0.8097591642730839,-0.5707809216723919,-0.1037706360220909,-0.05129725858569145,0.01610987819731236,0.0103948712348938,-0.01154184341430664,-0.001884222030639648,XArbitraryZVertical,0.2246344786772936,0.3992075505602138,-0.1877982777065878,-0.8688522889574852,-0.6093328595161438,0.5402893424034119,-0.5803453922271729,0,0,0,-1,-1,32846.292754625,unknown,2,2025-04-22T13:18:52.929+03:00,2025-04-21T17:08:51.449+03:00,7440,1.01013,0,0,6196.233,5,20,2025-04-22T13:18:52.929+03:00,767009935.5997123,0,-20.39,100.4473,1,0.7,2025-04-22T13:17:51.654+03:00,90,1.5,2025-04-22T09:54:17.825+03:00,0.02225348692287972,0
2025-04-22T13:18:56.837+03:00,1745317135.028596,40.9522634397247,29.14028108201103,76.21932,-1,-1,-1,-1,30,24.85156048724523,-9999,32850.19620566667,-0.6065673828125,0.5177459716796875,-0.578948974609375,32850.18612966667,0.1746622882448831,-0.8107588607478747,-0.5717093118004783,-0.1391885578632355,-0.04920987039804459,0.01749365776777267,0.00586545467376709,-0.01802963018417358,-0.0008557438850402832,XArbitraryZVertical,0.2251355373002618,0.3995233885186286,-0.1876777876725068,-0.8686034295157568,-0.6095488667488098,0.5410703420639038,-0.5793901085853577,0,0,0,-1,-1,32846.292754625,unknown,2,2025-04-22T13:18:52.929+03:00,2025-04-21T17:08:51.449+03:00,7440,1.01013,0,0,6196.233,5,20,2025-04-22T13:18:52.929+03:00,767009935.5997123,0,-20.39,100.4473,1,0.7,2025-04-22T13:17:51.654+03:00,90,1.5,2025-04-22T09:54:17.825+03:00,0.02225348692287972,0
2025-04-22T13:18:56.848+03:00,1745317135.028596,40.9522634397247,29.14028108201103,76.21932,-1,-1,-1,-1,30,24.85156048724523,-9999,32850.20628266667,-0.6057891845703125,0.5255126953125,-0.5785980224609375,32850.19620566667,0.1732735124572171,-0.8120105745175583,-0.5729675583429285,-0.1987856328487396,-0.04654943943023682,0.007373212836682796,0.002937138080596924,-0.02461105585098267,-0.001584529876708984,XArbitraryZVertical,0.2258542434313182,0.3998886849281432,-0.1874389813614105,-0.8683002757495037,-0.6097791194915771,0.5421280860900879,-0.5781577825546265,0,0,0,-1,-1,32846.292754625,unknown,2,2025-04-22T13:18:52.929+03:00,2025-04-21T17:08:51.449+03:00,7440,1.01013,0,0,6196.233,5,20,2025-04-22T13:18:52.929+03:00,767009935.5997123,0,-20.39,100.4473,1,0.7,2025-04-22T13:17:51.654+03:00,90,1.5,2025-04-22T09:54:17.825+03:00,0.02225348692287972,0
2025-04-22T13:18:56.858+03:00,1745317135.028596,40.9522634397247,29.14028108201103,76.21932,-1,-1,-1,-1,30,24.85156048724523,-9999,32850.21635966667,-0.6053314208984375,0.520843505859375,-0.5807342529296875,32850.20628266667,0.1716561400822628,-0.8133992108941073,-0.5743603366964219,-0.1996839195489883,-0.05497461557388306,0.01297916658222675,0.004532873630523682,-0.02045553922653198,-0.000967562198638916,XArbitraryZVertical,0.2266657216284734,0.400283726244321,-0.1871414651792535,-0.867970926700033,-0.6100321412086487,0.5432978868484497,-0.5767911672592163,0,0,0,-1,-1,32846.292754625,unknown,2,2025-04-22T13:18:52.929+03:00,2025-04-21T17:08:51.449+03:00,7440,1.01013,0,0,6196.233,5,20,2025-04-22T13:18:52.929+03:00,767009935.5997123,0,-20.39,100.4473,1,0.7,2025-04-22T13:17:51.654+03:00,90,1.5,2025-04-22T09:54:17.825+03:00,0.02225348692287972,0
