loggingTime(txt),locationTimestamp_since1970(s),locationLatitude(WGS84),locationLongitude(WGS84),locationAltitude(m),locationSpeed(m/s),locationSpeedAccuracy(m/s),locationCourse(°),locationCourseAccuracy(°),locationVerticalAccuracy(m),locationHorizontalAccuracy(m),locationFloor(Z),accelerometerTimestamp_sinceReboot(s),accelerometerAccelerationX(G),accelerometerAccelerationY(G),accelerometerAccelerationZ(G),motionTimestamp_sinceReboot(s),motionYaw(rad),motionRoll(rad),motionPitch(rad),motionRotationRateX(rad/s),motionRotationRateY(rad/s),motionRotationRateZ(rad/s),motionUserAccelerationX(G),motionUserAccelerationY(G),motionUserAccelerationZ(G),motionAttitudeReferenceFrame(txt),motionQuaternionX(R),motionQuaternionY(R),motionQuaternionZ(R),motionQuaternionW(R),motionGravityX(G),motionGravityY(G),motionGravityZ(G),motionMagneticFieldX(µT),motionMagneticFieldY(µT),motionMagneticFieldZ(µT),motionHeading(°),motionMagneticFieldCalibrationAccuracy(Z),activityTimestamp_sinceReboot(s),activity(txt),activityActivityConfidence(Z),activityActivityStartDate(txt),pedometerStartDate(txt),pedometerNumberofSteps(N),pedometerAverageActivePace(s/m),pedometerCurrentPace(s/m),pedometerCurrentCadence(steps/s),pedometerDistance(m),pedometerFloorAscended(N),pedometerFloorDescended(N),pedometerEndDate(txt),altimeterTimestamp_sinceReboot(s),altimeterReset(bool),altimeterRelativeAltitude(m),altimeterPressure(kPa),batteryState(N),batteryLevel(R),heartRateBPMTimestamp(txt),heartRateBPM(N),heartRateBPS(R),heartRateVariabilityTimestamp(txt),heartRateVariability(ms),label
2025-04-22T12:53:16.877+03:00,1745315590.818619,40.95220438681564,29.14026845981508,76.46294,-1,-1,-1,-1,30,34.69433513337849,-9999,31539.536244375,-0.6839141845703125,0.6575164794921875,-0.3209381103515625,31539.526168375,-0.02326281221251767,-1.129698322672175,-0.7212091405956427,-0.001413795864209533,0.0117456866428256,-0.03891275078058243,-0.001234948635101318,0.008026421070098877,-0.001437485218048096,XArbitraryZVertical,0.3038385527228336,0.4973602994281819,-0.1796658141845958,-0.7924865655867561,-0.6791239380836487,0.6602932214736938,-0.320629745721817,0,0,0,-1,-1,31535.58748875,unknown,2,2025-04-22T12:53:12.898+03:00,2025-04-21T17:08:51.449+03:00,7380,0.9939646,0,0,6149.357,5,20,2025-04-22T12:52:31.625+03:00,767008395.5673326,0,-22.57999,100.4731,1,0.75,2025-04-22T12:48:51.593+03:00,81,1.35,2025-04-22T09:54:17.825+03:00,0.02225348692287972,0
2025-04-22T12:53:16.879+03:00,1745315590.818619,40.95220438681564,29.14026845981508,76.46294,-1,-1,-1,-1,30,34.69433513337849,-9999,31539.546321375,-0.67926025390625,0.65643310546875,-0.3223876953125,31539.536244375,-0.02348327993343229,-1.129733290746219,-0.7208643625355765,0.0008391052251681685,0.009936735033988953,-0.03642129898071289,-0.003428816795349121,0.002654850482940674,0.0009247660636901855,XArbitraryZVertical,0.3037543772448431,0.4973748066974919,-0.1794968159997694,-0.7925480355576543,-0.6793409585952759,0.6600342392921448,-0.3207031488418579,0,0,0,-1,-1,31535.58748875,unknown,2,2025-04-22T12:53:12.898+03:00,2025-04-21T17:08:51.449+03:00,7380,0.9939646,0,0,6149.357,5,20,2025-04-22T12:52:31.625+03:00,767008395.5673326,0,-22.57999,100.4731,1,0.75,2025-04-22T12:48:51.593+03:00,81,1.35,2025-04-22T09:54:17.825+03:00,0.02225348692287972,0
2025-04-22T12:53:16.880+03:00,1745315590.818619,40.95220438681564,29.14026845981508,76.46294,-1,-1,-1,-1,30,34.69433513337849,-9999,31539.556397375,-0.67877197265625,0.6560211181640625,-0.322723388671875,31539.546321375,-0.02367185582378421,-1.129695357736088,-0.7205501839843025,-0.0004200373659841716,0.0204801894724369,-0.0343719981610775,-0.004046916961669922,-0.002388596534729004,-0.0007920265197753906,XArbitraryZVertical,0.3036808675347089,0.4973622476151756,-0.17933708662081,-0.7926202506047443,-0.6795163154602051,0.6597982048988342,-0.3208174407482147,0,0,0,-1,-1,31535.58748875,unknown,2,2025-04-22T12:53:12.898+03:00,2025-04-21T17:08:51.449+03:00,7380,0.9939646,0,0,6149.357,5,20,2025-04-22T12:52:31.625+03:00,767008395.5673326,0,-22.57999,100.4731,1,0.75,2025-04-22T12:48:51.593+03:00,81,1.35,2025-04-22T09:54:17.825+03:00,0.02225348692287972,0
2025-04-22T12:53:16.882+03:00,1745315590.818619,40.95220438681564,29.14026845981508,76.46294,-1,-1,-1,-1,30,34.69433513337849,-9999,31539.566474375,-0.6769256591796875,0.654388427734375,-0.3220367431640625,31539.556397375,-0.02388207292882883,-1.129640699321971,-0.7202681604260114,-0.0002050536568276584,0.01446870248764753,-0.03408687189221382,0.001368105411529541,-0.002863287925720215,-0.001270532608032227,XArbitraryZVertical,0.3036268952780784,0.4973365878671991,-0.1791743252771861,-0.7926938705991312,-0.679667055606842,0.6595862507820129,-0.3209340572357178,0,0,0,-1,-1,31535.58748875,unknown,2,2025-04-22T12:53:12.898+03:00,2025-04-21T17:08:51.449+03:00,7380,0.9939646,0,0,6149.357,5,20,2025-04-22T12:52:31.625+03:00,767008395.5673326,0,-22.57999,100.4731,1,0.75,2025-04-22T12:48:51.593+03:00,81,1.35,2025-04-22T09:54:17.825+03:00,0.02225348692287972,0
2025-04-22T12:53:16.892+03:00,1745315590.818619,40.95220438681564,29.14026845981508,76.46294,-1,-1,-1,-1,30,34.69433513337849,-9999,31539.576551375,-0.6761627197265625,0.655426025390625,-0.3249359130859375,31539.566474375,-0.02406152280186713,-1.129602688143933,-0.7199743233589389,-0.0009696471970528364,0.01697127521038055,-0.03034459985792637,0.001271665096282959,-0.003878355026245117,-0.001955389976501465,XArbitraryZVertical,0.3035591265605037,0.4973233885736729,-0.1790233344210995,-0.7927621724728633,-0.679830014705658,0.6593653559684753,-0.3210425972938538,0,0,0,-1,-1,31535.58748875,unknown,2,2025-04-22T12:53:12.898+03:00,2025-04-21T17:08:51.449+03:00,7380,0.9939646,0,0,6149.357,5,20,2025-04-22T12:52:31.625+03:00,767008395.5673326,0,-22.57999,100.4731,1,0.75,2025-04-22T12:48:51.593+03:00,81,1.35,2025-04-22T09:54:17.825+03:00,0.02225348692287972,0
2025-04-22T12:53:16.903+03:00,1745315590.818619,40.95220438681564,29.14026845981508,76.46294,-1,-1,-1,-1,30,34.69433513337849,-9999,31539.586627375,-0.6768646240234375,0.651641845703125,-0.3245391845703125,31539.576551375,-0.02427067884146294,-1.129579209620359,-0.7197071227594399,-0.007336333394050598,0.01306561566889286,-0.03080432862043381,0.003071308135986328,-0.004898250102996826,-0.001040250062942505,XArbitraryZVertical,0.3035079375852445,0.4973088142486904,-0.1788694950909558,-0.792825564494717,-0.6799816489219666,0.6591644287109375,-0.3211337625980377,0,0,0,-1,-1,31535.58748875,unknown,2,2025-04-22T12:53:12.898+03:00,2025-04-21T17:08:51.449+03:00,7380,0.9939646,0,0,6149.357,5,20,2025-04-22T12:52:31.625+03:00,767008395.5673326,0,-22.57999,100.4731,1,0.75,2025-04-22T12:48:51.593+03:00,81,1.35,2025-04-22T09:54:17.825+03:00,0.02225348692287972,0
2025-04-22T12:53:16.912+03:00,1745315590.818619,40.95220438681564,29.14026845981508,76.46294,-1,-1,-1,-1,30,34.69433513337849,-9999,31539.596704375,-0.67230224609375,0.651031494140625,-0.3211822509765625,31539.586627375,-0.02457374051633563,-1.129681480538373,-0.7194635147780045,-0.0129931541159749,0.008684982545673847,-0.02998380921781063,0.00335615873336792,-0.004150450229644775,-0.003894656896591187,XArbitraryZVertical,0.3034781428156421,0.4973274961071852,-0.1787034124487195,-0.7928627061141381,-0.6801596879959106,0.6589812636375427,-0.3211327493190765,0,0,0,-1,-1,31535.58748875,unknown,2,2025-04-22T12:53:12.898+03:00,2025-04-21T17:08:51.449+03:00,7380,0.9939646,0,0,6149.357,5,20,2025-04-22T12:52:31.625+03:00,767008395.5673326,0,-22.57999,100.4731,1,0.75,2025-04-22T12:48:51.593+03:00,81,1.35,2025-04-22T09:54:17.825+03:00,0.02225348692287972,0
2025-04-22T12:53:16.922+03:00,1745315590.818619,40.95220438681564,29.14026845981508,76.46294,-1,-1,-1,-1,30,34.69433513337849,-9999,31539.606781375,-0.6749420166015625,0.6541595458984375,-0.3199462890625,31539.596704375,-0.02492273885932633,-1.129861690153151,-0.7192333065190075,-0.01240812335163355,0.006300587672740221,-0.03255844861268997,0.003535985946655273,-0.00808185338973999,-0.003540456295013428,XArbitraryZVertical,0.303458095482235,0.4973687750899067,-0.1785342638007939,-0.7928826823947368,-0.6803548336029053,0.6588080525398254,-0.3210749626159668,0,0,0,-1,-1,31535.58748875,unknown,2,2025-04-22T12:53:12.898+03:00,2025-04-21T17:08:51.449+03:00,7380,0.9939646,0,0,6149.357,5,20,2025-04-22T12:52:31.625+03:00,767008395.5673326,0,-22.57999,100.4731,1,0.75,2025-04-22T12:48:51.593+03:00,81,1.35,2025-04-22T09:54:17.825+03:00,0.02225348692287972,0
2025-04-22T12:53:16.932+03:00,1745315590.818619,40.95220438681564,29.14026845981508,76.46294,-1,-1,-1,-1,30,34.69433513337849,-9999,31539.616857375,-0.6790771484375,0.6548614501953125,-0.322113037109375,31539.606781375,-0.02525707293102976,-1.129992471694313,-0.7189985635143109,-0.01330720633268356,0.01052489317953587,-0.0339166633784771,0.008219242095947266,-0.007737338542938232,0.0004343390464782715,XArbitraryZVertical,0.3034370554354246,0.4973931583270323,-0.1783622811938224,-0.7929141982024739,-0.6805367469787598,0.658631443977356,-0.3210519850254059,0,0,0,-1,-1,31535.58748875,unknown,2,2025-04-22T12:53:12.898+03:00,2025-04-21T17:08:51.449+03:00,7380,0.9939646,0,0,6149.357,5,20,2025-04-22T12:52:31.625+03:00,767008395.5673326,0,-22.57999,100.4731,1,0.75,2025-04-22T12:48:51.593+03:00,81,1.35,2025-04-22T09:54:17.825+03:00,0.02225348692287972,0
2025-04-22T12:53:16.942+03:00,1745315590.818619,40.95220438681564,29.14026845981508,76.46294,-1,-1,-1,-1,30,34.69433513337849,-9999,31539.626934375,-0.6751708984375,0.6506195068359375,-0.3232879638671875,31539.616857375,-0.0256373412951314,-1.130166646312297,-0.7187633597709664,-0.01520996913313866,0.004025781992822886,-0.03277573361992836,0.005195498466491699,-0.004310309886932373,0.0003055036067962646,XArbitraryZVertical,0.3034234450606243,0.497427887918254,-0.1781786410040907,-0.7929387338181508,-0.6807325482368469,0.6584544777870178,-0.320999413728714,0,0,0,-1,-1,31535.58748875,unknown,2,2025-04-22T12:53:12.898+03:00,2025-04-21T17:08:51.449+03:00,7380,0.9939646,0,0,6149.357,5,20,2025-04-22T12:52:31.625+03:00,767008395.5673326,0,-22.57999,100.4731,1,0.75,2025-04-22T12:48:51.593+03:00,81,1.35,2025-04-22T09:54:17.825+03:00,0.02225348692287972,0
2025-04-22T12:53:16.952+03:00,1745315590.818619,40.95220438681564,29.14026845981508,76.46294,-1,-1,-1,-1,30,34.69433513337849,-9999,31539.637010375,-0.6762237548828125,0.6553955078125,-0.32525634765625,31539.626934375,-0.0260106630961609,-1.130352237939166,-0.7185402434423722,-0.01308450009673834,0.006659115664660931,-0.03171073645353317,0.001695454120635986,-0.003730297088623047,-0.001390814781188965,XArbitraryZVertical,0.3034118325835884,0.4974669459169029,-0.1780023613233914,-0.7929584193798488,-0.680925190448761,0.6582865118980408,-0.3209357857704163,0,0,0,-1,-1,31535.58748875,unknown,2,2025-04-22T12:53:12.898+03:00,2025-04-21T17:08:51.449+03:00,7380,0.9939646,0,0,6149.357,5,20,2025-04-22T12:52:31.625+03:00,767008395.5673326,0,-22.57999,100.4731,1,0.75,2025-04-22T12:48:51.593+03:00,81,1.35,2025-04-22T09:54:17.825+03:00,0.02225348692287972,0
2025-04-22T12:53:16.962+03:00,1745315590.818619,40.95220438681564,29.14026845981508,76.46294,-1,-1,-1,-1,30,34.69433513337849,-9999,31539.647087375,-0.674774169921875,0.6555023193359375,-0.3247222900390625,31539.637010375,-0.02634016185983239,-1.13051846148242,-0.7183346188363893,-0.0111810714006424,0.0007035550661385059,-0.03002958185970783,0.006738722324371338,-0.007558047771453857,-0.003033280372619629,XArbitraryZVertical,0.3033979887435959,0.4975032902410652,-0.1778450014402389,-0.7929761998493886,-0.6811009049415588,0.6581317186355591,-0.320880264043808,0,0,0,-1,-1,31535.58748875,unknown,2,2025-04-22T12:53:12.898+03:00,2025-04-21T17:08:51.449+03:00,7380,0.9939646,0,0,6149.357,5,20,2025-04-22T12:52:31.625+03:00,767008395.5673326,0,-22.57999,100.4731,1,0.75,2025-04-22T12:48:51.593+03:00,81,1.35,2025-04-22T09:54:17.825+03:00,0.02225348692287972,0
2025-04-22T12:53:16.972+03:00,1745315590.818619,40.95220438681564,29.14026845981508,76.46294,-1,-1,-1,-1,30,34.69433513337849,-9999,31539.657164375,-0.673370361328125,0.6550750732421875,-0.32379150390625,31539.647087375,-0.02666076313923133,-1.130721151205386,-0.7181305127123987,-0.01603255420923233,-0.0004772902466356754,-0.02661247923970222,0.004682242870330811,-0.0020180344581604,-0.004136443138122559,XArbitraryZVertical,0.3033793062588532,0.4975552960990567,-0.1776970445339843,-0.7929839117627741,-0.6812874674797058,0.6579780578613281,-0.3207994401454926,0,0,0,-1,-1,31535.58748875,unknown,2,2025-04-22T12:53:12.898+03:00,2025-04-21T17:08:51.449+03:00,7380,0.9939646,0,0,6149.357,5,20,2025-04-22T12:52:31.625+03:00,767008395.5673326,0,-22.57999,100.4731,1,0.75,2025-04-22T12:48:51.593+03:00,81,1.35,2025-04-22T09:54:17.825+03:00,0.02225348692287972,0
2025-04-22T12:53:16.982+03:00,1745315590.818619,40.95220438681564,29.14026845981508,76.46294,-1,-1,-1,-1,30,34.69433513337849,-9999,31539.667240375,-0.6756591796875,0.6537017822265625,-0.322296142578125,31539.657164375,-0.02697400120655402,-1.13093947571779,-0.7179446264592997,-0.01543766912072897,-0.00324651226401329,-0.02728562615811825,0.00680077075958252,-0.002045869827270508,-0.004187345504760742,XArbitraryZVertical,0.3033646165528666,0.4976128296717273,-0.1775589869209437,-0.79298433727645,-0.68146812915802,0.6578380465507507,-0.3207027614116669,0,0,0,-1,-1,31535.58748875,unknown,2,2025-04-22T12:53:12.898+03:00,2025-04-21T17:08:51.449+03:00,7380,0.9939646,0,0,6149.357,5,20,2025-04-22T12:52:31.625+03:00,767008395.5673326,0,-22.57999,100.4731,1,0.75,2025-04-22T12:48:51.593+03:00,81,1.35,2025-04-22T09:54:17.825+03:00,0.02225348692287972,0
2025-04-22T12:53:16.992+03:00,1745315590.818619,40.95220438681564,29.14026845981508,76.46294,-1,-1,-1,-1,30,34.69433513337849,-9999,31539.677317375,-0.6795806884765625,0.65277099609375,-0.319061279296875,31539.667240375,-0.02730306332879083,-1.131177715653469,-0.7177615132495058,-0.0144690778106451,-0.002119728364050388,-0.02587335184216499,0.008099973201751709,-0.002701401710510254,-0.00390172004699707,XArbitraryZVertical,0.3033532279063961,0.4976756077814561,-0.1774183879958195,-0.7929806934140758,-0.6816534399986267,0.6577001214027405,-0.3205916285514832,0,0,0,-1,-1,31535.58748875,unknown,2,2025-04-22T12:53:12.898+03:00,2025-04-21T17:08:51.449+03:00,7380,0.9939646,0,0,6149.357,5,20,2025-04-22T12:52:31.625+03:00,767008395.5673326,0,-22.57999,100.4731,1,0.75,2025-04-22T12:48:51.593+03:00,81,1.35,2025-04-22T09:54:17.825+03:00,0.02225348692287972,0
2025-04-22T12:53:17.002+03:00,1745315590.818619,40.95220438681564,29.14026845981508,76.46294,-1,-1,-1,-1,30,34.69433513337849,-9999,31539.687394375,-0.6793060302734375,0.6537017822265625,-0.3198699951171875,31539.677317375,-0.02760872694483323,-1.131398857437567,-0.7175924760511307,-0.01462414022535086,-0.003640460316091776,-0.02524248324334621,0.005524873733520508,-0.00423729419708252,-0.001136541366577148,XArbitraryZVertical,0.303343098468925,0.4977337511975317,-0.1772879845873982,-0.7929772387703806,-0.6818249225616455,0.6575727462768555,-0.3204881548881531,0,0,0,-1,-1,31535.58748875,unknown,2,2025-04-22T12:53:12.898+03:00,2025-04-21T17:08:51.449+03:00,7380,0.9939646,0,0,6149.357,5,20,2025-04-22T12:52:31.625+03:00,767008395.5673326,0,-22.57999,100.4731,1,0.75,2025-04-22T12:48:51.593+03:00,81,1.35,2025-04-22T09:54:17.825+03:00,0.02225348692287972,0
2025-04-22T12:53:17.012+03:00,1745315590.818619,40.95220438681564,29.14026845981508,76.46294,-1,-1,-1,-1,30,34.69433513337849,-9999,31539.697470375,-0.677581787109375,0.6558380126953125,-0.321746826171875,31539.687394375,-0.02787657539959596,-1.131566270366427,-0.7174490751711246,-0.01029890030622482,0.001859233947470784,-0.01972893998026848,0.002123892307281494,-0.004831135272979736,0.001581788063049316,XArbitraryZVertical,0.3033384354424021,0.4977737743798761,-0.1771708777367405,-0.7929801164626774,-0.6819639205932617,0.6574647426605225,-0.320414125919342,0,0,0,-1,-1,31535.58748875,unknown,2,2025-04-22T12:53:12.898+03:00,2025-04-21T17:08:51.449+03:00,7380,0.9939646,0,0,6149.357,5,20,2025-04-22T12:52:31.625+03:00,767008395.5673326,0,-22.57999,100.4731,1,0.75,2025-04-22T12:48:51.593+03:00,81,1.35,2025-04-22T09:54:17.825+03:00,0.02225348692287972,0
2025-04-22T12:53:17.023+03:00,1745315590.818619,40.95220438681564,29.14026845981508,76.46294,-1,-1,-1,-1,30,34.69433513337849,-9999,31539.707547375,-0.6731719970703125,0.6565399169921875,-0.323760986328125,31539.697470375,-0.02809254343045974,-1.131710484637964,-0.7173240635459754,-0.008858263492584229,-0.003159626387059689,-0.01976402662694454,0.002961635589599609,-0.003089010715484619,0.0005875825881958008,XArbitraryZVertical,0.3033301781798232,0.4978106492162266,-0.1770754805279826,-0.7929814505318994,-0.6820845603942871,0.6573705077171326,-0.320350706577301,0,0,0,-1,-1,31535.58748875,unknown,2,2025-04-22T12:53:12.898+03:00,2025-04-21T17:08:51.449+03:00,7380,0.9939646,0,0,6149.357,5,20,2025-04-22T12:52:31.625+03:00,767008395.5673326,0,-22.57999,100.4731,1,0.75,2025-04-22T12:48:51.593+03:00,81,1.35,2025-04-22T09:54:17.825+03:00,0.02225348692287972,0
2025-04-22T12:53:17.033+03:00,1745315590.818619,40.95220438681564,29.14026845981508,76.46294,-1,-1,-1,-1,30,34.69433513337849,-9999,31539.717624375,-0.67413330078125,0.6529083251953125,-0.3234710693359375,31539.707547375,-0.02827683327621599,-1.131850263571285,-0.7172168747931773,-0.009304342791438103,-0.001828046049922705,-0.01235351525247097,0.00583195686340332,-0.001222968101501465,-0.00216338038444519,XArbitraryZVertical,0.3033214759648004,0.4978488210835401,-0.1769965241812161,-0.7929783543079155,-0.6821929812431335,0.6572897434234619,-0.3202852606773376,0,0,0,-1,-1,31535.58748875,unknown,2,2025-04-22T12:53:12.898+03:00,2025-04-21T17:08:51.449+03:00,7380,0.9939646,0,0,6149.357,5,20,2025-04-22T12:52:31.625+03:00,767008395.5673326,0,-22.57999,100.4731,1,0.75,2025-04-22T12:48:51.593+03:00,81,1.35,2025-04-22T09:54:17.825+03:00,0.02225348692287972,0
2025-04-22T12:53:17.043+03:00,1745315590.818619,40.95220438681564,29.14026845981508,76.46294,-1,-1,-1,-1,30,34.69433513337849,-9999,31539.727700375,-0.677734375,0.652984619140625,-0.323974609375,31539.717624375,-0.02846064318440158,-1.131968555300367,-0.7171340789419861,-0.01263489201664925,0.001670282799750566,-0.009324568323791027,0.009382963180541992,-0.0005501508712768555,-0.00324326753616333,XArbitraryZVertical,0.3033241397150166,0.4978760721417691,-0.1769205666663159,-0.7929773046568348,-0.6822803020477295,0.6572273373603821,-0.3202277719974518,0,0,0,-1,-1,31535.58748875,unknown,2,2025-04-22T12:53:12.898+03:00,2025-04-21T17:08:51.449+03:00,7380,0.9939646,0,0,6149.357,5,20,2025-04-22T12:52:31.625+03:00,767008395.5673326,0,-22.57999,100.4731,1,0.75,2025-04-22T12:48:51.593+03:00,81,1.35,2025-04-22T09:54:17.825+03:00,0.02225348692287972,0
2025-04-22T12:53:17.053+03:00,1745315590.818619,40.95220438681564,29.14026845981508,76.46294,-1,-1,-1,-1,30,34.69433513337849,-9999,31539.737777375,-0.6771697998046875,0.654205322265625,-0.3224029541015625,31539.727700375,-0.02863699727633301,-1.13208478689847,-0.7171117193456836,-0.009736306965351105,-0.003459231462329626,-0.008463835343718529,0.007098793983459473,-0.004012405872344971,-0.003133267164230347,XArbitraryZVertical,0.3033489730872537,0.4978976624025328,-0.176862664860347,-0.7929670554091162,-0.6823306679725647,0.6572104692459106,-0.3201546370983124,0,0,0,-1,-1,31535.58748875,unknown,2,2025-04-22T12:53:12.898+03:00,2025-04-21T17:08:51.449+03:00,7380,0.9939646,0,0,6149.357,5,20,2025-04-22T12:52:31.625+03:00,767008395.5673326,0,-22.57999,100.4731,1,0.75,2025-04-22T12:48:51.593+03:00,81,1.35,2025-04-22T09:54:17.825+03:00,0.02225348692287972,0
2025-04-22T12:53:17.063+03:00,1745315590.818619,40.95220438681564,29.14026845981508,76.46294,-1,-1,-1,-1,30,34.69433513337849,-9999,31539.747853375,-0.6786041259765625,0.6550445556640625,-0.3210296630859375,31539.737777375,-0.02876426611131911,-1.132161311949478,-0.7171072777306009,-0.0123638492077589,3.21059487760067e-05,-0.003538085846230388,0.003967344760894775,-0.003963232040405273,-0.004054039716720581,XArbitraryZVertical,0.3033721481534346,0.4979091516639599,-0.1768227090438793,-0.7929598412982654,-0.6823577284812927,0.6572071313858032,-0.320103645324707,0,0,0,-1,-1,31535.58748875,unknown,2,2025-04-22T12:53:12.898+03:00,2025-04-21T17:08:51.449+03:00,7380,0.9939646,0,0,6149.357,5,20,2025-04-22T12:52:31.625+03:00,767008395.5673326,0,-22.57999,100.4731,1,0.75,2025-04-22T12:48:51.593+03:00,81,1.35,2025-04-22T09:54:17.825+03:00,0.02225348692287972,0
2025-04-22T12:53:17.073+03:00,1745315590.818619,40.95220438681564,29.14026845981508,76.46294,-1,-1,-1,-1,30,34.69433513337849,-9999,31539.757930375,-0.68157958984375,0.6556243896484375,-0.320892333984375,31539.747853375,-0.02891942632563337,-1.132260546268216,-0.7171349940732324,-0.01305307541042566,-0.0009074574336409569,-0.00420387601479888,0.004898190498352051,-0.003114402294158936,-0.00190165638923645,XArbitraryZVertical,0.3034129117205726,0.4979221839795077,-0.1767832449141588,-0.7929449002750559,-0.682373046875,0.6572280526161194,-0.3200282156467438,0,0,0,-1,-1,31535.58748875,unknown,2,2025-04-22T12:53:12.898+03:00,2025-04-21T17:08:51.449+03:00,7380,0.9939646,0,0,6149.357,5,20,2025-04-22T12:52:31.625+03:00,767008395.5673326,0,-22.57999,100.4731,1,0.75,2025-04-22T12:48:51.593+03:00,81,1.35,2025-04-22T09:54:17.825+03:00,0.02225348692287972,0
2025-04-22T12:53:17.083+03:00,1745315590.818619,40.95220438681564,29.14026845981508,76.46294,-1,-1,-1,-1,30,34.69433513337849,-9999,31539.768007375,-0.6835174560546875,0.655670166015625,-0.3211517333984375,31539.757930375,-0.02904092642852962,-1.132315262624867,-0.7171486023189658,-0.005743895657360554,0.003089813748374581,-0.002054372103884816,0.004053115844726562,-0.001522481441497803,-0.0004626810550689697,XArbitraryZVertical,0.3034436811721709,0.4979240833252175,-0.1767468161283927,-0.7929400647767497,-0.6823825240135193,0.6572383046150208,-0.3199870884418488,0,0,0,-1,-1,31535.58748875,unknown,2,2025-04-22T12:53:12.898+03:00,2025-04-21T17:08:51.449+03:00,7380,0.9939646,0,0,6149.357,5,20,2025-04-22T12:52:31.625+03:00,767008395.5673326,0,-22.57999,100.4731,1,0.75,2025-04-22T12:48:51.593+03:00,81,1.35,2025-04-22T09:54:17.825+03:00,0.02225348692287972,0
2025-04-22T12:53:17.093+03:00,1745315590.818619,40.95220438681564,29.14026845981508,76.46294,-1,-1,-1,-1,30,34.69433513337849,-9999,31539.778083375,-0.68231201171875,0.6576995849609375,-0.321624755859375,31539.768007375,-0.02911426448341203,-1.132325788131059,-0.717154991603885,-0.004316175356507301,0.005704771727323532,-0.0005025481223128736,0.0004973411560058594,-0.001084804534912109,-0.001143008470535278,XArbitraryZVertical,0.3034635259464378,0.4979164923553788,-0.176720957895788,-0.792942994104485,-0.6823820471763611,0.6572431325912476,-0.3199781179428101,0,0,0,-1,-1,31535.58748875,unknown,2,2025-04-22T12:53:12.898+03:00,2025-04-21T17:08:51.449+03:00,7380,0.9939646,0,0,6149.357,5,20,2025-04-22T12:52:31.625+03:00,767008395.5673326,0,-22.57999,100.4731,1,0.75,2025-04-22T12:48:51.593+03:00,81,1.35,2025-04-22T09:54:17.825+03:00,0.02225348692287972,0
2025-04-22T12:53:17.103+03:00,1745315590.818619,40.95220438681564,29.14026845981508,76.46294,-1,-1,-1,-1,30,34.69433513337849,-9999,31539.788160375,-0.6797943115234375,0.6566009521484375,-0.32305908203125,31539.778083375,-0.02915563989752205,-1.13230253118237,-0.7171727046221953,-0.002019664971157908,0.004331179894506931,0.000298164552077651,-0.0006192922592163086,-0.0006861686706542969,-0.001956075429916382,XArbitraryZVertical,0.3034828584238056,0.4978992284545716,-0.1767055197811443,-0.7929498573460989,-0.6823640465736389,0.6572564840316772,-0.319989025592804,0,0,0,-1,-1,31535.58748875,unknown,2,2025-04-22T12:53:12.898+03:00,2025-04-21T17:08:51.449+03:00,7380,0.9939646,0,0,6149.357,5,20,2025-04-22T12:52:31.625+03:00,767008395.5673326,0,-22.57999,100.4731,1,0.75,2025-04-22T12:48:51.593+03:00,81,1.35,2025-04-22T09:54:17.825+03:00,0.02225348692287972,0
2025-04-22T12:53:17.113+03:00,1745315597.046434,40.9522316398238,29.1402719199613,76.44794,-1,-1,-1,-1,30,34.30805834696292,-9999,31539.798237375,-0.678802490234375,0.6542816162109375,-0.322418212890625,31539.788160375,-0.02918621999010526,-1.132268832984763,-0.7171953738668935,-0.005009329877793789,0.006326686590909958,0.001648919889703393,0.001080751419067383,0.0002428293228149414,-0.002275139093399048,XArbitraryZVertical,0.3035023685259501,0.4978789556294915,-0.1766940059892737,-0.7929577212333311,-0.6823398470878601,0.657273530960083,-0.3200057148933411,0,0,0,-1,-1,31535.58748875,unknown,2,2025-04-22T12:53:12.898+03:00,2025-04-21T17:08:51.449+03:00,7380,0.9939646,0,0,6149.357,5,20,2025-04-22T12:52:31.625+03:00,767008395.5673326,0,-22.57999,100.4731,1,0.75,2025-04-22T12:48:51.593+03:00,81,1.35,2025-04-22T09:54:17.825+03:00,0.02225348692287972,0
2025-04-22T12:53:17.124+03:00,1745315597.046434,40.9522316398238,29.1402719199613,76.44794,-1,-1,-1,-1,30,34.30805834696292,-9999,31539.808313375,-0.67974853515625,0.6554718017578125,-0.3214569091796875,31539.798237375,-0.02917095127097691,-1.132187034684581,-0.7172351483872532,-4.806031938642263e-05,0.004924332723021507,0.006619077175855637,0.003029763698577881,-0.0005653500556945801,-0.002978116273880005,XArbitraryZVertical,0.3035214633993137,0.4978448804082436,-0.176697745692417,-0.7929709179389496,-0.6822898983955383,0.657303512096405,-0.3200503885746002,0,0,0,-1,-1,31535.58748875,unknown,2,2025-04-22T12:53:12.898+03:00,2025-04-21T17:08:51.449+03:00,7380,0.9939646,0,0,6149.357,5,20,2025-04-22T12:52:31.625+03:00,767008395.5673326,0,-22.57999,100.4731,1,0.75,2025-04-22T12:48:51.593+03:00,81,1.35,2025-04-22T09:54:17.825+03:00,0.02225348692287972,0
2025-04-22T12:53:17.133+03:00,1745315597.046434,40.9522316398238,29.1402719199613,76.44794,-1,-1,-1,-1,30,34.30805834696292,-9999,31539.818390375,-0.6753387451171875,0.656219482421875,-0.3223724365234375,31539.808313375,-0.02911875968442721,-1.132081267111134,-0.7172887446370825,0.0003567401727195829,0.006801594980061054,0.006606560666114092,0.003238677978515625,-0.00289452075958252,-0.001669645309448242,XArbitraryZVertical,0.3035389057173726,0.4978054920732436,-0.1767159129144861,-0.7929850186899458,-0.6822242736816406,0.6573439240455627,-0.320107638835907,0,0,0,-1,-1,31535.58748875,unknown,2,2025-04-22T12:53:12.898+03:00,2025-04-21T17:08:51.449+03:00,7380,0.9939646,0,0,6149.357,5,20,2025-04-22T12:52:31.625+03:00,767008395.5673326,0,-22.57999,100.4731,1,0.75,2025-04-22T12:48:51.593+03:00,81,1.35,2025-04-22T09:54:17.825+03:00,0.02225348692287972,0
2025-04-22T12:53:17.144+03:00,1745315597.046434,40.9522316398238,29.1402719199613,76.44794,-1,-1,-1,-1,30,34.30805834696292,-9999,31539.828467375,-0.67767333984375,0.654541015625,-0.320526123046875,31539.818390375,-0.02905942477046165,-1.131980204518844,-0.7173494468174151,0.001294705434702337,0.003291015978902578,0.008477963507175446,0.002788722515106201,-0.002497732639312744,-0.001800775527954102,XArbitraryZVertical,0.3035569712696939,0.4977683670820511,-0.1767394746301189,-0.7929961476786642,-0.6821557879447937,0.6573896408081055,-0.3201596438884735,0,0,0,-1,-1,31535.58748875,unknown,2,2025-04-22T12:53:12.898+03:00,2025-04-21T17:08:51.449+03:00,7380,0.9939646,0,0,6149.357,5,20,2025-04-22T12:52:31.625+03:00,767008395.5673326,0,-22.57999,100.4731,1,0.75,2025-04-22T12:48:51.593+03:00,81,1.35,2025-04-22T09:54:17.825+03:00,0.02225348692287972,0
2025-04-22T12:53:17.154+03:00,1745315597.046434,40.9522316398238,29.1402719199613,76.44794,-1,-1,-1,-1,30,34.30805834696292,-9999,31539.838543375,-0.6793670654296875,0.6554718017578125,-0.3212127685546875,31539.828467375,-0.0290147661626403,-1.131880754254737,-0.7174246030689919,0.0003207874833606184,0.006563774310052395,0.007797526195645332,0.0069541335105896,-0.001440465450286865,-0.002257496118545532,XArbitraryZVertical,0.3035842338621109,0.4977282006286861,-0.1767610953721848,-0.793006143959427,-0.6820792555809021,0.6574462652206421,-0.320206493139267,0,0,0,-1,-1,31535.58748875,unknown,2,2025-04-22T12:53:12.898+03:00,2025-04-21T17:08:51.449+03:00,7380,0.9939646,0,0,6149.357,5,20,2025-04-22T12:52:31.625+03:00,767008395.5673326,0,-22.57999,100.4731,1,0.75,2025-04-22T12:48:51.593+03:00,81,1.35,2025-04-22T09:54:17.825+03:00,0.02225348692287972,0
2025-04-22T12:53:17.164+03:00,1745315597.046434,40.9522316398238,29.1402719199613,76.44794,-1,-1,-1,-1,30,34.30805834696292,-9999,31539.848620375,-0.676666259765625,0.65338134765625,-0.3229522705078125,31539.838543375,-0.0289713831405158,-1.13180789543936,-0.7175084863387268,-0.002433919813483953,0.003516652155667543,0.01044740527868271,0.004149556159973145,-0.003136396408081055,-0.0005527734756469727,XArbitraryZVertical,0.3036129112034391,0.4976975257109035,-0.1767884803292932,-0.7930082957892611,-0.6820060014724731,0.6575095057487488,-0.3202327489852905,0,0,0,-1,-1,31535.58748875,unknown,2,2025-04-22T12:53:12.898+03:00,2025-04-21T17:08:51.449+03:00,7380,0.9939646,0,0,6149.357,5,20,2025-04-22T12:52:31.625+03:00,767008395.5673326,0,-22.57999,100.4731,1,0.75,2025-04-22T12:48:51.593+03:00,81,1.35,2025-04-22T09:54:17.825+03:00,0.02225348692287972,0
2025-04-22T12:53:17.174+03:00,1745315597.046434,40.9522316398238,29.1402719199613,76.44794,-1,-1,-1,-1,30,34.30805834696292,-9999,31539.858696375,-0.67877197265625,0.6539306640625,-0.32049560546875,31539.848620375,-0.02895876957975121,-1.131769259019034,-0.7176019293137389,0.00182074645999819,0.004413338378071785,0.009858580306172371,0.003288149833679199,-0.002459049224853516,-0.001284927129745483,XArbitraryZVertical,0.3036499764184936,0.497674781273364,-0.176811247448161,-0.7930033493219361,-0.6819380521774292,0.6575798988342285,-0.320233017206192,0,0,0,-1,-1,31535.58748875,unknown,2,2025-04-22T12:53:12.898+03:00,2025-04-21T17:08:51.449+03:00,7380,0.9939646,0,0,6149.357,5,20,2025-04-22T12:52:31.625+03:00,767008395.5673326,0,-22.57999,100.4731,1,0.75,2025-04-22T12:48:51.593+03:00,81,1.35,2025-04-22T09:54:17.825+03:00,0.02225348692287972,0
2025-04-22T12:53:17.184+03:00,1745315597.046434,40.9522316398238,29.1402719199613,76.44794,-1,-1,-1,-1,30,34.30805834696292,-9999,31539.868773375,-0.6794586181640625,0.655426025390625,-0.3184051513671875,31539.858696375,-0.02889251723380901,-1.131683292088474,-0.7176786869614544,0.002874026540666819,0.003246874082833529,0.007422853261232376,0.004817008972167969,-0.003997087478637695,-0.002239614725112915,XArbitraryZVertical,0.3036713364278041,0.4976431176827327,-0.1768439535849901,-0.793007620356327,-0.6818646788597107,0.6576377153396606,-0.3202700912952423,0,0,0,-1,-1,31535.58748875,unknown,2,2025-04-22T12:53:12.898+03:00,2025-04-21T17:08:51.449+03:00,7380,0.9939646,0,0,6149.357,5,20,2025-04-22T12:52:31.625+03:00,767008395.5673326,0,-22.57999,100.4731,1,0.75,2025-04-22T12:48:51.593+03:00,81,1.35,2025-04-22T09:54:17.825+03:00,0.02225348692287972,0
2025-04-22T12:53:17.194+03:00,1745315597.046434,40.9522316398238,29.1402719199613,76.44794,-1,-1,-1,-1,30,34.30805834696292,-9999,31539.878850375,-0.6779327392578125,0.6534423828125,-0.3192596435546875,31539.868773375,-0.02885444436962258,-1.131632310278825,-0.7177765258849677,-0.004870712291449308,0.002609313232824206,0.01182212866842747,0.003475964069366455,-0.003262042999267578,-0.0005232691764831543,XArbitraryZVertical,0.3037048953201238,0.4976189108516607,-0.1768760590480606,-0.7930028236782994,-0.6817901730537415,0.6577114462852478,-0.3202775120735168,0,0,0,-1,-1,31535.58748875,unknown,2,2025-04-22T12:53:12.898+03:00,2025-04-21T17:08:51.449+03:00,7380,0.9939646,0,0,6149.357,5,20,2025-04-22T12:52:31.625+03:00,767008395.5673326,0,-22.57999,100.4731,1,0.75,2025-04-22T12:48:51.593+03:00,81,1.35,2025-04-22T09:54:17.825+03:00,0.02225348692287972,0
2025-04-22T12:53:17.204+03:00,1745315597.046434,40.9522316398238,29.1402719199613,76.44794,-1,-1,-1,-1,30,34.30805834696292,-9999,31539.888926375,-0.6780548095703125,0.65423583984375,-0.3204498291015625,31539.878850375,-0.02884249354981339,-1.131592391919049,-0.7179128313201864,-0.006326662376523018,0.001958969049155712,0.01302268169820309,0.002634406089782715,-0.003227412700653076,0.002090424299240112,XArbitraryZVertical,0.3037591261614981,0.4975912870396733,-0.1769092279303024,-0.7929919946241261,-0.6816962361335754,0.657814085483551,-0.3202666044235229,0,0,0,-1,-1,31535.58748875,unknown,2,2025-04-22T12:53:12.898+03:00,2025-04-21T17:08:51.449+03:00,7380,0.9939646,0,0,6149.357,5,20,2025-04-22T12:52:31.625+03:00,767008395.5673326,0,-22.57999,100.4731,1,0.75,2025-04-22T12:48:51.593+03:00,81,1.35,2025-04-22T09:54:17.825+03:00,0.02225348692287972,0
2025-04-22T12:53:17.238+03:00,1745315597.046434,40.9522316398238,29.1402719199613,76.44794,-1,-1,-1,-1,30,34.30805834696292,-9999,31539.899003375,-0.678558349609375,0.6538238525390625,-0.318328857421875,31539.888926375,-0.02884375444359442,-1.13156379625889,-0.7180390489412731,-0.008529629558324814,0.001707033952698112,0.01082743797451258,0.004548966884613037,-0.004161715507507324,0.0006097257137298584,XArbitraryZVertical,0.3038116777453109,0.4975671629477394,-0.1769363469151035,-0.7929809054127835,-0.6816118359565735,0.6579091548919678,-0.3202507793903351,0,0,0,-1,-1,31535.58748875,unknown,2,2025-04-22T12:53:12.898+03:00,2025-04-21T17:08:51.449+03:00,7380,0.9939646,0,0,6149.357,5,20,2025-04-22T12:52:31.625+03:00,767008395.5673326,0,-22.57999,100.4731,1,0.75,2025-04-22T12:48:51.593+03:00,81,1.35,2025-04-22T09:54:17.825+03:00,0.02225348692287972,0
2025-04-22T12:53:17.241+03:00,1745315597.046434,40.9522316398238,29.1402719199613,76.44794,-1,-1,-1,-1,30,34.30805834696292,-9999,31539.909080375,-0.6801605224609375,0.6558074951171875,-0.3184814453125,31539.899003375,-0.02889349712179025,-1.13158599309753,-0.7181883406039314,-0.007485536858439445,0.001376403030008078,0.01182978507131338,0.003216028213500977,-0.003633201122283936,-0.000301659107208252,XArbitraryZVertical,0.3038808590581806,0.4975534728478485,-0.176957727140076,-0.7929583206378935,-0.6815301775932312,0.6580215692520142,-0.3201939165592194,0,0,0,-1,-1,31535.58748875,unknown,2,2025-04-22T12:53:12.898+03:00,2025-04-21T17:08:51.449+03:00,7380,0.9939646,0,0,6149.357,5,20,2025-04-22T12:52:31.625+03:00,767008395.5673326,0,-22.57999,100.4731,1,0.75,2025-04-22T12:48:51.593+03:00,81,1.35,2025-04-22T09:54:17.825+03:00,0.02225348692287972,0
2025-04-22T12:53:17.242+03:00,1745315597.046434,40.9522316398238,29.1402719199613,76.44794,-1,-1,-1,-1,30,34.30805834696292,-9999,31539.919156375,-0.6819000244140625,0.661651611328125,-0.3189697265625,31539.909080375,-0.02889009666409654,-1.131535390171495,-0.7183330531584157,-0.004305722191929817,0.003711462486535311,0.009874491952359676,0.002686381340026855,-0.00432199239730835,0.002225279808044434,XArbitraryZVertical,0.3039414725249008,0.4975194700033812,-0.1769880072276238,-0.7929496641845231,-0.6814277768135071,0.6581305265426636,-0.3201879262924194,0,0,0,-1,-1,31535.58748875,unknown,2,2025-04-22T12:53:12.898+03:00,2025-04-21T17:08:51.449+03:00,7380,0.9939646,0,0,6149.357,5,20,2025-04-22T12:52:31.625+03:00,767008395.5673326,0,-22.57999,100.4731,1,0.75,2025-04-22T12:48:51.593+03:00,81,1.35,2025-04-22T09:54:17.825+03:00,0.02225348692287972,0
2025-04-22T12:53:17.245+03:00,1745315597.046434,40.9522316398238,29.1402719199613,76.44794,-1,-1,-1,-1,30,34.30805834696292,-9999,31539.929233375,-0.678802490234375,0.6591644287109375,-0.318817138671875,31539.919156375,-0.02884916003935132,-1.1314524473886,-0.7184363351054864,-0.0008845591801218688,0.007145409006625414,0.01019437145441771,0.0007367134094238281,-0.002065181732177734,0.002008795738220215,XArbitraryZVertical,0.3039792949331354,0.4974824837834308,-0.1770177563896122,-0.7929517501711389,-0.6813397407531738,0.6582083106040955,-0.3202155232429504,0,0,0,-1,-1,31535.58748875,unknown,2,2025-04-22T12:53:12.898+03:00,2025-04-21T17:08:51.449+03:00,7380,0.9939646,0,0,6149.357,5,20,2025-04-22T12:52:31.625+03:00,767008395.5673326,0,-22.57999,100.4731,1,0.75,2025-04-22T12:48:51.593+03:00,81,1.35,2025-04-22T09:54:17.825+03:00,0.02225348692287972,0
2025-04-22T12:53:17.266+03:00,1745315597.046434,40.9522316398238,29.1402719199613,76.44794,-1,-1,-1,-1,30,34.30805834696292,-9999,31539.939310375,-0.679534912109375,0.6548309326171875,-0.3190155029296875,31539.929233375,-0.02880683669719823,-1.131343403321655,-0.7185369074036659,-0.001873657340183854,0.008133707568049431,0.007870230823755264,-0.0005331039428710938,0.003809988498687744,0.0005900561809539795,XArbitraryZVertical,0.30401803545725,0.4974356552177085,-0.1770434515541978,-0.7929604469655359,-0.6812447905540466,0.6582840085029602,-0.3202615976333618,0,0,0,-1,-1,31535.58748875,unknown,2,2025-04-22T12:53:12.898+03:00,2025-04-21T17:08:51.449+03:00,7380,0.9939646,0,0,6149.357,5,20,2025-04-22T12:52:31.625+03:00,767008395.5673326,0,-22.57999,100.4731,1,0.75,2025-04-22T12:48:51.593+03:00,81,1.35,2025-04-22T09:54:17.825+03:00,0.02225348692287972,0
2025-04-22T12:53:17.271+03:00,1745315597.046434,40.9522316398238,29.1402719199613,76.44794,-1,-1,-1,-1,30,34.30805834696292,-9999,31539.949386375,-0.6794891357421875,0.6554412841796875,-0.318359375,31539.939310375,-0.02873983487708921,-1.131212646309027,-0.7186169774508321,0.002569827018305659,0.007588292472064495,0.01184686273336411,0.002474844455718994,-0.0002633333206176758,0.001206010580062866,XArbitraryZVertical,0.3040444771060137,0.4973859989269185,-0.1770703960951409,-0.7929754395030709,-0.6811552047729492,0.6583442687988281,-0.3203282356262207,0,0,0,-1,-1,31535.58748875,unknown,2,2025-04-22T12:53:12.898+03:00,2025-04-21T17:08:51.449+03:00,7380,0.9939646,0,0,6149.357,5,20,2025-04-22T12:52:31.625+03:00,767008395.5673326,0,-22.57999,100.4731,1,0.75,2025-04-22T12:48:51.593+03:00,81,1.35,2025-04-22T09:54:17.825+03:00,0.02225348692287972,0
2025-04-22T12:53:17.275+03:00,1745315597.046434,40.9522316398238,29.1402719199613,76.44794,-1,-1,-1,-1,30,34.30805834696292,-9999,31539.959463375,-0.6767730712890625,0.6509246826171875,-0.3171539306640625,31539.949386375,-0.0286352521878483,-1.131073920774282,-0.7187238301162184,-0.001097079366445541,0.007462325505912304,0.01201677229255438,0.001435995101928711,-0.003441214561462402,0.001941949129104614,XArbitraryZVertical,0.3040728112901231,0.4973361954829579,-0.1771177389057408,-0.7929853652089831,-0.681047260761261,0.6584246754646301,-0.3203928768634796,0,0,0,-1,-1,31535.58748875,unknown,2,2025-04-22T12:53:12.898+03:00,2025-04-21T17:08:51.449+03:00,7380,0.9939646,0,0,6149.357,5,20,2025-04-22T12:52:31.625+03:00,767008395.5673326,0,-22.57999,100.4731,1,0.75,2025-04-22T12:48:51.593+03:00,81,1.35,2025-04-22T09:54:17.825+03:00,0.02225348692287972,0
2025-04-22T12:53:17.285+03:00,1745315597.046434,40.9522316398238,29.1402719199613,76.44794,-1,-1,-1,-1,30,34.30805834696292,-9999,31539.969539375,-0.67840576171875,0.65338134765625,-0.315582275390625,31539.959463375,-0.02859046188644027,-1.130969822767037,-0.7188411102646096,-0.003367424244061112,0.009468218311667442,0.01174299977719784,0.001088559627532959,-0.003575325012207031,0.002285122871398926,XArbitraryZVertical,0.3041170931100827,0.4972900393961147,-0.1771493778440481,-0.7929901643018302,-0.6809439063072205,0.6585129499435425,-0.3204308152198792,0,0,0,-1,-1,31535.58748875,unknown,2,2025-04-22T12:53:12.898+03:00,2025-04-21T17:08:51.449+03:00,7380,0.9939646,0,0,6149.357,5,20,2025-04-22T12:52:31.625+03:00,767008395.5673326,0,-22.57999,100.4731,1,0.75,2025-04-22T12:48:51.593+03:00,81,1.35,2025-04-22T09:54:17.825+03:00,0.02225348692287972,0
2025-04-22T12:53:17.295+03:00,1745315597.046434,40.9522316398238,29.1402719199613,76.44794,-1,-1,-1,-1,30,34.30805834696292,-9999,31539.979616375,-0.6810760498046875,0.6546478271484375,-0.3158416748046875,31539.969539375,-0.02854819132286118,-1.130840530737974,-0.7189525175817419,-0.002343172673135996,0.01202911324799061,0.009524852968752384,0.004368245601654053,-0.00736701488494873,0.003303229808807373,XArbitraryZVertical,0.3041619070491864,0.4972340742616326,-0.1771746423725861,-0.7930024393947471,-0.6808361411094666,0.6585968136787415,-0.3204876184463501,0,0,0,-1,-1,31535.58748875,unknown,2,2025-04-22T12:53:12.898+03:00,2025-04-21T17:08:51.449+03:00,7380,0.9939646,0,0,6149.357,5,20,2025-04-22T12:52:31.625+03:00,767008395.5673326,0,-22.57999,100.4731,1,0.75,2025-04-22T12:48:51.593+03:00,81,1.35,2025-04-22T09:54:17.825+03:00,0.02225348692287972,0
2025-04-22T12:53:17.305+03:00,1745315597.046434,40.9522316398238,29.1402719199613,76.44794,-1,-1,-1,-1,30,34.30805834696292,-9999,31539.989693375,-0.680389404296875,0.6583404541015625,-0.3158416748046875,31539.979616375,-0.02849641312753238,-1.130699355339609,-0.7190518857513669,-0.001415327191352844,0.009851180016994476,0.0137909697368741,0.001105189323425293,-0.004954695701599121,0.004393786191940308,XArbitraryZVertical,0.304200681067559,0.4971760576440338,-0.1771988445172416,-0.7930184942741314,-0.6807315945625305,0.6586715579032898,-0.3205558359622955,0,0,0,-1,-1,31535.58748875,unknown,2,2025-04-22T12:53:12.898+03:00,2025-04-21T17:08:51.449+03:00,7380,0.9939646,0,0,6149.357,5,20,2025-04-22T12:52:31.625+03:00,767008395.5673326,0,-22.57999,100.4731,1,0.75,2025-04-22T12:48:51.593+03:00,81,1.35,2025-04-22T09:54:17.825+03:00,0.02225348692287972,0
2025-04-22T12:53:17.315+03:00,1745315597.046434,40.9522316398238,29.1402719199613,76.44794,-1,-1,-1,-1,30,34.30805834696292,-9999,31539.999769375,-0.6807403564453125,0.657440185546875,-0.32025146484375,31539.989693375,-0.02844234444673698,-1.130548105399971,-0.7191672816458049,-8.854037150740623e-05,0.01436151005327702,0.01309987995773554,-0.000736236572265625,-0.002981483936309814,0.005379855632781982,XArbitraryZVertical,0.3042460783456348,0.4971127710266838,-0.1772264146515215,-0.793034663667704,-0.6806144118309021,0.6587584018707275,-0.320626437664032,0,0,0,-1,-1,31535.58748875,unknown,2,2025-04-22T12:53:12.898+03:00,2025-04-21T17:08:51.449+03:00,7380,0.9939646,0,0,6149.357,5,20,2025-04-22T12:52:31.625+03:00,767008395.5673326,0,-22.57999,100.4731,1,0.75,2025-04-22T12:48:51.593+03:00,81,1.35,2025-04-22T09:54:17.825+03:00,0.02225348692287972,0
2025-04-22T12:53:17.325+03:00,1745315597.046434,40.9522316398238,29.1402719199613,76.44794,-1,-1,-1,-1,30,34.30805834696292,-9999,31540.009846375,-0.6806640625,0.6563568115234375,-0.3175201416015625,31539.999769375,-0.02836579566643626,-1.130362361094161,-0.7192674483454807,0.002916570520028472,0.01390690915286541,0.009884778410196304,0.0003957152366638184,-0.0002186894416809082,0.004181206226348877,XArbitraryZVertical,0.3042829643671532,0.4970407638246695,-0.1772538293840495,-0.7930595162869613,-0.6804952025413513,0.6588337421417236,-0.3207247257232666,0,0,0,-1,-1,31535.58748875,unknown,2,2025-04-22T12:53:12.898+03:00,2025-04-21T17:08:51.449+03:00,7380,0.9939646,0,0,6149.357,5,20,2025-04-22T12:52:31.625+03:00,767008395.5673326,0,-22.57999,100.4731,1,0.75,2025-04-22T12:48:51.593+03:00,81,1.35,2025-04-22T09:54:17.825+03:00,0.02225348692287972,0
2025-04-22T12:53:17.335+03:00,1745315597.046434,40.9522316398238,29.1402719199613,76.44794,-1,-1,-1,-1,30,34.30805834696292,-9999,31540.019923375,-0.6793060302734375,0.6542205810546875,-0.3149261474609375,31540.009846375,-0.02830431749943391,-1.130186020281558,-0.7193575096422593,0.0006347741582430899,0.01412475481629372,0.008037609979510307,-0.001530349254608154,-0.001507163047790527,0.0004153847694396973,XArbitraryZVertical,0.3043187888960587,0.4969712021159431,-0.1772741387660711,-0.7930848207493578,-0.6803849339485168,0.6589015126228333,-0.3208194077014923,0,0,0,-1,-1,31535.58748875,unknown,2,2025-04-22T12:53:12.898+03:00,2025-04-21T17:08:51.449+03:00,7380,0.9939646,0,0,6149.357,5,20,2025-04-22T12:52:31.625+03:00,767008395.5673326,0,-22.57999,100.4731,1,0.75,2025-04-22T12:48:51.593+03:00,81,1.35,2025-04-22T09:54:17.825+03:00,0.02225348692287972,0
2025-04-22T12:53:17.345+03:00,1745315597.046434,40.9522316398238,29.1402719199613,76.44794,-1,-1,-1,-1,30,34.30805834696292,-9999,31540.029999375,-0.6817474365234375,0.6539459228515625,-0.3170928955078125,31540.019923375,-0.028268005051681,-1.130015785229783,-0.7194526942877661,-0.003160629887133837,0.01497070863842964,0.009671126492321491,-0.0003142356872558594,-0.003058850765228271,0.004380166530609131,XArbitraryZVertical,0.3043623548644669,0.4968997300499558,-0.1772867066617108,-0.7931100291894576,-0.6802735328674316,0.6589730978012085,-0.3209084272384644,0,0,0,-1,-1,31535.58748875,unknown,2,2025-04-22T12:53:12.898+03:00,2025-04-21T17:08:51.449+03:00,7380,0.9939646,0,0,6149.357,5,20,2025-04-22T12:52:31.625+03:00,767008395.5673326,0,-22.57999,100.4731,1,0.75,2025-04-22T12:48:51.593+03:00,81,1.35,2025-04-22T09:54:17.825+03:00,0.02225348692287972,0
2025-04-22T12:53:17.356+03:00,1745315597.046434,40.9522316398238,29.1402719199613,76.44794,-1,-1,-1,-1,30,34.30805834696292,-9999,31540.040076375,-0.68035888671875,0.656158447265625,-0.3167877197265625,31540.029999375,-0.02824198890673248,-1.129832623565316,-0.7195322851935702,6.712137837894261e-05,0.01677633076906204,0.00763300945982337,0.0008003115653991699,-0.005026102066040039,0.005581021308898926,XArbitraryZVertical,0.3044034691159651,0.4968230966462858,-0.1772892249965469,-0.793141758639258,-0.6801673769950867,0.659032940864563,-0.3210106790065765,0,0,0,-1,-1,31535.58748875,unknown,2,2025-04-22T12:53:12.898+03:00,2025-04-21T17:08:51.449+03:00,7380,0.9939646,0,0,6149.357,5,20,2025-04-22T12:52:31.625+03:00,767008395.5673326,0,-22.57999,100.4731,1,0.75,2025-04-22T12:48:51.593+03:00,81,1.35,2025-04-22T09:54:17.825+03:00,0.02225348692287972,0
2025-04-22T12:53:17.365+03:00,1745315597.046434,40.9522316398238,29.1402719199613,76.44794,-1,-1,-1,-1,30,34.30805834696292,-9999,31540.050152375,-0.6741180419921875,0.6589508056640625,-0.316741943359375,31540.040076375,-0.02823619818503053,-1.129665298704911,-0.7195922740015165,-0.004990687593817711,0.01558143831789494,0.007521989289671183,-0.002295136451721191,-0.00482708215713501,0.003633260726928711,XArbitraryZVertical,0.3044404941768262,0.4967516342923601,-0.1772812075686304,-0.7931740955780727,-0.6800779104232788,0.659078061580658,-0.3211075961589813,0,0,0,-1,-1,31535.58748875,unknown,2,2025-04-22T12:53:12.898+03:00,2025-04-21T17:08:51.449+03:00,7380,0.9939646,0,0,6149.357,5,20,2025-04-22T12:52:31.625+03:00,767008395.5673326,0,-22.57999,100.4731,1,0.75,2025-04-22T12:48:51.593+03:00,81,1.35,2025-04-22T09:54:17.825+03:00,0.02225348692287972,0
2025-04-22T12:53:17.375+03:00,1745315597.046434,40.9522316398238,29.1402719199613,76.44794,-1,-1,-1,-1,30,34.30805834696292,-9999,31540.060229375,-0.6725006103515625,0.6551055908203125,-0.31634521484375,31540.050152375,-0.02824076755587377,-1.129521084043586,-0.719678668971229,-0.004312912933528423,0.01596253551542759,0.009236797690391541,-0.0002262592315673828,-0.002175986766815186,0.004714071750640869,XArbitraryZVertical,0.3044884508993614,0.4966851286807354,-0.1772792764901015,-0.7931977345721145,-0.6799800395965576,0.6591430306434631,-0.3211813271045685,0,0,0,-1,-1,31535.58748875,unknown,2,2025-04-22T12:53:12.898+03:00,2025-04-21T17:08:51.449+03:00,7380,0.9939646,0,0,6149.357,5,20,2025-04-22T12:52:31.625+03:00,767008395.5673326,0,-22.57999,100.4731,1,0.75,2025-04-22T12:48:51.593+03:00,81,1.35,2025-04-22T09:54:17.825+03:00,0.02225348692287972,0
2025-04-22T12:53:17.386+03:00,1745315597.046434,40.9522316398238,29.1402719199613,76.44794,-1,-1,-1,-1,30,34.30805834696292,-9999,31540.070306375,-0.6740264892578125,0.6552276611328125,-0.317474365234375,31540.060229375,-0.02824125474032746,-1.129377280908423,-0.7197604003816007,-0.002644375897943974,0.01320649683475494,0.009307937696576118,0.006423294544219971,-0.001047253608703613,0.004132747650146484,XArbitraryZVertical,0.3045335113261637,0.4966198577468946,-0.1772778129092537,-0.793221662402903,-0.67988520860672,0.6592045426368713,-0.3212561011314392,0,0,0,-1,-1,31535.58748875,unknown,2,2025-04-22T12:53:12.898+03:00,2025-04-21T17:08:51.449+03:00,7380,0.9939646,0,0,6149.357,5,20,2025-04-22T12:52:31.625+03:00,767008395.5673326,0,-22.57999,100.4731,1,0.75,2025-04-22T12:48:51.593+03:00,81,1.35,2025-04-22T09:54:17.825+03:00,0.02225348692287972,0
2025-04-22T12:53:17.396+03:00,1745315597.046434,40.9522316398238,29.1402719199613,76.44794,-1,-1,-1,-1,30,34.30805834696292,-9999,31540.080382375,-0.67352294921875,0.6576385498046875,-0.32098388671875,31540.070306375,-0.02822539127508115,-1.129246312788153,-0.7198564586072228,-0.0008257033186964691,0.01265176013112068,0.01212556194514036,0.006873250007629395,-0.005422413349151611,0.005445927381515503,XArbitraryZVertical,0.3045790193434166,0.4965607355912897,-0.1772883996192586,-0.7932388690552824,-0.6797859072685242,0.6592767238616943,-0.321318119764328,0,0,0,-1,-1,31535.58748875,unknown,2,2025-04-22T12:53:12.898+03:00,2025-04-21T17:08:51.449+03:00,7380,0.9939646,0,0,6149.357,5,20,2025-04-22T12:52:31.625+03:00,767008395.5673326,0,-22.57999,100.4731,1,0.75,2025-04-22T12:48:51.593+03:00,81,1.35,2025-04-22T09:54:17.825+03:00,0.02225348692287972,0
2025-04-22T12:53:17.406+03:00,1745315597.046434,40.9522316398238,29.1402719199613,76.44794,-1,-1,-1,-1,30,34.30805834696292,-9999,31540.090459375,-0.6797637939453125,0.655914306640625,-0.3194427490234375,31540.080382375,-0.0281615629783376,-1.129068457744013,-0.7199519125462748,0.0009871104266494513,0.01692426949739456,0.009412466548383236,0.006438732147216797,-0.003556370735168457,0.003296852111816406,XArbitraryZVertical,0.3046165586901002,0.4964904069842851,-0.1773107667765341,-0.7932633920902595,-0.6796717643737793,0.6593485474586487,-0.321412056684494,0,0,0,-1,-1,31535.58748875,unknown,2,2025-04-22T12:53:12.898+03:00,2025-04-21T17:08:51.449+03:00,7380,0.9939646,0,0,6149.357,5,20,2025-04-22T12:52:31.625+03:00,767008395.5673326,0,-22.57999,100.4731,1,0.75,2025-04-22T12:48:51.593+03:00,81,1.35,2025-04-22T09:54:17.825+03:00,0.02225348692287972,0
2025-04-22T12:53:17.416+03:00,1745315597.046434,40.9522316398238,29.1402719199613,76.44794,-1,-1,-1,-1,30,34.30805834696292,-9999,31540.100536375,-0.6824493408203125,0.6573638916015625,-0.3155975341796875,31540.090459375,-0.02811583743339058,-1.128867484492762,-0.7199968092209448,0.001191907445900142,0.01756103150546551,0.008126160129904747,0.006072700023651123,-0.001835405826568604,0.0003385245800018311,XArbitraryZVertical,0.304640718900481,0.49641318363282,-0.1773096383835215,-0.7933026660210578,-0.6795803308486938,0.6593822836875916,-0.3215359747409821,0,0,0,-1,-1,31535.58748875,unknown,2,2025-04-22T12:53:12.898+03:00,2025-04-21T17:08:51.449+03:00,7380,0.9939646,0,0,6149.357,5,20,2025-04-22T12:52:31.625+03:00,767008395.5673326,0,-22.57999,100.4731,1,0.75,2025-04-22T12:48:51.593+03:00,81,1.35,2025-04-22T09:54:17.825+03:00,0.02225348692287972,0
2025-04-22T12:53:17.426+03:00,1745315597.046434,40.9522316398238,29.1402719199613,76.44794,-1,-1,-1,-1,30,34.30805834696292,-9999,31540.110612375,-0.6795196533203125,0.657318115234375,-0.315673828125,31540.100536375,-0.0280678408264824,-1.128674126884174,-0.7200520615161558,0.0003126648371107876,0.01569721847772598,0.006140174344182014,-0.000965118408203125,-0.003967344760894775,0.002895772457122803,XArbitraryZVertical,0.3046677084305737,0.4963382703197166,-0.177313133480916,-0.7933384633382535,-0.6794853210449219,0.659423828125,-0.321651816368103,0,0,0,-1,-1,31535.58748875,unknown,2,2025-04-22T12:53:12.898+03:00,2025-04-21T17:08:51.449+03:00,7380,0.9939646,0,0,6149.357,5,20,2025-04-22T12:52:31.625+03:00,767008395.5673326,0,-22.57999,100.4731,1,0.75,2025-04-22T12:48:51.593+03:00,81,1.35,2025-04-22T09:54:17.825+03:00,0.02225348692287972,0
2025-04-22T12:53:17.436+03:00,1745315597.046434,40.9522316398238,29.1402719199613,76.44794,-1,-1,-1,-1,30,34.30805834696292,-9999,31540.120689375,-0.6785888671875,0.65472412109375,-0.31689453125,31540.110612375,-0.0280784968516869,-1.128550444346798,-0.7201275753870832,-0.005322317592799664,0.01371396146714687,0.006623271852731705,-0.002163827419281006,-0.001796305179595947,0.006345927715301514,XArbitraryZVertical,0.3047110794100871,0.4962800619333957,-0.1773091400733922,-0.7933590688830279,-0.6794004440307617,0.6594805717468262,-0.3217145204544067,0,0,0,-1,-1,31535.58748875,unknown,2,2025-04-22T12:53:12.898+03:00,2025-04-21T17:08:51.449+03:00,7380,0.9939646,0,0,6149.357,5,20,2025-04-22T12:52:31.625+03:00,767008395.5673326,0,-22.57999,100.4731,1,0.75,2025-04-22T12:48:51.593+03:00,81,1.35,2025-04-22T09:54:17.825+03:00,0.02225348692287972,0
2025-04-22T12:53:17.446+03:00,1745315597.046434,40.9522316398238,29.1402719199613,76.44794,-1,-1,-1,-1,30,34.30805834696292,-9999,31540.130766375,-0.680511474609375,0.6571044921875,-0.31756591796875,31540.120689375,-0.02809550302515969,-1.12843158474336,-0.7201723318445202,-0.001930715399794281,0.01346342638134956,0.002739351009950042,0.0001363754272460938,-0.002715051174163818,0.005941003561019897,XArbitraryZVertical,0.3047434751415751,0.4962258606599888,-0.1772955864620143,-0.793383536852196,-0.6793355345726013,0.6595142483711243,-0.3217826187610626,0,0,0,-1,-1,31535.58748875,unknown,2,2025-04-22T12:53:12.898+03:00,2025-04-21T17:08:51.449+03:00,7380,0.9939646,0,0,6149.357,5,20,2025-04-22T12:52:31.625+03:00,767008395.5673326,0,-22.57999,100.4731,1,0.75,2025-04-22T12:48:51.593+03:00,81,1.35,2025-04-22T09:54:17.825+03:00,0.02225348692287972,0
2025-04-22T12:53:17.456+03:00,1745315597.046434,40.9522316398238,29.1402719199613,76.44794,-1,-1,-1,-1,30,34.30805834696292,-9999,31540.140842375,-0.678924560546875,0.6600189208984375,-0.3197021484375,31540.130766375,-0.02813335063463343,-1.128321441688611,-0.7202334210586286,-0.005642629228532314,0.01348819397389889,0.008074727840721607,0.000186622142791748,-0.004942893981933594,0.005601882934570312,XArbitraryZVertical,0.304786691984117,0.4961702933127864,-0.1772791730588924,-0.7934054134015286,-0.679263710975647,0.6595601439476013,-0.321840226650238,0,0,0,-1,-1,31535.58748875,unknown,2,2025-04-22T12:53:12.898+03:00,2025-04-21T17:08:51.449+03:00,7380,0.9939646,0,0,6149.357,5,20,2025-04-22T12:52:31.625+03:00,767008395.5673326,0,-22.57999,100.4731,1,0.75,2025-04-22T12:48:51.593+03:00,81,1.35,2025-04-22T09:54:17.825+03:00,0.02225348692287972,0
2025-04-22T12:53:17.466+03:00,1745315597.046434,40.9522316398238,29.1402719199613,76.44794,-1,-1,-1,-1,30,34.30805834696292,-9999,31540.150919375,-0.6769866943359375,0.658233642578125,-0.3215484619140625,31540.140842375,-0.02816972421353586,-1.128205693748707,-0.7203329345565133,-0.006429926492273808,0.01545646786689758,0.005853085778653622,-0.001420557498931885,-0.002774655818939209,0.003516137599945068,XArbitraryZVertical,0.3048451865416394,0.4961089003701216,-0.1772721994473389,-0.793422902865616,-0.6791671514511108,0.6596349477767944,-0.3218907415866852,0,0,0,-1,-1,31535.58748875,unknown,2,2025-04-22T12:53:12.898+03:00,2025-04-21T17:08:51.449+03:00,7380,0.9939646,0,0,6149.357,5,20,2025-04-22T12:52:31.625+03:00,767008395.5673326,0,-22.57999,100.4731,1,0.75,2025-04-22T12:48:51.593+03:00,81,1.35,2025-04-22T09:54:17.825+03:00,0.02225348692287972,0
2025-04-22T12:53:17.476+03:00,1745315597.046434,40.9522316398238,29.1402719199613,76.44794,-1,-1,-1,-1,30,34.30805834696292,-9999,31540.160995375,-0.6788330078125,0.6599578857421875,-0.3197784423828125,31540.150919375,-0.02817988819501562,-1.128055777802209,-0.7204176052491523,-0.00239150901325047,0.01571373082697392,0.008809461258351803,0.0002353787422180176,0.0001829266548156738,0.001640915870666504,XArbitraryZVertical,0.3048943677579845,0.496039438187882,-0.177266692760797,-0.7934486206971236,-0.679068386554718,0.6596985459327698,-0.3219686150550842,0,0,0,-1,-1,31535.58748875,unknown,2,2025-04-22T12:53:12.898+03:00,2025-04-21T17:08:51.449+03:00,7380,0.9939646,0,0,6149.357,5,20,2025-04-22T12:52:31.625+03:00,767008395.5673326,0,-22.57999,100.4731,1,0.75,2025-04-22T12:48:51.593+03:00,81,1.35,2025-04-22T09:54:17.825+03:00,0.02225348692287972,0
2025-04-22T12:53:17.486+03:00,1745315597.046434,40.9522316398238,29.1402719199613,76.44794,-1,-1,-1,-1,30,34.30805834696292,-9999,31540.171072375,-0.6810150146484375,0.6609954833984375,-0.3185272216796875,31540.160995375,-0.02812235403402097,-1.127845311978748,-0.7204807883578057,0.002795063890516758,0.01657905802130699,0.004615548066794872,0.001625359058380127,-0.002016067504882812,0.001521795988082886,XArbitraryZVertical,0.3049236528022357,0.4959584063778679,-0.1772733648791806,-0.793486532881427,-0.6789629459381104,0.6597460508346558,-0.3220936357975006,0,0,0,-1,-1,31535.58748875,unknown,2,2025-04-22T12:53:12.898+03:00,2025-04-21T17:08:51.449+03:00,7380,0.9939646,0,0,6149.357,5,20,2025-04-22T12:52:31.625+03:00,767008395.5673326,0,-22.57999,100.4731,1,0.75,2025-04-22T12:48:51.593+03:00,81,1.35,2025-04-22T09:54:17.825+03:00,0.02225348692287972,0
2025-04-22T12:53:17.497+03:00,1745315597.046434,40.9522316398238,29.1402719199613,76.44794,-1,-1,-1,-1,30,34.30805834696292,-9999,31540.181149375,-0.6787109375,0.65716552734375,-0.31829833984375,31540.171072375,-0.02806189025023686,-1.127602756699561,-0.720532748476343,0.0001766438945196569,0.02354082837700844,0.007247017230838537,-0.0002079010009765625,0.000950932502746582,0.002129554748535156,XArbitraryZVertical,0.304950624515208,0.4958661887784653,-0.1772734322128646,-0.7935338714241077,-0.6788539290428162,0.6597850918769836,-0.3222436904907227,0,0,0,-1,-1,31535.58748875,unknown,2,2025-04-22T12:53:12.898+03:00,2025-04-21T17:08:51.449+03:00,7380,0.9939646,0,0,6149.357,5,20,2025-04-22T12:52:31.625+03:00,767008395.5673326,0,-22.57999,100.4731,1,0.75,2025-04-22T12:48:51.593+03:00,81,1.35,2025-04-22T09:54:17.825+03:00,0.02225348692287972,0
2025-04-22T12:53:17.506+03:00,1745315597.046434,40.9522316398238,29.1402719199613,76.44794,-1,-1,-1,-1,30,34.30805834696292,-9999,31540.191225375,-0.678436279296875,0.6560516357421875,-0.3180694580078125,31540.181149375,-0.02800651505985665,-1.12735732484634,-0.7205810792758542,0.003462318796664476,0.0206676758825779,0.00780794583261013,-0.00207066535949707,0.0005483627319335938,0.003884613513946533,XArbitraryZVertical,0.3049777082925131,0.495772442851619,-0.1772701907493888,-0.7935827032060584,-0.6787459850311279,0.6598213911056519,-0.3223965764045715,0,0,0,-1,-1,31535.58748875,unknown,2,2025-04-22T12:53:12.898+03:00,2025-04-21T17:08:51.449+03:00,7380,0.9939646,0,0,6149.357,5,20,2025-04-22T12:52:31.625+03:00,767008395.5673326,0,-22.57999,100.4731,1,0.75,2025-04-22T12:48:51.593+03:00,81,1.35,2025-04-22T09:54:17.825+03:00,0.02225348692287972,0
2025-04-22T12:53:17.517+03:00,1745315597.046434,40.9522316398238,29.1402719199613,76.44794,-1,-1,-1,-1,30,34.30805834696292,-9999,31540.201302375,-0.676849365234375,0.6556396484375,-0.3191070556640625,31540.191225375,-0.02794413237168986,-1.127139333578142,-0.7206256855738762,0.004095352254807949,0.01801862940192223,0.006653199438005686,4.500150680541992e-05,-0.003437161445617676,0.004477739334106445,XArbitraryZVertical,0.3049991463433172,0.4956910041932786,-0.1772729330305419,-0.7936247466505741,-0.6786491274833679,0.6598549485206604,-0.3225319087505341,0,0,0,-1,-1,31535.58748875,unknown,2,2025-04-22T12:53:12.898+03:00,2025-04-21T17:08:51.449+03:00,7380,0.9939646,0,0,6149.357,5,20,2025-04-22T12:52:31.625+03:00,767008395.5673326,0,-22.57999,100.4731,1,0.75,2025-04-22T12:48:51.593+03:00,81,1.35,2025-04-22T09:54:17.825+03:00,0.02225348692287972,0
2025-04-22T12:53:17.527+03:00,1745315597.046434,40.9522316398238,29.1402719199613,76.44794,-1,-1,-1,-1,30,34.30805834696292,-9999,31540.211379375,-0.67645263671875,0.6598663330078125,-0.3202362060546875,31540.201302375,-0.02785374617547222,-1.126905157963895,-0.7206731115597658,0.004791635554283857,0.01824140176177025,0.006892018485814333,0.0005057454109191895,-0.003594875335693359,0.004195988178253174,XArbitraryZVertical,0.3050161983545056,0.4956071343762547,-0.1772850368852164,-0.7936678709172308,-0.6785452961921692,0.6598905920982361,-0.3226773738861084,0,0,0,-1,-1,31535.58748875,unknown,2,2025-04-22T12:53:12.898+03:00,2025-04-21T17:08:51.449+03:00,7380,0.9939646,0,0,6149.357,5,20,2025-04-22T12:52:31.625+03:00,767008395.5673326,0,-22.57999,100.4731,1,0.75,2025-04-22T12:48:51.593+03:00,81,1.35,2025-04-22T09:54:17.825+03:00,0.02225348692287972,0
