loggingTime(txt),locationTimestamp_since1970(s),locationLatitude(WGS84),locationLongitude(WGS84),locationAltitude(m),locationSpeed(m/s),locationSpeedAccuracy(m/s),locationCourse(°),locationCourseAccuracy(°),locationVerticalAccuracy(m),locationHorizontalAccuracy(m),locationFloor(Z),accelerometerTimestamp_sinceReboot(s),accelerometerAccelerationX(G),accelerometerAccelerationY(G),accelerometerAccelerationZ(G),motionTimestamp_sinceReboot(s),motionYaw(rad),motionRoll(rad),motionPitch(rad),motionRotationRateX(rad/s),motionRotationRateY(rad/s),motionRotationRateZ(rad/s),motionUserAccelerationX(G),motionUserAccelerationY(G),motionUserAccelerationZ(G),motionAttitudeReferenceFrame(txt),motionQuaternionX(R),motionQuaternionY(R),motionQuaternionZ(R),motionQuaternionW(R),motionGravityX(G),motionGravityY(G),motionGravityZ(G),motionMagneticFieldX(µT),motionMagneticFieldY(µT),motionMagneticFieldZ(µT),motionHeading(°),motionMagneticFieldCalibrationAccuracy(Z),activityTimestamp_sinceReboot(s),activity(txt),activityActivityConfidence(Z),activityActivityStartDate(txt),pedometerStartDate(txt),pedometerNumberofSteps(N),pedometerAverageActivePace(s/m),pedometerCurrentPace(s/m),pedometerCurrentCadence(steps/s),pedometerDistance(m),pedometerFloorAscended(N),pedometerFloorDescended(N),pedometerEndDate(txt),altimeterTimestamp_sinceReboot(s),altimeterReset(bool),altimeterRelativeAltitude(m),altimeterPressure(kPa),batteryState(N),batteryLevel(R),heartRateBPMTimestamp(txt),heartRateBPM(N),heartRateBPS(R),heartRateVariabilityTimestamp(txt),heartRateVariability(ms),label
2025-04-21T17:18:36.722+03:00,1745245116.100112,40.95228573499299,29.14029995516199,76.48029,-1,-1,-1,-1,30,22.90986188445598,-9999,21617.251203,-0.7717437744140625,0.66192626953125,-0.1064605712890625,21617.241127,-0.5847320231062462,-1.407007047032632,-0.6987950942032827,0.009669434279203415,0.01559133641421795,-0.001503050094470382,0.004028379917144775,-0.03880351781845093,0.03261594474315643,XArbitraryZVertical,-0.4251590107186521,-0.5067738938254444,0.005544762622316991,0.7499262147495861,-0.7553712725639343,0.6432956457138062,-0.124840073287487,0,0,0,-1,-1,21613.43868929167,unknown,2,2025-04-21T17:18:32.885+03:00,2025-04-21T17:08:51.449+03:00,68,1.085773,0,0,53.54406,0,0,2025-04-21T17:18:35.464+03:00,766937907.8311855,0,-0.4300003,100.2095,1,0.25,2025-04-21T17:17:49.980+03:00,98,1.633333333333333,2025-04-21T12:30:07.995+03:00,0.02023345852159405,0
2025-04-21T17:18:36.724+03:00,1745245116.100112,40.95228573499299,29.14029995516199,76.48029,-1,-1,-1,-1,30,22.90986188445598,-9999,21617.261279,-0.7514190673828125,0.632904052734375,-0.1152496337890625,21617.251203,-0.584784889602138,-1.406914482050746,-0.6987658204202991,-0.008880813606083393,0.02039647847414017,0.0006644966779276729,-0.016914963722229,0.01341915130615234,0.02473914623260498,XArbitraryZVertical,-0.4251635819526419,-0.5067340603413764,0.005495676928709686,0.7499508165005774,-0.7553781270980835,0.6432732343673706,-0.1249130442738533,0,0,0,-1,-1,21613.43868929167,unknown,2,2025-04-21T17:18:32.885+03:00,2025-04-21T17:08:51.449+03:00,68,1.085773,0,0,53.54406,0,0,2025-04-21T17:18:35.464+03:00,766937907.8311855,0,-0.4300003,100.2095,1,0.25,2025-04-21T17:17:49.980+03:00,98,1.633333333333333,2025-04-21T12:30:07.995+03:00,0.02023345852159405,0
2025-04-21T17:18:36.725+03:00,1745245116.100112,40.95228573499299,29.14029995516199,76.48029,-1,-1,-1,-1,30,22.90986188445598,-9999,21617.271355,-0.7403411865234375,0.627227783203125,-0.1201171875,21617.261279,-0.5849700948848124,-1.406876624111037,-0.6987001017182914,-0.01402051467448473,0.01534812338650227,0.004993431735783815,-0.005540728569030762,0.001506567001342773,0.01210975646972656,XArbitraryZVertical,-0.4251901704586897,-0.5066942419637893,0.00539659740564402,0.7499633350445244,-0.7554150223731995,0.6432229280471802,-0.1249485313892365,0,0,0,-1,-1,21613.43868929167,unknown,2,2025-04-21T17:18:32.885+03:00,2025-04-21T17:08:51.449+03:00,68,1.085773,0,0,53.54406,0,0,2025-04-21T17:18:35.464+03:00,766937907.8311855,0,-0.4300003,100.2095,1,0.25,2025-04-21T17:17:49.980+03:00,98,1.633333333333333,2025-04-21T12:30:07.995+03:00,0.02023345852159405,0
2025-04-21T17:18:36.732+03:00,1745245116.100112,40.95228573499299,29.14029995516199,76.48029,-1,-1,-1,-1,30,22.90986188445598,-9999,21617.281431,-0.74652099609375,0.6327972412109375,-0.1223907470703125,21617.271355,-0.5850911609672569,-1.406795428238633,-0.6988762172440389,-0.01427750941365957,0.007333073765039444,0.008596422150731087,0.01324301958084106,-0.01765596866607666,0.006613731384277344,XArbitraryZVertical,-0.4252758404413811,-0.5066011945838433,0.005391792262057451,0.7499776929561631,-0.7552931904792786,0.6433577537536621,-0.1249913796782494,0,0,0,-1,-1,21613.43868929167,unknown,2,2025-04-21T17:18:32.885+03:00,2025-04-21T17:08:51.449+03:00,68,1.085773,0,0,53.54406,0,0,2025-04-21T17:18:35.464+03:00,766937907.8311855,0,-0.4300003,100.2095,1,0.25,2025-04-21T17:17:49.980+03:00,98,1.633333333333333,2025-04-21T12:30:07.995+03:00,0.02023345852159405,0
2025-04-21T17:18:36.743+03:00,1745245116.100112,40.95228573499299,29.14029995516199,76.48029,-1,-1,-1,-1,30,22.90986188445598,-9999,21617.291507,-0.746795654296875,0.6361083984375,-0.124053955078125,21617.281431,-0.5853048859829744,-1.406789998610892,-0.6991096298961127,-0.03204119578003883,0.006585657596588135,0.008476779796183109,0.01074433326721191,-0.01189899444580078,0.003098964691162109,XArbitraryZVertical,-0.4254026079309363,-0.5065048320171169,0.005387201088782231,0.7499708989722921,-0.7551442980766296,0.6435364484786987,-0.1249709501862526,0,0,0,-1,-1,21613.43868929167,unknown,2,2025-04-21T17:18:32.885+03:00,2025-04-21T17:08:51.449+03:00,68,1.085773,0,0,53.54406,0,0,2025-04-21T17:18:35.464+03:00,766937907.8311855,0,-0.4300003,100.2095,1,0.25,2025-04-21T17:17:49.980+03:00,98,1.633333333333333,2025-04-21T12:30:07.995+03:00,0.02023345852159405,0
2025-04-21T17:18:36.757+03:00,1745245116.100112,40.95228573499299,29.14029995516199,76.48029,-1,-1,-1,-1,30,22.90986188445598,-9999,21617.301583,-0.7414703369140625,0.6427459716796875,-0.1242218017578125,21617.291507,-0.5857196980877152,-1.40696086472663,-0.6992678083538453,-0.04081790894269943,0.00428761588409543,0.009253357537090778,0.007064163684844971,-0.008907318115234375,0.001732654869556427,XArbitraryZVertical,-0.425556396472242,-0.5064475242636661,0.005319989299719375,0.7499228281077822,-0.7550652027130127,0.6436575055122375,-0.1248253136873245,0,0,0,-1,-1,21613.43868929167,unknown,2,2025-04-21T17:18:32.885+03:00,2025-04-21T17:08:51.449+03:00,68,1.085773,0,0,53.54406,0,0,2025-04-21T17:18:35.464+03:00,766937907.8311855,0,-0.4300003,100.2095,1,0.25,2025-04-21T17:17:49.980+03:00,98,1.633333333333333,2025-04-21T12:30:07.995+03:00,0.02023345852159405,0
2025-04-21T17:18:36.763+03:00,1745245116.100112,40.95228573499299,29.14029995516199,76.48029,-1,-1,-1,-1,30,22.90986188445598,-9999,21617.311659,-0.7457122802734375,0.6475372314453125,-0.127044677734375,21617.301583,-0.5862269587418879,-1.407245837254817,-0.6994287171102157,-0.04061071202158928,0.0001970003359019756,0.009587718173861504,0.01264333724975586,-0.004620611667633057,-5.578994750976562e-05,XArbitraryZVertical,-0.4257341064098063,-0.5064127045981019,0.005243311141275507,0.7498460571008557,-0.7549986243247986,0.6437806487083435,-0.1245932877063751,0,0,0,-1,-1,21613.43868929167,unknown,2,2025-04-21T17:18:32.885+03:00,2025-04-21T17:08:51.449+03:00,68,1.085773,0,0,53.54406,0,0,2025-04-21T17:18:35.464+03:00,766937907.8311855,0,-0.4300003,100.2095,1,0.25,2025-04-21T17:17:49.980+03:00,98,1.633333333333333,2025-04-21T12:30:07.995+03:00,0.02023345852159405,0
2025-04-21T17:18:36.772+03:00,1745245116.100112,40.95228573499299,29.14029995516199,76.48029,-1,-1,-1,-1,30,22.90986188445598,-9999,21617.321735,-0.7493743896484375,0.651092529296875,-0.132720947265625,21617.311659,-0.5867299831934164,-1.407570888445568,-0.6995932488430571,-0.03946848213672638,0.003194654360413551,0.007104053627699614,0.01056510210037231,0.001830041408538818,-0.001737415790557861,XArbitraryZVertical,-0.4259117582311118,-0.5063929753039803,0.005178011479769455,0.7497589628466867,-0.7549346089363098,0.6439065337181091,-0.1243306547403336,0,0,0,-1,-1,21613.43868929167,unknown,2,2025-04-21T17:18:32.885+03:00,2025-04-21T17:08:51.449+03:00,68,1.085773,0,0,53.54406,0,0,2025-04-21T17:18:35.464+03:00,766937907.8311855,0,-0.4300003,100.2095,1,0.25,2025-04-21T17:17:49.980+03:00,98,1.633333333333333,2025-04-21T12:30:07.995+03:00,0.02023345852159405,0
2025-04-21T17:18:36.787+03:00,1745245116.100112,40.95228573499299,29.14029995516199,76.48029,-1,-1,-1,-1,30,22.90986188445598,-9999,21617.331811,-0.7480316162109375,0.649200439453125,-0.13580322265625,21617.321735,-0.5871989844838353,-1.407874585969258,-0.6996575254079692,-0.03237269073724747,0.002569410717114806,0.002196013927459717,0.006655693054199219,0.005855023860931396,-0.006230607628822327,XArbitraryZVertical,-0.4260496821982983,-0.506393452037309,0.005087998942752201,0.7496809391498305,-0.7549315690994263,0.6439557075500488,-0.1240946799516678,0,0,0,-1,-1,21613.43868929167,unknown,2,2025-04-21T17:18:32.885+03:00,2025-04-21T17:08:51.449+03:00,68,1.085773,0,0,53.54406,0,0,2025-04-21T17:18:35.464+03:00,766937907.8311855,0,-0.4300003,100.2095,1,0.25,2025-04-21T17:17:49.980+03:00,98,1.633333333333333,2025-04-21T12:30:07.995+03:00,0.02023345852159405,0
2025-04-21T17:18:36.793+03:00,1745245116.100112,40.95228573499299,29.14029995516199,76.48029,-1,-1,-1,-1,30,22.90986188445598,-9999,21617.341887,-0.7449188232421875,0.652435302734375,-0.11883544921875,21617.331811,-0.5876287137881376,-1.408216322320299,-0.6997278468969668,-0.03038171119987965,-0.008541030809283257,0.001418371102772653,0.005936145782470703,0.005968987941741943,-0.01316410303115845,XArbitraryZVertical,-0.4261795041866652,-0.5064152124386961,0.005022906383899513,0.7495927778370526,-0.7549290657043457,0.644009530544281,-0.1238293275237083,0,0,0,-1,-1,21613.43868929167,unknown,2,2025-04-21T17:18:32.885+03:00,2025-04-21T17:08:51.449+03:00,68,1.085773,0,0,53.54406,0,0,2025-04-21T17:18:35.464+03:00,766937907.8311855,0,-0.4300003,100.2095,1,0.25,2025-04-21T17:17:49.980+03:00,98,1.633333333333333,2025-04-21T12:30:07.995+03:00,0.02023345852159405,0
2025-04-21T17:18:36.803+03:00,1745245116.100112,40.95228573499299,29.14029995516199,76.48029,-1,-1,-1,-1,30,22.90986188445598,-9999,21617.351963,-0.7566986083984375,0.6461944580078125,-0.1139373779296875,21617.341887,-0.5880224535822675,-1.408547760961735,-0.6997574829066223,-0.02955333516001701,0.0007002712227404118,-0.003976194653660059,0.009727299213409424,0.007548511028289795,-0.002721011638641357,XArbitraryZVertical,-0.4262875637702954,-0.5064493013227925,0.004955704808660403,0.749508792683415,-0.7549512982368469,0.6440321803092957,-0.1235760375857353,0,0,0,-1,-1,21613.43868929167,unknown,2,2025-04-21T17:18:32.885+03:00,2025-04-21T17:08:51.449+03:00,68,1.085773,0,0,53.54406,0,0,2025-04-21T17:18:35.464+03:00,766937907.8311855,0,-0.4300003,100.2095,1,0.25,2025-04-21T17:17:49.980+03:00,98,1.633333333333333,2025-04-21T12:30:07.995+03:00,0.02023345852159405,0
2025-04-21T17:18:36.813+03:00,1745245116.100112,40.95228573499299,29.14029995516199,76.48029,-1,-1,-1,-1,30,22.90986188445598,-9999,21617.36204,-0.7554168701171875,0.6436920166015625,-0.1150360107421875,21617.351963,-0.5885011508402266,-1.408799057735898,-0.6997783483753363,-0.03977934271097183,0.01127994433045387,-0.0004504356766119599,0.004541754722595215,0.00591510534286499,0.01025545597076416,XArbitraryZVertical,-0.4264146621060161,-0.5064370347860065,0.004836777582039021,0.7494454964925515,-0.7549689412117004,0.6440481543540955,-0.1233841329813004,0,0,0,-1,-1,21613.43868929167,unknown,2,2025-04-21T17:18:32.885+03:00,2025-04-21T17:08:51.449+03:00,68,1.085773,0,0,53.54406,0,0,2025-04-21T17:18:35.464+03:00,766937907.8311855,0,-0.4300003,100.2095,1,0.25,2025-04-21T17:17:49.980+03:00,98,1.633333333333333,2025-04-21T12:30:07.995+03:00,0.02023345852159405,0
2025-04-21T17:18:36.823+03:00,1745245116.100112,40.95228573499299,29.14029995516199,76.48029,-1,-1,-1,-1,30,22.90986188445598,-9999,21617.372116,-0.74078369140625,0.646942138671875,-0.11004638671875,21617.36204,-0.5890163959863766,-1.409040869259674,-0.6998433884430847,-0.03645385429263115,0.00801464356482029,0.001832159701734781,-0.004228353500366211,-0.001336872577667236,0.007594235241413116,XArbitraryZVertical,-0.4265647432876657,-0.5064041015057529,0.004716689157707441,0.7493830711542055,-0.754957377910614,0.6440979242324829,-0.1231948137283325,0,0,0,-1,-1,21613.43868929167,unknown,2,2025-04-21T17:18:32.885+03:00,2025-04-21T17:08:51.449+03:00,68,1.085773,0,0,53.54406,0,0,2025-04-21T17:18:35.464+03:00,766937907.8311855,0,-0.4300003,100.2095,1,0.25,2025-04-21T17:17:49.980+03:00,98,1.633333333333333,2025-04-21T12:30:07.995+03:00,0.02023345852159405,0
2025-04-21T17:18:36.833+03:00,1745245116.100112,40.95228573499299,29.14029995516199,76.48029,-1,-1,-1,-1,30,22.90986188445598,-9999,21617.382192,-0.7490081787109375,0.644012451171875,-0.109130859375,21617.372116,-0.5895022088052836,-1.409231565529776,-0.6999327432746089,-0.04165207594633102,0.01868033781647682,0.0087294802069664,0.009929060935974121,0.002012789249420166,0.01088947802782059,XArbitraryZVertical,-0.4267150046511003,-0.5063531450537505,0.004604728648211012,0.749332693206237,-0.7549241185188293,0.6441662311553955,-0.1230415925383568,0,0,0,-1,-1,21613.43868929167,unknown,2,2025-04-21T17:18:32.885+03:00,2025-04-21T17:08:51.449+03:00,68,1.085773,0,0,53.54406,0,0,2025-04-21T17:18:35.464+03:00,766937907.8311855,0,-0.4300003,100.2095,1,0.25,2025-04-21T17:17:49.980+03:00,98,1.633333333333333,2025-04-21T12:30:07.995+03:00,0.02023345852159405,0
2025-04-21T17:18:36.843+03:00,1745245116.100112,40.95228573499299,29.14029995516199,76.48029,-1,-1,-1,-1,30,22.90986188445598,-9999,21617.392268,-0.754180908203125,0.6453704833984375,-0.1203155517578125,21617.382192,-0.5900281029975545,-1.409310151454688,-0.7001281331670004,-0.04684031009674072,0.02987986244261265,0.01360805798321962,0.01114195585250854,0.0007190108299255371,0.01483821868896484,XArbitraryZVertical,-0.426908539938585,-0.5062292782926575,0.004488758721348526,0.749306867364235,-0.754809558391571,0.6443156599998474,-0.1229620352387428,0,0,0,-1,-1,21613.43868929167,unknown,2,2025-04-21T17:18:32.885+03:00,2025-04-21T17:08:51.449+03:00,68,1.085773,0,0,53.54406,0,0,2025-04-21T17:18:35.464+03:00,766937907.8311855,0,-0.4300003,100.2095,1,0.25,2025-04-21T17:17:49.980+03:00,98,1.633333333333333,2025-04-21T12:30:07.995+03:00,0.02023345852159405,0
2025-04-21T17:18:36.853+03:00,1745245116.100112,40.95228573499299,29.14029995516199,76.48029,-1,-1,-1,-1,30,22.90986188445598,-9999,21617.402344,-0.7469635009765625,0.6472625732421875,-0.12646484375,21617.392268,-0.5906339239594337,-1.409387093516267,-0.7003794030681719,-0.04950640350580215,0.02606088854372501,0.01375479809939861,9.685754776000977e-05,0.0001301169395446777,0.006941616535186768,XArbitraryZVertical,-0.4271395801136438,-0.50607589413745,0.00436090392650863,0.7492795767823001,-0.7546592354774475,0.6445078253746033,-0.1228779405355453,0,0,0,-1,-1,21613.43868929167,unknown,2,2025-04-21T17:18:32.885+03:00,2025-04-21T17:08:51.449+03:00,68,1.085773,0,0,53.54406,0,0,2025-04-21T17:18:35.464+03:00,766937907.8311855,0,-0.4300003,100.2095,1,0.25,2025-04-21T17:17:49.980+03:00,98,1.633333333333333,2025-04-21T12:30:07.995+03:00,0.02023345852159405,0
2025-04-21T17:18:36.863+03:00,1745245116.100112,40.95228573499299,29.14029995516199,76.48029,-1,-1,-1,-1,30,22.90986188445598,-9999,21617.41242,-0.7464752197265625,0.655242919921875,-0.1279144287109375,21617.402344,-0.5912256684042052,-1.409553156881533,-0.7006020890129024,-0.05018171295523643,0.0107102282345295,0.008089755661785603,0.004431188106536865,0.001699388027191162,-0.00271296501159668,XArbitraryZVertical,-0.4273579380291459,-0.5059648241400433,0.004247971159236634,0.7492307601814557,-0.7545379996299744,0.6446780562400818,-0.1227295771241188,0,0,0,-1,-1,21613.43868929167,unknown,2,2025-04-21T17:18:32.885+03:00,2025-04-21T17:08:51.449+03:00,68,1.085773,0,0,53.54406,0,0,2025-04-21T17:18:35.464+03:00,766937907.8311855,0,-0.4300003,100.2095,1,0.25,2025-04-21T17:17:49.980+03:00,98,1.633333333333333,2025-04-21T12:30:07.995+03:00,0.02023345852159405,0
2025-04-21T17:18:36.873+03:00,1745245116.100112,40.95228573499299,29.14029995516199,76.48029,-1,-1,-1,-1,30,22.90986188445598,-9999,21617.422496,-0.7484893798828125,0.6577301025390625,-0.1307373046875,21617.41242,-0.5917042180022225,-1.409744966344102,-0.7007566822334317,-0.03561289235949516,-0.0004556071944534779,0.00347609561868012,0.008323609828948975,0.006845474243164062,-0.004216372966766357,XArbitraryZVertical,-0.4275264878292346,-0.5059018388881615,0.004160589724157872,0.7491776106267802,-0.7544631361961365,0.6447962522506714,-0.1225688606500626,0,0,0,-1,-1,21613.43868929167,unknown,2,2025-04-21T17:18:32.885+03:00,2025-04-21T17:08:51.449+03:00,68,1.085773,0,0,53.54406,0,0,2025-04-21T17:18:35.464+03:00,766937907.8311855,0,-0.4300003,100.2095,1,0.25,2025-04-21T17:17:49.980+03:00,98,1.633333333333333,2025-04-21T12:30:07.995+03:00,0.02023345852159405,0
2025-04-21T17:18:36.884+03:00,1745245116.100112,40.95228573499299,29.14029995516199,76.48029,-1,-1,-1,-1,30,22.90986188445598,-9999,21617.432572,-0.7466583251953125,0.6583099365234375,-0.1272125244140625,21617.422496,-0.5920794849278582,-1.410026125018428,-0.7008475884178549,-0.02327000722289085,-0.01352540217339993,-0.00532075809314847,0.005843520164489746,0.01274222135543823,-0.007184520363807678,XArbitraryZVertical,-0.4276489691021378,-0.5059077757841219,0.004110043784618839,0.7491040166200188,-0.7544397711753845,0.6448657512664795,-0.1223473623394966,0,0,0,-1,-1,21613.43868929167,unknown,2,2025-04-21T17:18:32.885+03:00,2025-04-21T17:08:51.449+03:00,68,1.085773,0,0,53.54406,0,0,2025-04-21T17:18:35.464+03:00,766937907.8311855,0,-0.4300003,100.2095,1,0.25,2025-04-21T17:17:49.980+03:00,98,1.633333333333333,2025-04-21T12:30:07.995+03:00,0.02023345852159405,0
2025-04-21T17:18:36.894+03:00,1745245116.100112,40.95228573499299,29.14029995516199,76.48029,-1,-1,-1,-1,30,22.90986188445598,-9999,21617.442648,-0.7453155517578125,0.658203125,-0.1223907470703125,21617.432572,-0.5923318208933126,-1.410379954264037,-0.7008347724605671,-0.01243759877979755,-0.01803972758352757,-0.007686976809054613,0.006550967693328857,0.0127214789390564,-0.0070076584815979,XArbitraryZVertical,-0.4277081416059223,-0.5059890231923395,0.004087016885744638,0.7490153894767141,-0.7544910311698914,0.6448559165000916,-0.1220817044377327,0,0,0,-1,-1,21613.43868929167,unknown,2,2025-04-21T17:18:32.885+03:00,2025-04-21T17:08:51.449+03:00,68,1.085773,0,0,53.54406,0,0,2025-04-21T17:18:35.464+03:00,766937907.8311855,0,-0.4300003,100.2095,1,0.25,2025-04-21T17:17:49.980+03:00,98,1.633333333333333,2025-04-21T12:30:07.995+03:00,0.02023345852159405,0
2025-04-21T17:18:36.904+03:00,1745245116.100112,40.95228573499299,29.14029995516199,76.48029,-1,-1,-1,-1,30,22.90986188445598,-9999,21617.452724,-0.748565673828125,0.65472412109375,-0.1195526123046875,21617.442648,-0.5924908188609971,-1.410655602853047,-0.7007400250839055,-0.002976585645228624,-0.01049379445612431,-0.01162306219339371,0.009605169296264648,0.01329737901687622,-0.002139978110790253,XArbitraryZVertical,-0.4277184823296426,-0.5060782199108567,0.004055222354565633,0.7489493910579288,-0.7545849680900574,0.6447834968566895,-0.1218834668397903,0,0,0,-1,-1,21613.43868929167,unknown,2,2025-04-21T17:18:32.885+03:00,2025-04-21T17:08:51.449+03:00,68,1.085773,0,0,53.54406,0,0,2025-04-21T17:18:35.464+03:00,766937907.8311855,0,-0.4300003,100.2095,1,0.25,2025-04-21T17:17:49.980+03:00,98,1.633333333333333,2025-04-21T12:30:07.995+03:00,0.02023345852159405,0
2025-04-21T17:18:36.914+03:00,1745245116.100112,40.95228573499299,29.14029995516199,76.48029,-1,-1,-1,-1,30,22.90986188445598,-9999,21617.4628,-0.7490386962890625,0.654266357421875,-0.11566162109375,21617.452724,-0.5925703306708883,-1.410790667327763,-0.7006663629905907,0.0008754103328101337,-0.001875537913292646,-0.01359832938760519,0.007639110088348389,0.01132428646087646,0.001244664192199707,XArbitraryZVertical,-0.4277155209135591,-0.50612732561445,0.004030059639823169,0.7489180644118673,-0.7546483278274536,0.6447272300720215,-0.1217891275882721,0,0,0,-1,-1,21613.43868929167,unknown,2,2025-04-21T17:18:32.885+03:00,2025-04-21T17:08:51.449+03:00,68,1.085773,0,0,53.54406,0,0,2025-04-21T17:18:35.464+03:00,766937907.8311855,0,-0.4300003,100.2095,1,0.25,2025-04-21T17:17:49.980+03:00,98,1.633333333333333,2025-04-21T12:30:07.995+03:00,0.02023345852159405,0
2025-04-21T17:18:36.924+03:00,1745245116.100112,40.95228573499299,29.14029995516199,76.48029,-1,-1,-1,-1,30,22.90986188445598,-9999,21617.472876,-0.749298095703125,0.649993896484375,-0.1178741455078125,21617.4628,-0.5926418692592552,-1.410877065019083,-0.7005958261994742,-0.0005791416624560952,0.004247135482728481,-0.01050250418484211,0.005741417407989502,0.009425163269042969,0.004604741930961609,XArbitraryZVertical,-0.427711591498388,-0.5061592619224378,0.00399847931559333,0.7488989823144803,-0.7547039389610291,0.6446732878684998,-0.1217311918735504,0,0,0,-1,-1,21613.43868929167,unknown,2,2025-04-21T17:18:32.885+03:00,2025-04-21T17:08:51.449+03:00,68,1.085773,0,0,53.54406,0,0,2025-04-21T17:18:35.464+03:00,766937907.8311855,0,-0.4300003,100.2095,1,0.25,2025-04-21T17:17:49.980+03:00,98,1.633333333333333,2025-04-21T12:30:07.995+03:00,0.02023345852159405,0
2025-04-21T17:18:36.934+03:00,1745245116.100112,40.95228573499299,29.14029995516199,76.48029,-1,-1,-1,-1,30,22.90986188445598,-9999,21617.482952,-0.7516632080078125,0.6438140869140625,-0.120758056640625,21617.472876,-0.5927137360873733,-1.410884680854471,-0.7004888678090452,-0.002856410574167967,0.009663205593824387,-0.01149639580398798,0.005612015724182129,0.007858932018280029,0.004655718803405762,XArbitraryZVertical,-0.4276966981706406,-0.5061692766939622,0.00393801057669912,0.7489009381828139,-0.7547727227210999,0.6445915102958679,-0.1217363923788071,0,0,0,-1,-1,21613.43868929167,unknown,2,2025-04-21T17:18:32.885+03:00,2025-04-21T17:08:51.449+03:00,68,1.085773,0,0,53.54406,0,0,2025-04-21T17:18:35.464+03:00,766937907.8311855,0,-0.4300003,100.2095,1,0.25,2025-04-21T17:17:49.980+03:00,98,1.633333333333333,2025-04-21T12:30:07.995+03:00,0.02023345852159405,0
2025-04-21T17:18:36.944+03:00,1745245116.100112,40.95228573499299,29.14029995516199,76.48029,-1,-1,-1,-1,30,22.90986188445598,-9999,21617.493028,-0.7525177001953125,0.646331787109375,-0.1230621337890625,21617.482952,-0.5927453850519561,-1.41079696635884,-0.700384131522963,-0.003125722985714674,0.009409872815012932,-0.01192266773432493,0.004462599754333496,-0.0001481771469116211,0.001864016056060791,XArbitraryZVertical,-0.4276724454813211,-0.5061517505294454,0.003872882822694274,0.7489270277089257,-0.7548288106918335,0.6445114612579346,-0.1218133717775345,0,0,0,-1,-1,21613.43868929167,unknown,2,2025-04-21T17:18:32.885+03:00,2025-04-21T17:08:51.449+03:00,68,1.085773,0,0,53.54406,0,0,2025-04-21T17:18:35.464+03:00,766937907.8311855,0,-0.4300003,100.2095,1,0.25,2025-04-21T17:17:49.980+03:00,98,1.633333333333333,2025-04-21T12:30:07.995+03:00,0.02023345852159405,0
2025-04-21T17:18:36.954+03:00,1745245116.100112,40.95228573499299,29.14029995516199,76.48029,-1,-1,-1,-1,30,22.90986188445598,-9999,21617.503104,-0.7496795654296875,0.6480255126953125,-0.1242218017578125,21617.493028,-0.5927180810007558,-1.410684264035823,-0.7003353082753955,0.004860830958932638,0.006541648879647255,-0.01053489465266466,0.001717984676361084,0.0005910396575927734,-0.0005483552813529968,XArbitraryZVertical,-0.4276506732899185,-0.5061256623552182,0.003842966646864179,0.748957152253855,-0.7548459768295288,0.6444740891456604,-0.1219034343957901,0,0,0,-1,-1,21613.43868929167,unknown,2,2025-04-21T17:18:32.885+03:00,2025-04-21T17:08:51.449+03:00,68,1.085773,0,0,53.54406,0,0,2025-04-21T17:18:35.464+03:00,766937907.8311855,0,-0.4300003,100.2095,1,0.25,2025-04-21T17:17:49.980+03:00,98,1.633333333333333,2025-04-21T12:30:07.995+03:00,0.02023345852159405,0
2025-04-21T17:18:36.964+03:00,1745245116.100112,40.95228573499299,29.14029995516199,76.48029,-1,-1,-1,-1,30,22.90986188445598,-9999,21617.51318,-0.7490386962890625,0.6470184326171875,-0.1251373291015625,21617.503104,-0.5926576564795385,-1.410555331295242,-0.7003099028902278,0.002721913158893585,0.003680747700855136,-0.008262086659669876,0.003824114799499512,0.003769040107727051,-0.001898042857646942,XArbitraryZVertical,-0.4276277755617043,-0.506095649127266,0.003829671531176638,0.7489905468167765,-0.7548463940620422,0.6444546580314636,-0.122003361582756,0,0,0,-1,-1,21613.43868929167,unknown,2,2025-04-21T17:18:32.885+03:00,2025-04-21T17:08:51.449+03:00,68,1.085773,0,0,53.54406,0,0,2025-04-21T17:18:35.464+03:00,766937907.8311855,0,-0.4300003,100.2095,1,0.25,2025-04-21T17:17:49.980+03:00,98,1.633333333333333,2025-04-21T12:30:07.995+03:00,0.02023345852159405,0
2025-04-21T17:18:36.975+03:00,1745245116.100112,40.95228573499299,29.14029995516199,76.48029,-1,-1,-1,-1,30,22.90986188445598,-9999,21617.523256,-0.7483673095703125,0.646575927734375,-0.12225341796875,21617.51318,-0.5925662657660612,-1.410429361874667,-0.7002882160472245,0.005943006370216608,0.003111896570771933,-0.008846649900078773,0.005501031875610352,0.003022730350494385,-0.002426266670227051,XArbitraryZVertical,-0.4275981540183454,-0.5060725943038349,0.00382979456005974,0.7490231027806438,-0.7548449039459229,0.6444380879402161,-0.1221006959676743,0,0,0,-1,-1,21613.43868929167,unknown,2,2025-04-21T17:18:32.885+03:00,2025-04-21T17:08:51.449+03:00,68,1.085773,0,0,53.54406,0,0,2025-04-21T17:18:35.464+03:00,766937907.8311855,0,-0.4300003,100.2095,1,0.25,2025-04-21T17:17:49.980+03:00,98,1.633333333333333,2025-04-21T12:30:07.995+03:00,0.02023345852159405,0
2025-04-21T17:18:36.985+03:00,1745245116.100112,40.95228573499299,29.14029995516199,76.48029,-1,-1,-1,-1,30,22.90986188445598,-9999,21617.533332,-0.748260498046875,0.6504364013671875,-0.1213226318359375,21617.523256,-0.5924874731567047,-1.410330779325418,-0.7002610124617239,0.009479151107370853,0.001566996797919273,-0.008123069070279598,0.006009817123413086,0.002066910266876221,-0.001143619418144226,XArbitraryZVertical,-0.4275700123114443,-0.5060582384590835,0.003829304866651555,0.7490487845717196,-0.7548500299453735,0.6444172859191895,-0.122177891433239,0,0,0,-1,-1,21613.43868929167,unknown,2,2025-04-21T17:18:32.885+03:00,2025-04-21T17:08:51.449+03:00,68,1.085773,0,0,53.54406,0,0,2025-04-21T17:18:35.464+03:00,766937907.8311855,0,-0.4300003,100.2095,1,0.25,2025-04-21T17:17:49.980+03:00,98,1.633333333333333,2025-04-21T12:30:07.995+03:00,0.02023345852159405,0
2025-04-21T17:18:36.995+03:00,1745245116.100112,40.95228573499299,29.14029995516199,76.48029,-1,-1,-1,-1,30,22.90986188445598,-9999,21617.543408,-0.750823974609375,0.647552490234375,-0.120819091796875,21617.533332,-0.5924111136500821,-1.410276268567512,-0.7002288341336103,0.00492914067581296,-0.0009382390417158604,-0.01007276959717274,0.007152795791625977,0.004960238933563232,0.001037061214447021,XArbitraryZVertical,-0.4275408107067511,-0.5060609370209505,0.003835628779306144,0.7490636595850895,-0.7548639178276062,0.6443926692008972,-0.122222363948822,0,0,0,-1,-1,21613.43868929167,unknown,2,2025-04-21T17:18:32.885+03:00,2025-04-21T17:08:51.449+03:00,68,1.085773,0,0,53.54406,0,0,2025-04-21T17:18:35.464+03:00,766937907.8311855,0,-0.4300003,100.2095,1,0.25,2025-04-21T17:17:49.980+03:00,98,1.633333333333333,2025-04-21T12:30:07.995+03:00,0.02023345852159405,0
2025-04-21T17:18:37.005+03:00,1745245116.100112,40.95228573499299,29.14029995516199,76.48029,-1,-1,-1,-1,30,22.90986188445598,-9999,21617.553484,-0.7510833740234375,0.644866943359375,-0.1202239990234375,21617.543408,-0.5923846203013331,-1.410281203045347,-0.7001777511346241,0.0005014359485358,-0.001735256053507328,-0.01119605824351311,0.005949914455413818,0.004617810249328613,0.0009470582008361816,XArbitraryZVertical,-0.4275182774366866,-0.5060792133593012,0.003829782753388981,0.7490642102838537,-0.7548970580101013,0.6443536281585693,-0.1222239062190056,0,0,0,-1,-1,21613.43868929167,unknown,2,2025-04-21T17:18:32.885+03:00,2025-04-21T17:08:51.449+03:00,68,1.085773,0,0,53.54406,0,0,2025-04-21T17:18:35.464+03:00,766937907.8311855,0,-0.4300003,100.2095,1,0.25,2025-04-21T17:17:49.980+03:00,98,1.633333333333333,2025-04-21T12:30:07.995+03:00,0.02023345852159405,0
2025-04-21T17:18:37.015+03:00,1745245116.100112,40.95228573499299,29.14029995516199,76.48029,-1,-1,-1,-1,30,22.90986188445598,-9999,21617.563561,-0.7489776611328125,0.649261474609375,-0.1197357177734375,21617.553484,-0.5923859818728677,-1.410342543826079,-0.7001004502436804,0.003272987669333816,-0.004798423498868942,-0.01242164336144924,0.003763496875762939,0.0002976059913635254,0.001976795494556427,XArbitraryZVertical,-0.4274945901247319,-0.5061181740000292,0.003816956802636264,0.7490514090134529,-0.7549536228179932,0.6442945003509521,-0.1221855357289314,0,0,0,-1,-1,21613.43868929167,unknown,2,2025-04-21T17:18:32.885+03:00,2025-04-21T17:08:51.449+03:00,68,1.085773,0,0,53.54406,0,0,2025-04-21T17:18:35.464+03:00,766937907.8311855,0,-0.4300003,100.2095,1,0.25,2025-04-21T17:17:49.980+03:00,98,1.633333333333333,2025-04-21T12:30:07.995+03:00,0.02023345852159405,0
2025-04-21T17:18:37.025+03:00,1745245116.100112,40.95228573499299,29.14029995516199,76.48029,-1,-1,-1,-1,30,22.90986188445598,-9999,21617.573637,-0.753265380859375,0.6463775634765625,-0.122802734375,21617.563561,-0.5923703623794908,-1.410377272275275,-0.6999657944022021,0.001358174835331738,-0.003343538846820593,-0.01488826330751181,0.005943894386291504,0.0032539963722229,0.002254374325275421,XArbitraryZVertical,-0.4274488570453955,-0.5061628975028747,0.003785867098887433,0.7490474983161671,-0.7550435662269592,0.6441915035247803,-0.1221731901168823,0,0,0,-1,-1,21613.43868929167,unknown,2,2025-04-21T17:18:32.885+03:00,2025-04-21T17:08:51.449+03:00,68,1.085773,0,0,53.54406,0,0,2025-04-21T17:18:35.464+03:00,766937907.8311855,0,-0.4300003,100.2095,1,0.25,2025-04-21T17:17:49.980+03:00,98,1.633333333333333,2025-04-21T12:30:07.995+03:00,0.02023345852159405,0
2025-04-21T17:18:37.035+03:00,1745245116.100112,40.95228573499299,29.14029995516199,76.48029,-1,-1,-1,-1,30,22.90986188445598,-9999,21617.583713,-0.7513275146484375,0.644683837890625,-0.1224517822265625,21617.573637,-0.5924262692218806,-1.410410024594415,-0.6998308771184466,-0.001812052098102868,0.003264295868575573,-0.01258729211986065,0.003348112106323242,0.004348993301391602,0.0005345419049263,XArbitraryZVertical,-0.4274211724278614,-0.5061916367785705,0.003727507896471618,0.7490441517285347,-0.755133330821991,0.6440883278846741,-0.1221623346209526,0,0,0,-1,-1,21613.43868929167,unknown,2,2025-04-21T17:18:32.885+03:00,2025-04-21T17:08:51.449+03:00,68,1.085773,0,0,53.54406,0,0,2025-04-21T17:18:35.464+03:00,766937907.8311855,0,-0.4300003,100.2095,1,0.25,2025-04-21T17:17:49.980+03:00,98,1.633333333333333,2025-04-21T12:30:07.995+03:00,0.02023345852159405,0
2025-04-21T17:18:37.045+03:00,1745245116.100112,40.95228573499299,29.14029995516199,76.48029,-1,-1,-1,-1,30,22.90986188445598,-9999,21617.593789,-0.7496795654296875,0.6477813720703125,-0.122589111328125,21617.583713,-0.5925077653860241,-1.410413435006548,-0.6997549444954126,-0.008707641623914242,0.005264995619654655,-0.009581982158124447,0.002206683158874512,0.0001804232597351074,-0.000757269561290741,XArbitraryZVertical,-0.4274182770730898,-0.5061914953767603,0.003672707467618208,0.7490461766429821,-0.7551820278167725,0.6440302133560181,-0.1221675723791122,0,0,0,-1,-1,21613.43868929167,unknown,2,2025-04-21T17:18:32.885+03:00,2025-04-21T17:08:51.449+03:00,68,1.085773,0,0,53.54406,0,0,2025-04-21T17:18:35.464+03:00,766937907.8311855,0,-0.4300003,100.2095,1,0.25,2025-04-21T17:17:49.980+03:00,98,1.633333333333333,2025-04-21T12:30:07.995+03:00,0.02023345852159405,0
2025-04-21T17:18:37.058+03:00,1745245116.100112,40.95228573499299,29.14029995516199,76.48029,-1,-1,-1,-1,30,22.90986188445598,-9999,21617.603865,-0.75103759765625,0.643768310546875,-0.1215972900390625,21617.593789,-0.5926728713692043,-1.410447297725045,-0.6997224602726853,-0.01725878566503525,0.008857866749167442,-0.0065049659460783,0.005389988422393799,0.00347059965133667,-0.0008557960391044617,XArbitraryZVertical,-0.4274499570978915,-0.506175729625381,0.003607427817899235,0.7490390312222922,-0.7552067637443542,0.6440054178237915,-0.1221453323960304,0,0,0,-1,-1,21613.43868929167,unknown,2,2025-04-21T17:18:32.885+03:00,2025-04-21T17:08:51.449+03:00,68,1.085773,0,0,53.54406,0,0,2025-04-21T17:18:35.464+03:00,766937907.8311855,0,-0.4300003,100.2095,1,0.25,2025-04-21T17:17:49.980+03:00,98,1.633333333333333,2025-04-21T12:30:07.995+03:00,0.02023345852159405,0
2025-04-21T17:18:37.065+03:00,1745245116.100112,40.95228573499299,29.14029995516199,76.48029,-1,-1,-1,-1,30,22.90986188445598,-9999,21617.613941,-0.7480010986328125,0.64447021484375,-0.127105712890625,21617.603865,-0.5929379615327763,-1.410507746758338,-0.6996948549545956,-0.02340176701545715,0.01042207330465317,-0.008927842602133751,0.004133164882659912,0.001981198787689209,0.0008256435394287109,XArbitraryZVertical,-0.4275083746554969,-0.5061475329525048,0.003511956334363196,0.7490252487940137,-0.7552317976951599,0.6439842581748962,-0.1221025288105011,0,0,0,-1,-1,21613.43868929167,unknown,2,2025-04-21T17:18:32.885+03:00,2025-04-21T17:08:51.449+03:00,68,1.085773,0,0,53.54406,0,0,2025-04-21T17:18:35.464+03:00,766937907.8311855,0,-0.4300003,100.2095,1,0.25,2025-04-21T17:17:49.980+03:00,98,1.633333333333333,2025-04-21T12:30:07.995+03:00,0.02023345852159405,0
2025-04-21T17:18:37.088+03:00,1745245116.100112,40.95228573499299,29.14029995516199,76.48029,-1,-1,-1,-1,30,22.90986188445598,-9999,21617.624017,-0.7430877685546875,0.647979736328125,-0.1243896484375,21617.613941,-0.5932799834307136,-1.410645793096185,-0.6997042846727435,-0.02941545099020004,0.005106670781970024,-0.005844169296324253,0.004784941673278809,-0.001306712627410889,-0.002728037536144257,XArbitraryZVertical,-0.4275976087353894,-0.5061241285235192,0.003416483420347445,0.7489905708576464,-0.755242645740509,0.6439914703369141,-0.1219973042607307,0,0,0,-1,-1,21613.43868929167,unknown,2,2025-04-21T17:18:32.885+03:00,2025-04-21T17:08:51.449+03:00,68,1.085773,0,0,53.54406,0,0,2025-04-21T17:18:35.464+03:00,766937907.8311855,0,-0.4300003,100.2095,1,0.25,2025-04-21T17:17:49.980+03:00,98,1.633333333333333,2025-04-21T12:30:07.995+03:00,0.02023345852159405,0
2025-04-21T17:18:37.090+03:00,1745245116.100112,40.95228573499299,29.14029995516199,76.48029,-1,-1,-1,-1,30,22.90986188445598,-9999,21617.634093,-0.7431640625,0.6402130126953125,-0.1224822998046875,21617.624017,-0.5937233102482892,-1.410903030873915,-0.69973949513872,-0.03662489354610443,0.0007060635834932327,-0.006014344748109579,0.01082116365432739,0.003656089305877686,-0.004299238324165344,XArbitraryZVertical,-0.4277202284889873,-0.5061182539436154,0.003317028927529804,0.7489250680964396,-0.7552517652511597,0.6440184116363525,-0.1217994391918182,0,0,0,-1,-1,21613.43868929167,unknown,2,2025-04-21T17:18:32.885+03:00,2025-04-21T17:08:51.449+03:00,68,1.085773,0,0,53.54406,0,0,2025-04-21T17:18:35.464+03:00,766937907.8311855,0,-0.4300003,100.2095,1,0.25,2025-04-21T17:17:49.980+03:00,98,1.633333333333333,2025-04-21T12:30:07.995+03:00,0.02023345852159405,0
2025-04-21T17:18:37.097+03:00,1745245116.100112,40.95228573499299,29.14029995516199,76.48029,-1,-1,-1,-1,30,22.90986188445598,-9999,21617.644169,-0.746734619140625,0.6387176513671875,-0.1204376220703125,21617.634093,-0.594312912741518,-1.411282627052231,-0.6997875093793338,-0.05011193826794624,-0.0009461613371968269,-0.001308273058384657,0.01312559843063354,-0.0007752776145935059,-0.00115763396024704,XArbitraryZVertical,-0.427883708216275,-0.5061241286076226,0.003193317847138501,0.7488281373808197,-0.7552672624588013,0.6440551280975342,-0.1215077936649323,0,0,0,-1,-1,21613.43868929167,unknown,2,2025-04-21T17:18:32.885+03:00,2025-04-21T17:08:51.449+03:00,68,1.085773,0,0,53.54406,0,0,2025-04-21T17:18:35.464+03:00,766937907.8311855,0,-0.4300003,100.2095,1,0.25,2025-04-21T17:17:49.980+03:00,98,1.633333333333333,2025-04-21T12:30:07.995+03:00,0.02023345852159405,0
2025-04-21T17:18:37.105+03:00,1745245116.100112,40.95228573499299,29.14029995516199,76.48029,-1,-1,-1,-1,30,22.90986188445598,-9999,21617.654245,-0.7469329833984375,0.643829345703125,-0.11859130859375,21617.644169,-0.5950081451406777,-1.411719133392882,-0.6998624823025107,-0.05581942945718765,0.001405875664204359,-0.00509305763989687,0.01033848524093628,-0.005990147590637207,4.246830940246582e-07,XArbitraryZVertical,-0.4280821576146175,-0.5061229506494965,0.003051156127757744,0.7487160701785012,-0.7552725076675415,0.6441125273704529,-0.1211704537272453,0,0,0,-1,-1,21613.43868929167,unknown,2,2025-04-21T17:18:32.885+03:00,2025-04-21T17:08:51.449+03:00,68,1.085773,0,0,53.54406,0,0,2025-04-21T17:18:35.464+03:00,766937907.8311855,0,-0.4300003,100.2095,1,0.25,2025-04-21T17:17:49.980+03:00,98,1.633333333333333,2025-04-21T12:30:07.995+03:00,0.02023345852159405,0
2025-04-21T17:18:37.115+03:00,1745245116.100112,40.95228573499299,29.14029995516199,76.48029,-1,-1,-1,-1,30,22.90986188445598,-9999,21617.664321,-0.7438812255859375,0.6454010009765625,-0.1186981201171875,21617.654245,-0.5958105404818025,-1.412235822855557,-0.6999497017611601,-0.06483528763055801,-0.0007286481559276581,-0.004907168913632631,0.006973326206207275,-0.002074182033538818,0.001478120684623718,XArbitraryZVertical,-0.4283113618428654,-0.5061261698830276,0.002890118009655937,0.7485835593191335,-0.7552797198295593,0.6441792249679565,-0.1207713559269905,0,0,0,-1,-1,21613.43868929167,unknown,2,2025-04-21T17:18:32.885+03:00,2025-04-21T17:08:51.449+03:00,68,1.085773,0,0,53.54406,0,0,2025-04-21T17:18:35.464+03:00,766937907.8311855,0,-0.4300003,100.2095,1,0.25,2025-04-21T17:17:49.980+03:00,98,1.633333333333333,2025-04-21T12:30:07.995+03:00,0.02023345852159405,0
2025-04-21T17:18:37.125+03:00,1745245116.100112,40.95228573499299,29.14029995516199,76.48029,-1,-1,-1,-1,30,22.90986188445598,-9999,21617.674397,-0.74212646484375,0.644378662109375,-0.125091552734375,21617.664321,-0.5967459930456152,-1.412850069990269,-0.7000247702874106,-0.08011884242296219,-0.003056449815630913,-0.002806301228702068,0.01015818119049072,0.0007674694061279297,0.002364590764045715,XArbitraryZVertical,-0.4285704751374028,-0.5061397728389069,0.002696419299657896,0.7484266176893895,-0.7553057670593262,0.6442366242408752,-0.120299756526947,0,0,0,-1,-1,21613.43868929167,unknown,2,2025-04-21T17:18:32.885+03:00,2025-04-21T17:08:51.449+03:00,68,1.085773,0,0,53.54406,0,0,2025-04-21T17:18:35.464+03:00,766937907.8311855,0,-0.4300003,100.2095,1,0.25,2025-04-21T17:17:49.980+03:00,98,1.633333333333333,2025-04-21T12:30:07.995+03:00,0.02023345852159405,0
2025-04-21T17:18:37.135+03:00,1745245116.100112,40.95228573499299,29.14029995516199,76.48029,-1,-1,-1,-1,30,22.90986188445598,-9999,21617.684473,-0.7464447021484375,0.64288330078125,-0.1278228759765625,21617.674397,-0.5978221118743827,-1.413601175383191,-0.7001477976443741,-0.08277375251054764,-0.01112982351332903,-0.003075280459597707,0.0128861665725708,0.0008717775344848633,-0.002777576446533203,XArbitraryZVertical,-0.4288797757146134,-0.5061641271321019,0.002495313381222562,0.7482337500832668,-0.7553178071975708,0.6443307399749756,-0.1197200268507004,0,0,0,-1,-1,21613.43868929167,unknown,2,2025-04-21T17:18:32.885+03:00,2025-04-21T17:08:51.449+03:00,68,1.085773,0,0,53.54406,0,0,2025-04-21T17:18:35.464+03:00,766937907.8311855,0,-0.4300003,100.2095,1,0.25,2025-04-21T17:17:49.980+03:00,98,1.633333333333333,2025-04-21T12:30:07.995+03:00,0.02023345852159405,0
2025-04-21T17:18:37.145+03:00,1745245116.100112,40.95228573499299,29.14029995516199,76.48029,-1,-1,-1,-1,30,22.90986188445598,-9999,21617.694549,-0.7523651123046875,0.6473846435546875,-0.1225738525390625,21617.684473,-0.5988801255030182,-1.414380194579449,-0.7002675902332957,-0.07888320088386536,-0.01067875046283007,-0.001483142958022654,0.01148384809494019,-0.002225756645202637,-0.008337080478668213,XArbitraryZVertical,-0.4291835657383503,-0.5062032091904942,0.002306190944758578,0.7480336821040874,-0.7553345561027527,0.6444223523139954,-0.1191195547580719,0,0,0,-1,-1,21613.43868929167,unknown,2,2025-04-21T17:18:32.885+03:00,2025-04-21T17:08:51.449+03:00,68,1.085773,0,0,53.54406,0,0,2025-04-21T17:18:35.464+03:00,766937907.8311855,0,-0.4300003,100.2095,1,0.25,2025-04-21T17:17:49.980+03:00,98,1.633333333333333,2025-04-21T12:30:07.995+03:00,0.02023345852159405,0
2025-04-21T17:18:37.156+03:00,1745245116.100112,40.95228573499299,29.14029995516199,76.48029,-1,-1,-1,-1,30,22.90986188445598,-9999,21617.704625,-0.7534942626953125,0.6494140625,-0.1159820556640625,21617.694549,-0.5998413911857794,-1.41506397936243,-0.7003649242829416,-0.07091955095529556,-0.008699488826096058,-0.00244560930877924,0.005491197109222412,-4.1961669921875e-05,-0.00573527067899704,XArbitraryZVertical,-0.4294561183454277,-0.5062319530868553,0.002125625915772625,0.7478582873380994,-0.7553538084030151,0.644496738910675,-0.11859330534935,0,0,0,-1,-1,21613.43868929167,unknown,2,2025-04-21T17:18:32.885+03:00,2025-04-21T17:08:51.449+03:00,68,1.085773,0,0,53.54406,0,0,2025-04-21T17:18:35.464+03:00,766937907.8311855,0,-0.4300003,100.2095,1,0.25,2025-04-21T17:17:49.980+03:00,98,1.633333333333333,2025-04-21T12:30:07.995+03:00,0.02023345852159405,0
2025-04-21T17:18:37.166+03:00,1745245116.100112,40.95228573499299,29.14029995516199,76.48029,-1,-1,-1,-1,30,22.90986188445598,-9999,21617.714701,-0.752227783203125,0.648193359375,-0.110687255859375,21617.704625,-0.6007055749719139,-1.415686063576645,-0.7004709887523197,-0.06678971648216248,-0.01128908060491085,-0.00823235884308815,0.001377403736114502,0.005461692810058594,-0.0002190470695495605,XArbitraryZVertical,-0.4297068812047444,-0.5062564376126379,0.001971149720041957,0.7476980954624697,-0.7553598880767822,0.6445778608322144,-0.1181128323078156,0,0,0,-1,-1,21613.43868929167,unknown,2,2025-04-21T17:18:32.885+03:00,2025-04-21T17:08:51.449+03:00,68,1.085773,0,0,53.54406,0,0,2025-04-21T17:18:35.464+03:00,766937907.8311855,0,-0.4300003,100.2095,1,0.25,2025-04-21T17:17:49.980+03:00,98,1.633333333333333,2025-04-21T12:30:07.995+03:00,0.02023345852159405,0
2025-04-21T17:18:37.176+03:00,1745245116.100112,40.95228573499299,29.14029995516199,76.48029,-1,-1,-1,-1,30,22.90986188445598,-9999,21617.724777,-0.749603271484375,0.6550140380859375,-0.1108551025390625,21617.714701,-0.6015828691838564,-1.416345755040088,-0.7005072619161559,-0.07284361869096756,-0.01387101598083973,-0.01165238954126835,0.002668023109436035,0.004304766654968262,0.005153663456439972,XArbitraryZVertical,-0.4299395074891974,-0.5063067944617146,0.001796974866319114,0.7475306726711666,-0.7554145455360413,0.6446055769920349,-0.117610901594162,0,0,0,-1,-1,21613.43868929167,unknown,2,2025-04-21T17:18:32.885+03:00,2025-04-21T17:08:51.449+03:00,68,1.085773,0,0,53.54406,0,0,2025-04-21T17:18:35.464+03:00,766937907.8311855,0,-0.4300003,100.2095,1,0.25,2025-04-21T17:17:49.980+03:00,98,1.633333333333333,2025-04-21T12:30:07.995+03:00,0.02023345852159405,0
2025-04-21T17:18:37.186+03:00,1745245116.100112,40.95228573499299,29.14029995516199,76.48029,-1,-1,-1,-1,30,22.90986188445598,-9999,21617.734854,-0.7480010986328125,0.65289306640625,-0.1140899658203125,21617.724777,-0.6025334085152121,-1.417091540753373,-0.7004795371864598,-0.07493673264980316,-0.01516624353826046,-0.01480737049132586,0.004863619804382324,0.006889522075653076,0.007843077182769775,XArbitraryZVertical,-0.4301709953831026,-0.5063870060500808,0.001592937476377961,0.7473436199153595,-0.7555197477340698,0.6445843577384949,-0.1170502305030823,0,0,0,-1,-1,21613.43868929167,unknown,2,2025-04-21T17:18:32.885+03:00,2025-04-21T17:08:51.449+03:00,68,1.085773,0,0,53.54406,0,0,2025-04-21T17:18:35.464+03:00,766937907.8311855,0,-0.4300003,100.2095,1,0.25,2025-04-21T17:17:49.980+03:00,98,1.633333333333333,2025-04-21T12:30:07.995+03:00,0.02023345852159405,0
2025-04-21T17:18:37.197+03:00,1745245116.100112,40.95228573499299,29.14029995516199,76.48029,-1,-1,-1,-1,30,22.90986188445598,-9999,21617.74493,-0.750396728515625,0.6455230712890625,-0.11285400390625,21617.734854,-0.6035503780196834,-1.417859543911509,-0.7004348110240661,-0.07939247041940689,-0.01045298017561436,-0.02049215324223042,0.007804691791534424,0.01163864135742188,0.002811610698699951,XArbitraryZVertical,-0.4304141842936955,-0.5064646619749389,0.00136341067760763,0.7471514333842331,-0.7556379437446594,0.6445502042770386,-0.1164743527770042,0,0,0,-1,-1,21613.43868929167,unknown,2,2025-04-21T17:18:32.885+03:00,2025-04-21T17:08:51.449+03:00,68,1.085773,0,0,53.54406,0,0,2025-04-21T17:18:35.464+03:00,766937907.8311855,0,-0.4300003,100.2095,1,0.25,2025-04-21T17:17:49.980+03:00,98,1.633333333333333,2025-04-21T12:30:07.995+03:00,0.02023345852159405,0
2025-04-21T17:18:37.206+03:00,1745245116.100112,40.95228573499299,29.14029995516199,76.48029,-1,-1,-1,-1,30,22.90986188445598,-9999,21617.755006,-0.751861572265625,0.6479644775390625,-0.113128662109375,21617.74493,-0.6045790394501163,-1.41862138885386,-0.7003784743803647,-0.07491043210029602,-0.01082668825984001,-0.01797949522733688,0.006754159927368164,0.002480626106262207,0.001844651997089386,XArbitraryZVertical,-0.4306569347616008,-0.5065397693977636,0.001124563600207421,0.7469609681852732,-0.7557622790336609,0.644507110118866,-0.1159041300415993,0,0,0,-1,-1,21613.43868929167,unknown,2,2025-04-21T17:18:32.885+03:00,2025-04-21T17:08:51.449+03:00,68,1.085773,0,0,53.54406,0,0,2025-04-21T17:18:35.464+03:00,766937907.8311855,0,-0.4300003,100.2095,1,0.25,2025-04-21T17:17:49.980+03:00,98,1.633333333333333,2025-04-21T12:30:07.995+03:00,0.02023345852159405,0
2025-04-21T17:18:37.216+03:00,1745245116.100112,40.95228573499299,29.14029995516199,76.48029,-1,-1,-1,-1,30,22.90986188445598,-9999,21617.765082,-0.750152587890625,0.647491455078125,-0.1207275390625,21617.755006,-0.6055264958863278,-1.419324883982297,-0.7003738495008818,-0.06892790645360947,-0.01478627696633339,-0.01322708372026682,0.003649413585662842,0.00179755687713623,0.003037631511688232,XArbitraryZVertical,-0.4308951106351607,-0.5065994037512219,0.0009207173750308944,0.7467834891267094,-0.7558466792106628,0.6445035934448242,-0.115372896194458,0,0,0,-1,-1,21613.43868929167,unknown,2,2025-04-21T17:18:32.885+03:00,2025-04-21T17:08:51.449+03:00,68,1.085773,0,0,53.54406,0,0,2025-04-21T17:18:35.464+03:00,766937907.8311855,0,-0.4300003,100.2095,1,0.25,2025-04-21T17:17:49.980+03:00,98,1.633333333333333,2025-04-21T12:30:07.995+03:00,0.02023345852159405,0
2025-04-21T17:18:37.227+03:00,1745245116.100112,40.95228573499299,29.14029995516199,76.48029,-1,-1,-1,-1,30,22.90986188445598,-9999,21617.775158,-0.7521514892578125,0.6454620361328125,-0.124237060546875,21617.765082,-0.6063404659276198,-1.419925662349498,-0.700372224863038,-0.05773996561765671,-0.01127702929079533,-0.00974420178681612,0.005260705947875977,0.003385722637176514,-0.002451658248901367,XArbitraryZVertical,-0.4311005684964513,-0.5066486343826886,0.000745769643846704,0.7466316407130551,-0.7559167742729187,0.6445023417472839,-0.1149189248681068,0,0,0,-1,-1,21613.43868929167,unknown,2,2025-04-21T17:18:32.885+03:00,2025-04-21T17:08:51.449+03:00,68,1.085773,0,0,53.54406,0,0,2025-04-21T17:18:35.464+03:00,766937907.8311855,0,-0.4300003,100.2095,1,0.25,2025-04-21T17:17:49.980+03:00,98,1.633333333333333,2025-04-21T12:30:07.995+03:00,0.02023345852159405,0
2025-04-21T17:18:37.236+03:00,1745245116.100112,40.95228573499299,29.14029995516199,76.48029,-1,-1,-1,-1,30,22.90986188445598,-9999,21617.785234,-0.7554779052734375,0.646575927734375,-0.118743896484375,21617.775158,-0.6069929069400088,-1.420415462931976,-0.700377089475173,-0.04690250009298325,-0.008979519829154015,-0.005533477757126093,0.00468820333480835,0.002069711685180664,-0.01065020263195038,XArbitraryZVertical,-0.4312671931475199,-0.506689765193557,0.0006094473901318675,0.7465075759157634,-0.7559698224067688,0.64450603723526,-0.1145481765270233,0,0,0,-1,-1,21613.43868929167,unknown,2,2025-04-21T17:18:32.885+03:00,2025-04-21T17:08:51.449+03:00,68,1.085773,0,0,53.54406,0,0,2025-04-21T17:18:35.464+03:00,766937907.8311855,0,-0.4300003,100.2095,1,0.25,2025-04-21T17:17:49.980+03:00,98,1.633333333333333,2025-04-21T12:30:07.995+03:00,0.02023345852159405,0
2025-04-21T17:18:37.247+03:00,1745245116.100112,40.95228573499299,29.14029995516199,76.48029,-1,-1,-1,-1,30,22.90986188445598,-9999,21617.79531,-0.755645751953125,0.6461944580078125,-0.11505126953125,21617.785234,-0.607519205375058,-1.420838890984642,-0.7004266267484552,-0.03970963135361671,-0.006053838413208723,-0.001994037069380283,0.0008750557899475098,0.000933229923248291,-0.006519496440887451,XArbitraryZVertical,-0.4314155812600319,-0.506723734587141,0.0005207343635728589,0.7463988573757981,-0.755986750125885,0.6445439457893372,-0.1142233088612556,0,0,0,-1,-1,21613.43868929167,unknown,2,2025-04-21T17:18:32.885+03:00,2025-04-21T17:08:51.449+03:00,68,1.085773,0,0,53.54406,0,0,2025-04-21T17:18:35.464+03:00,766937907.8311855,0,-0.4300003,100.2095,1,0.25,2025-04-21T17:17:49.980+03:00,98,1.633333333333333,2025-04-21T12:30:07.995+03:00,0.02023345852159405,0
2025-04-21T17:18:37.257+03:00,1745245116.100112,40.95228573499299,29.14029995516199,76.48029,-1,-1,-1,-1,30,22.90986188445598,-9999,21617.805386,-0.7611083984375,0.6406402587890625,-0.111907958984375,21617.79531,-0.6080423576828656,-1.421203830709793,-0.700486461103129,-0.0427006296813488,0.002325532026588917,-0.005881453398615122,0.0004361271858215332,0.002916872501373291,-0.00254397839307785,XArbitraryZVertical,-0.4315663696975591,-0.5067342890269935,0.0004240626195027073,0.7463045640967589,-0.755990207195282,0.6445896625518799,-0.1139416545629501,0,0,0,-1,-1,21613.43868929167,unknown,2,2025-04-21T17:18:32.885+03:00,2025-04-21T17:08:51.449+03:00,68,1.085773,0,0,53.54406,0,0,2025-04-21T17:18:35.464+03:00,766937907.8311855,0,-0.4300003,100.2095,1,0.25,2025-04-21T17:17:49.980+03:00,98,1.633333333333333,2025-04-21T12:30:07.995+03:00,0.02023345852159405,0
2025-04-21T17:18:37.267+03:00,1745245116.100112,40.95228573499299,29.14029995516199,76.48029,-1,-1,-1,-1,30,22.90986188445598,-9999,21617.815462,-0.7622222900390625,0.645782470703125,-0.108367919921875,21617.805386,-0.6087034255742789,-1.421596473216186,-0.7005278474426211,-0.05346925556659698,0.007303645834326744,-0.007023217156529427,-0.002765178680419922,-0.002409577369689941,0.0002375319600105286,XArbitraryZVertical,-0.4317464563390506,-0.506729287785888,0.0002758480163430532,0.7462038743647335,-0.756008505821228,0.6446213126182556,-0.1136408522725105,0,0,0,-1,-1,21613.43868929167,unknown,2,2025-04-21T17:18:32.885+03:00,2025-04-21T17:08:51.449+03:00,68,1.085773,0,0,53.54406,0,0,2025-04-21T17:18:35.464+03:00,766937907.8311855,0,-0.4300003,100.2095,1,0.25,2025-04-21T17:17:49.980+03:00,98,1.633333333333333,2025-04-21T12:30:07.995+03:00,0.02023345852159405,0
2025-04-21T17:18:37.277+03:00,1745245116.100112,40.95228573499299,29.14029995516199,76.48029,-1,-1,-1,-1,30,22.90986188445598,-9999,21617.825538,-0.76507568359375,0.6454925537109375,-0.1072845458984375,21617.815462,-0.6095104047460639,-1.422040034426245,-0.7005837029917008,-0.07125198096036911,0.00902324914932251,-0.01277191564440727,-0.006275296211242676,-0.001445174217224121,0.003330059349536896,XArbitraryZVertical,-0.4319679600818312,-0.5067085920182594,8.907072133346568e-05,0.7460897704289209,-0.7560232281684875,0.6446639895439148,-0.1133001670241356,0,0,0,-1,-1,21613.43868929167,unknown,2,2025-04-21T17:18:32.885+03:00,2025-04-21T17:08:51.449+03:00,68,1.085773,0,0,53.54406,0,0,2025-04-21T17:18:35.464+03:00,766937907.8311855,0,-0.4300003,100.2095,1,0.25,2025-04-21T17:17:49.980+03:00,98,1.633333333333333,2025-04-21T12:30:07.995+03:00,0.02023345852159405,0
2025-04-21T17:18:37.305+03:00,1745245116.100112,40.95228573499299,29.14029995516199,76.48029,-1,-1,-1,-1,30,22.90986188445598,-9999,21617.8356155,-0.7696075439453125,0.6407470703125,-0.1131134033203125,21617.825538,-0.6106192236155078,-1.422646697005117,-0.7005941992558479,-0.1013242602348328,0.01084019057452679,-0.01713983342051506,-0.00700676441192627,0.002926170825958252,0.005708560347557068,XArbitraryZVertical,-0.4322520577076026,-0.5066930949803712,-0.0001900306743155084,0.7459358551380907,-0.7560853958129883,0.6446720361709595,-0.1128405332565308,0,0,0,-1,-1,21613.43868929167,unknown,2,2025-04-21T17:18:32.885+03:00,2025-04-21T17:08:51.449+03:00,68,1.085773,0,0,53.54406,0,0,2025-04-21T17:18:35.464+03:00,766937907.8311855,0,-0.4300003,100.2095,1,0.25,2025-04-21T17:17:49.980+03:00,98,1.633333333333333,2025-04-21T12:30:07.995+03:00,0.02023345852159405,0
2025-04-21T17:18:37.308+03:00,1745245116.100112,40.95228573499299,29.14029995516199,76.48029,-1,-1,-1,-1,30,22.90986188445598,-9999,21617.8456915,-0.7640838623046875,0.640899658203125,-0.1193695068359375,21617.8356155,-0.6123185754207506,-1.423589170708457,-0.7006168307911629,-0.1501176357269287,0.01496276445686817,-0.0205292385071516,-0.01234734058380127,-0.002508044242858887,0.002170920372009277,XArbitraryZVertical,-0.4326897055596183,-0.5066722351195817,-0.0006123963878669442,0.7456959376025127,-0.7561768293380737,0.6446893215179443,-0.1121257320046425,0,0,0,-1,-1,21613.43868929167,unknown,2,2025-04-21T17:18:32.885+03:00,2025-04-21T17:08:51.449+03:00,68,1.085773,0,0,53.54406,0,0,2025-04-21T17:18:35.464+03:00,766937907.8311855,0,-0.4300003,100.2095,1,0.25,2025-04-21T17:17:49.980+03:00,98,1.633333333333333,2025-04-21T12:30:07.995+03:00,0.02023345852159405,0
2025-04-21T17:18:37.310+03:00,1745245116.100112,40.95228573499299,29.14029995516199,76.48029,-1,-1,-1,-1,30,22.90986188445598,-9999,21617.8557675,-0.759368896484375,0.640655517578125,-0.1334381103515625,21617.8456915,-0.6145061693264395,-1.424822533605052,-0.7006293910391106,-0.1782545894384384,0.01801061816513538,-0.02853276953101158,-0.01006615161895752,-0.003967225551605225,-0.005034387111663818,XArbitraryZVertical,-0.433248277677609,-0.506655720719616,-0.001156685005803183,0.7453821051979876,-0.7563064694404602,0.6446989178657532,-0.1111918240785599,0,0,0,-1,-1,21613.43868929167,unknown,2,2025-04-21T17:18:32.885+03:00,2025-04-21T17:08:51.449+03:00,68,1.085773,0,0,53.54406,0,0,2025-04-21T17:18:35.464+03:00,766937907.8311855,0,-0.4300003,100.2095,1,0.25,2025-04-21T17:17:49.980+03:00,98,1.633333333333333,2025-04-21T12:30:07.995+03:00,0.02023345852159405,0
2025-04-21T17:18:37.318+03:00,1745245116.100112,40.95228573499299,29.14029995516199,76.48029,-1,-1,-1,-1,30,22.90986188445598,-9999,21617.8658435,-0.7633819580078125,0.6395416259765625,-0.136138916015625,21617.8557675,-0.6169270064298928,-1.426099714985171,-0.7005776843507262,-0.1988243162631989,0.02477318421006203,-0.03737499564886093,-0.003544151782989502,-0.003668367862701416,-0.01830946654081345,XArbitraryZVertical,-0.433846733287016,-0.5066179238032392,-0.001798997142885923,0.7450583073179513,-0.7564807534217834,0.6446593999862671,-0.1102305799722672,0,0,0,-1,-1,21613.43868929167,unknown,2,2025-04-21T17:18:32.885+03:00,2025-04-21T17:08:51.449+03:00,68,1.085773,0,0,53.54406,0,0,2025-04-21T17:18:35.464+03:00,766937907.8311855,0,-0.4300003,100.2095,1,0.25,2025-04-21T17:17:49.980+03:00,98,1.633333333333333,2025-04-21T12:30:07.995+03:00,0.02023345852159405,0
2025-04-21T17:18:37.327+03:00,1745245116.100112,40.95228573499299,29.14029995516199,76.48029,-1,-1,-1,-1,30,22.90986188445598,-9999,21617.8759195,-0.768829345703125,0.6190948486328125,-0.1361236572265625,21617.8658435,-0.6201936121595699,-1.427911148839052,-0.7006553084922267,-0.3172701299190521,0.02402523346245289,-0.02217973209917545,-0.004554808139801025,-0.00346827507019043,-0.02756059169769287,XArbitraryZVertical,-0.4346997072293288,-0.5065665510405659,-0.002596447326584741,0.7445936728596352,-0.7566298246383667,0.6447187662124634,-0.1088529899716377,0,0,0,-1,-1,21613.43868929167,unknown,2,2025-04-21T17:18:32.885+03:00,2025-04-21T17:08:51.449+03:00,68,1.085773,0,0,53.54406,0,0,2025-04-21T17:18:35.464+03:00,766937907.8311855,0,-0.4300003,100.2095,1,0.25,2025-04-21T17:17:49.980+03:00,98,1.633333333333333,2025-04-21T12:30:07.995+03:00,0.02023345852159405,0
2025-04-21T17:18:37.337+03:00,1745245116.100112,40.95228573499299,29.14029995516199,76.48029,-1,-1,-1,-1,30,22.90986188445598,-9999,21617.8859965,-0.7715606689453125,0.5909576416015625,-0.1285552978515625,21617.8759195,-0.6257585945972802,-1.431135770768196,-0.7009925911924315,-0.5295317769050598,0.04577047750353813,-0.03156018629670143,-0.01104551553726196,-0.01570421457290649,-0.03103834390640259,XArbitraryZVertical,-0.4362165594355923,-0.5064819494995977,-0.00385278306118864,0.7437581878704242,-0.7567614912986755,0.6449765563011169,-0.1063822954893112,0,0,0,-1,-1,21613.43868929167,unknown,2,2025-04-21T17:18:32.885+03:00,2025-04-21T17:08:51.449+03:00,68,1.085773,0,0,53.54406,0,0,2025-04-21T17:18:35.464+03:00,766937907.8311855,0,-0.4300003,100.2095,1,0.25,2025-04-21T17:17:49.980+03:00,98,1.633333333333333,2025-04-21T12:30:07.995+03:00,0.02023345852159405,0
2025-04-21T17:18:37.347+03:00,1745245116.100112,40.95228573499299,29.14029995516199,76.48029,-1,-1,-1,-1,30,22.90986188445598,-9999,21617.8960725,-0.766326904296875,0.5859527587890625,-0.13177490234375,21617.8859965,-0.6339275742878991,-1.435780718633823,-0.7015951297024036,-0.7177489399909973,0.06963572651147842,-0.01346061006188393,-0.01421016454696655,-0.04561394453048706,-0.02667237818241119,XArbitraryZVertical,-0.438477713070676,-0.5062908574219037,-0.005671582226026386,0.7425460983192469,-0.7568623423576355,0.6454368829727173,-0.1028137281537056,0,0,0,-1,-1,21613.43868929167,unknown,2,2025-04-21T17:18:32.885+03:00,2025-04-21T17:08:51.449+03:00,68,1.085773,0,0,53.54406,0,0,2025-04-21T17:18:35.464+03:00,766937907.8311855,0,-0.4300003,100.2095,1,0.25,2025-04-21T17:17:49.980+03:00,98,1.633333333333333,2025-04-21T12:30:07.995+03:00,0.02023345852159405,0
2025-04-21T17:18:37.357+03:00,1745245116.100112,40.95228573499299,29.14029995516199,76.48029,-1,-1,-1,-1,30,22.90986188445598,-9999,21617.9061485,-0.7735595703125,0.6031036376953125,-0.12628173828125,21617.8960725,-0.6438742822666605,-1.441381600970048,-0.7026044920013121,-0.7834582328796387,0.08841820806264877,0.01564374566078186,-0.01186645030975342,-0.06187236309051514,-0.0331944152712822,XArbitraryZVertical,-0.4413163057752071,-0.5059599510878416,-0.007791480625293112,0.7410692411679864,-0.7567797303199768,0.6462075114250183,-0.09848888963460922,0,0,0,-1,-1,21613.43868929167,unknown,2,2025-04-21T17:18:32.885+03:00,2025-04-21T17:08:51.449+03:00,68,1.085773,0,0,53.54406,0,0,2025-04-21T17:18:35.464+03:00,766937907.8311855,0,-0.4300003,100.2095,1,0.25,2025-04-21T17:17:49.980+03:00,98,1.633333333333333,2025-04-21T12:30:07.995+03:00,0.02023345852159405,0
2025-04-21T17:18:37.367+03:00,1745245116.100112,40.95228573499299,29.14029995516199,76.48029,-1,-1,-1,-1,30,22.90986188445598,-9999,21617.9162245,-0.781768798828125,0.6199188232421875,-0.1409759521484375,21617.9061485,-0.6540693304953574,-1.44700674571885,-0.7038080393917941,-0.8035922646522522,0.0962318554520607,0.02293358370661736,-0.01217305660247803,-0.05134624242782593,-0.03208649158477783,XArbitraryZVertical,-0.4442773915277207,-0.5055199950457581,-0.009916390396678978,0.7395733366234428,-0.7565494775772095,0.6471255421638489,-0.09413427114486694,0,0,0,-1,-1,21613.43868929167,unknown,2,2025-04-21T17:18:32.885+03:00,2025-04-21T17:08:51.449+03:00,68,1.085773,0,0,53.54406,0,0,2025-04-21T17:18:35.464+03:00,766937907.8311855,0,-0.4300003,100.2095,1,0.25,2025-04-21T17:17:49.980+03:00,98,1.633333333333333,2025-04-21T12:30:07.995+03:00,0.02023345852159405,0
