loggingTime(txt),locationTimestamp_since1970(s),locationLatitude(WGS84),locationLongitude(WGS84),locationAltitude(m),locationSpeed(m/s),locationSpeedAccuracy(m/s),locationCourse(°),locationCourseAccuracy(°),locationVerticalAccuracy(m),locationHorizontalAccuracy(m),locationFloor(Z),accelerometerTimestamp_sinceReboot(s),accelerometerAccelerationX(G),accelerometerAccelerationY(G),accelerometerAccelerationZ(G),motionTimestamp_sinceReboot(s),motionYaw(rad),motionRoll(rad),motionPitch(rad),motionRotationRateX(rad/s),motionRotationRateY(rad/s),motionRotationRateZ(rad/s),motionUserAccelerationX(G),motionUserAccelerationY(G),motionUserAccelerationZ(G),motionAttitudeReferenceFrame(txt),motionQuaternionX(R),motionQuaternionY(R),motionQuaternionZ(R),motionQuaternionW(R),motionGravityX(G),motionGravityY(G),motionGravityZ(G),motionMagneticFieldX(µT),motionMagneticFieldY(µT),motionMagneticFieldZ(µT),motionHeading(°),motionMagneticFieldCalibrationAccuracy(Z),activityTimestamp_sinceReboot(s),activity(txt),activityActivityConfidence(Z),activityActivityStartDate(txt),pedometerStartDate(txt),pedometerNumberofSteps(N),pedometerAverageActivePace(s/m),pedometerCurrentPace(s/m),pedometerCurrentCadence(steps/s),pedometerDistance(m),pedometerFloorAscended(N),pedometerFloorDescended(N),pedometerEndDate(txt),altimeterTimestamp_sinceReboot(s),altimeterReset(bool),altimeterRelativeAltitude(m),altimeterPressure(kPa),batteryState(N),batteryLevel(R),heartRateBPMTimestamp(txt),heartRateBPM(N),heartRateBPS(R),heartRateVariabilityTimestamp(txt),heartRateVariability(ms),label
2025-04-21T17:00:51.064+03:00,1745244050.777066,40.95225368581861,29.14027810012393,76.51794,-1,-1,-1,-1,30,26.17599130966446,-9999,21099.18202825,-0.642578125,0.65948486328125,-0.0991668701171875,21099.17699025,1.861568585145431,-1.3669765752081,-0.7825923029553163,0.02518713660538197,-0.01773572340607643,-0.02767040021717548,-0.03210639953613281,-0.01617050170898438,0.001407086849212646,XArbitraryZVertical,0.2916309936826861,-0.5858221405456234,0.718746378061707,0.2348775147470953,-0.6944103240966797,0.7051199674606323,-0.1435275673866272,0,0,0,-1,-1,21095.701989625,unknown,2,2025-04-21T17:00:47.567+03:00,2025-04-20T21:57:49.637+03:00,6869,0.9902488,0,0,5622.382,5,6,2025-04-21T17:00:39.829+03:00,766936814.1330497,0,-39.12,100.2019,1,0.3,2025-04-21T16:59:59.105+03:00,92.00000000000001,1.533333333333333,2025-04-21T12:30:07.995+03:00,0.02023345852159405,0
2025-04-21T17:00:51.066+03:00,1745244050.777066,40.95225368581861,29.14027810012393,76.51794,-1,-1,-1,-1,30,26.17599130966446,-9999,21099.19210425,-0.7006378173828125,0.70513916015625,-0.1288299560546875,21099.18706625,1.861831836310045,-1.366755718002338,-0.7822760352609396,0.02700893953442574,0.02041479013860226,-0.02002503164112568,0.04428255558013916,-0.04725730419158936,0.04388768970966339,XArbitraryZVertical,0.2917270130871644,-0.5856896041198486,0.7187918417130184,0.2349493735807109,-0.6945968270301819,0.7048956751823425,-0.1437260806560516,0,0,0,-1,-1,21095.701989625,unknown,2,2025-04-21T17:00:47.567+03:00,2025-04-20T21:57:49.637+03:00,6869,0.9902488,0,0,5622.382,5,6,2025-04-21T17:00:39.829+03:00,766936814.1330497,0,-39.12,100.2019,1,0.3,2025-04-21T16:59:59.105+03:00,92.00000000000001,1.533333333333333,2025-04-21T12:30:07.995+03:00,0.02023345852159405,0
2025-04-21T17:00:51.072+03:00,1745244050.777066,40.95225368581861,29.14027810012393,76.51794,-1,-1,-1,-1,30,26.17599130966446,-9999,21099.20218025,-0.7054290771484375,0.726531982421875,-0.1381378173828125,21099.19714225,1.862223150355886,-1.366264956886394,-0.7820509746657635,0.03124656155705452,0.01941051334142685,-0.01187069900333881,0.01790845394134521,-0.02138656377792358,0.02672839164733887,XArbitraryZVertical,0.2917350720676859,-0.5855263129204125,0.718896896356352,0.2350250392448626,-0.6946815848350525,0.7047359943389893,-0.1440991759300232,0,0,0,-1,-1,21095.701989625,unknown,2,2025-04-21T17:00:47.567+03:00,2025-04-20T21:57:49.637+03:00,6869,0.9902488,0,0,5622.382,5,6,2025-04-21T17:00:39.829+03:00,766936814.1330497,0,-39.12,100.2019,1,0.3,2025-04-21T16:59:59.105+03:00,92.00000000000001,1.533333333333333,2025-04-21T12:30:07.995+03:00,0.02023345852159405,0
2025-04-21T17:00:51.082+03:00,1745244050.777066,40.95225368581861,29.14027810012393,76.51794,-1,-1,-1,-1,30,26.17599130966446,-9999,21099.21225725,-0.6899261474609375,0.701416015625,-0.1359710693359375,21099.20721825,1.862606291586231,-1.365811318221962,-0.7819196369569261,0.03022057749330997,0.02065700478851795,-0.004692081827670336,-0.01761925220489502,0.0227130651473999,0.006279930472373962,XArbitraryZVertical,0.2917249051084705,-0.5853887650978901,0.7190008251431659,0.2350625356273599,-0.6947068572044373,0.7046428322792053,-0.1444331407546997,0,0,0,-1,-1,21095.701989625,unknown,2,2025-04-21T17:00:47.567+03:00,2025-04-20T21:57:49.637+03:00,6869,0.9902488,0,0,5622.382,5,6,2025-04-21T17:00:39.829+03:00,766936814.1330497,0,-39.12,100.2019,1,0.3,2025-04-21T16:59:59.105+03:00,92.00000000000001,1.533333333333333,2025-04-21T12:30:07.995+03:00,0.02023345852159405,0
2025-04-21T17:00:51.092+03:00,1745244050.777066,40.95225368581861,29.14027810012393,76.51794,-1,-1,-1,-1,30,26.17599130966446,-9999,21099.22233325,-0.702239990234375,0.692230224609375,-0.139495849609375,21099.21729525,1.862954366260842,-1.365348898619771,-0.7817727437340757,0.03527552634477615,0.03437414765357971,-0.003801786806434393,0.003289282321929932,0.006826102733612061,0.009292528033256531,XArbitraryZVertical,0.2917061065724301,-0.5852519077820059,0.7191010599037714,0.2351201265801162,-0.6947413682937622,0.7045385837554932,-0.1447755098342896,0,0,0,-1,-1,21095.701989625,unknown,2,2025-04-21T17:00:47.567+03:00,2025-04-20T21:57:49.637+03:00,6869,0.9902488,0,0,5622.382,5,6,2025-04-21T17:00:39.829+03:00,766936814.1330497,0,-39.12,100.2019,1,0.3,2025-04-21T16:59:59.105+03:00,92.00000000000001,1.533333333333333,2025-04-21T12:30:07.995+03:00,0.02023345852159405,0
2025-04-21T17:00:51.103+03:00,1745244050.777066,40.95225368581861,29.14027810012393,76.51794,-1,-1,-1,-1,30,26.17599130966446,-9999,21099.23240925,-0.7109375,0.6999969482421875,-0.1425628662109375,21099.22737125,1.863489464860231,-1.364565742435435,-0.7816100620042226,0.04101656377315521,0.04165290296077728,-0.00615199375897646,-0.001289844512939453,-0.01173526048660278,0.0073881596326828,XArbitraryZVertical,0.2916315686445409,-0.5850466007933888,0.7192691755783552,0.2352091906002734,-0.6947398781776428,0.7044231295585632,-0.145343005657196,0,0,0,-1,-1,21095.701989625,unknown,2,2025-04-21T17:00:47.567+03:00,2025-04-20T21:57:49.637+03:00,6869,0.9902488,0,0,5622.382,5,6,2025-04-21T17:00:39.829+03:00,766936814.1330497,0,-39.12,100.2019,1,0.3,2025-04-21T16:59:59.105+03:00,92.00000000000001,1.533333333333333,2025-04-21T12:30:07.995+03:00,0.02023345852159405,0
2025-04-21T17:00:51.113+03:00,1745244050.777066,40.95225368581861,29.14027810012393,76.51794,-1,-1,-1,-1,30,26.17599130966446,-9999,21099.24248525,-0.701507568359375,0.7086029052734375,-0.13824462890625,21099.23744725,1.864033366781984,-1.363733002423518,-0.7815339780240261,0.0307460855692625,0.03464718908071518,-0.01060639601200819,-0.0155646800994873,-0.008736312389373779,0.003964602947235107,XArbitraryZVertical,0.2915147838637598,-0.5848528763449696,0.7194503266751269,0.2352814958312094,-0.6946709156036377,0.7043691277503967,-0.1459324806928635,0,0,0,-1,-1,21095.701989625,unknown,2,2025-04-21T17:00:47.567+03:00,2025-04-20T21:57:49.637+03:00,6869,0.9902488,0,0,5622.382,5,6,2025-04-21T17:00:39.829+03:00,766936814.1330497,0,-39.12,100.2019,1,0.3,2025-04-21T16:59:59.105+03:00,92.00000000000001,1.533333333333333,2025-04-21T12:30:07.995+03:00,0.02023345852159405,0
2025-04-21T17:00:51.122+03:00,1745244050.777066,40.95225368581861,29.14027810012393,76.51794,-1,-1,-1,-1,30,26.17599130966446,-9999,21099.25256125,-0.692901611328125,0.705352783203125,-0.1360015869140625,21099.24752325,1.864405217804677,-1.363103468433364,-0.7814311527824093,0.02368571236729622,0.0320713147521019,-0.008122099563479424,-0.01131331920623779,0.002246677875518799,0.006476700305938721,XArbitraryZVertical,0.291428936474308,-0.5847023327346161,0.7195801795165399,0.2353649164906747,-0.6946498155593872,0.7042961120605469,-0.1463847160339355,0,0,0,-1,-1,21095.701989625,unknown,2,2025-04-21T17:00:47.567+03:00,2025-04-20T21:57:49.637+03:00,6869,0.9902488,0,0,5622.382,5,6,2025-04-21T17:00:39.829+03:00,766936814.1330497,0,-39.12,100.2019,1,0.3,2025-04-21T16:59:59.105+03:00,92.00000000000001,1.533333333333333,2025-04-21T12:30:07.995+03:00,0.02023345852159405,0
2025-04-21T17:00:51.132+03:00,1745244050.777066,40.95225368581861,29.14027810012393,76.51794,-1,-1,-1,-1,30,26.17599130966446,-9999,21099.26263725,-0.691497802734375,0.7055816650390625,-0.1404266357421875,21099.25759925,1.864670571616512,-1.362601374280586,-0.7812715313166931,0.01979376934468746,0.03226572275161743,-0.009658478200435638,-0.0006720423698425293,0.002466797828674316,0.01055663824081421,XArbitraryZVertical,0.2913753622714007,-0.5845699605751346,0.7196758306645259,0.2354676517456352,-0.694686233997345,0.7041828036308289,-0.14675672352314,0,0,0,-1,-1,21095.701989625,unknown,2,2025-04-21T17:00:47.567+03:00,2025-04-20T21:57:49.637+03:00,6869,0.9902488,0,0,5622.382,5,6,2025-04-21T17:00:39.829+03:00,766936814.1330497,0,-39.12,100.2019,1,0.3,2025-04-21T16:59:59.105+03:00,92.00000000000001,1.533333333333333,2025-04-21T12:30:07.995+03:00,0.02023345852159405,0
2025-04-21T17:00:51.142+03:00,1745244050.777066,40.95225368581861,29.14027810012393,76.51794,-1,-1,-1,-1,30,26.17599130966446,-9999,21099.27271325,-0.689453125,0.7134552001953125,-0.145355224609375,21099.26767525,1.864960872459686,-1.362099861866978,-0.7811322700265215,0.03251595795154572,0.02903424575924873,-0.0110471835359931,0.002127289772033691,0.0007498860359191895,0.009353652596473694,XArbitraryZVertical,0.2913229615388133,-0.5844383912009508,0.7197754338213942,0.2355545167255138,-0.6947084069252014,0.7040839195251465,-0.1471253931522369,0,0,0,-1,-1,21095.701989625,unknown,2,2025-04-21T17:00:47.567+03:00,2025-04-20T21:57:49.637+03:00,6869,0.9902488,0,0,5622.382,5,6,2025-04-21T17:00:39.829+03:00,766936814.1330497,0,-39.12,100.2019,1,0.3,2025-04-21T16:59:59.105+03:00,92.00000000000001,1.533333333333333,2025-04-21T12:30:07.995+03:00,0.02023345852159405,0
2025-04-21T17:00:51.153+03:00,1745244050.777066,40.95225368581861,29.14027810012393,76.51794,-1,-1,-1,-1,30,26.17599130966446,-9999,21099.28279025,-0.68731689453125,0.7180938720703125,-0.1464996337890625,21099.27775225,1.865432927359712,-1.361526875926595,-0.7809233012172953,0.04117123037576675,0.02374840155243874,-0.01352152600884438,0.004933357238769531,0.005872666835784912,0.003159940242767334,XArbitraryZVertical,0.2913194696503719,-0.5842567620182784,0.7199031023640954,0.2356193435998182,-0.694767951965332,0.7039355039596558,-0.1475540101528168,0,0,0,-1,-1,21095.701989625,unknown,2,2025-04-21T17:00:47.567+03:00,2025-04-20T21:57:49.637+03:00,6869,0.9902488,0,0,5622.382,5,6,2025-04-21T17:00:39.829+03:00,766936814.1330497,0,-39.12,100.2019,1,0.3,2025-04-21T16:59:59.105+03:00,92.00000000000001,1.533333333333333,2025-04-21T12:30:07.995+03:00,0.02023345852159405,0
2025-04-21T17:00:51.163+03:00,1745244050.777066,40.95225368581861,29.14027810012393,76.51794,-1,-1,-1,-1,30,26.17599130966446,-9999,21099.292866375,-0.6867828369140625,0.7141265869140625,-0.143890380859375,21099.28782825,1.865988768079551,-1.360914276348253,-0.780656534205137,0.04748205468058586,0.02106839790940285,-0.02002473175525665,0.007010102272033691,0.01358479261398315,0.001656234264373779,XArbitraryZVertical,0.2913440406167156,-0.5840456271081937,0.7200432949437051,0.235684019035519,-0.694861114025116,0.7037460207939148,-0.1480187177658081,0,0,0,-1,-1,21095.701989625,unknown,2,2025-04-21T17:00:47.567+03:00,2025-04-20T21:57:49.637+03:00,6869,0.9902488,0,0,5622.382,5,6,2025-04-21T17:00:39.829+03:00,766936814.1330497,0,-39.12,100.2019,1,0.3,2025-04-21T16:59:59.105+03:00,92.00000000000001,1.533333333333333,2025-04-21T12:30:07.995+03:00,0.02023345852159405,0
2025-04-21T17:00:51.173+03:00,1745244050.777066,40.95225368581861,29.14027810012393,76.51794,-1,-1,-1,-1,30,26.17599130966446,-9999,21099.302942375,-0.6868133544921875,0.7124176025390625,-0.1456756591796875,21099.297904375,1.866613523505176,-1.360290428412661,-0.7803498642126721,0.0536360889673233,0.01770056411623955,-0.0212700255215168,0.008379936218261719,0.01245987415313721,0.004103183746337891,XArbitraryZVertical,0.2913969302415972,-0.5838143530485481,0.7201911481319678,0.2357398874515591,-0.6949796676635742,0.703528106212616,-0.1484972536563873,0,0,0,-1,-1,21095.701989625,unknown,2,2025-04-21T17:00:47.567+03:00,2025-04-20T21:57:49.637+03:00,6869,0.9902488,0,0,5622.382,5,6,2025-04-21T17:00:39.829+03:00,766936814.1330497,0,-39.12,100.2019,1,0.3,2025-04-21T16:59:59.105+03:00,92.00000000000001,1.533333333333333,2025-04-21T12:30:07.995+03:00,0.02023345852159405,0
2025-04-21T17:00:51.183+03:00,1745244050.777066,40.95225368581861,29.14027810012393,76.51794,-1,-1,-1,-1,30,26.17599130966446,-9999,21099.313018375,-0.685455322265625,0.709197998046875,-0.1469573974609375,21099.307980375,1.867312581200613,-1.359634142736807,-0.7800261427843531,0.05784947425127029,0.01607763208448887,-0.02021261863410473,0.007925093173980713,0.00950092077255249,0.005141019821166992,XArbitraryZVertical,0.2914649827268525,-0.5835645967021865,0.7203516265891213,0.2357837421895329,-0.6951046586036682,0.703298032283783,-0.1490010470151901,0,0,0,-1,-1,21095.701989625,unknown,2,2025-04-21T17:00:47.567+03:00,2025-04-20T21:57:49.637+03:00,6869,0.9902488,0,0,5622.382,5,6,2025-04-21T17:00:39.829+03:00,766936814.1330497,0,-39.12,100.2019,1,0.3,2025-04-21T16:59:59.105+03:00,92.00000000000001,1.533333333333333,2025-04-21T12:30:07.995+03:00,0.02023345852159405,0
2025-04-21T17:00:51.194+03:00,1745244050.777066,40.95225368581861,29.14027810012393,76.51794,-1,-1,-1,-1,30,26.17599130966446,-9999,21099.323094375,-0.6869354248046875,0.7060546875,-0.14483642578125,21099.318056375,1.868022840115071,-1.359012573198592,-0.779668558070345,0.05648646876215935,0.01311806216835976,-0.01854761131107807,0.009787142276763916,0.007527351379394531,0.002452075481414795,XArbitraryZVertical,0.2915591194661762,-0.5833097922459777,0.7205066400397447,0.2358242185284974,-0.6952577233314514,0.7030437588691711,-0.1494859308004379,0,0,0,-1,-1,21095.701989625,unknown,2,2025-04-21T17:00:47.567+03:00,2025-04-20T21:57:49.637+03:00,6869,0.9902488,0,0,5622.382,5,6,2025-04-21T17:00:39.829+03:00,766936814.1330497,0,-39.12,100.2019,1,0.3,2025-04-21T16:59:59.105+03:00,92.00000000000001,1.533333333333333,2025-04-21T12:30:07.995+03:00,0.02023345852159405,0
2025-04-21T17:00:51.203+03:00,1745244050.777066,40.95225368581861,29.14027810012393,76.51794,-1,-1,-1,-1,30,26.17599130966446,-9999,21099.333170375,-0.688720703125,0.7041473388671875,-0.144073486328125,21099.328132375,1.86864946069456,-1.358487655080227,-0.7793602355024997,0.05153938382863998,0.01394577138125896,-0.01753840409219265,0.008943915367126465,0.004359245300292969,0.004281759262084961,XArbitraryZVertical,0.2916482448108174,-0.5830892113039392,0.7206404601963534,0.235850720042998,-0.695391058921814,0.7028244733810425,-0.1498965471982956,0,0,0,-1,-1,21095.701989625,unknown,2,2025-04-21T17:00:47.567+03:00,2025-04-20T21:57:49.637+03:00,6869,0.9902488,0,0,5622.382,5,6,2025-04-21T17:00:39.829+03:00,766936814.1330497,0,-39.12,100.2019,1,0.3,2025-04-21T16:59:59.105+03:00,92.00000000000001,1.533333333333333,2025-04-21T12:30:07.995+03:00,0.02023345852159405,0
2025-04-21T17:00:51.214+03:00,1745244050.777066,40.95225368581861,29.14027810012393,76.51794,-1,-1,-1,-1,30,26.17599130966446,-9999,21099.343247375,-0.6896209716796875,0.702789306640625,-0.1446075439453125,21099.338208375,1.869235078628994,-1.358002817547616,-0.779117911768577,0.04924533516168594,0.01190472580492496,-0.01557006314396858,0.008152604103088379,0.002349615097045898,0.006501197814941406,XArbitraryZVertical,0.291719310068876,-0.5828936621991444,0.7207671999937612,0.2358589295128864,-0.6954847574234009,0.7026520371437073,-0.1502696424722672,0,0,0,-1,-1,21095.701989625,unknown,2,2025-04-21T17:00:47.567+03:00,2025-04-20T21:57:49.637+03:00,6869,0.9902488,0,0,5622.382,5,6,2025-04-21T17:00:39.829+03:00,766936814.1330497,0,-39.12,100.2019,1,0.3,2025-04-21T16:59:59.105+03:00,92.00000000000001,1.533333333333333,2025-04-21T12:30:07.995+03:00,0.02023345852159405,0
2025-04-21T17:00:51.223+03:00,1745244050.777066,40.95225368581861,29.14027810012393,76.51794,-1,-1,-1,-1,30,26.17599130966446,-9999,21099.353323375,-0.6895751953125,0.7045135498046875,-0.1462860107421875,21099.348285375,1.869767971595812,-1.357581604399689,-0.7789114923849919,0.04374796897172928,0.01014910265803337,-0.0133965564891696,0.005774378776550293,0.0005891919136047363,0.006183922290802002,XArbitraryZVertical,0.2917867024420347,-0.5827210997960754,0.7208804296254714,0.2358560285305655,-0.6955631971359253,0.7025051712989807,-0.1505932807922363,0,0,0,-1,-1,21095.701989625,unknown,2,2025-04-21T17:00:47.567+03:00,2025-04-20T21:57:49.637+03:00,6869,0.9902488,0,0,5622.382,5,6,2025-04-21T17:00:39.829+03:00,766936814.1330497,0,-39.12,100.2019,1,0.3,2025-04-21T16:59:59.105+03:00,92.00000000000001,1.533333333333333,2025-04-21T12:30:07.995+03:00,0.02023345852159405,0
2025-04-21T17:00:51.233+03:00,1745244050.777066,40.95225368581861,29.14027810012393,76.51794,-1,-1,-1,-1,30,26.17599130966446,-9999,21099.363399375,-0.6911468505859375,0.7042694091796875,-0.148284912109375,21099.358361375,1.870343723786857,-1.357082608364387,-0.7787529897892554,0.04743697866797447,0.01326819788664579,-0.01052779983729124,0.005823075771331787,0.0014495849609375,0.00583745539188385,XArbitraryZVertical,0.2918237168424567,-0.5825435273687308,0.7210125827111202,0.2358445566580614,-0.6955965757369995,0.7023923397064209,-0.1509639173746109,0,0,0,-1,-1,21095.701989625,unknown,2,2025-04-21T17:00:47.567+03:00,2025-04-20T21:57:49.637+03:00,6869,0.9902488,0,0,5622.382,5,6,2025-04-21T17:00:39.829+03:00,766936814.1330497,0,-39.12,100.2019,1,0.3,2025-04-21T16:59:59.105+03:00,92.00000000000001,1.533333333333333,2025-04-21T12:30:07.995+03:00,0.02023345852159405,0
2025-04-21T17:00:51.243+03:00,1745244050.777066,40.95225368581861,29.14027810012393,76.51794,-1,-1,-1,-1,30,26.17599130966446,-9999,21099.373475375,-0.690887451171875,0.70709228515625,-0.1450958251953125,21099.368437375,1.870934276516963,-1.356547811610618,-0.7786463159755773,0.04749936610460281,0.01259608194231987,-0.01245363242924213,0.004808366298675537,0.002059578895568848,0.003280416131019592,XArbitraryZVertical,0.2918359309463124,-0.5823709141264873,0.7211545460092006,0.2358216157550701,-0.6955888867378235,0.7023164033889771,-0.1513518095016479,0,0,0,-1,-1,21095.701989625,unknown,2,2025-04-21T17:00:47.567+03:00,2025-04-20T21:57:49.637+03:00,6869,0.9902488,0,0,5622.382,5,6,2025-04-21T17:00:39.829+03:00,766936814.1330497,0,-39.12,100.2019,1,0.3,2025-04-21T16:59:59.105+03:00,92.00000000000001,1.533333333333333,2025-04-21T12:30:07.995+03:00,0.02023345852159405,0
2025-04-21T17:00:51.254+03:00,1745244050.777066,40.95225368581861,29.14027810012393,76.51794,-1,-1,-1,-1,30,26.17599130966446,-9999,21099.383551375,-0.69183349609375,0.7066802978515625,-0.1435394287109375,21099.378513375,1.871528143559605,-1.356002776823656,-0.7785286690537547,0.04849272593855858,0.01771947182714939,-0.01157585345208645,0.00372314453125,0.004065990447998047,0.005691289901733398,XArbitraryZVertical,0.2918486592499615,-0.5821941991587249,0.7212978723770138,0.2358040729500869,-0.695587158203125,0.7022326588630676,-0.1517485529184341,0,0,0,-1,-1,21095.701989625,unknown,2,2025-04-21T17:00:47.567+03:00,2025-04-20T21:57:49.637+03:00,6869,0.9902488,0,0,5622.382,5,6,2025-04-21T17:00:39.829+03:00,766936814.1330497,0,-39.12,100.2019,1,0.3,2025-04-21T16:59:59.105+03:00,92.00000000000001,1.533333333333333,2025-04-21T12:30:07.995+03:00,0.02023345852159405,0
2025-04-21T17:00:51.263+03:00,1745244050.777066,40.95225368581861,29.14027810012393,76.51794,-1,-1,-1,-1,30,26.17599130966446,-9999,21099.393627375,-0.69500732421875,0.7019195556640625,-0.1444091796875,21099.388589375,1.872118814489773,-1.355395472519807,-0.7784042778905997,0.04580026865005493,0.02397390641272068,-0.009795530699193478,0.00507432222366333,0.005924642086029053,0.007841333746910095,XArbitraryZVertical,0.2918399726166989,-0.5820091085280725,0.7214495775221706,0.2358079084370122,-0.6955803632736206,0.7021440863609314,-0.1521896570920944,0,0,0,-1,-1,21095.701989625,unknown,2,2025-04-21T17:00:47.567+03:00,2025-04-20T21:57:49.637+03:00,6869,0.9902488,0,0,5622.382,5,6,2025-04-21T17:00:39.829+03:00,766936814.1330497,0,-39.12,100.2019,1,0.3,2025-04-21T16:59:59.105+03:00,92.00000000000001,1.533333333333333,2025-04-21T12:30:07.995+03:00,0.02023345852159405,0
2025-04-21T17:00:51.273+03:00,1745244050.777066,40.95225368581861,29.14027810012393,76.51794,-1,-1,-1,-1,30,26.17599130966446,-9999,21099.403704375,-0.695709228515625,0.705963134765625,-0.142730712890625,21099.398665375,1.872734866179189,-1.35473667334962,-0.7782831066714605,0.049209114164114,0.02446073107421398,-0.01162165962159634,0.001684784889221191,0.000548243522644043,0.008684039115905762,XArbitraryZVertical,0.2918190701164792,-0.5818149055063467,0.7216119100228086,0.2358161683471187,-0.6955629587173462,0.7020578384399414,-0.1526660919189453,0,0,0,-1,-1,21095.701989625,unknown,2,2025-04-21T17:00:47.567+03:00,2025-04-20T21:57:49.637+03:00,6869,0.9902488,0,0,5622.382,5,6,2025-04-21T17:00:39.829+03:00,766936814.1330497,0,-39.12,100.2019,1,0.3,2025-04-21T16:59:59.105+03:00,92.00000000000001,1.533333333333333,2025-04-21T12:30:07.995+03:00,0.02023345852159405,0
2025-04-21T17:00:51.284+03:00,1745244050.777066,40.95225368581861,29.14027810012393,76.51794,-1,-1,-1,-1,30,26.17599130966446,-9999,21099.413780375,-0.694244384765625,0.7053375244140625,-0.14605712890625,21099.408742375,1.873371503749448,-1.354053681633276,-0.7781295066711276,0.05404601618647575,0.02595536410808563,-0.01153187826275826,-0.0005421638488769531,0.00146639347076416,0.01018927991390228,XArbitraryZVertical,0.2918053013950851,-0.5816076946313589,0.7217785376494112,0.2358344268030248,-0.6955638527870178,0.7019484043121338,-0.1531643122434616,0,0,0,-1,-1,21095.701989625,unknown,2,2025-04-21T17:00:47.567+03:00,2025-04-20T21:57:49.637+03:00,6869,0.9902488,0,0,5622.382,5,6,2025-04-21T17:00:39.829+03:00,766936814.1330497,0,-39.12,100.2019,1,0.3,2025-04-21T16:59:59.105+03:00,92.00000000000001,1.533333333333333,2025-04-21T12:30:07.995+03:00,0.02023345852159405,0
2025-04-21T17:00:51.294+03:00,1745244050.777066,40.95225368581861,29.14027810012393,76.51794,-1,-1,-1,-1,30,26.17599130966446,-9999,21099.423856375,-0.692901611328125,0.69927978515625,-0.1552276611328125,21099.418818375,1.873954396626733,-1.353413195054204,-0.7779675398606037,0.04196831583976746,0.02414175122976303,-0.01051934435963631,0.001271069049835205,0.004663944244384766,0.01033884286880493,XArbitraryZVertical,0.2917937480931848,-0.5814114467572806,0.721932182687646,0.2358621565967954,-0.6955764889717102,0.7018330693244934,-0.1536342799663544,0,0,0,-1,-1,21095.701989625,unknown,2,2025-04-21T17:00:47.567+03:00,2025-04-20T21:57:49.637+03:00,6869,0.9902488,0,0,5622.382,5,6,2025-04-21T17:00:39.829+03:00,766936814.1330497,0,-39.12,100.2019,1,0.3,2025-04-21T16:59:59.105+03:00,92.00000000000001,1.533333333333333,2025-04-21T12:30:07.995+03:00,0.02023345852159405,0
2025-04-21T17:00:51.304+03:00,1745244050.777066,40.95225368581861,29.14027810012393,76.51794,-1,-1,-1,-1,30,26.17599130966446,-9999,21099.433932375,-0.6815185546875,0.70050048828125,-0.1545257568359375,21099.428894375,1.874402853130261,-1.352959281139969,-0.7778555275571489,0.0304278377443552,0.00656575383618474,-0.00557035906240344,0.002071380615234375,-0.0007647275924682617,0.002645388245582581,XArbitraryZVertical,0.2917949342358647,-0.5812677875344314,0.7220453846092159,0.2358680043783317,-0.6955833435058594,0.7017532587051392,-0.153966948390007,0,0,0,-1,-1,21095.701989625,unknown,2,2025-04-21T17:00:47.567+03:00,2025-04-20T21:57:49.637+03:00,6869,0.9902488,0,0,5622.382,5,6,2025-04-21T17:00:39.829+03:00,766936814.1330497,0,-39.12,100.2019,1,0.3,2025-04-21T16:59:59.105+03:00,92.00000000000001,1.533333333333333,2025-04-21T12:30:07.995+03:00,0.02023345852159405,0
2025-04-21T17:00:51.314+03:00,1745244050.777066,40.95225368581861,29.14027810012393,76.51794,-1,-1,-1,-1,30,26.17599130966446,-9999,21099.444008375,-0.6822509765625,0.696014404296875,-0.141021728515625,21099.438970375,1.874703706879437,-1.352722777131536,-0.7777831607454562,0.02091795578598976,0.006796916015446186,-0.005792999640107155,0.008661270141601562,-0.002742528915405273,-0.003114700317382812,XArbitraryZVertical,0.2918192741520463,-0.5811800631745495,0.7221116535944261,0.2358515933289737,-0.6955966949462891,0.7017017006874084,-0.1541424840688705,0,0,0,-1,-1,21095.701989625,unknown,2,2025-04-21T17:00:47.567+03:00,2025-04-20T21:57:49.637+03:00,6869,0.9902488,0,0,5622.382,5,6,2025-04-21T17:00:39.829+03:00,766936814.1330497,0,-39.12,100.2019,1,0.3,2025-04-21T16:59:59.105+03:00,92.00000000000001,1.533333333333333,2025-04-21T12:30:07.995+03:00,0.02023345852159405,0
2025-04-21T17:00:51.324+03:00,1745244050.777066,40.95225368581861,29.14027810012393,76.51794,-1,-1,-1,-1,30,26.17599130966446,-9999,21099.454084375,-0.6937255859375,0.685028076171875,-0.14642333984375,21099.449046375,1.874805165425324,-1.352515421433948,-0.7777874380158835,-0.00185133854392916,0.01771367900073528,0.002561303786933422,0.01683557033538818,-0.002135157585144043,0.00973944365978241,XArbitraryZVertical,0.2917725412895121,-0.5811417560383244,0.7221541135609236,0.2358739105012311,-0.6955618262290955,0.701704740524292,-0.1542860865592957,0,0,0,-1,-1,21095.701989625,unknown,2,2025-04-21T17:00:47.567+03:00,2025-04-20T21:57:49.637+03:00,6869,0.9902488,0,0,5622.382,5,6,2025-04-21T17:00:39.829+03:00,766936814.1330497,0,-39.12,100.2019,1,0.3,2025-04-21T16:59:59.105+03:00,92.00000000000001,1.533333333333333,2025-04-21T12:30:07.995+03:00,0.02023345852159405,0
2025-04-21T17:00:51.334+03:00,1745244050.777066,40.95225368581861,29.14027810012393,76.51794,-1,-1,-1,-1,30,26.17599130966446,-9999,21099.464161375,-0.6913604736328125,0.6907806396484375,-0.1410980224609375,21099.459122375,1.874666507575367,-1.352506125539975,-0.7778771779146768,-0.008767567574977875,0.01160385552793741,0.006620493717491627,0.004870772361755371,-0.01378059387207031,0.01099872589111328,XArbitraryZVertical,0.2917011798535231,-0.5811806731053887,0.7221437723448577,0.2358977682131653,-0.6954988241195679,0.701768696308136,-0.154278889298439,0,0,0,-1,-1,21095.701989625,unknown,2,2025-04-21T17:00:47.567+03:00,2025-04-20T21:57:49.637+03:00,6869,0.9902488,0,0,5622.382,5,6,2025-04-21T17:00:39.829+03:00,766936814.1330497,0,-39.12,100.2019,1,0.3,2025-04-21T16:59:59.105+03:00,92.00000000000001,1.533333333333333,2025-04-21T12:30:07.995+03:00,0.02023345852159405,0
2025-04-21T17:00:51.344+03:00,1745244050.777066,40.95225368581861,29.14027810012393,76.51794,-1,-1,-1,-1,30,26.17599130966446,-9999,21099.474237375,-0.6868743896484375,0.6954803466796875,-0.135223388671875,21099.469199375,1.874518221080544,-1.352489953234044,-0.7780312399838373,-0.006896630860865116,0.02221368812024593,0.009385021403431892,0.0008412003517150879,-0.01466846466064453,0.008255228400230408,XArbitraryZVertical,0.2916045774059852,-0.5812343764588488,0.7221367062142927,0.2359066488901414,-0.6953908205032349,0.7018784284591675,-0.154266744852066,0,0,0,-1,-1,21095.701989625,unknown,2,2025-04-21T17:00:47.567+03:00,2025-04-20T21:57:49.637+03:00,6869,0.9902488,0,0,5622.382,5,6,2025-04-21T17:00:39.829+03:00,766936814.1330497,0,-39.12,100.2019,1,0.3,2025-04-21T16:59:59.105+03:00,92.00000000000001,1.533333333333333,2025-04-21T12:30:07.995+03:00,0.02023345852159405,0
2025-04-21T17:00:51.354+03:00,1745244050.777066,40.95225368581861,29.14027810012393,76.51794,-1,-1,-1,-1,30,26.17599130966446,-9999,21099.484313375,-0.69775390625,0.6903228759765625,-0.142913818359375,21099.479275375,1.874374240359607,-1.35229083927741,-0.778192141646799,-0.01022824458777905,0.04525988548994064,0.0149971004575491,0.008909463882446289,-0.006680667400360107,0.01923345029354095,XArbitraryZVertical,0.2914410623372212,-0.5812673614253343,0.7221571520511777,0.2359649046551722,-0.6952499151229858,0.7019930481910706,-0.1543807238340378,0,0,0,-1,-1,21095.701989625,unknown,2,2025-04-21T17:00:47.567+03:00,2025-04-20T21:57:49.637+03:00,6869,0.9902488,0,0,5622.382,5,6,2025-04-21T17:00:39.829+03:00,766936814.1330497,0,-39.12,100.2019,1,0.3,2025-04-21T16:59:59.105+03:00,92.00000000000001,1.533333333333333,2025-04-21T12:30:07.995+03:00,0.02023345852159405,0
2025-04-21T17:00:51.364+03:00,1745244050.777066,40.95225368581861,29.14027810012393,76.51794,-1,-1,-1,-1,30,26.17599130966446,-9999,21099.494389375,-0.6992034912109375,0.6949462890625,-0.1483001708984375,21099.489351375,1.874227904168002,-1.351957516294183,-0.7783794323792987,-0.00634788628667593,0.04648054763674736,0.01638680510222912,0.002122640609741211,-0.009621679782867432,0.01545411348342896,XArbitraryZVertical,0.2912202417981459,-0.5812906463001282,0.722198201926916,0.2360545158311331,-0.6950700283050537,0.7021263837814331,-0.1545839160680771,0,0,0,-1,-1,21095.701989625,unknown,2,2025-04-21T17:00:47.567+03:00,2025-04-20T21:57:49.637+03:00,6869,0.9902488,0,0,5622.382,5,6,2025-04-21T17:00:39.829+03:00,766936814.1330497,0,-39.12,100.2019,1,0.3,2025-04-21T16:59:59.105+03:00,92.00000000000001,1.533333333333333,2025-04-21T12:30:07.995+03:00,0.02023345852159405,0
2025-04-21T17:00:51.374+03:00,1745244050.777066,40.95225368581861,29.14027810012393,76.51794,-1,-1,-1,-1,30,26.17599130966446,-9999,21099.504465375,-0.6894073486328125,0.7001190185546875,-0.15264892578125,21099.499427375,1.874093375203693,-1.351639644012562,-0.7785741103574472,-0.01506840717047453,0.04120589047670364,0.01248340960592031,-0.005964040756225586,-0.01009595394134521,0.007588669657707214,XArbitraryZVertical,0.2910061181248971,-0.5813156394565017,0.7222387381583157,0.236133055136224,-0.6948874592781067,0.7022650241851807,-0.1547751277685165,0,0,0,-1,-1,21095.701989625,unknown,2,2025-04-21T17:00:47.567+03:00,2025-04-20T21:57:49.637+03:00,6869,0.9902488,0,0,5622.382,5,6,2025-04-21T17:00:39.829+03:00,766936814.1330497,0,-39.12,100.2019,1,0.3,2025-04-21T16:59:59.105+03:00,92.00000000000001,1.533333333333333,2025-04-21T12:30:07.995+03:00,0.02023345852159405,0
2025-04-21T17:00:51.385+03:00,1745244050.777066,40.95225368581861,29.14027810012393,76.51794,-1,-1,-1,-1,30,26.17599130966446,-9999,21099.514541375,-0.688720703125,0.7011260986328125,-0.161773681640625,21099.509503375,1.873896571743055,-1.351424090772841,-0.7787072363848854,-0.01580257341265678,0.03206918388605118,0.007247135974466801,0.001525282859802246,-0.003309071063995361,0.005200445652008057,XArbitraryZVertical,0.2908299746127241,-0.5813481473712838,0.7222537069067352,0.236223794400883,-0.6947625875473022,0.7023597955703735,-0.1549045145511627,0,0,0,-1,-1,21095.701989625,unknown,2,2025-04-21T17:00:47.567+03:00,2025-04-20T21:57:49.637+03:00,6869,0.9902488,0,0,5622.382,5,6,2025-04-21T17:00:39.829+03:00,766936814.1330497,0,-39.12,100.2019,1,0.3,2025-04-21T16:59:59.105+03:00,92.00000000000001,1.533333333333333,2025-04-21T12:30:07.995+03:00,0.02023345852159405,0
2025-04-21T17:00:51.401+03:00,1745244050.777066,40.95225368581861,29.14027810012393,76.51794,-1,-1,-1,-1,30,26.17599130966446,-9999,21099.524618375,-0.694854736328125,0.7026824951171875,-0.16455078125,21099.519579375,1.873734767908945,-1.351282542351204,-0.7787901941302282,-0.01492958981543779,0.01527821831405163,0.0006515508284792304,0.006863415241241455,-0.001735448837280273,-0.003319904208183289,XArbitraryZVertical,0.2907061448518495,-0.5813732454528819,0.72225949563987,0.2362967882568586,-0.6946837902069092,0.7024188637733459,-0.154990166425705,0,0,0,-1,-1,21095.701989625,unknown,2,2025-04-21T17:00:47.567+03:00,2025-04-20T21:57:49.637+03:00,6869,0.9902488,0,0,5622.382,5,6,2025-04-21T17:00:39.829+03:00,766936814.1330497,0,-39.12,100.2019,1,0.3,2025-04-21T16:59:59.105+03:00,92.00000000000001,1.533333333333333,2025-04-21T12:30:07.995+03:00,0.02023345852159405,0
2025-04-21T17:00:51.405+03:00,1745244050.777066,40.95225368581861,29.14027810012393,76.51794,-1,-1,-1,-1,30,26.17599130966446,-9999,21099.534694375,-0.69976806640625,0.7093048095703125,-0.1598968505859375,21099.529656375,1.87352212203978,-1.351391040764202,-0.7788424459287374,-0.009339149110019207,-0.001524796709418297,-0.00791453942656517,0.002816081047058105,-0.001116514205932617,-0.009827181696891785,XArbitraryZVertical,0.2906673385727241,-0.5814284923703618,0.7222213211153583,0.236325280149072,-0.6946647763252258,0.7024560570716858,-0.1549068093299866,0,0,0,-1,-1,21095.701989625,unknown,2,2025-04-21T17:00:47.567+03:00,2025-04-20T21:57:49.637+03:00,6869,0.9902488,0,0,5622.382,5,6,2025-04-21T17:00:39.829+03:00,766936814.1330497,0,-39.12,100.2019,1,0.3,2025-04-21T16:59:59.105+03:00,92.00000000000001,1.533333333333333,2025-04-21T12:30:07.995+03:00,0.02023345852159405,0
2025-04-21T17:00:51.415+03:00,1745244050.777066,40.95225368581861,29.14027810012393,76.51794,-1,-1,-1,-1,30,26.17599130966446,-9999,21099.544770375,-0.7003021240234375,0.703338623046875,-0.153717041015625,21099.539732375,1.8733022215398,-1.351618023769848,-0.7787144175031465,-0.008775890804827213,-0.004275575280189514,-0.01613358780741692,-0.003423869609832764,0.00550544261932373,-0.007768034934997559,XArbitraryZVertical,0.2907249560224257,-0.5814590672654061,0.7221557005744452,0.2363798790187795,-0.6947878003120422,0.7023649215698242,-0.154768705368042,0,0,0,-1,-1,21095.701989625,unknown,2,2025-04-21T17:00:47.567+03:00,2025-04-20T21:57:49.637+03:00,6869,0.9902488,0,0,5622.382,5,6,2025-04-21T17:00:39.829+03:00,766936814.1330497,0,-39.12,100.2019,1,0.3,2025-04-21T16:59:59.105+03:00,92.00000000000001,1.533333333333333,2025-04-21T12:30:07.995+03:00,0.02023345852159405,0
2025-04-21T17:00:51.425+03:00,1745244050.777066,40.95225368581861,29.14027810012393,76.51794,-1,-1,-1,-1,30,26.17599130966446,-9999,21099.554846375,-0.702972412109375,0.70050048828125,-0.1505889892578125,21099.549808375,1.873045044121895,-1.351850985766875,-0.7785155085224724,-0.01003390084952116,0.001380246132612228,-0.01828432269394398,-0.005448639392852783,0.004945158958435059,-0.001780763268470764,XArbitraryZVertical,0.2907957944111699,-0.5814801764498295,0.7220810965368892,0.2364690100542033,-0.694960355758667,0.7022233009338379,-0.1546372175216675,0,0,0,-1,-1,21095.701989625,unknown,2,2025-04-21T17:00:47.567+03:00,2025-04-20T21:57:49.637+03:00,6869,0.9902488,0,0,5622.382,5,6,2025-04-21T17:00:39.829+03:00,766936814.1330497,0,-39.12,100.2019,1,0.3,2025-04-21T16:59:59.105+03:00,92.00000000000001,1.533333333333333,2025-04-21T12:30:07.995+03:00,0.02023345852159405,0
2025-04-21T17:00:51.435+03:00,1745244050.777066,40.95225368581861,29.14027810012393,76.51794,-1,-1,-1,-1,30,26.17599130966446,-9999,21099.564922375,-0.6984710693359375,0.7026519775390625,-0.1508331298828125,21099.559884375,1.872771651202875,-1.352056511529666,-0.7783546451410315,-0.005437817890197039,0.004533961415290833,-0.02457471005618572,-0.007107257843017578,-0.001730501651763916,0.003655076026916504,XArbitraryZVertical,0.2908403716823688,-0.5815087740395946,0.7220103996331941,0.2365593214332959,-0.6951022148132324,0.7021087408065796,-0.1545188426971436,0,0,0,-1,-1,21095.701989625,unknown,2,2025-04-21T17:00:47.567+03:00,2025-04-20T21:57:49.637+03:00,6869,0.9902488,0,0,5622.382,5,6,2025-04-21T17:00:39.829+03:00,766936814.1330497,0,-39.12,100.2019,1,0.3,2025-04-21T16:59:59.105+03:00,92.00000000000001,1.533333333333333,2025-04-21T12:30:07.995+03:00,0.02023345852159405,0
2025-04-21T17:00:51.445+03:00,1745244050.777066,40.95225368581861,29.14027810012393,76.51794,-1,-1,-1,-1,30,26.17599130966446,-9999,21099.574998375,-0.6921844482421875,0.6988067626953125,-0.1497955322265625,21099.569960375,1.872544134892202,-1.352236646364281,-0.7781272765395651,-0.006181905046105385,0.004460724536329508,-0.02129942178726196,-0.0053977370262146,0.0001099109649658203,0.00402224063873291,XArbitraryZVertical,0.2909096092418323,-0.581513091850917,0.7219453716865234,0.2366620486478135,-0.6952858567237854,0.7019468545913696,-0.154428243637085,0,0,0,-1,-1,21095.701989625,unknown,2,2025-04-21T17:00:47.567+03:00,2025-04-20T21:57:49.637+03:00,6869,0.9902488,0,0,5622.382,5,6,2025-04-21T17:00:39.829+03:00,766936814.1330497,0,-39.12,100.2019,1,0.3,2025-04-21T16:59:59.105+03:00,92.00000000000001,1.533333333333333,2025-04-21T12:30:07.995+03:00,0.02023345852159405,0
2025-04-21T17:00:51.455+03:00,1745244050.777066,40.95225368581861,29.14027810012393,76.51794,-1,-1,-1,-1,30,26.17599130966446,-9999,21099.585075375,-0.6912384033203125,0.6943817138671875,-0.150634765625,21099.580037375,1.872335694357692,-1.352357379888733,-0.7778875307775711,-0.007749175652861595,0.01043792348355055,-0.01857474073767662,0.0009497404098510742,-0.001046836376190186,0.004340946674346924,XArbitraryZVertical,0.2909667707215534,-0.581504902159812,0.7218905573604194,0.2367791472657832,-0.6954687833786011,0.7017760872840881,-0.1543807685375214,0,0,0,-1,-1,21095.701989625,unknown,2,2025-04-21T17:00:47.567+03:00,2025-04-20T21:57:49.637+03:00,6869,0.9902488,0,0,5622.382,5,6,2025-04-21T17:00:39.829+03:00,766936814.1330497,0,-39.12,100.2019,1,0.3,2025-04-21T16:59:59.105+03:00,92.00000000000001,1.533333333333333,2025-04-21T12:30:07.995+03:00,0.02023345852159405,0
2025-04-21T17:00:51.465+03:00,1745244050.777066,40.95225368581861,29.14027810012393,76.51794,-1,-1,-1,-1,30,26.17599130966446,-9999,21099.595151375,-0.6934814453125,0.693115234375,-0.152130126953125,21099.590113375,1.872161042718467,-1.352385575559333,-0.7777611408617753,-0.00943482294678688,0.00840100459754467,-0.01102514564990997,0.00496220588684082,-0.00585484504699707,0.004477843642234802,XArbitraryZVertical,0.2909652585033929,-0.5815058203893367,0.7218591482500057,0.2368746194257147,-0.6955597996711731,0.7016860246658325,-0.1543803960084915,0,0,0,-1,-1,21095.701989625,unknown,2,2025-04-21T17:00:47.567+03:00,2025-04-20T21:57:49.637+03:00,6869,0.9902488,0,0,5622.382,5,6,2025-04-21T17:00:39.829+03:00,766936814.1330497,0,-39.12,100.2019,1,0.3,2025-04-21T16:59:59.105+03:00,92.00000000000001,1.533333333333333,2025-04-21T12:30:07.995+03:00,0.02023345852159405,0
2025-04-21T17:00:51.475+03:00,1745244050.777066,40.95225368581861,29.14027810012393,76.51794,-1,-1,-1,-1,30,26.17599130966446,-9999,21099.605227375,-0.693328857421875,0.6961669921875,-0.1513214111328125,21099.600189375,1.87201821988381,-1.35238685889817,-0.7777033925010837,-0.008690202608704567,0.009805821813642979,-0.008889823220670223,0.003125190734863281,-0.009201109409332275,0.003356680274009705,XArbitraryZVertical,0.2909420506886271,-0.5815140367214207,0.7218390185034858,0.2369443779547409,-0.6955996155738831,0.7016448974609375,-0.1543882936239243,0,0,0,-1,-1,21095.701989625,unknown,2,2025-04-21T17:00:47.567+03:00,2025-04-20T21:57:49.637+03:00,6869,0.9902488,0,0,5622.382,5,6,2025-04-21T17:00:39.829+03:00,766936814.1330497,0,-39.12,100.2019,1,0.3,2025-04-21T16:59:59.105+03:00,92.00000000000001,1.533333333333333,2025-04-21T12:30:07.995+03:00,0.02023345852159405,0
2025-04-21T17:00:51.485+03:00,1745244050.777066,40.95225368581861,29.14027810012393,76.51794,-1,-1,-1,-1,30,26.17599130966446,-9999,21099.615303375,-0.6924285888671875,0.694549560546875,-0.1509857177734375,21099.610265375,1.871876621210295,-1.352336189628504,-0.7776621791763422,-0.01507493201643229,0.01441142614930868,-0.003145950380712748,0.001665472984313965,-0.006562530994415283,0.002497896552085876,XArbitraryZVertical,0.2908953562533776,-0.5815195521145492,0.7218274339816073,0.2370234155912202,-0.6956200003623962,0.7016155123710632,-0.1544298082590103,0,0,0,-1,-1,21095.701989625,unknown,2,2025-04-21T17:00:47.567+03:00,2025-04-20T21:57:49.637+03:00,6869,0.9902488,0,0,5622.382,5,6,2025-04-21T17:00:39.829+03:00,766936814.1330497,0,-39.12,100.2019,1,0.3,2025-04-21T16:59:59.105+03:00,92.00000000000001,1.533333333333333,2025-04-21T12:30:07.995+03:00,0.02023345852159405,0
2025-04-21T17:00:51.495+03:00,1745244050.777066,40.95225368581861,29.14027810012393,76.51794,-1,-1,-1,-1,30,26.17599130966446,-9999,21099.625379375,-0.6961822509765625,0.6963043212890625,-0.1484832763671875,21099.620341375,1.871672689540239,-1.352291882259346,-0.7776760586731358,-0.01534018386155367,0.0173795185983181,-0.002302261069417,0.003251254558563232,-0.005702674388885498,0.003396332263946533,XArbitraryZVertical,0.2908157992391292,-0.5815470072452472,0.7218104147817785,0.2371053655863681,-0.6956035494804382,0.7016254067420959,-0.1544584929943085,0,0,0,-1,-1,21095.701989625,unknown,2,2025-04-21T17:00:47.567+03:00,2025-04-20T21:57:49.637+03:00,6869,0.9902488,0,0,5622.382,5,6,2025-04-21T17:00:39.829+03:00,766936814.1330497,0,-39.12,100.2019,1,0.3,2025-04-21T16:59:59.105+03:00,92.00000000000001,1.533333333333333,2025-04-21T12:30:07.995+03:00,0.02023345852159405,0
2025-04-21T17:00:51.506+03:00,1745244050.777066,40.95225368581861,29.14027810012393,76.51794,-1,-1,-1,-1,30,26.17599130966446,-9999,21099.635455375,-0.698089599609375,0.7001495361328125,-0.15093994140625,21099.630417375,1.871558827882907,-1.352162190425847,-0.7776940116527512,-0.003377862507477403,0.02455267682671547,0.001317474292591214,0.0003350377082824707,-0.007271826267242432,0.004933401942253113,XArbitraryZVertical,0.2907303003326056,-0.5815521429667493,0.7218167369904682,0.2371784912819013,-0.6955713033676147,0.7016382217407227,-0.1545459926128387,0,0,0,-1,-1,21095.701989625,unknown,2,2025-04-21T17:00:47.567+03:00,2025-04-20T21:57:49.637+03:00,6869,0.9902488,0,0,5622.382,5,6,2025-04-21T17:00:39.829+03:00,766936814.1330497,0,-39.12,100.2019,1,0.3,2025-04-21T16:59:59.105+03:00,92.00000000000001,1.533333333333333,2025-04-21T12:30:07.995+03:00,0.02023345852159405,0
2025-04-21T17:00:51.516+03:00,1745244050.777066,40.95225368581861,29.14027810012393,76.51794,-1,-1,-1,-1,30,26.17599130966446,-9999,21099.645532375,-0.700225830078125,0.7001800537109375,-0.153472900390625,21099.640494375,1.871502088857848,-1.351972862773067,-0.7776795804611664,-0.001639883732423186,0.02561767399311066,-0.0008197124116122723,-0.001576483249664307,-0.00279080867767334,0.005296170711517334,XArbitraryZVertical,0.2906499839569122,-0.581534744981723,0.7218367284987899,0.2372585129834156,-0.6955518126487732,0.7016279101371765,-0.1546798497438431,0,0,0,-1,-1,21095.701989625,unknown,2,2025-04-21T17:00:47.567+03:00,2025-04-20T21:57:49.637+03:00,6869,0.9902488,0,0,5622.382,5,6,2025-04-21T17:00:39.829+03:00,766936814.1330497,0,-39.12,100.2019,1,0.3,2025-04-21T16:59:59.105+03:00,92.00000000000001,1.533333333333333,2025-04-21T12:30:07.995+03:00,0.02023345852159405,0
2025-04-21T17:00:51.526+03:00,1745244050.777066,40.95225368581861,29.14027810012393,76.51794,-1,-1,-1,-1,30,26.17599130966446,-9999,21099.655608375,-0.699432373046875,0.701690673828125,-0.1526641845703125,21099.650570375,1.871444469762938,-1.351761036000836,-0.7776917195669572,-0.003274931339547038,0.02387530170381069,0.003068702295422554,-0.003158807754516602,-0.0006479620933532715,0.002450942993164062,XArbitraryZVertical,0.2905530446677987,-0.5815206510093447,0.7218612891501207,0.2373369284613038,-0.6955106258392334,0.7016365528106689,-0.1548253148794174,0,0,0,-1,-1,21095.701989625,unknown,2,2025-04-21T17:00:47.567+03:00,2025-04-20T21:57:49.637+03:00,6869,0.9902488,0,0,5622.382,5,6,2025-04-21T17:00:39.829+03:00,766936814.1330497,0,-39.12,100.2019,1,0.3,2025-04-21T16:59:59.105+03:00,92.00000000000001,1.533333333333333,2025-04-21T12:30:07.995+03:00,0.02023345852159405,0
2025-04-21T17:00:51.536+03:00,1745244050.777066,40.95225368581861,29.14027810012393,76.51794,-1,-1,-1,-1,30,26.17599130966446,-9999,21099.665684375,-0.6963043212890625,0.7009124755859375,-0.1552276611328125,21099.660646375,1.871345072542292,-1.351635393146767,-0.7777188010724826,-0.006233969703316689,0.01891090348362923,-0.0003366816963534802,-0.00440216064453125,-0.0005909204483032227,0.001832231879234314,XArbitraryZVertical,0.2904703691582089,-0.5815261515044079,0.721869201728756,0.237400775888074,-0.6954727172851562,0.7016558647155762,-0.1549085974693298,0,0,0,-1,-1,21095.701989625,unknown,2,2025-04-21T17:00:47.567+03:00,2025-04-20T21:57:49.637+03:00,6869,0.9902488,0,0,5622.382,5,6,2025-04-21T17:00:39.829+03:00,766936814.1330497,0,-39.12,100.2019,1,0.3,2025-04-21T16:59:59.105+03:00,92.00000000000001,1.533333333333333,2025-04-21T12:30:07.995+03:00,0.02023345852159405,0
2025-04-21T17:00:51.546+03:00,1745244050.777066,40.95225368581861,29.14027810012393,76.51794,-1,-1,-1,-1,30,26.17599130966446,-9999,21099.675760375,-0.6967010498046875,0.7028961181640625,-0.158233642578125,21099.670722375,1.871251683000138,-1.351510239550516,-0.7777177666019263,-0.004531877115368843,0.0201655849814415,-0.002768647158518434,-0.002299845218658447,-0.0004528164863586426,0.001522764563560486,XArbitraryZVertical,0.2903983527973222,-0.581524629892939,0.7218762427203163,0.2374712355994038,-0.6954540610313416,0.7016550898551941,-0.1549957990646362,0,0,0,-1,-1,21095.701989625,unknown,2,2025-04-21T17:00:47.567+03:00,2025-04-20T21:57:49.637+03:00,6869,0.9902488,0,0,5622.382,5,6,2025-04-21T17:00:39.829+03:00,766936814.1330497,0,-39.12,100.2019,1,0.3,2025-04-21T16:59:59.105+03:00,92.00000000000001,1.533333333333333,2025-04-21T12:30:07.995+03:00,0.02023345852159405,0
2025-04-21T17:00:51.556+03:00,1745244050.777066,40.95225368581861,29.14027810012393,76.51794,-1,-1,-1,-1,30,26.17599130966446,-9999,21099.685836375,-0.6934967041015625,0.70245361328125,-0.15435791015625,21099.680798375,1.871135123427398,-1.351449299549771,-0.7776998215980616,-0.01059349719434977,0.0132994232699275,0.0001435196027159691,-0.001534104347229004,0.0002160072326660156,-0.002063751220703125,XArbitraryZVertical,0.2903480462518365,-0.581530358102611,0.721870284794112,0.2375367081091292,-0.695456862449646,0.7016423344612122,-0.15504090487957,0,0,0,-1,-1,21095.701989625,unknown,2,2025-04-21T17:00:47.567+03:00,2025-04-20T21:57:49.637+03:00,6869,0.9902488,0,0,5622.382,5,6,2025-04-21T17:00:39.829+03:00,766936814.1330497,0,-39.12,100.2019,1,0.3,2025-04-21T16:59:59.105+03:00,92.00000000000001,1.533333333333333,2025-04-21T12:30:07.995+03:00,0.02023345852159405,0
2025-04-21T17:00:51.566+03:00,1745244050.777066,40.95225368581861,29.14027810012393,76.51794,-1,-1,-1,-1,30,26.17599130966446,-9999,21099.695913375,-0.6912994384765625,0.7015380859375,-0.1502227783203125,21099.690875375,1.870982976960447,-1.351433044341696,-0.7776922797300432,-0.01342210825532675,0.01254754699766636,-0.0003027263446711004,0.0003911256790161133,0.001579403877258301,-0.001318857073783875,XArbitraryZVertical,0.2903003002383836,-0.5815488461003037,0.721854154408666,0.2375986910660896,-0.6954594254493713,0.7016369700431824,-0.1550533473491669,0,0,0,-1,-1,21095.701989625,unknown,2,2025-04-21T17:00:47.567+03:00,2025-04-20T21:57:49.637+03:00,6869,0.9902488,0,0,5622.382,5,6,2025-04-21T17:00:39.829+03:00,766936814.1330497,0,-39.12,100.2019,1,0.3,2025-04-21T16:59:59.105+03:00,92.00000000000001,1.533333333333333,2025-04-21T12:30:07.995+03:00,0.02023345852159405,0
2025-04-21T17:00:51.576+03:00,1745244050.777066,40.95225368581861,29.14027810012393,76.51794,-1,-1,-1,-1,30,26.17599130966446,-9999,21099.705989375,-0.694854736328125,0.701171875,-0.154296875,21099.700951375,1.87078517225101,-1.351449500462319,-0.7776931141530076,-0.01213313825428486,0.01752659305930138,-0.00288093276321888,0.004406213760375977,0.001105785369873047,0.0040559321641922,XArbitraryZVertical,0.2902484465250644,-0.5815796979483335,0.7218283209555852,0.237665080464459,-0.6954614520072937,0.7016375660896301,-0.1550417840480804,0,0,0,-1,-1,21095.701989625,unknown,2,2025-04-21T17:00:47.567+03:00,2025-04-20T21:57:49.637+03:00,6869,0.9902488,0,0,5622.382,5,6,2025-04-21T17:00:39.829+03:00,766936814.1330497,0,-39.12,100.2019,1,0.3,2025-04-21T16:59:59.105+03:00,92.00000000000001,1.533333333333333,2025-04-21T12:30:07.995+03:00,0.02023345852159405,0
2025-04-21T17:00:51.586+03:00,1745244050.777066,40.95225368581861,29.14027810012393,76.51794,-1,-1,-1,-1,30,26.17599130966446,-9999,21099.716065375,-0.6950836181640625,0.7026214599609375,-0.1626129150390625,21099.711027375,1.87056746569002,-1.351464415834631,-0.7776489054183171,-0.01396665722131729,0.01555911544710398,-0.004076525568962097,0.001966893672943115,-0.0001291632652282715,0.003731906414031982,XArbitraryZVertical,0.2902041859900155,-0.5816033360520849,0.721797970992397,0.2377535721352682,-0.6954941153526306,0.7016060352325439,-0.1550381779670715,0,0,0,-1,-1,21095.701989625,unknown,2,2025-04-21T17:00:47.567+03:00,2025-04-20T21:57:49.637+03:00,6869,0.9902488,0,0,5622.382,5,6,2025-04-21T17:00:39.829+03:00,766936814.1330497,0,-39.12,100.2019,1,0.3,2025-04-21T16:59:59.105+03:00,92.00000000000001,1.533333333333333,2025-04-21T12:30:07.995+03:00,0.02023345852159405,0
2025-04-21T17:00:51.596+03:00,1745244050.777066,40.95225368581861,29.14027810012393,76.51794,-1,-1,-1,-1,30,26.17599130966446,-9999,21099.726141375,-0.68853759765625,0.7000732421875,-0.1641387939453125,21099.721103375,1.870305869295295,-1.351572846019925,-0.7776223175579742,-0.01846127584576607,0.00565987965092063,-0.004801437724381685,-0.0001953840255737305,0.001736104488372803,-0.005204856395721436,XArbitraryZVertical,0.2901754891619665,-0.5816483283341332,0.721749721817719,0.2378249323094847,-0.6955291032791138,0.7015870809555054,-0.1549668163061142,0,0,0,-1,-1,21095.701989625,unknown,2,2025-04-21T17:00:47.567+03:00,2025-04-20T21:57:49.637+03:00,6869,0.9902488,0,0,5622.382,5,6,2025-04-21T17:00:39.829+03:00,766936814.1330497,0,-39.12,100.2019,1,0.3,2025-04-21T16:59:59.105+03:00,92.00000000000001,1.533333333333333,2025-04-21T12:30:07.995+03:00,0.02023345852159405,0
2025-04-21T17:00:51.606+03:00,1745244050.777066,40.95225368581861,29.14027810012393,76.51794,-1,-1,-1,-1,30,26.17599130966446,-9999,21099.736217375,-0.684326171875,0.699615478515625,-0.162506103515625,21099.731179375,1.870058828041548,-1.351746358116793,-0.7776338899191356,-0.02007082290947437,-0.002774817403405905,0.000561402877792716,0.004218041896820068,-0.0002557635307312012,-0.009874403476715088,XArbitraryZVertical,0.2901626780745863,-0.5817073489845123,0.7216957741247721,0.2378598783959742,-0.6955480575561523,0.7015953660011292,-0.1548443585634232,0,0,0,-1,-1,21095.701989625,unknown,2,2025-04-21T17:00:47.567+03:00,2025-04-20T21:57:49.637+03:00,6869,0.9902488,0,0,5622.382,5,6,2025-04-21T17:00:39.829+03:00,766936814.1330497,0,-39.12,100.2019,1,0.3,2025-04-21T16:59:59.105+03:00,92.00000000000001,1.533333333333333,2025-04-21T12:30:07.995+03:00,0.02023345852159405,0
2025-04-21T17:00:51.617+03:00,1745244050.777066,40.95225368581861,29.14027810012393,76.51794,-1,-1,-1,-1,30,26.17599130966446,-9999,21099.746293375,-0.68572998046875,0.696807861328125,-0.159820556640625,21099.741255375,1.869723583175161,-1.352062247059101,-0.7776783718313982,-0.02597158960998058,-0.009424464777112007,0.003445339854806662,0.01090461015701294,-0.001950681209564209,-0.008117258548736572,XArbitraryZVertical,0.2901653599972494,-0.5818033429134045,0.7216124311615248,0.2378747087712282,-0.6955664753913879,0.7016270756721497,-0.1546178609132767,0,0,0,-1,-1,21095.701989625,unknown,2,2025-04-21T17:00:47.567+03:00,2025-04-20T21:57:49.637+03:00,6869,0.9902488,0,0,5622.382,5,6,2025-04-21T17:00:39.829+03:00,766936814.1330497,0,-39.12,100.2019,1,0.3,2025-04-21T16:59:59.105+03:00,92.00000000000001,1.533333333333333,2025-04-21T12:30:07.995+03:00,0.02023345852159405,0
2025-04-21T17:00:51.626+03:00,1745244050.777066,40.95225368581861,29.14027810012393,76.51794,-1,-1,-1,-1,30,26.17599130966446,-9999,21099.756370375,-0.6907958984375,0.695068359375,-0.1592254638671875,21099.751332375,1.86930834933129,-1.352428412513745,-0.7777793784249951,-0.03057100065052509,-0.006559036206454039,0.00432518171146512,0.01023578643798828,-0.003228127956390381,-0.007029280066490173,XArbitraryZVertical,0.290145422928155,-0.5819293288395967,0.7215152339460359,0.2378854260667464,-0.695553719997406,0.7016990184783936,-0.1543477773666382,0,0,0,-1,-1,21095.701989625,unknown,2,2025-04-21T17:00:47.567+03:00,2025-04-20T21:57:49.637+03:00,6869,0.9902488,0,0,5622.382,5,6,2025-04-21T17:00:39.829+03:00,766936814.1330497,0,-39.12,100.2019,1,0.3,2025-04-21T16:59:59.105+03:00,92.00000000000001,1.533333333333333,2025-04-21T12:30:07.995+03:00,0.02023345852159405,0
2025-04-21T17:00:51.637+03:00,1745244050.777066,40.95225368581861,29.14027810012393,76.51794,-1,-1,-1,-1,30,26.17599130966446,-9999,21099.766446375,-0.6950531005859375,0.7009124755859375,-0.15972900390625,21099.761408375,1.868939139820472,-1.352718805420221,-0.7778917681377465,-0.02902823127806187,-0.004261794034391642,0.004971264861524105,0.006800949573516846,-0.00730597972869873,-0.004105031490325928,XArbitraryZVertical,0.2901078509621619,-0.5820421394159959,0.721435217220892,0.2378982631427808,-0.6955216526985168,0.7017790675163269,-0.154128760099411,0,0,0,-1,-1,21095.701989625,unknown,2,2025-04-21T17:00:47.567+03:00,2025-04-20T21:57:49.637+03:00,6869,0.9902488,0,0,5622.382,5,6,2025-04-21T17:00:39.829+03:00,766936814.1330497,0,-39.12,100.2019,1,0.3,2025-04-21T16:59:59.105+03:00,92.00000000000001,1.533333333333333,2025-04-21T12:30:07.995+03:00,0.02023345852159405,0
2025-04-21T17:00:51.647+03:00,1745244050.777066,40.95225368581861,29.14027810012393,76.51794,-1,-1,-1,-1,30,26.17599130966446,-9999,21099.776522375,-0.6921234130859375,0.7019500732421875,-0.16064453125,21099.771484375,1.868591191874727,-1.352989744859029,-0.7780435555720334,-0.02690515853464603,-0.000917928759008646,0.01065804623067379,0.001245439052581787,-0.002882242202758789,-0.006406962871551514,XArbitraryZVertical,0.2900572951744204,-0.582158161069142,0.7213625889132089,0.2378961457823722,-0.6954593062400818,0.7018871903419495,-0.1539172828197479,0,0,0,-1,-1,21095.701989625,unknown,2,2025-04-21T17:00:47.567+03:00,2025-04-20T21:57:49.637+03:00,6869,0.9902488,0,0,5622.382,5,6,2025-04-21T17:00:39.829+03:00,766936814.1330497,0,-39.12,100.2019,1,0.3,2025-04-21T16:59:59.105+03:00,92.00000000000001,1.533333333333333,2025-04-21T12:30:07.995+03:00,0.02023345852159405,0
2025-04-21T17:00:51.657+03:00,1745244050.777066,40.95225368581861,29.14027810012393,76.51794,-1,-1,-1,-1,30,26.17599130966446,-9999,21099.786598375,-0.69329833984375,0.700347900390625,-0.1576080322265625,21099.781560375,1.868248804819083,-1.353258454300137,-0.7782360728149486,-0.02575760334730148,-0.003169631119817495,0.01053740456700325,0.002238154411315918,0.0007799863815307617,-0.006439894437789917,XArbitraryZVertical,0.289994928367626,-0.582282012328412,0.7212931066649392,0.2378794656893572,-0.6953685283660889,0.7020243406295776,-0.1537012010812759,0,0,0,-1,-1,21095.701989625,unknown,2,2025-04-21T17:00:47.567+03:00,2025-04-20T21:57:49.637+03:00,6869,0.9902488,0,0,5622.382,5,6,2025-04-21T17:00:39.829+03:00,766936814.1330497,0,-39.12,100.2019,1,0.3,2025-04-21T16:59:59.105+03:00,92.00000000000001,1.533333333333333,2025-04-21T12:30:07.995+03:00,0.02023345852159405,0
2025-04-21T17:00:51.667+03:00,1745244050.777066,40.95225368581861,29.14027810012393,76.51794,-1,-1,-1,-1,30,26.17599130966446,-9999,21099.796674375,-0.694580078125,0.702484130859375,-0.155853271484375,21099.791636375,1.867923273299841,-1.353504495153177,-0.7783954862783381,-0.02592032216489315,0.0003217728808522224,0.01218070834875107,0.002700746059417725,-0.001744389533996582,-0.005948528647422791,XArbitraryZVertical,0.2899394429173401,-0.582393445986664,0.7212272320648296,0.2378741242927973,-0.6952971220016479,0.70213782787323,-0.1535059809684753,0,0,0,-1,-1,21095.701989625,unknown,2,2025-04-21T17:00:47.567+03:00,2025-04-20T21:57:49.637+03:00,6869,0.9902488,0,0,5622.382,5,6,2025-04-21T17:00:39.829+03:00,766936814.1330497,0,-39.12,100.2019,1,0.3,2025-04-21T16:59:59.105+03:00,92.00000000000001,1.533333333333333,2025-04-21T12:30:07.995+03:00,0.02023345852159405,0
2025-04-21T17:00:51.677+03:00,1745244050.777066,40.95225368581861,29.14027810012393,76.51794,-1,-1,-1,-1,30,26.17599130966446,-9999,21099.806751375,-0.6896209716796875,0.7105712890625,-0.1543426513671875,21099.801713375,1.86765491965934,-1.353705455383296,-0.778518453515201,-0.01906907372176647,-0.009729528799653053,0.002926223445683718,0.0004194378852844238,-0.001999735832214355,-0.002994000911712646,XArbitraryZVertical,0.2898956182093189,-0.5824832143591026,0.7211727654427215,0.2378729723616543,-0.6952436566352844,0.702225387096405,-0.1533476710319519,0,0,0,-1,-1,21095.701989625,unknown,2,2025-04-21T17:00:47.567+03:00,2025-04-20T21:57:49.637+03:00,6869,0.9902488,0,0,5622.382,5,6,2025-04-21T17:00:39.829+03:00,766936814.1330497,0,-39.12,100.2019,1,0.3,2025-04-21T16:59:59.105+03:00,92.00000000000001,1.533333333333333,2025-04-21T12:30:07.995+03:00,0.02023345852159405,0
2025-04-21T17:00:51.687+03:00,1745244050.777066,40.95225368581861,29.14027810012393,76.51794,-1,-1,-1,-1,30,26.17599130966446,-9999,21099.816827375,-0.6866302490234375,0.709014892578125,-0.1660614013671875,21099.811789375,1.867486509772631,-1.353893714982849,-0.7785664566031412,-0.01674393564462662,-0.01079539395868778,0.0005362692754715681,0.003100991249084473,0.006068527698516846,-0.000324547290802002,XArbitraryZVertical,0.2898995410185946,-0.5825405433930987,0.7211280337528723,0.2378635393605563,-0.6952396631240845,0.7022596001625061,-0.1532095372676849,0,0,0,-1,-1,21095.701989625,unknown,2,2025-04-21T17:00:47.567+03:00,2025-04-20T21:57:49.637+03:00,6869,0.9902488,0,0,5622.382,5,6,2025-04-21T17:00:39.829+03:00,766936814.1330497,0,-39.12,100.2019,1,0.3,2025-04-21T16:59:59.105+03:00,92.00000000000001,1.533333333333333,2025-04-21T12:30:07.995+03:00,0.02023345852159405,0
2025-04-21T17:00:51.707+03:00,1745244050.777066,40.95225368581861,29.14027810012393,76.51794,-1,-1,-1,-1,30,26.17599130966446,-9999,21099.826903375,-0.687957763671875,0.70391845703125,-0.1715240478515625,21099.821865375,1.867293054142914,-1.354135071976583,-0.7786244643783565,-0.0213935486972332,-0.0192211028188467,0.0001487793633714318,0.008438766002655029,0.008270263671875,-0.007947385311126709,XArbitraryZVertical,0.2899122100126575,-0.5826100031965507,0.7210731567564215,0.2378444168374645,-0.6952369213104248,0.7023008465766907,-0.1530329883098602,0,0,0,-1,-1,21095.701989625,unknown,2,2025-04-21T17:00:47.567+03:00,2025-04-20T21:57:49.637+03:00,6869,0.9902488,0,0,5622.382,5,6,2025-04-21T17:00:39.829+03:00,766936814.1330497,0,-39.12,100.2019,1,0.3,2025-04-21T16:59:59.105+03:00,92.00000000000001,1.533333333333333,2025-04-21T12:30:07.995+03:00,0.02023345852159405,0
2025-04-21T17:00:51.710+03:00,1745244050.777066,40.95225368581861,29.14027810012393,76.51794,-1,-1,-1,-1,30,26.17599130966446,-9999,21099.836979375,-0.6853179931640625,0.70147705078125,-0.1654052734375,21099.831941375,1.866970761171438,-1.354570767747423,-0.778691780514474,-0.0309874527156353,-0.02846799790859222,0.001498535857535899,0.007574141025543213,0.002744436264038086,-0.01978087425231934,XArbitraryZVertical,0.2899545495735887,-0.5827232697601682,0.7209752498078397,0.2378119664926484,-0.6952572464942932,0.7023487687110901,-0.1527199000120163,0,0,0,-1,-1,21095.701989625,unknown,2,2025-04-21T17:00:47.567+03:00,2025-04-20T21:57:49.637+03:00,6869,0.9902488,0,0,5622.382,5,6,2025-04-21T17:00:39.829+03:00,766936814.1330497,0,-39.12,100.2019,1,0.3,2025-04-21T16:59:59.105+03:00,92.00000000000001,1.533333333333333,2025-04-21T12:30:07.995+03:00,0.02023345852159405,0
