loggingTime(txt),locationTimestamp_since1970(s),locationLatitude(WGS84),locationLongitude(WGS84),locationAltitude(m),locationSpeed(m/s),locationSpeedAccuracy(m/s),locationCourse(°),locationCourseAccuracy(°),locationVerticalAccuracy(m),locationHorizontalAccuracy(m),locationFloor(Z),accelerometerTimestamp_sinceReboot(s),accelerometerAccelerationX(G),accelerometerAccelerationY(G),accelerometerAccelerationZ(G),motionTimestamp_sinceReboot(s),motionYaw(rad),motionRoll(rad),motionPitch(rad),motionRotationRateX(rad/s),motionRotationRateY(rad/s),motionRotationRateZ(rad/s),motionUserAccelerationX(G),motionUserAccelerationY(G),motionUserAccelerationZ(G),motionAttitudeReferenceFrame(txt),motionQuaternionX(R),motionQuaternionY(R),motionQuaternionZ(R),motionQuaternionW(R),motionGravityX(G),motionGravityY(G),motionGravityZ(G),motionMagneticFieldX(µT),motionMagneticFieldY(µT),motionMagneticFieldZ(µT),motionHeading(°),motionMagneticFieldCalibrationAccuracy(Z),activityTimestamp_sinceReboot(s),activity(txt),activityActivityConfidence(Z),activityActivityStartDate(txt),pedometerStartDate(txt),pedometerNumberofSteps(N),pedometerAverageActivePace(s/m),pedometerCurrentPace(s/m),pedometerCurrentCadence(steps/s),pedometerDistance(m),pedometerFloorAscended(N),pedometerFloorDescended(N),pedometerEndDate(txt),altimeterTimestamp_sinceReboot(s),altimeterReset(bool),altimeterRelativeAltitude(m),altimeterPressure(kPa),batteryState(N),batteryLevel(R),heartRateBPMTimestamp(txt),heartRateBPM(N),heartRateBPS(R),heartRateVariabilityTimestamp(txt),heartRateVariability(ms),label
2025-04-18T14:18:49.562+03:00,1744975125.239541,40.95360023396433,29.14098414716288,93.09959,-1,-1,-1,-1,30,20.15231660333657,-9999,68725.73278812501,-0.57659912109375,0.7179412841796875,-0.3539886474609375,68725.72271112501,1.230446959255769,-1.031543056888489,-0.8042778887372527,-0.04450510069727898,-0.04127604886889458,-0.0361427515745163,0.0001682043075561523,-0.006111860275268555,0.0009366273880004883,XArbitraryZVertical,0.01610341683346801,0.567144074049464,-0.6196514229163484,-0.5423285905962467,-0.5951998829841614,0.7203299403190613,-0.3561765551567078,0,0,0,-1,-1,68724.95065425,unknown,2,2025-04-18T14:18:48.757+03:00,2025-04-18T14:06:46.055+03:00,21,5.43046,0,0,19.39724,0,0,2025-04-18T14:18:35.860+03:00,766667928.8450204,0,1.740005,100.4106,1,0.3,2025-04-18T14:06:59.545+03:00,78,1.3,2025-04-18T08:51:18.885+03:00,0.03057091307199995,0
2025-04-18T14:18:49.569+03:00,1744975125.239541,40.95360023396433,29.14098414716288,93.09959,-1,-1,-1,-1,30,20.15231660333657,-9999,68725.742864125,-0.59173583984375,0.72711181640625,-0.36016845703125,68725.73278812501,1.229629192901474,-1.032464731051121,-0.804152661386153,-0.0427236407995224,-0.03267716988921165,-0.04018819332122803,0.02358400821685791,-0.006665825843811035,0.005027055740356445,XArbitraryZVertical,0.01600199014642897,0.5673683721952687,-0.6194261231739753,-0.5423544766797976,-0.5956054329872131,0.7202430963516235,-0.355674147605896,0,0,0,-1,-1,68724.95065425,unknown,2,2025-04-18T14:18:48.757+03:00,2025-04-18T14:06:46.055+03:00,21,5.43046,0,0,19.39724,0,0,2025-04-18T14:18:35.860+03:00,766667928.8450204,0,1.740005,100.4106,1,0.3,2025-04-18T14:06:59.545+03:00,78,1.3,2025-04-18T08:51:18.885+03:00,0.03057091307199995,0
2025-04-18T14:18:49.570+03:00,1744975125.239541,40.95360023396433,29.14098414716288,93.09959,-1,-1,-1,-1,30,20.15231660333657,-9999,68725.75294012501,-0.582366943359375,0.7212982177734375,-0.3579864501953125,68725.742864125,1.22882351233148,-1.033397241814816,-0.8040338838117631,-0.04816261678934097,-0.04058276116847992,-0.03541234508156776,0.01066803932189941,0.002144575119018555,-0.002396881580352783,XArbitraryZVertical,0.01589641903667261,0.5675967812701129,-0.6192046654802205,-0.542371540611151,-0.5960103869438171,0.7201606631278992,-0.3551623821258545,0,0,0,-1,-1,68724.95065425,unknown,2,2025-04-18T14:18:48.757+03:00,2025-04-18T14:06:46.055+03:00,21,5.43046,0,0,19.39724,0,0,2025-04-18T14:18:35.860+03:00,766667928.8450204,0,1.740005,100.4106,1,0.3,2025-04-18T14:06:59.545+03:00,78,1.3,2025-04-18T08:51:18.885+03:00,0.03057091307199995,0
2025-04-18T14:18:49.575+03:00,1744975125.239541,40.95360023396433,29.14098414716288,93.09959,-1,-1,-1,-1,30,20.15231660333657,-9999,68725.763016125,-0.5879364013671875,0.724578857421875,-0.3586578369140625,68725.75294012501,1.22809089837858,-1.034182270264694,-0.8039927292111724,-0.0454968586564064,-0.02245043218135834,-0.03250833973288536,0.007187843322753906,0.005911529064178467,-0.004543542861938477,XArbitraryZVertical,0.01584555802178916,0.5677976558940285,-0.6190086282162681,-0.5423864075651854,-0.5963143706321716,0.7201321125030518,-0.3547094762325287,0,0,0,-1,-1,68724.95065425,unknown,2,2025-04-18T14:18:48.757+03:00,2025-04-18T14:06:46.055+03:00,21,5.43046,0,0,19.39724,0,0,2025-04-18T14:18:35.860+03:00,766667928.8450204,0,1.740005,100.4106,1,0.3,2025-04-18T14:06:59.545+03:00,78,1.3,2025-04-18T08:51:18.885+03:00,0.03057091307199995,0
2025-04-18T14:18:49.584+03:00,1744975125.239541,40.95360023396433,29.14098414716288,93.09959,-1,-1,-1,-1,30,20.15231660333657,-9999,68725.773092125,-0.594085693359375,0.7247161865234375,-0.3611602783203125,68725.763016125,1.227403597824806,-1.034756265284836,-0.8039091582958957,-0.04431548342108727,-0.009086157195270061,-0.03365456312894821,0.01388239860534668,0.0002627968788146973,-0.003359705209732056,XArbitraryZVertical,0.01583116136670963,0.5679352056453685,-0.6188193862551632,-0.5424589030181958,-0.5965697765350342,0.7200741171836853,-0.3543979525566101,0,0,0,-1,-1,68724.95065425,unknown,2,2025-04-18T14:18:48.757+03:00,2025-04-18T14:06:46.055+03:00,21,5.43046,0,0,19.39724,0,0,2025-04-18T14:18:35.860+03:00,766667928.8450204,0,1.740005,100.4106,1,0.3,2025-04-18T14:06:59.545+03:00,78,1.3,2025-04-18T08:51:18.885+03:00,0.03057091307199995,0
2025-04-18T14:18:49.595+03:00,1744975125.239541,40.95360023396433,29.14098414716288,93.09959,-1,-1,-1,-1,30,20.15231660333657,-9999,68725.78316812501,-0.593475341796875,0.7099761962890625,-0.3547210693359375,68725.773092125,1.22658753790746,-1.035344423868297,-0.803841673856739,-0.05728907138109207,-0.008309046737849712,-0.03862135857343674,0.004916131496429443,0.007343888282775879,-0.006050944328308105,XArbitraryZVertical,0.01585510467984369,0.5680781115492988,-0.6185967473630453,-0.5425623791535327,-0.5968198180198669,0.7200273275375366,-0.3540717363357544,0,0,0,-1,-1,68724.95065425,unknown,2,2025-04-18T14:18:48.757+03:00,2025-04-18T14:06:46.055+03:00,21,5.43046,0,0,19.39724,0,0,2025-04-18T14:18:35.860+03:00,766667928.8450204,0,1.740005,100.4106,1,0.3,2025-04-18T14:06:59.545+03:00,78,1.3,2025-04-18T08:51:18.885+03:00,0.03057091307199995,0
2025-04-18T14:18:49.605+03:00,1744975125.239541,40.95360023396433,29.14098414716288,93.09959,-1,-1,-1,-1,30,20.15231660333657,-9999,68725.793244125,-0.5907440185546875,0.697662353515625,-0.347015380859375,68725.78316812501,1.225676105327031,-1.036385589761681,-0.8038052928057068,-0.03030192852020264,-0.1398913115262985,-0.06477200239896774,0.00333857536315918,-0.001832008361816406,-0.00586584210395813,XArbitraryZVertical,0.01577808137691049,0.5683479074390604,-0.6183545381560439,-0.542557987421292,-0.5972105264663696,0.7200020551681519,-0.3534634113311768,0,0,0,-1,-1,68724.95065425,unknown,2,2025-04-18T14:18:48.757+03:00,2025-04-18T14:06:46.055+03:00,21,5.43046,0,0,19.39724,0,0,2025-04-18T14:18:35.860+03:00,766667928.8450204,0,1.740005,100.4106,1,0.3,2025-04-18T14:06:59.545+03:00,78,1.3,2025-04-18T08:51:18.885+03:00,0.03057091307199995,0
2025-04-18T14:18:49.615+03:00,1744975125.239541,40.95360023396433,29.14098414716288,93.09959,-1,-1,-1,-1,30,20.15231660333657,-9999,68725.803321125,-0.595306396484375,0.6566162109375,-0.341522216796875,68725.793244125,1.224736769129303,-1.038466871107561,-0.8041266918725707,-0.1146585568785667,-0.1115080714225769,-0.02228749170899391,0.004255115985870361,-0.01206469535827637,-0.0008945465087890625,XArbitraryZVertical,0.01552487859040266,0.5689532579160517,-0.6181446446336384,-0.5421700907685695,-0.5977456569671631,0.7202250957489014,-0.3521023392677307,0,0,0,-1,-1,68724.95065425,unknown,2,2025-04-18T14:18:48.757+03:00,2025-04-18T14:06:46.055+03:00,21,5.43046,0,0,19.39724,0,0,2025-04-18T14:18:35.860+03:00,766667928.8450204,0,1.740005,100.4106,1,0.3,2025-04-18T14:06:59.545+03:00,78,1.3,2025-04-18T08:51:18.885+03:00,0.03057091307199995,0
2025-04-18T14:18:49.625+03:00,1744975125.239541,40.95360023396433,29.14098414716288,93.09959,-1,-1,-1,-1,30,20.15231660333657,-9999,68725.81339712501,-0.629608154296875,0.733062744140625,-0.366119384765625,68725.803321125,1.223061191912655,-1.040117774426753,-0.8046073134314043,-0.1322394162416458,-0.009332166984677315,-0.009345061145722866,0.01018267869949341,-0.04317498207092285,0.009631186723709106,XArbitraryZVertical,0.01567562180309064,0.5694597178182069,-0.6177463086703809,-0.5420880566227038,-0.5980275273323059,0.7205584049224854,-0.3509398102760315,0,0,0,-1,-1,68724.95065425,unknown,2,2025-04-18T14:18:48.757+03:00,2025-04-18T14:06:46.055+03:00,21,5.43046,0,0,19.39724,0,0,2025-04-18T14:18:35.860+03:00,766667928.8450204,0,1.740005,100.4106,1,0.3,2025-04-18T14:06:59.545+03:00,78,1.3,2025-04-18T08:51:18.885+03:00,0.03057091307199995,0
2025-04-18T14:18:49.635+03:00,1744975125.239541,40.95360023396433,29.14098414716288,93.09959,-1,-1,-1,-1,30,20.15231660333657,-9999,68725.823473125,-0.57940673828125,0.7382049560546875,-0.35272216796875,68725.81339712501,1.221727955778212,-1.041267723691831,-0.8039989083009773,0.2169568687677383,-0.09882083535194397,-0.4036850929260254,-0.0128244161605835,-0.04299718141555786,-0.001425027847290039,XArbitraryZVertical,0.01546731263904506,0.5696702191069096,-0.617339130336007,-0.5423365750864063,-0.5988088250160217,0.7201364040374756,-0.3504731953144073,0,0,0,-1,-1,68724.95065425,unknown,2,2025-04-18T14:18:48.757+03:00,2025-04-18T14:06:46.055+03:00,21,5.43046,0,0,19.39724,0,0,2025-04-18T14:18:35.860+03:00,766667928.8450204,0,1.740005,100.4106,1,0.3,2025-04-18T14:06:59.545+03:00,78,1.3,2025-04-18T08:51:18.885+03:00,0.03057091307199995,0
2025-04-18T14:18:49.645+03:00,1744975125.239541,40.95360023396433,29.14098414716288,93.09959,-1,-1,-1,-1,30,20.15231660333657,-9999,68725.833549125,-0.46630859375,0.764556884765625,-0.303924560546875,68725.823473125,1.220947631013259,-1.045118546060481,-0.8022503592397586,0.002107943408191204,-0.4259805977344513,-0.003505714237689972,-0.02272003889083862,0.02704954147338867,-0.01642310619354248,XArbitraryZVertical,0.01383219331213504,0.5704477546698113,-0.6169971963342968,-0.5419524821204726,-0.6012423038482666,0.7189221382141113,-0.3487960696220398,0,0,0,-1,-1,68724.95065425,unknown,2,2025-04-18T14:18:48.757+03:00,2025-04-18T14:06:46.055+03:00,21,5.43046,0,0,19.39724,0,0,2025-04-18T14:18:35.860+03:00,766667928.8450204,0,1.740005,100.4106,1,0.3,2025-04-18T14:06:59.545+03:00,78,1.3,2025-04-18T08:51:18.885+03:00,0.03057091307199995,0
2025-04-18T14:18:49.655+03:00,1744975125.239541,40.95360023396433,29.14098414716288,93.09959,-1,-1,-1,-1,30,20.15231660333657,-9999,68725.84362512501,-0.7593841552734375,0.7008819580078125,-0.3775787353515625,68725.833549125,1.220940105968098,-1.046391623653091,-0.8018899234542419,0.02721489407122135,0.09017624706029892,-0.02744500339031219,0.08176857233047485,0.02543854713439941,0.01429766416549683,XArbitraryZVertical,0.01330367685636825,0.5707389770659239,-0.6169708467065317,-0.5416890245739757,-0.6019101142883301,0.7186715602874756,-0.348160058259964,0,0,0,-1,-1,68724.95065425,unknown,2,2025-04-18T14:18:48.757+03:00,2025-04-18T14:06:46.055+03:00,21,5.43046,0,0,19.39724,0,0,2025-04-18T14:18:35.860+03:00,766667928.8450204,0,1.740005,100.4106,1,0.3,2025-04-18T14:06:59.545+03:00,78,1.3,2025-04-18T08:51:18.885+03:00,0.03057091307199995,0
2025-04-18T14:18:49.665+03:00,1744975125.239541,40.95360023396433,29.14098414716288,93.09959,-1,-1,-1,-1,30,20.15231660333657,-9999,68725.853701125,-0.63946533203125,0.707122802734375,-0.36163330078125,68725.84362512501,1.220982348889566,-1.045569626830871,-0.8016268032074764,0.002997971838340163,-0.01758723333477974,-0.01173261739313602,0.05474454164505005,0.03254902362823486,0.02919989824295044,XArbitraryZVertical,0.01344451502816149,0.57047741768647,-0.6169527164450227,-0.5419816489071581,-0.6017873287200928,0.7184885740280151,-0.3487495183944702,0,0,0,-1,-1,68724.95065425,unknown,2,2025-04-18T14:18:48.757+03:00,2025-04-18T14:06:46.055+03:00,21,5.43046,0,0,19.39724,0,0,2025-04-18T14:18:35.860+03:00,766667928.8450204,0,1.740005,100.4106,1,0.3,2025-04-18T14:06:59.545+03:00,78,1.3,2025-04-18T08:51:18.885+03:00,0.03057091307199995,0
2025-04-18T14:18:49.675+03:00,1744975125.239541,40.95360023396433,29.14098414716288,93.09959,-1,-1,-1,-1,30,20.15231660333657,-9999,68725.86377712501,-0.5167388916015625,0.7262725830078125,-0.34368896484375,68725.853701125,1.220880640702085,-1.046394597204421,-0.8014588319290505,0.002762481803074479,-0.09695935249328613,-0.01628998667001724,-0.1876918077468872,-0.02969682216644287,-0.04173183441162109,XArbitraryZVertical,0.01315479232277273,0.5706752665313549,-0.6169152629373427,-0.5418231105006002,-0.6021792888641357,0.7183716893196106,-0.3483133912086487,0,0,0,-1,-1,68724.95065425,unknown,2,2025-04-18T14:18:48.757+03:00,2025-04-18T14:06:46.055+03:00,21,5.43046,0,0,19.39724,0,0,2025-04-18T14:18:35.860+03:00,766667928.8450204,0,1.740005,100.4106,1,0.3,2025-04-18T14:06:59.545+03:00,78,1.3,2025-04-18T08:51:18.885+03:00,0.03057091307199995,0
2025-04-18T14:18:49.685+03:00,1744975125.239541,40.95360023396433,29.14098414716288,93.09959,-1,-1,-1,-1,30,20.15231660333657,-9999,68725.87385412501,-0.6364898681640625,0.70819091796875,-0.3670654296875,68725.86377712501,1.220681902412632,-1.046943754962561,-0.8013060340037326,-0.01811057515442371,-0.009906476363539696,-0.01589503884315491,0.06315886974334717,0.0006981492042541504,0.005355566740036011,XArbitraryZVertical,0.01298359753416741,0.5708000454328777,-0.6168510244646734,-0.541768792177781,-0.6024653911590576,0.7182654142379761,-0.3480374813079834,0,0,0,-1,-1,68724.95065425,unknown,2,2025-04-18T14:18:48.757+03:00,2025-04-18T14:06:46.055+03:00,21,5.43046,0,0,19.39724,0,0,2025-04-18T14:18:35.860+03:00,766667928.8450204,0,1.740005,100.4106,1,0.3,2025-04-18T14:06:59.545+03:00,78,1.3,2025-04-18T08:51:18.885+03:00,0.03057091307199995,0
2025-04-18T14:18:49.695+03:00,1744975125.239541,40.95360023396433,29.14098414716288,93.09959,-1,-1,-1,-1,30,20.15231660333657,-9999,68725.883930125,-0.582061767578125,0.69329833984375,-0.35052490234375,68725.87385412501,1.220196075657413,-1.047589723627161,-0.8013263617938926,-0.04115377366542816,-0.06142686307430267,-0.01124019920825958,0.03297543525695801,0.004529297351837158,-0.007202267646789551,XArbitraryZVertical,0.01293087988985115,0.5709748713502544,-0.6167254620326474,-0.541728877872691,-0.6026775240898132,0.7182795405387878,-0.3476409912109375,0,0,0,-1,-1,68724.95065425,unknown,2,2025-04-18T14:18:48.757+03:00,2025-04-18T14:06:46.055+03:00,21,5.43046,0,0,19.39724,0,0,2025-04-18T14:18:35.860+03:00,766667928.8450204,0,1.740005,100.4106,1,0.3,2025-04-18T14:06:59.545+03:00,78,1.3,2025-04-18T08:51:18.885+03:00,0.03057091307199995,0
2025-04-18T14:18:49.705+03:00,1744975125.239541,40.95360023396433,29.14098414716288,93.09959,-1,-1,-1,-1,30,20.15231660333657,-9999,68725.894006125,-0.5811767578125,0.7190399169921875,-0.3401031494140625,68725.883930125,1.219668743635516,-1.048535023235129,-0.801399550441238,-0.02601557038724422,-0.0458497665822506,-0.01012300327420235,-0.02614426612854004,-0.0205765962600708,-0.01754868030548096,XArbitraryZVertical,0.01281799941346932,0.5712383538606731,-0.6165954700073577,-0.54160174253694,-0.6029603481292725,0.718330442905426,-0.3470448851585388,0,0,0,-1,-1,68724.95065425,unknown,2,2025-04-18T14:18:48.757+03:00,2025-04-18T14:06:46.055+03:00,21,5.43046,0,0,19.39724,0,0,2025-04-18T14:18:35.860+03:00,766667928.8450204,0,1.740005,100.4106,1,0.3,2025-04-18T14:06:59.545+03:00,78,1.3,2025-04-18T08:51:18.885+03:00,0.03057091307199995,0
2025-04-18T14:18:49.715+03:00,1744975125.239541,40.95360023396433,29.14098414716288,93.09959,-1,-1,-1,-1,30,20.15231660333657,-9999,68725.90408212501,-0.607269287109375,0.7252197265625,-0.3385772705078125,68725.894006125,1.21933805112747,-1.049065976588591,-0.8013847902641792,-0.01802016049623489,-0.02370391599833965,-0.008007488213479519,0.0357251763343811,-0.01731622219085693,0.002430617809295654,XArbitraryZVertical,0.01274314813095257,0.5713778229807536,-0.616507947169556,-0.5415560539890235,-0.6031537055969238,0.7183201909065247,-0.3467299938201904,0,0,0,-1,-1,68724.95065425,unknown,2,2025-04-18T14:18:48.757+03:00,2025-04-18T14:06:46.055+03:00,21,5.43046,0,0,19.39724,0,0,2025-04-18T14:18:35.860+03:00,766667928.8450204,0,1.740005,100.4106,1,0.3,2025-04-18T14:06:59.545+03:00,78,1.3,2025-04-18T08:51:18.885+03:00,0.03057091307199995,0
2025-04-18T14:18:49.725+03:00,1744975125.239541,40.95360023396433,29.14098414716288,93.09959,-1,-1,-1,-1,30,20.15231660333657,-9999,68725.914158125,-0.5938262939453125,0.713775634765625,-0.3360137939453125,68725.90408212501,1.219104103855644,-1.04948113751656,-0.8014248195862216,-0.01484194491058588,-0.02675643190741539,-0.003859348827973008,0.005769073963165283,0.007726132869720459,0.005950033664703369,XArbitraryZVertical,0.01269732049951451,0.5714946819561414,-0.6164509504304979,-0.5414986594122831,-0.6032726764678955,0.7183480262756348,-0.3464652001857758,0,0,0,-1,-1,68724.95065425,unknown,2,2025-04-18T14:18:48.757+03:00,2025-04-18T14:06:46.055+03:00,21,5.43046,0,0,19.39724,0,0,2025-04-18T14:18:35.860+03:00,766667928.8450204,0,1.740005,100.4106,1,0.3,2025-04-18T14:06:59.545+03:00,78,1.3,2025-04-18T08:51:18.885+03:00,0.03057091307199995,0
2025-04-18T14:18:49.741+03:00,1744975125.239541,40.95360023396433,29.14098414716288,93.09959,-1,-1,-1,-1,30,20.15231660333657,-9999,68725.92423412501,-0.5994110107421875,0.7081756591796875,-0.3439788818359375,68725.914158125,1.218992801171922,-1.049755702440163,-0.8015175898657317,-0.008545633405447006,-0.01694581098854542,-0.0004379524034447968,0.0005421042442321777,0.002885580062866211,0.009184449911117554,XArbitraryZVertical,0.0126799995292461,0.5715820344730308,-0.6164311396916384,-0.5414294205938992,-0.6033099889755249,0.7184125781059265,-0.3462663888931274,0,0,0,-1,-1,68724.95065425,unknown,2,2025-04-18T14:18:48.757+03:00,2025-04-18T14:06:46.055+03:00,21,5.43046,0,0,19.39724,0,0,2025-04-18T14:18:35.860+03:00,766667928.8450204,0,1.740005,100.4106,1,0.3,2025-04-18T14:06:59.545+03:00,78,1.3,2025-04-18T08:51:18.885+03:00,0.03057091307199995,0
2025-04-18T14:18:49.746+03:00,1744975125.239541,40.95360023396433,29.14098414716288,93.09959,-1,-1,-1,-1,30,20.15231660333657,-9999,68725.934310125,-0.5985565185546875,0.7161865234375,-0.347747802734375,68725.92423412501,1.218967740360063,-1.04998120784408,-0.8015864695959853,0.0003831471258308738,-0.02460159920156002,0.0005780435167253017,0.008832275867462158,-0.008743703365325928,0.007604718208312988,XArbitraryZVertical,0.01264403188719165,0.5716530959197226,-0.6164321500000483,-0.5413541295318736,-0.6033451557159424,0.7184605002403259,-0.3461057245731354,0,0,0,-1,-1,68724.95065425,unknown,2,2025-04-18T14:18:48.757+03:00,2025-04-18T14:06:46.055+03:00,21,5.43046,0,0,19.39724,0,0,2025-04-18T14:18:35.860+03:00,766667928.8450204,0,1.740005,100.4106,1,0.3,2025-04-18T14:06:59.545+03:00,78,1.3,2025-04-18T08:51:18.885+03:00,0.03057091307199995,0
2025-04-18T14:18:49.756+03:00,1744975125.239541,40.95360023396433,29.14098414716288,93.09959,-1,-1,-1,-1,30,20.15231660333657,-9999,68725.944386125,-0.5902862548828125,0.715301513671875,-0.349609375,68725.934310125,1.218975383427788,-1.050305672550114,-0.8014624595062209,0.005908806808292866,-0.03905550763010979,0.0001183153945021331,0.0026894211769104,-0.007513105869293213,-0.000389784574508667,XArbitraryZVertical,0.01249438979254114,0.5717226300284854,-0.6164247761286891,-0.541292553254742,-0.6035346984863281,0.7183742523193359,-0.3459542393684387,0,0,0,-1,-1,68724.95065425,unknown,2,2025-04-18T14:18:48.757+03:00,2025-04-18T14:06:46.055+03:00,21,5.43046,0,0,19.39724,0,0,2025-04-18T14:18:35.860+03:00,766667928.8450204,0,1.740005,100.4106,1,0.3,2025-04-18T14:06:59.545+03:00,78,1.3,2025-04-18T08:51:18.885+03:00,0.03057091307199995,0
2025-04-18T14:18:49.766+03:00,1744975125.239541,40.95360023396433,29.14098414716288,93.09959,-1,-1,-1,-1,30,20.15231660333657,-9999,68725.954463125,-0.5894775390625,0.712158203125,-0.3503570556640625,68725.944386125,1.219048759402665,-1.050724727989841,-0.8014702074180295,0.000985953607596457,-0.05715515092015266,0.0007739856373518705,0.008460044860839844,-0.0008960962295532227,-0.002369701862335205,XArbitraryZVertical,0.01234725280879315,0.5718376113129841,-0.6164479375506756,-0.5411481650272482,-0.6036748886108398,0.7183796167373657,-0.3456985950469971,0,0,0,-1,-1,68724.95065425,unknown,2,2025-04-18T14:18:48.757+03:00,2025-04-18T14:06:46.055+03:00,21,5.43046,0,0,19.39724,0,0,2025-04-18T14:18:35.860+03:00,766667928.8450204,0,1.740005,100.4106,1,0.3,2025-04-18T14:06:59.545+03:00,78,1.3,2025-04-18T08:51:18.885+03:00,0.03057091307199995,0
2025-04-18T14:18:49.776+03:00,1744975125.239541,40.95360023396433,29.14098414716288,93.09959,-1,-1,-1,-1,30,20.15231660333657,-9999,68725.96453912501,-0.5972137451171875,0.710662841796875,-0.34881591796875,68725.954463125,1.218974225662895,-1.051403525675523,-0.8015104700234136,-0.01402621809393167,-0.06744793802499771,-0.001454381039366126,0.01568841934204102,-0.004265844821929932,-0.004930227994918823,XArbitraryZVertical,0.01217468735083909,0.5720267725891997,-0.6164356974575503,-0.5409659130316813,-0.6038841605186462,0.7184076309204102,-0.3452742993831635,0,0,0,-1,-1,68724.95065425,unknown,2,2025-04-18T14:18:48.757+03:00,2025-04-18T14:06:46.055+03:00,21,5.43046,0,0,19.39724,0,0,2025-04-18T14:18:35.860+03:00,766667928.8450204,0,1.740005,100.4106,1,0.3,2025-04-18T14:06:59.545+03:00,78,1.3,2025-04-18T08:51:18.885+03:00,0.03057091307199995,0
2025-04-18T14:18:49.786+03:00,1744975125.239541,40.95360023396433,29.14098414716288,93.09959,-1,-1,-1,-1,30,20.15231660333657,-9999,68725.974615125,-0.604095458984375,0.714111328125,-0.34619140625,68725.96453912501,1.218723043337921,-1.052266346492419,-0.8015438276898895,-0.0186284277588129,-0.06755739450454712,-0.00608748197555542,0.01201319694519043,-0.006959378719329834,-0.006241470575332642,XArbitraryZVertical,0.01199333438322039,0.5722635444372008,-0.6163761010427674,-0.5407873121299004,-0.6041609048843384,0.7184308171272278,-0.3447411954402924,0,0,0,-1,-1,68724.95065425,unknown,2,2025-04-18T14:18:48.757+03:00,2025-04-18T14:06:46.055+03:00,21,5.43046,0,0,19.39724,0,0,2025-04-18T14:18:35.860+03:00,766667928.8450204,0,1.740005,100.4106,1,0.3,2025-04-18T14:06:59.545+03:00,78,1.3,2025-04-18T08:51:18.885+03:00,0.03057091307199995,0
2025-04-18T14:18:49.796+03:00,1744975125.239541,40.95360023396433,29.14098414716288,93.09959,-1,-1,-1,-1,30,20.15231660333657,-9999,68725.98469112501,-0.609283447265625,0.719451904296875,-0.346435546875,68725.974615125,1.218411867101703,-1.053163005966915,-0.8016203285595409,-0.02467806451022625,-0.06764713674783707,-0.006658064667135477,0.004065096378326416,-0.007119357585906982,-0.002675443887710571,XArbitraryZVertical,0.01183533751387541,0.5725153762033813,-0.6163044392620924,-0.5406059046942937,-0.6044220328330994,0.7184840440750122,-0.3441721498966217,0,0,0,-1,-1,68724.95065425,unknown,2,2025-04-18T14:18:48.757+03:00,2025-04-18T14:06:46.055+03:00,21,5.43046,0,0,19.39724,0,0,2025-04-18T14:18:35.860+03:00,766667928.8450204,0,1.740005,100.4106,1,0.3,2025-04-18T14:06:59.545+03:00,78,1.3,2025-04-18T08:51:18.885+03:00,0.03057091307199995,0
2025-04-18T14:18:49.806+03:00,1744975125.239541,40.95360023396433,29.14098414716288,93.09959,-1,-1,-1,-1,30,20.15231660333657,-9999,68725.994767125,-0.614410400390625,0.719940185546875,-0.3477325439453125,68725.98469112501,1.218078039980397,-1.054046341301481,-0.801683454781425,-0.0202710647135973,-0.05995086580514908,-0.006458061281591654,-0.0009500384330749512,-0.00231093168258667,-0.00214838981628418,XArbitraryZVertical,0.01168295354890313,0.5727613990099407,-0.6162252741573109,-0.5404390152716251,-0.6046865582466125,0.7185279726982117,-0.3436157703399658,0,0,0,-1,-1,68724.95065425,unknown,2,2025-04-18T14:18:48.757+03:00,2025-04-18T14:06:46.055+03:00,21,5.43046,0,0,19.39724,0,0,2025-04-18T14:18:35.860+03:00,766667928.8450204,0,1.740005,100.4106,1,0.3,2025-04-18T14:06:59.545+03:00,78,1.3,2025-04-18T08:51:18.885+03:00,0.03057091307199995,0
2025-04-18T14:18:49.816+03:00,1744975125.239541,40.95360023396433,29.14098414716288,93.09959,-1,-1,-1,-1,30,20.15231660333657,-9999,68726.004843125,-0.6167755126953125,0.7214508056640625,-0.3498382568359375,68725.994767125,1.217789985651755,-1.05481587813013,-0.8016927861673394,-0.01145040895789862,-0.05269428715109825,-0.01261342596262693,-0.006612062454223633,0.001207351684570312,-0.003425955772399902,XArbitraryZVertical,0.01153191996816732,0.5729690290569298,-0.6161527936722514,-0.5403047440525468,-0.6049449443817139,0.7185344099998474,-0.3431470096111298,0,0,0,-1,-1,68724.95065425,unknown,2,2025-04-18T14:18:48.757+03:00,2025-04-18T14:06:46.055+03:00,21,5.43046,0,0,19.39724,0,0,2025-04-18T14:18:35.860+03:00,766667928.8450204,0,1.740005,100.4106,1,0.3,2025-04-18T14:06:59.545+03:00,78,1.3,2025-04-18T08:51:18.885+03:00,0.03057091307199995,0
2025-04-18T14:18:49.826+03:00,1744975125.239541,40.95360023396433,29.14098414716288,93.09959,-1,-1,-1,-1,30,20.15231660333657,-9999,68726.01491912501,-0.61260986328125,0.725799560546875,-0.3472137451171875,68726.004843125,1.217628985860867,-1.055406778530239,-0.8016485674437811,-0.003215382806956768,-0.04564782977104187,-0.008120939135551453,-0.01080667972564697,0.002031564712524414,-0.005934476852416992,XArbitraryZVertical,0.01137915509234561,0.5731211975568438,-0.6161085222724592,-0.540197196232217,-0.6051753163337708,0.7185036540031433,-0.3428052067756653,0,0,0,-1,-1,68724.95065425,unknown,2,2025-04-18T14:18:48.757+03:00,2025-04-18T14:06:46.055+03:00,21,5.43046,0,0,19.39724,0,0,2025-04-18T14:18:35.860+03:00,766667928.8450204,0,1.740005,100.4106,1,0.3,2025-04-18T14:06:59.545+03:00,78,1.3,2025-04-18T08:51:18.885+03:00,0.03057091307199995,0
2025-04-18T14:18:49.837+03:00,1744975125.239541,40.95360023396433,29.14098414716288,93.09959,-1,-1,-1,-1,30,20.15231660333657,-9999,68726.024995125,-0.610107421875,0.7242889404296875,-0.3460540771484375,68726.01491912501,1.217662760504213,-1.055777934715674,-0.8015231571626723,0.01135324034839869,-0.0366276353597641,-0.009097620844841003,-0.01086056232452393,0.003797292709350586,-0.006816685199737549,XArbitraryZVertical,0.01120711582563081,0.5732032438553327,-0.6161079994946606,-0.5401141830501223,-0.6053808331489563,0.7184164524078369,-0.3426248729228973,0,0,0,-1,-1,68724.95065425,unknown,2,2025-04-18T14:18:48.757+03:00,2025-04-18T14:06:46.055+03:00,21,5.43046,0,0,19.39724,0,0,2025-04-18T14:18:35.860+03:00,766667928.8450204,0,1.740005,100.4106,1,0.3,2025-04-18T14:06:59.545+03:00,78,1.3,2025-04-18T08:51:18.885+03:00,0.03057091307199995,0
2025-04-18T14:18:49.848+03:00,1744975125.239541,40.95360023396433,29.14098414716288,93.09959,-1,-1,-1,-1,30,20.15231660333657,-9999,68726.035072125,-0.6089935302734375,0.726531982421875,-0.348541259765625,68726.024995125,1.217896681864857,-1.055888881916535,-0.8014115190490241,0.02200668305158615,-0.02917930856347084,-0.004459458403289318,-0.005229055881500244,0.00706404447555542,-0.00367051362991333,XArbitraryZVertical,0.01106322725111406,0.5732180938828645,-0.6161612947163569,-0.5400406547359856,-0.605488657951355,0.7183387875556946,-0.3425972461700439,0,0,0,-1,-1,68724.95065425,unknown,2,2025-04-18T14:18:48.757+03:00,2025-04-18T14:06:46.055+03:00,21,5.43046,0,0,19.39724,0,0,2025-04-18T14:18:35.860+03:00,766667928.8450204,0,1.740005,100.4106,1,0.3,2025-04-18T14:06:59.545+03:00,78,1.3,2025-04-18T08:51:18.885+03:00,0.03057091307199995,0
2025-04-18T14:18:49.857+03:00,1744975125.239541,40.95360023396433,29.14098414716288,93.09959,-1,-1,-1,-1,30,20.15231660333657,-9999,68726.04514812501,-0.6063232421875,0.722625732421875,-0.3489990234375,68726.035072125,1.218300754263853,-1.055763872121955,-0.8012859399827676,0.02828375436365604,-0.02029633335769176,-0.004929373972117901,-0.004674553871154785,0.006037473678588867,-0.004038691520690918,XArbitraryZVertical,0.01093792190537497,0.5731681044705051,-0.6162579225421223,-0.5399860223420884,-0.6055243611335754,0.7182514071464539,-0.3427173793315887,0,0,0,-1,-1,68724.95065425,unknown,2,2025-04-18T14:18:48.757+03:00,2025-04-18T14:06:46.055+03:00,21,5.43046,0,0,19.39724,0,0,2025-04-18T14:18:35.860+03:00,766667928.8450204,0,1.740005,100.4106,1,0.3,2025-04-18T14:06:59.545+03:00,78,1.3,2025-04-18T08:51:18.885+03:00,0.03057091307199995,0
2025-04-18T14:18:49.878+03:00,1744975125.239541,40.95360023396433,29.14098414716288,93.09959,-1,-1,-1,-1,30,20.15231660333657,-9999,68726.055224125,-0.608428955078125,0.719482421875,-0.3463592529296875,68726.04514812501,1.218761659190912,-1.055515094017631,-0.801101132665252,0.03456348925828934,-0.0110865905880928,-0.004197270609438419,-0.002492904663085938,0.00790560245513916,-0.006584465503692627,XArbitraryZVertical,0.01081180942899829,0.5730762770571503,-0.6163636921179827,-0.5399652323673132,-0.6055545210838318,0.7181228399276733,-0.3429333567619324,0,0,0,-1,-1,68724.95065425,unknown,2,2025-04-18T14:18:48.757+03:00,2025-04-18T14:06:46.055+03:00,21,5.43046,0,0,19.39724,0,0,2025-04-18T14:18:35.860+03:00,766667928.8450204,0,1.740005,100.4106,1,0.3,2025-04-18T14:06:59.545+03:00,78,1.3,2025-04-18T08:51:18.885+03:00,0.03057091307199995,0
2025-04-18T14:18:49.880+03:00,1744975125.239541,40.95360023396433,29.14098414716288,93.09959,-1,-1,-1,-1,30,20.15231660333657,-9999,68726.065300125,-0.6045074462890625,0.7133636474609375,-0.3415069580078125,68726.055224125,1.219172654247966,-1.055286096846174,-0.8008838705907201,0.0317663699388504,-0.01024822704493999,-0.004483826458454132,-0.001352310180664062,0.003158748149871826,-0.004842996597290039,XArbitraryZVertical,0.01068156745324352,0.5729846669766405,-0.6164530628077969,-0.5399630453227127,-0.6056117415428162,0.7179716229438782,-0.343148946762085,0,0,0,-1,-1,68724.95065425,unknown,2,2025-04-18T14:18:48.757+03:00,2025-04-18T14:06:46.055+03:00,21,5.43046,0,0,19.39724,0,0,2025-04-18T14:18:35.860+03:00,766667928.8450204,0,1.740005,100.4106,1,0.3,2025-04-18T14:06:59.545+03:00,78,1.3,2025-04-18T08:51:18.885+03:00,0.03057091307199995,0
2025-04-18T14:18:49.887+03:00,1744975125.239541,40.95360023396433,29.14098414716288,93.09959,-1,-1,-1,-1,30,20.15231660333657,-9999,68726.07537612501,-0.602081298828125,0.708648681640625,-0.3428955078125,68726.065300125,1.219466123536512,-1.055136012422367,-0.800722976348346,0.01685985922813416,-0.004943210631608963,-0.003552785608917475,-0.001669585704803467,-9.894371032714844e-06,-0.00188755989074707,XArbitraryZVertical,0.01058223625858874,0.5729220011565724,-0.6165164316474271,-0.5399591371394565,-0.6056606769561768,0.7178596258163452,-0.3432967960834503,0,0,0,-1,-1,68724.95065425,unknown,2,2025-04-18T14:18:48.757+03:00,2025-04-18T14:06:46.055+03:00,21,5.43046,0,0,19.39724,0,0,2025-04-18T14:18:35.860+03:00,766667928.8450204,0,1.740005,100.4106,1,0.3,2025-04-18T14:06:59.545+03:00,78,1.3,2025-04-18T08:51:18.885+03:00,0.03057091307199995,0
2025-04-18T14:18:49.897+03:00,1744975125.239541,40.95360023396433,29.14098414716288,93.09959,-1,-1,-1,-1,30,20.15231660333657,-9999,68726.085452125,-0.60186767578125,0.7174835205078125,-0.350341796875,68726.07537612501,1.219709549641957,-1.054972315903899,-0.8005696851974865,0.02482743747532368,0.0001082071103155613,-0.003286236431449652,0.002657651901245117,-0.006998538970947266,0.003087610006332397,XArbitraryZVertical,0.01050434587014672,0.5728564957892457,-0.6165669488778777,-0.5399724363843466,-0.6057001948356628,0.7177528738975525,-0.3434501886367798,0,0,0,-1,-1,68724.95065425,unknown,2,2025-04-18T14:18:48.757+03:00,2025-04-18T14:06:46.055+03:00,21,5.43046,0,0,19.39724,0,0,2025-04-18T14:18:35.860+03:00,766667928.8450204,0,1.740005,100.4106,1,0.3,2025-04-18T14:06:59.545+03:00,78,1.3,2025-04-18T08:51:18.885+03:00,0.03057091307199995,0
2025-04-18T14:18:49.907+03:00,1744975125.239541,40.95360023396433,29.14098414716288,93.09959,-1,-1,-1,-1,30,20.15231660333657,-9999,68726.09552812501,-0.600067138671875,0.7176666259765625,-0.3462677001953125,68726.085452125,1.22004199910848,-1.054779100708843,-0.8003582114539669,0.03308802843093872,-0.006596567574888468,-0.001438268925994635,0.003577709197998047,-0.007141232490539551,-0.00215265154838562,XArbitraryZVertical,0.01038780456024577,0.5727748858669509,-0.6166359310929794,-0.5399823909878451,-0.605765700340271,0.7176055908203125,-0.3436420559883118,0,0,0,-1,-1,68724.95065425,unknown,2,2025-04-18T14:18:48.757+03:00,2025-04-18T14:06:46.055+03:00,21,5.43046,0,0,19.39724,0,0,2025-04-18T14:18:35.860+03:00,766667928.8450204,0,1.740005,100.4106,1,0.3,2025-04-18T14:06:59.545+03:00,78,1.3,2025-04-18T08:51:18.885+03:00,0.03057091307199995,0
2025-04-18T14:18:49.917+03:00,1744975125.239541,40.95360023396433,29.14098414716288,93.09959,-1,-1,-1,-1,30,20.15231660333657,-9999,68726.10560512501,-0.6056976318359375,0.703948974609375,-0.341827392578125,68726.09552812501,1.220360872173078,-1.054603725877772,-0.8001874916196557,0.01806127838790417,-0.005141282919794321,0.002305935835465789,0.005455076694488525,0.003719866275787354,-0.005632787942886353,XArbitraryZVertical,0.01028532159743019,0.5727039602713923,-0.6167051440850286,-0.5399806014706653,-0.6058120131492615,0.7174866795539856,-0.3438087701797485,0,0,0,-1,-1,68724.95065425,unknown,2,2025-04-18T14:18:48.757+03:00,2025-04-18T14:06:46.055+03:00,21,5.43046,0,0,19.39724,0,0,2025-04-18T14:18:35.860+03:00,766667928.8450204,0,1.740005,100.4106,1,0.3,2025-04-18T14:06:59.545+03:00,78,1.3,2025-04-18T08:51:18.885+03:00,0.03057091307199995,0
2025-04-18T14:18:49.927+03:00,1744975125.239541,40.95360023396433,29.14098414716288,93.09959,-1,-1,-1,-1,30,20.15231660333657,-9999,68726.11568112501,-0.603790283203125,0.7049102783203125,-0.3438720703125,68726.10560512501,1.220537893847708,-1.054564646600414,-0.8001660473491036,0.007865364663302898,-0.008324826136231422,0.002624183427542448,0.00296783447265625,-0.005481481552124023,0.0002425611019134521,XArbitraryZVertical,0.01023846666191981,0.5726911593072005,-0.6167507390869329,-0.5399429491915584,-0.6058119535446167,0.7174717783927917,-0.3438400328159332,0,0,0,-1,-1,68724.95065425,unknown,2,2025-04-18T14:18:48.757+03:00,2025-04-18T14:06:46.055+03:00,21,5.43046,0,0,19.39724,0,0,2025-04-18T14:18:35.860+03:00,766667928.8450204,0,1.740005,100.4106,1,0.3,2025-04-18T14:06:59.545+03:00,78,1.3,2025-04-18T08:51:18.885+03:00,0.03057091307199995,0
2025-04-18T14:18:49.937+03:00,1744975125.239541,40.95360023396433,29.14098414716288,93.09959,-1,-1,-1,-1,30,20.15231660333657,-9999,68726.125757125,-0.6037139892578125,0.7155609130859375,-0.344696044921875,68726.11568112501,1.220649127829858,-1.054561254802534,-0.8001681175652557,0.005271645728498697,-0.007402373477816582,0.006810772698372602,0.000386655330657959,-0.01485180854797363,0.001601964235305786,XArbitraryZVertical,0.01020846970750442,0.5726911088370614,-0.6167809372124148,-0.5399091161311991,-0.6058095097541809,0.7174732089042664,-0.3438413739204407,0,0,0,-1,-1,68724.95065425,unknown,2,2025-04-18T14:18:48.757+03:00,2025-04-18T14:06:46.055+03:00,21,5.43046,0,0,19.39724,0,0,2025-04-18T14:18:35.860+03:00,766667928.8450204,0,1.740005,100.4106,1,0.3,2025-04-18T14:06:59.545+03:00,78,1.3,2025-04-18T08:51:18.885+03:00,0.03057091307199995,0
2025-04-18T14:18:49.947+03:00,1744975125.239541,40.95360023396433,29.14098414716288,93.09959,-1,-1,-1,-1,30,20.15231660333657,-9999,68726.13583312501,-0.6034088134765625,0.7164764404296875,-0.3359222412109375,68726.125757125,1.220823593054471,-1.054510867304689,-0.8001965764852688,0.01015055645257235,-0.008299591951072216,0.003492740215733647,0.002289474010467529,-0.008432447910308838,-0.001993924379348755,XArbitraryZVertical,0.01018495286390908,0.5726825912269592,-0.616830425594712,-0.5398621077192367,-0.605774462223053,0.7174930572509766,-0.3438618183135986,0,0,0,-1,-1,68724.95065425,unknown,2,2025-04-18T14:18:48.757+03:00,2025-04-18T14:06:46.055+03:00,21,5.43046,0,0,19.39724,0,0,2025-04-18T14:18:35.860+03:00,766667928.8450204,0,1.740005,100.4106,1,0.3,2025-04-18T14:06:59.545+03:00,78,1.3,2025-04-18T08:51:18.885+03:00,0.03057091307199995,0
2025-04-18T14:18:49.958+03:00,1744975125.239541,40.95360023396433,29.14098414716288,93.09959,-1,-1,-1,-1,30,20.15231660333657,-9999,68726.145909125,-0.6083526611328125,0.712890625,-0.33837890625,68726.13583312501,1.221031263035839,-1.054397884115798,-0.8001790921340969,0.01401746645569801,-0.003271810710430145,0.00566774420440197,0.001590073108673096,-0.0001804828643798828,0.002353191375732422,XArbitraryZVertical,0.01015364166925375,0.5726505717283433,-0.6168842786910067,-0.5398350994583493,-0.6057465076446533,0.7174808382987976,-0.3439364433288574,0,0,0,-1,-1,68724.95065425,unknown,2,2025-04-18T14:18:48.757+03:00,2025-04-18T14:06:46.055+03:00,21,5.43046,0,0,19.39724,0,0,2025-04-18T14:18:35.860+03:00,766667928.8450204,0,1.740005,100.4106,1,0.3,2025-04-18T14:06:59.545+03:00,78,1.3,2025-04-18T08:51:18.885+03:00,0.03057091307199995,0
2025-04-18T14:18:49.968+03:00,1744975125.239541,40.95360023396433,29.14098414716288,93.09959,-1,-1,-1,-1,30,20.15231660333657,-9999,68726.15598512501,-0.610565185546875,0.7122955322265625,-0.34527587890625,68726.145909125,1.22124699207871,-1.054231478540714,-0.8001524389453145,0.01323423068970442,0.002199920359998941,0.00489915581420064,0.0009697079658508301,-0.002588033676147461,0.008917927742004395,XArbitraryZVertical,0.01013304579010347,0.5726027918250755,-0.6169391635907673,-0.5398235195154097,-0.6057059764862061,0.7174623012542725,-0.3440467417240143,0,0,0,-1,-1,68724.95065425,unknown,2,2025-04-18T14:18:48.757+03:00,2025-04-18T14:06:46.055+03:00,21,5.43046,0,0,19.39724,0,0,2025-04-18T14:18:35.860+03:00,766667928.8450204,0,1.740005,100.4106,1,0.3,2025-04-18T14:06:59.545+03:00,78,1.3,2025-04-18T08:51:18.885+03:00,0.03057091307199995,0
2025-04-18T14:18:49.978+03:00,1744975125.239541,40.95360023396433,29.14098414716288,93.09959,-1,-1,-1,-1,30,20.15231660333657,-9999,68726.166061125,-0.60791015625,0.712921142578125,-0.3458709716796875,68726.15598512501,1.221436512203051,-1.05407698919559,-0.8000924277229895,0.01436960231512785,0.001476672478020191,-0.0008021063986234367,-0.004066169261932373,-0.005475938320159912,0.002562999725341797,XArbitraryZVertical,0.01010349382504815,0.5725531783011968,-0.6169839437079074,-0.5398254889531955,-0.6056902408599854,0.7174204587936401,-0.3441615402698517,0,0,0,-1,-1,68724.95065425,unknown,2,2025-04-18T14:18:48.757+03:00,2025-04-18T14:06:46.055+03:00,21,5.43046,0,0,19.39724,0,0,2025-04-18T14:18:35.860+03:00,766667928.8450204,0,1.740005,100.4106,1,0.3,2025-04-18T14:06:59.545+03:00,78,1.3,2025-04-18T08:51:18.885+03:00,0.03057091307199995,0
2025-04-18T14:18:49.988+03:00,1744975125.239541,40.95360023396433,29.14098414716288,93.09959,-1,-1,-1,-1,30,20.15231660333657,-9999,68726.17613812501,-0.6052398681640625,0.7119598388671875,-0.3453521728515625,68726.166061125,1.221636131041818,-1.05391776951945,-0.8000151013636733,0.01183826848864555,-0.0009729033336043358,0.001879963092505932,-0.004439055919647217,-0.005803585052490234,-0.002470642328262329,XArbitraryZVertical,0.01006585838385986,0.5724997910102199,-0.6170298346339163,-0.539830229807705,-0.6056835055351257,0.717366635799408,-0.3442853391170502,0,0,0,-1,-1,68724.95065425,unknown,2,2025-04-18T14:18:48.757+03:00,2025-04-18T14:06:46.055+03:00,21,5.43046,0,0,19.39724,0,0,2025-04-18T14:18:35.860+03:00,766667928.8450204,0,1.740005,100.4106,1,0.3,2025-04-18T14:06:59.545+03:00,78,1.3,2025-04-18T08:51:18.885+03:00,0.03057091307199995,0
2025-04-18T14:18:49.998+03:00,1744975125.239541,40.95360023396433,29.14098414716288,93.09959,-1,-1,-1,-1,30,20.15231660333657,-9999,68726.186214,-0.606201171875,0.707611083984375,-0.3445281982421875,68726.17613812501,1.221789575301786,-1.053808189601492,-0.8000117712769107,0.008312510326504707,-0.004169495310634375,-0.00371640338562429,-0.001667022705078125,-0.002993583679199219,-0.001136600971221924,XArbitraryZVertical,0.01005452855293306,0.572470461408642,-0.6170703659195753,-0.5398153539033934,-0.6056479811668396,0.7173643112182617,-0.3443529605865479,0,0,0,-1,-1,68724.95065425,unknown,2,2025-04-18T14:18:48.757+03:00,2025-04-18T14:06:46.055+03:00,21,5.43046,0,0,19.39724,0,0,2025-04-18T14:18:35.860+03:00,766667928.8450204,0,1.740005,100.4106,1,0.3,2025-04-18T14:06:59.545+03:00,78,1.3,2025-04-18T08:51:18.885+03:00,0.03057091307199995,0
2025-04-18T14:18:50.008+03:00,1744975125.239541,40.95360023396433,29.14098414716288,93.09959,-1,-1,-1,-1,30,20.15231660333657,-9999,68726.19629000001,-0.6076507568359375,0.7162017822265625,-0.341827392578125,68726.186214,1.221865387581459,-1.053790418934027,-0.799945034684349,0.007734337355941534,-0.005426240619271994,-0.00163141475059092,0.001023530960083008,-0.008211374282836914,-0.000873267650604248,XArbitraryZVertical,0.01001282375504328,0.5724561474097607,-0.6170845135065669,-0.5398151869934406,-0.6056835055351257,0.7173178195953369,-0.344387412071228,0,0,0,-1,-1,68724.95065425,unknown,2,2025-04-18T14:18:48.757+03:00,2025-04-18T14:06:46.055+03:00,21,5.43046,0,0,19.39724,0,0,2025-04-18T14:18:35.860+03:00,766667928.8450204,0,1.740005,100.4106,1,0.3,2025-04-18T14:06:59.545+03:00,78,1.3,2025-04-18T08:51:18.885+03:00,0.03057091307199995,0
2025-04-18T14:18:50.018+03:00,1744975125.239541,40.95360023396433,29.14098414716288,93.09959,-1,-1,-1,-1,30,20.15231660333657,-9999,68726.206366,-0.6081390380859375,0.7137298583984375,-0.3437347412109375,68726.19629000001,1.221930236157162,-1.053772096139558,-0.7998388598816176,0.004758987110108137,0.000479518435895443,-0.002148234285414219,-0.001220583915710449,-0.007298111915588379,0.0009302198886871338,XArbitraryZVertical,0.009959361861181935,0.5724357780965151,-0.6170920226264838,-0.5398292619593559,-0.6057434678077698,0.7172437906265259,-0.3444361686706543,0,0,0,-1,-1,68724.95065425,unknown,2,2025-04-18T14:18:48.757+03:00,2025-04-18T14:06:46.055+03:00,21,5.43046,0,0,19.39724,0,0,2025-04-18T14:18:35.860+03:00,766667928.8450204,0,1.740005,100.4106,1,0.3,2025-04-18T14:06:59.545+03:00,78,1.3,2025-04-18T08:51:18.885+03:00,0.03057091307199995,0
2025-04-18T14:18:50.028+03:00,1744975125.239541,40.95360023396433,29.14098414716288,93.09959,-1,-1,-1,-1,30,20.15231660333657,-9999,68726.216442,-0.6080169677734375,0.7108306884765625,-0.349090576171875,68726.206366,1.222024773122197,-1.053669354483902,-0.7997630502095057,0.005208262242376804,0.00428490899503231,-0.001310137566179037,-0.001727581024169922,-0.0004856586456298828,0.003170818090438843,XArbitraryZVertical,0.009935032478664903,0.5723972791303136,-0.6171099661701467,-0.5398500285354865,-0.6057553887367249,0.7171909809112549,-0.3445253074169159,0,0,0,-1,-1,68724.95065425,unknown,2,2025-04-18T14:18:48.757+03:00,2025-04-18T14:06:46.055+03:00,21,5.43046,0,0,19.39724,0,0,2025-04-18T14:18:35.860+03:00,766667928.8450204,0,1.740005,100.4106,1,0.3,2025-04-18T14:06:59.545+03:00,78,1.3,2025-04-18T08:51:18.885+03:00,0.03057091307199995,0
2025-04-18T14:18:50.038+03:00,1744975125.239541,40.95360023396433,29.14098414716288,93.09959,-1,-1,-1,-1,30,20.15231660333657,-9999,68726.22651800001,-0.6065826416015625,0.7129058837890625,-0.3484039306640625,68726.216442,1.222119310964703,-1.053549256356771,-0.7997339383832897,0.009610000997781754,0.006814179942011833,0.00178475514985621,-0.0022849440574646,-0.00543975830078125,-0.00162893533706665,XArbitraryZVertical,0.009933850976245594,0.5723610459032291,-0.6171322001896253,-0.539862914257713,-0.6057320237159729,0.7171707153320312,-0.3446083068847656,0,0,0,-1,-1,68724.95065425,unknown,2,2025-04-18T14:18:48.757+03:00,2025-04-18T14:06:46.055+03:00,21,5.43046,0,0,19.39724,0,0,2025-04-18T14:18:35.860+03:00,766667928.8450204,0,1.740005,100.4106,1,0.3,2025-04-18T14:06:59.545+03:00,78,1.3,2025-04-18T08:51:18.885+03:00,0.03057091307199995,0
2025-04-18T14:18:50.048+03:00,1744975125.239541,40.95360023396433,29.14098414716288,93.09959,-1,-1,-1,-1,30,20.15231660333657,-9999,68726.236594,-0.6063079833984375,0.7130126953125,-0.346099853515625,68726.22651800001,1.222190016785053,-1.053474922718231,-0.7997047229334924,0.01062040403485298,0.003677242435514927,-0.001467230962589383,-0.000842750072479248,-0.006197631359100342,-0.004320144653320312,XArbitraryZVertical,0.009925365488189565,0.5723370116596762,-0.6171482060361725,-0.5398702013315724,-0.605724573135376,0.7171503305435181,-0.3446636497974396,0,0,0,-1,-1,68724.95065425,unknown,2,2025-04-18T14:18:48.757+03:00,2025-04-18T14:06:46.055+03:00,21,5.43046,0,0,19.39724,0,0,2025-04-18T14:18:35.860+03:00,766667928.8450204,0,1.740005,100.4106,1,0.3,2025-04-18T14:06:59.545+03:00,78,1.3,2025-04-18T08:51:18.885+03:00,0.03057091307199995,0
2025-04-18T14:18:50.058+03:00,1744975125.239541,40.95360023396433,29.14098414716288,93.09959,-1,-1,-1,-1,30,20.15231660333657,-9999,68726.246671,-0.6090545654296875,0.7086029052734375,-0.3383941650390625,68726.236594,1.222264969378553,-1.053399237653169,-0.7996312923309864,0.01118772476911545,0.005748449359089136,0.001997708110138774,-0.0007314682006835938,-0.003750860691070557,-0.003622621297836304,XArbitraryZVertical,0.009899223483161329,0.5723060521099269,-0.6171612210602752,-0.5398886678045743,-0.6057442426681519,0.7170991897583008,-0.3447355628013611,0,0,0,-1,-1,68724.95065425,unknown,2,2025-04-18T14:18:48.757+03:00,2025-04-18T14:06:46.055+03:00,21,5.43046,0,0,19.39724,0,0,2025-04-18T14:18:35.860+03:00,766667928.8450204,0,1.740005,100.4106,1,0.3,2025-04-18T14:06:59.545+03:00,78,1.3,2025-04-18T08:51:18.885+03:00,0.03057091307199995,0
2025-04-18T14:18:50.068+03:00,1744975125.239541,40.95360023396433,29.14098414716288,93.09959,-1,-1,-1,-1,30,20.15231660333657,-9999,68726.25674700001,-0.61273193359375,0.7102508544921875,-0.3407135009765625,68726.246671,1.222432786662183,-1.053182035187564,-0.7995434640763258,0.01247749291360378,0.01362181827425957,0.002794525818899274,-0.001026332378387451,-0.00584113597869873,0.002414673566818237,XArbitraryZVertical,0.009884617145946481,0.5722352416487219,-0.6171972956641255,-0.5399226442362555,-0.605724036693573,0.7170379161834717,-0.3448982536792755,0,0,0,-1,-1,68724.95065425,unknown,2,2025-04-18T14:18:48.757+03:00,2025-04-18T14:06:46.055+03:00,21,5.43046,0,0,19.39724,0,0,2025-04-18T14:18:35.860+03:00,766667928.8450204,0,1.740005,100.4106,1,0.3,2025-04-18T14:06:59.545+03:00,78,1.3,2025-04-18T08:51:18.885+03:00,0.03057091307199995,0
2025-04-18T14:18:50.078+03:00,1744975125.239541,40.95360023396433,29.14098414716288,93.09959,-1,-1,-1,-1,30,20.15231660333657,-9999,68726.266823,-0.6072998046875,0.7090911865234375,-0.3449859619140625,68726.25674700001,1.222594157320136,-1.052947940441047,-0.7994801801012529,0.01623042114078999,0.01027236133813858,0.002167218364775181,-0.005218029022216797,-0.008436799049377441,0.006241053342819214,XArbitraryZVertical,0.009886509984056968,0.5721634439079314,-0.617233816399362,-0.539956962951561,-0.6056826710700989,0.7169938087463379,-0.3450624942779541,0,0,0,-1,-1,68724.95065425,unknown,2,2025-04-18T14:18:48.757+03:00,2025-04-18T14:06:46.055+03:00,21,5.43046,0,0,19.39724,0,0,2025-04-18T14:18:35.860+03:00,766667928.8450204,0,1.740005,100.4106,1,0.3,2025-04-18T14:06:59.545+03:00,78,1.3,2025-04-18T08:51:18.885+03:00,0.03057091307199995,0
2025-04-18T14:18:50.089+03:00,1744975125.239541,40.95360023396433,29.14098414716288,93.09959,-1,-1,-1,-1,30,20.15231660333657,-9999,68726.276899,-0.6028594970703125,0.7109832763671875,-0.3482818603515625,68726.266823,1.222761282212716,-1.052743848422122,-0.7993983075478809,0.01022845413535833,0.005848051514476538,0.001727530499920249,-0.005573093891143799,-0.006151854991912842,0.002060294151306152,XArbitraryZVertical,0.009870482169779567,0.5720969616530673,-0.6172702851028317,-0.5399862168547246,-0.6056634187698364,0.7169367671012878,-0.3452152907848358,0,0,0,-1,-1,68724.95065425,unknown,2,2025-04-18T14:18:48.757+03:00,2025-04-18T14:06:46.055+03:00,21,5.43046,0,0,19.39724,0,0,2025-04-18T14:18:35.860+03:00,766667928.8450204,0,1.740005,100.4106,1,0.3,2025-04-18T14:06:59.545+03:00,78,1.3,2025-04-18T08:51:18.885+03:00,0.03057091307199995,0
2025-04-18T14:18:50.099+03:00,1744975125.239541,40.95360023396433,29.14098414716288,93.09959,-1,-1,-1,-1,30,20.15231660333657,-9999,68726.28697500001,-0.60260009765625,0.709716796875,-0.347198486328125,68726.276899,1.222865193260661,-1.052620548227796,-0.7993414579086358,0.005303536541759968,0.002860051346942782,0.002362461294978857,0.001240432262420654,-0.008568882942199707,-0.001201748847961426,XArbitraryZVertical,0.009857091718290353,0.5720557344984107,-0.6172924490841181,-0.5400048143285301,-0.6056562662124634,0.7168971300125122,-0.3453101515769958,0,0,0,-1,-1,68724.95065425,unknown,2,2025-04-18T14:18:48.757+03:00,2025-04-18T14:06:46.055+03:00,21,5.43046,0,0,19.39724,0,0,2025-04-18T14:18:35.860+03:00,766667928.8450204,0,1.740005,100.4106,1,0.3,2025-04-18T14:06:59.545+03:00,78,1.3,2025-04-18T08:51:18.885+03:00,0.03057091307199995,0
2025-04-18T14:18:50.108+03:00,1744975125.239541,40.95360023396433,29.14098414716288,93.09959,-1,-1,-1,-1,30,20.15231660333657,-9999,68726.297051,-0.60260009765625,0.705596923828125,-0.3451080322265625,68726.28697500001,1.222905261798528,-1.052612636416721,-0.7993451548147256,0.000279483589110896,-0.0009144465439021587,0.003485249821096659,0.002684831619262695,-0.004619479179382324,-0.003166675567626953,XArbitraryZVertical,0.009849431204654934,0.5720543751275572,-0.6173035944933631,-0.5399935206429892,-0.6056511402130127,0.7168996930122375,-0.345313549041748,0,0,0,-1,-1,68724.95065425,unknown,2,2025-04-18T14:18:48.757+03:00,2025-04-18T14:06:46.055+03:00,21,5.43046,0,0,19.39724,0,0,2025-04-18T14:18:35.860+03:00,766667928.8450204,0,1.740005,100.4106,1,0.3,2025-04-18T14:06:59.545+03:00,78,1.3,2025-04-18T08:51:18.885+03:00,0.03057091307199995,0
2025-04-18T14:18:50.119+03:00,1744975125.239541,40.95360023396433,29.14098414716288,93.09959,-1,-1,-1,-1,30,20.15231660333657,-9999,68726.30712700001,-0.6047210693359375,0.7110595703125,-0.3421783447265625,68726.297051,1.222895099973199,-1.052617955234143,-0.7993592743004041,-0.005886733066290617,0.0005732616409659386,0.004502344876527786,0.003059446811676025,-0.009573221206665039,-0.0008251368999481201,XArbitraryZVertical,0.009856076766280076,0.5720578679661731,-0.6173021950281862,-0.5399912603923576,-0.605644166469574,0.7169095277786255,-0.3453052937984467,0,0,0,-1,-1,68724.95065425,unknown,2,2025-04-18T14:18:48.757+03:00,2025-04-18T14:06:46.055+03:00,21,5.43046,0,0,19.39724,0,0,2025-04-18T14:18:35.860+03:00,766667928.8450204,0,1.740005,100.4106,1,0.3,2025-04-18T14:06:59.545+03:00,78,1.3,2025-04-18T08:51:18.885+03:00,0.03057091307199995,0
2025-04-18T14:18:50.129+03:00,1744975125.239541,40.95360023396433,29.14098414716288,93.09959,-1,-1,-1,-1,30,20.15231660333657,-9999,68726.31720400001,-0.6043548583984375,0.7173919677734375,-0.3401947021484375,68726.30712700001,1.222868086882358,-1.052621560328346,-0.7994012438174488,-0.01117976568639278,-0.001175103709101677,0.006354306824505329,0.002103805541992188,-0.01115882396697998,0.001294136047363281,XArbitraryZVertical,0.009878803799354444,0.5720649046354711,-0.6172987879717452,-0.5399874598638776,-0.6056194305419922,0.7169387936592102,-0.3452883064746857,0,0,0,-1,-1,68724.95065425,unknown,2,2025-04-18T14:18:48.757+03:00,2025-04-18T14:06:46.055+03:00,21,5.43046,0,0,19.39724,0,0,2025-04-18T14:18:35.860+03:00,766667928.8450204,0,1.740005,100.4106,1,0.3,2025-04-18T14:06:59.545+03:00,78,1.3,2025-04-18T08:51:18.885+03:00,0.03057091307199995,0
2025-04-18T14:18:50.139+03:00,1744975125.239541,40.95360023396433,29.14098414716288,93.09959,-1,-1,-1,-1,30,20.15231660333657,-9999,68726.32728,-0.6085052490234375,0.71435546875,-0.341094970703125,68726.31720400001,1.222780650607735,-1.052662764458937,-0.7994902285626533,-0.0122092105448246,0.002366767497733235,0.006530541460961103,0.0006587505340576172,-0.002614915370941162,0.004289299249649048,XArbitraryZVertical,0.009925063740107976,0.5720888404880407,-0.61728366805646,-0.5399784316322092,-0.6055781245231628,0.7170008420944214,-0.3452317118644714,0,0,0,-1,-1,68724.95065425,unknown,2,2025-04-18T14:18:48.757+03:00,2025-04-18T14:06:46.055+03:00,21,5.43046,0,0,19.39724,0,0,2025-04-18T14:18:35.860+03:00,766667928.8450204,0,1.740005,100.4106,1,0.3,2025-04-18T14:06:59.545+03:00,78,1.3,2025-04-18T08:51:18.885+03:00,0.03057091307199995,0
2025-04-18T14:18:50.149+03:00,1744975125.239541,40.95360023396433,29.14098414716288,93.09959,-1,-1,-1,-1,30,20.15231660333657,-9999,68726.337356,-0.6107635498046875,0.718353271484375,-0.3460235595703125,68726.32728,1.222664152536818,-1.052714039134423,-0.799572460408466,-0.009872552938759327,0.005695718806236982,0.006434667855501175,-0.0001376867294311523,-0.0003223419189453125,0.005739688873291016,XArbitraryZVertical,0.009973997819054415,0.5721143156570266,-0.6172601067819929,-0.5399774840217195,-0.6055445671081543,0.7170581817626953,-0.3451714515686035,0,0,0,-1,-1,68724.95065425,unknown,2,2025-04-18T14:18:48.757+03:00,2025-04-18T14:06:46.055+03:00,21,5.43046,0,0,19.39724,0,0,2025-04-18T14:18:35.860+03:00,766667928.8450204,0,1.740005,100.4106,1,0.3,2025-04-18T14:06:59.545+03:00,78,1.3,2025-04-18T08:51:18.885+03:00,0.03057091307199995,0
2025-04-18T14:18:50.159+03:00,1744975125.239541,40.95360023396433,29.14098414716288,93.09959,-1,-1,-1,-1,30,20.15231660333657,-9999,68726.34743200001,-0.611480712890625,0.721466064453125,-0.350921630859375,68726.337356,1.222605808831048,-1.052737398716771,-0.7996055189944544,0.000855059246532619,0.009008292108774185,0.007526630070060492,-0.00489574670791626,-0.002771556377410889,0.002326309680938721,XArbitraryZVertical,0.009996107206309654,0.5721252439836674,-0.617247545208874,-0.5399798392964178,-0.6055320501327515,0.7170811891555786,-0.3451455533504486,0,0,0,-1,-1,68724.95065425,unknown,2,2025-04-18T14:18:48.757+03:00,2025-04-18T14:06:46.055+03:00,21,5.43046,0,0,19.39724,0,0,2025-04-18T14:18:35.860+03:00,766667928.8450204,0,1.740005,100.4106,1,0.3,2025-04-18T14:06:59.545+03:00,78,1.3,2025-04-18T08:51:18.885+03:00,0.03057091307199995,0
2025-04-18T14:18:50.169+03:00,1744975125.239541,40.95360023396433,29.14098414716288,93.09959,-1,-1,-1,-1,30,20.15231660333657,-9999,68726.357508,-0.6092987060546875,0.7182159423828125,-0.3529052734375,68726.34743200001,1.22267228334068,-1.052587741152383,-0.7996180846290526,0.001690759207122028,0.01337694097310305,0.01107475906610489,-0.005748629570007324,0.002728164196014404,-0.00274503231048584,XArbitraryZVertical,0.01002811688081278,0.5720870176610198,-0.6172658971829801,-0.5399988487517448,-0.6054726243019104,0.7170899510383606,-0.3452317714691162,0,0,0,-1,-1,68724.95065425,unknown,2,2025-04-18T14:18:48.757+03:00,2025-04-18T14:06:46.055+03:00,21,5.43046,0,0,19.39724,0,0,2025-04-18T14:18:35.860+03:00,766667928.8450204,0,1.740005,100.4106,1,0.3,2025-04-18T14:06:59.545+03:00,78,1.3,2025-04-18T08:51:18.885+03:00,0.03057091307199995,0
2025-04-18T14:18:50.179+03:00,1744975125.239541,40.95360023396433,29.14098414716288,93.09959,-1,-1,-1,-1,30,20.15231660333657,-9999,68726.36758400001,-0.6046600341796875,0.72119140625,-0.3499603271484375,68726.357508,1.222858830791699,-1.052309263917255,-0.7996402678873209,0.01300912722945213,0.01532657444477081,0.01115608680993319,-0.005385637283325195,0.002819478511810303,-0.007039785385131836,XArbitraryZVertical,0.01006918099521177,0.5720160650811321,-0.6173169290591688,-0.540014892041456,-0.6053626537322998,0.7171053886413574,-0.3453924655914307,0,0,0,-1,-1,68724.95065425,unknown,2,2025-04-18T14:18:48.757+03:00,2025-04-18T14:06:46.055+03:00,21,5.43046,0,0,19.39724,0,0,2025-04-18T14:18:35.860+03:00,766667928.8450204,0,1.740005,100.4106,1,0.3,2025-04-18T14:06:59.545+03:00,78,1.3,2025-04-18T08:51:18.885+03:00,0.03057091307199995,0
2025-04-18T14:18:50.189+03:00,1744975125.239541,40.95360023396433,29.14098414716288,93.09959,-1,-1,-1,-1,30,20.15231660333657,-9999,68726.37766,-0.600006103515625,0.726287841796875,-0.3447113037109375,68726.36758400001,1.223166098510741,-1.051925653715045,-0.7996482252635259,0.01843238808214664,0.01522377692162991,0.01449462492018938,-0.003005445003509521,0.0009523630142211914,-0.006566345691680908,XArbitraryZVertical,0.0101027287345092,0.5719152366722474,-0.6173987114277805,-0.5400274842936647,-0.6052250862121582,0.7171109914779663,-0.345621794462204,0,0,0,-1,-1,68724.95065425,unknown,2,2025-04-18T14:18:48.757+03:00,2025-04-18T14:06:46.055+03:00,21,5.43046,0,0,19.39724,0,0,2025-04-18T14:18:35.860+03:00,766667928.8450204,0,1.740005,100.4106,1,0.3,2025-04-18T14:06:59.545+03:00,78,1.3,2025-04-18T08:51:18.885+03:00,0.03057091307199995,0
2025-04-18T14:18:50.199+03:00,1744975125.239541,40.95360023396433,29.14098414716288,93.09959,-1,-1,-1,-1,30,20.15231660333657,-9999,68726.387736,-0.60113525390625,0.71875,-0.3411407470703125,68726.37766,1.223507671122978,-1.051524539261147,-0.7996156648061806,0.02157911285758018,0.01804639399051666,0.01091490406543016,0.002079427242279053,0.007200658321380615,-0.001597046852111816,XArbitraryZVertical,0.01011647670967979,0.5718037968264039,-0.6174858884817375,-0.5400456250108405,-0.6051067113876343,0.7170882821083069,-0.345876157283783,0,0,0,-1,-1,68724.95065425,unknown,2,2025-04-18T14:18:48.757+03:00,2025-04-18T14:06:46.055+03:00,21,5.43046,0,0,19.39724,0,0,2025-04-18T14:18:35.860+03:00,766667928.8450204,0,1.740005,100.4106,1,0.3,2025-04-18T14:06:59.545+03:00,78,1.3,2025-04-18T08:51:18.885+03:00,0.03057091307199995,0
2025-04-18T14:18:50.209+03:00,1744975125.239541,40.95360023396433,29.14098414716288,93.09959,-1,-1,-1,-1,30,20.15231660333657,-9999,68726.397813,-0.6032562255859375,0.717926025390625,-0.3400421142578125,68726.387736,1.22385261717804,-1.051051808577606,-0.7995710431441765,0.02221054770052433,0.02643215656280518,0.01264728978276253,0.005086958408355713,0.007430136203765869,0.002992570400238037,XArbitraryZVertical,0.0101467802344401,0.5716712447981812,-0.6175725115413601,-0.5400863468910373,-0.6049709320068359,0.7170571684837341,-0.3461780548095703,0,0,0,-1,-1,68724.95065425,unknown,2,2025-04-18T14:18:48.757+03:00,2025-04-18T14:06:46.055+03:00,21,5.43046,0,0,19.39724,0,0,2025-04-18T14:18:35.860+03:00,766667928.8450204,0,1.740005,100.4106,1,0.3,2025-04-18T14:06:59.545+03:00,78,1.3,2025-04-18T08:51:18.885+03:00,0.03057091307199995,0
2025-04-18T14:18:50.219+03:00,1744975125.239541,40.95360023396433,29.14098414716288,93.09959,-1,-1,-1,-1,30,20.15231660333657,-9999,68726.40788900001,-0.6035614013671875,0.7168121337890625,-0.339813232421875,68726.397813,1.224156525911507,-1.050605877141096,-0.7995677382270621,0.01587482169270515,0.02536975592374802,0.01138212159276009,0.002371132373809814,-0.000303804874420166,0.005888044834136963,XArbitraryZVertical,0.01019637401605439,0.5715518681215729,-0.6176520056099588,-0.5401208745513014,-0.60481858253479,0.7170548439025879,-0.3464489877223969,0,0,0,-1,-1,68724.95065425,unknown,2,2025-04-18T14:18:48.757+03:00,2025-04-18T14:06:46.055+03:00,21,5.43046,0,0,19.39724,0,0,2025-04-18T14:18:35.860+03:00,766667928.8450204,0,1.740005,100.4106,1,0.3,2025-04-18T14:06:59.545+03:00,78,1.3,2025-04-18T08:51:18.885+03:00,0.03057091307199995,0
