loggingTime(txt),locationTimestamp_since1970(s),locationLatitude(WGS84),locationLongitude(WGS84),locationAltitude(m),locationSpeed(m/s),locationSpeedAccuracy(m/s),locationCourse(°),locationCourseAccuracy(°),locationVerticalAccuracy(m),locationHorizontalAccuracy(m),locationFloor(Z),accelerometerTimestamp_sinceReboot(s),accelerometerAccelerationX(G),accelerometerAccelerationY(G),accelerometerAccelerationZ(G),motionTimestamp_sinceReboot(s),motionYaw(rad),motionRoll(rad),motionPitch(rad),motionRotationRateX(rad/s),motionRotationRateY(rad/s),motionRotationRateZ(rad/s),motionUserAccelerationX(G),motionUserAccelerationY(G),motionUserAccelerationZ(G),motionAttitudeReferenceFrame(txt),motionQuaternionX(R),motionQuaternionY(R),motionQuaternionZ(R),motionQuaternionW(R),motionGravityX(G),motionGravityY(G),motionGravityZ(G),motionMagneticFieldX(µT),motionMagneticFieldY(µT),motionMagneticFieldZ(µT),motionHeading(°),motionMagneticFieldCalibrationAccuracy(Z),activityTimestamp_sinceReboot(s),activity(txt),activityActivityConfidence(Z),activityActivityStartDate(txt),pedometerStartDate(txt),pedometerNumberofSteps(N),pedometerAverageActivePace(s/m),pedometerCurrentPace(s/m),pedometerCurrentCadence(steps/s),pedometerDistance(m),pedometerFloorAscended(N),pedometerFloorDescended(N),pedometerEndDate(txt),altimeterTimestamp_sinceReboot(s),altimeterReset(bool),altimeterRelativeAltitude(m),altimeterPressure(kPa),batteryState(N),batteryLevel(R),heartRateBPMTimestamp(txt),heartRateBPM(N),heartRateBPS(R),heartRateVariabilityTimestamp(txt),heartRateVariability(ms),label
2025-04-18T10:45:20.801+03:00,1744962319.922001,40.95359498604372,29.14098320424353,93.80547,-1,-1,-1,-1,30,35.56216926140436,-9999,61943.004867125,-0.740447998046875,0.484283447265625,-0.4352264404296875,61942.999829125,1.429072565674052,-1.014699761483763,-0.5754724232324059,-0.007830983027815819,0.001391041558235884,-0.004306025803089142,0.008943557739257812,0.02359414100646973,0.005825996398925781,XArbitraryZVertical,-0.1179158158033247,0.5144602803086219,-0.6533346244279485,-0.5427526546950674,-0.7125263214111328,0.5442311763763428,-0.4428529739379883,0,0,0,-1,-1,61937.41118925,unknown,2,2025-04-18T10:45:15.179+03:00,2025-04-17T15:44:39.500+03:00,7159,1.080567,0,0,5908.069,4,10,2025-04-18T10:45:17.758+03:00,766655120.4251046,0,107.72,100.5628,1,0.7,2025-04-18T10:44:07.044+03:00,81,1.35,2025-04-18T08:51:18.885+03:00,0.03057091307199995,1
2025-04-18T10:45:20.803+03:00,1744962319.922001,40.95359498604372,29.14098320424353,93.80547,-1,-1,-1,-1,30,35.56216926140436,-9999,61943.014944125,-0.7008056640625,0.5347137451171875,-0.4267730712890625,61943.009906125,1.42881765369724,-1.015136662148799,-0.5755143310747571,-0.02633868716657162,-0.0476657822728157,-0.006406893953680992,-0.02704578638076782,-0.05674797296524048,0.006357192993164062,XArbitraryZVertical,-0.1179777850376764,0.5146031956830589,-0.6532436552488905,-0.5427132050718092,-0.712700366973877,0.5442663431167603,-0.4425295889377594,0,0,0,-1,-1,61937.41118925,unknown,2,2025-04-18T10:45:15.179+03:00,2025-04-17T15:44:39.500+03:00,7159,1.080567,0,0,5908.069,4,10,2025-04-18T10:45:17.758+03:00,766655120.4251046,0,107.72,100.5628,1,0.7,2025-04-18T10:44:07.044+03:00,81,1.35,2025-04-18T08:51:18.885+03:00,0.03057091307199995,1
2025-04-18T10:45:20.803+03:00,1744962319.922001,40.95359498604372,29.14098320424353,93.80547,-1,-1,-1,-1,30,35.56216926140436,-9999,61943.025020125,-0.70074462890625,0.549041748046875,-0.4349212646484375,61943.01998212501,1.428527072953239,-1.015585750379387,-0.5755834702592512,-0.01797875948250294,-8.734595030546188e-05,-0.006626604590564966,0.006736040115356445,-0.01788091659545898,0.01601168513298035,XArbitraryZVertical,-0.1180246935443642,0.5147575790841833,-0.6531448684858472,-0.5426754219983861,-0.7128670215606689,0.5443243384361267,-0.4421896040439606,0,0,0,-1,-1,61937.41118925,unknown,2,2025-04-18T10:45:15.179+03:00,2025-04-17T15:44:39.500+03:00,7159,1.080567,0,0,5908.069,4,10,2025-04-18T10:45:17.758+03:00,766655120.4251046,0,107.72,100.5628,1,0.7,2025-04-18T10:44:07.044+03:00,81,1.35,2025-04-18T08:51:18.885+03:00,0.03057091307199995,1
2025-04-18T10:45:20.808+03:00,1744962319.922001,40.95359498604372,29.14098320424353,93.80547,-1,-1,-1,-1,30,35.56216926140436,-9999,61943.035097125,-0.733642578125,0.537353515625,-0.43988037109375,61943.03005912501,1.428334653410733,-1.01559869900679,-0.5756379942763669,-0.01123596727848053,0.01030264422297478,-0.005158570129424334,0.01687884330749512,0.006884157657623291,0.007884413003921509,XArbitraryZVertical,-0.1179596986500406,0.5147845710505214,-0.653097066649853,-0.5427214049883913,-0.7128474712371826,0.5443700551986694,-0.4421647191047668,0,0,0,-1,-1,61937.41118925,unknown,2,2025-04-18T10:45:15.179+03:00,2025-04-17T15:44:39.500+03:00,7159,1.080567,0,0,5908.069,4,10,2025-04-18T10:45:17.758+03:00,766655120.4251046,0,107.72,100.5628,1,0.7,2025-04-18T10:44:07.044+03:00,81,1.35,2025-04-18T08:51:18.885+03:00,0.03057091307199995,1
2025-04-18T10:45:20.819+03:00,1744962319.922001,40.95359498604372,29.14098320424353,93.80547,-1,-1,-1,-1,30,35.56216926140436,-9999,61943.04517312501,-0.7176055908203125,0.548675537109375,-0.4401092529296875,61943.040135125,1.428259950366522,-1.015534777419279,-0.5756737551453146,-0.000674670038279146,0.005741181783378124,-0.00373883917927742,-0.01945137977600098,-0.007656872272491455,0.001526296138763428,XArbitraryZVertical,-0.1179066323121474,0.51477956980754,-0.6530839587043074,-0.5427535278272468,-0.7128027081489563,0.5444000959396362,-0.4422000348567963,0,0,0,-1,-1,61937.41118925,unknown,2,2025-04-18T10:45:15.179+03:00,2025-04-17T15:44:39.500+03:00,7159,1.080567,0,0,5908.069,4,10,2025-04-18T10:45:17.758+03:00,766655120.4251046,0,107.72,100.5628,1,0.7,2025-04-18T10:44:07.044+03:00,81,1.35,2025-04-18T08:51:18.885+03:00,0.03057091307199995,1
2025-04-18T10:45:20.828+03:00,1744962319.922001,40.95359498604372,29.14098320424353,93.80547,-1,-1,-1,-1,30,35.56216926140436,-9999,61943.05525012501,-0.71417236328125,0.551483154296875,-0.4423980712890625,61943.050212125,1.428322087380897,-1.015366898026772,-0.5756024045084273,0.01050647813826799,0.01800357364118099,-0.001719297375530005,-0.007728040218353271,0.003877580165863037,0.002810835838317871,XArbitraryZVertical,-0.1178935968941177,0.5147144827023972,-0.6531039470696434,-0.5427940901895507,-0.7127615213394165,0.5443402528762817,-0.4423401951789856,0,0,0,-1,-1,61937.41118925,unknown,2,2025-04-18T10:45:15.179+03:00,2025-04-17T15:44:39.500+03:00,7159,1.080567,0,0,5908.069,4,10,2025-04-18T10:45:17.758+03:00,766655120.4251046,0,107.72,100.5628,1,0.7,2025-04-18T10:44:07.044+03:00,81,1.35,2025-04-18T08:51:18.885+03:00,0.03057091307199995,1
2025-04-18T10:45:20.839+03:00,1744962319.922001,40.95359498604372,29.14098320424353,93.80547,-1,-1,-1,-1,30,35.56216926140436,-9999,61943.065326125,-0.7202606201171875,0.545745849609375,-0.4349517822265625,61943.060288125,1.42842000877995,-1.015092635338187,-0.5755625726022361,0.00530798826366663,0.02214026264846325,-0.001527816173620522,-3.373622894287109e-05,0.006886422634124756,-0.000430762767791748,XArbitraryZVertical,-0.1178436731413421,0.5146254278279974,-0.6531429082660845,-0.5428424054957204,-0.7126585245132446,0.5443068146705627,-0.442547082901001,0,0,0,-1,-1,61937.41118925,unknown,2,2025-04-18T10:45:15.179+03:00,2025-04-17T15:44:39.500+03:00,7159,1.080567,0,0,5908.069,4,10,2025-04-18T10:45:17.758+03:00,766655120.4251046,0,107.72,100.5628,1,0.7,2025-04-18T10:44:07.044+03:00,81,1.35,2025-04-18T08:51:18.885+03:00,0.03057091307199995,1
2025-04-18T10:45:20.848+03:00,1744962319.922001,40.95359498604372,29.14098320424353,93.80547,-1,-1,-1,-1,30,35.56216926140436,-9999,61943.075403125,-0.7147216796875,0.5354156494140625,-0.432037353515625,61943.070365125,1.428441124917076,-1.014876985069994,-0.5756737462265578,-0.00822779443114996,0.01562696881592274,0.001771840383298695,-0.007428526878356934,0.00213921070098877,0.006374329328536987,XArbitraryZVertical,-0.1177384519991365,0.5145903679727366,-0.6531718807436536,-0.5428636307709442,-0.7125116586685181,0.5444000959396362,-0.4426688253879547,0,0,0,-1,-1,61937.41118925,unknown,2,2025-04-18T10:45:15.179+03:00,2025-04-17T15:44:39.500+03:00,7159,1.080567,0,0,5908.069,4,10,2025-04-18T10:45:17.758+03:00,766655120.4251046,0,107.72,100.5628,1,0.7,2025-04-18T10:44:07.044+03:00,81,1.35,2025-04-18T08:51:18.885+03:00,0.03057091307199995,1
2025-04-18T10:45:20.860+03:00,1744962319.922001,40.95359498604372,29.14098320424353,93.80547,-1,-1,-1,-1,30,35.56216926140436,-9999,61943.085479125,-0.70953369140625,0.5370025634765625,-0.4337615966796875,61943.08044112501,1.428330270312121,-1.014809203130715,-0.5758724210375521,-0.009724224917590618,0.01120026223361492,-0.0001211345079354942,-0.003354191780090332,-0.007793009281158447,0.01127886772155762,XArbitraryZVertical,-0.1176158703581987,0.5146226531569723,-0.6531646066628966,-0.5428684607810795,-0.7123898863792419,0.5445666909217834,-0.4426600635051727,0,0,0,-1,-1,61937.41118925,unknown,2,2025-04-18T10:45:15.179+03:00,2025-04-17T15:44:39.500+03:00,7159,1.080567,0,0,5908.069,4,10,2025-04-18T10:45:17.758+03:00,766655120.4251046,0,107.72,100.5628,1,0.7,2025-04-18T10:44:07.044+03:00,81,1.35,2025-04-18T08:51:18.885+03:00,0.03057091307199995,1
2025-04-18T10:45:20.869+03:00,1744962319.922001,40.95359498604372,29.14098320424353,93.80547,-1,-1,-1,-1,30,35.56216926140436,-9999,61943.095556125,-0.7118377685546875,0.548126220703125,-0.4363555908203125,61943.09051812501,1.428175524305816,-1.014848583203576,-0.5755961519768521,-0.007689503021538258,0.01849818974733353,-0.002199964597821236,0.00255882740020752,-0.008553087711334229,0.008583664894104004,XArbitraryZVertical,-0.1176888434563756,0.5145810194336392,-0.6530940975492153,-0.5429770107645161,-0.7125350832939148,0.5443350076675415,-0.4427114129066467,0,0,0,-1,-1,61937.41118925,unknown,2,2025-04-18T10:45:15.179+03:00,2025-04-17T15:44:39.500+03:00,7159,1.080567,0,0,5908.069,4,10,2025-04-18T10:45:17.758+03:00,766655120.4251046,0,107.72,100.5628,1,0.7,2025-04-18T10:44:07.044+03:00,81,1.35,2025-04-18T08:51:18.885+03:00,0.03057091307199995,1
2025-04-18T10:45:20.879+03:00,1744962319.922001,40.95359498604372,29.14098320424353,93.80547,-1,-1,-1,-1,30,35.56216926140436,-9999,61943.105633125,-0.715118408203125,0.5475006103515625,-0.4417724609375,61943.100594125,1.428062042018079,-1.014800948000385,-0.5755324757610735,-0.00236504478380084,0.01340303011238575,-0.00703759677708149,0.002155125141143799,0.003020644187927246,0.006820052862167358,XArbitraryZVertical,-0.117667201467469,0.514560626408199,-0.6530600503778742,-0.5430417843283204,-0.7125433087348938,0.544281542301178,-0.4427635967731476,0,0,0,-1,-1,61937.41118925,unknown,2,2025-04-18T10:45:15.179+03:00,2025-04-17T15:44:39.500+03:00,7159,1.080567,0,0,5908.069,4,10,2025-04-18T10:45:17.758+03:00,766655120.4251046,0,107.72,100.5628,1,0.7,2025-04-18T10:44:07.044+03:00,81,1.35,2025-04-18T08:51:18.885+03:00,0.03057091307199995,1
2025-04-18T10:45:20.889+03:00,1744962319.922001,40.95359498604372,29.14098320424353,93.80547,-1,-1,-1,-1,30,35.56216926140436,-9999,61943.11570912501,-0.7109375,0.5378265380859375,-0.44537353515625,61943.110671125,1.427931601604033,-1.014806689646953,-0.5755817261423147,-0.01240136753767729,0.001842047553509474,-0.01129689067602158,-0.003312468528747559,0.004093289375305176,0.001110315322875977,XArbitraryZVertical,-0.1176176578092183,0.514580796123341,-0.6530289656627224,-0.5430708863175007,-0.7125231623649597,0.5443229079246521,-0.4427453875541687,0,0,0,-1,-1,61937.41118925,unknown,2,2025-04-18T10:45:15.179+03:00,2025-04-17T15:44:39.500+03:00,7159,1.080567,0,0,5908.069,4,10,2025-04-18T10:45:17.758+03:00,766655120.4251046,0,107.72,100.5628,1,0.7,2025-04-18T10:44:07.044+03:00,81,1.35,2025-04-18T08:51:18.885+03:00,0.03057091307199995,1
2025-04-18T10:45:20.899+03:00,1744962319.922001,40.95359498604372,29.14098320424353,93.80547,-1,-1,-1,-1,30,35.56216926140436,-9999,61943.12578612501,-0.711883544921875,0.535797119140625,-0.444610595703125,61943.120747125,1.427681071690559,-1.014988149956106,-0.5755028096593582,-0.01351616624742746,0.002478276845067739,-0.009628686122596264,0.000664830207824707,-0.005529820919036865,-0.002719521522521973,XArbitraryZVertical,-0.1176410019157669,0.5146272681051397,-0.6529427742656403,-0.5431254167405128,-0.7126399874687195,0.5442566871643066,-0.4426387250423431,0,0,0,-1,-1,61937.41118925,unknown,2,2025-04-18T10:45:15.179+03:00,2025-04-17T15:44:39.500+03:00,7159,1.080567,0,0,5908.069,4,10,2025-04-18T10:45:17.758+03:00,766655120.4251046,0,107.72,100.5628,1,0.7,2025-04-18T10:44:07.044+03:00,81,1.35,2025-04-18T08:51:18.885+03:00,0.03057091307199995,1
2025-04-18T10:45:20.909+03:00,1744962319.922001,40.95359498604372,29.14098320424353,93.80547,-1,-1,-1,-1,30,35.56216926140436,-9999,61943.135862125,-0.712127685546875,0.5360107421875,-0.4433746337890625,61943.130824125,1.427441677413974,-1.015125884850545,-0.5754976890751696,-0.01478915754705667,0.002431138884276152,-0.01129489298909903,0.002009928226470947,-0.008195817470550537,-0.001671731472015381,XArbitraryZVertical,-0.1176261973956257,0.5146776107497267,-0.6528691739910496,-0.5431694464247426,-0.7127033472061157,0.5442523956298828,-0.4425420761108398,0,0,0,-1,-1,61937.41118925,unknown,2,2025-04-18T10:45:15.179+03:00,2025-04-17T15:44:39.500+03:00,7159,1.080567,0,0,5908.069,4,10,2025-04-18T10:45:17.758+03:00,766655120.4251046,0,107.72,100.5628,1,0.7,2025-04-18T10:44:07.044+03:00,81,1.35,2025-04-18T08:51:18.885+03:00,0.03057091307199995,1
2025-04-18T10:45:20.919+03:00,1744962319.922001,40.95359498604372,29.14098320424353,93.80547,-1,-1,-1,-1,30,35.56216926140436,-9999,61943.145939125,-0.7092437744140625,0.5411224365234375,-0.44244384765625,61943.14090012501,1.427265480128679,-1.015230606784987,-0.5755066693057679,-0.007709676399827003,-0.001653084997087717,-0.009601655416190624,-0.0002367496490478516,-0.008615374565124512,-0.0006504058837890625,XArbitraryZVertical,-0.1176118023003722,0.5147184135192703,-0.6528160144982608,-0.5431977499882669,-0.7127454876899719,0.5442599058151245,-0.4424648284912109,0,0,0,-1,-1,61937.41118925,unknown,2,2025-04-18T10:45:15.179+03:00,2025-04-17T15:44:39.500+03:00,7159,1.080567,0,0,5908.069,4,10,2025-04-18T10:45:17.758+03:00,766655120.4251046,0,107.72,100.5628,1,0.7,2025-04-18T10:44:07.044+03:00,81,1.35,2025-04-18T08:51:18.885+03:00,0.03057091307199995,1
2025-04-18T10:45:20.929+03:00,1744962319.922001,40.95359498604372,29.14098320424353,93.80547,-1,-1,-1,-1,30,35.56216926140436,-9999,61943.156015125,-0.7093963623046875,0.548553466796875,-0.4428558349609375,61943.15097712501,1.427111339651597,-1.01535223145173,-0.5754429648992606,0.0002106978790834546,0.004530375823378563,-0.01120760757476091,0.003478169441223145,-0.003923237323760986,0.0001510381698608398,XArbitraryZVertical,-0.1176348807160789,0.5147463632491194,-0.6527609414583943,-0.5432324602423916,-0.7128287553787231,0.544206440448761,-0.4423964321613312,0,0,0,-1,-1,61937.41118925,unknown,2,2025-04-18T10:45:15.179+03:00,2025-04-17T15:44:39.500+03:00,7159,1.080567,0,0,5908.069,4,10,2025-04-18T10:45:17.758+03:00,766655120.4251046,0,107.72,100.5628,1,0.7,2025-04-18T10:44:07.044+03:00,81,1.35,2025-04-18T08:51:18.885+03:00,0.03057091307199995,1
2025-04-18T10:45:20.939+03:00,1744962319.922001,40.95359498604372,29.14098320424353,93.80547,-1,-1,-1,-1,30,35.56216926140436,-9999,61943.166092125,-0.713775634765625,0.5440673828125,-0.440826416015625,61943.161053125,1.427012244601954,-1.015435054978744,-0.5753175650943486,-0.0004287270712666214,0.001684521790593863,-0.01141799706965685,0.004259407520294189,0.004375934600830078,-0.0007876157760620117,XArbitraryZVertical,-0.1176817835206841,0.5147468396364512,-0.6527172281386432,-0.5432743941170097,-0.7129234075546265,0.5441012382507324,-0.4423733651638031,0,0,0,-1,-1,61937.41118925,unknown,2,2025-04-18T10:45:15.179+03:00,2025-04-17T15:44:39.500+03:00,7159,1.080567,0,0,5908.069,4,10,2025-04-18T10:45:17.758+03:00,766655120.4251046,0,107.72,100.5628,1,0.7,2025-04-18T10:44:07.044+03:00,81,1.35,2025-04-18T08:51:18.885+03:00,0.03057091307199995,1
2025-04-18T10:45:20.949+03:00,1744962319.922001,40.95359498604372,29.14098320424353,93.80547,-1,-1,-1,-1,30,35.56216926140436,-9999,61943.17616812501,-0.7102813720703125,0.542633056640625,-0.4399566650390625,61943.171130125,1.426894865456066,-1.01553955333644,-0.5752069683603471,-0.00521888816729188,-0.00603431835770607,-0.0140666114166379,6.908178329467773e-05,0.0008066296577453613,0.001656770706176758,XArbitraryZVertical,-0.1177256958674484,0.5147575733608668,-0.6526686706351049,-0.5433130633782334,-0.7130208015441895,0.5440084934234619,-0.4423305988311768,0,0,0,-1,-1,61937.41118925,unknown,2,2025-04-18T10:45:15.179+03:00,2025-04-17T15:44:39.500+03:00,7159,1.080567,0,0,5908.069,4,10,2025-04-18T10:45:17.758+03:00,766655120.4251046,0,107.72,100.5628,1,0.7,2025-04-18T10:44:07.044+03:00,81,1.35,2025-04-18T08:51:18.885+03:00,0.03057091307199995,1
2025-04-18T10:45:20.959+03:00,1744962319.922001,40.95359498604372,29.14098320424353,93.80547,-1,-1,-1,-1,30,35.56216926140436,-9999,61943.18624512501,-0.708892822265625,0.5421600341796875,-0.4397430419921875,61943.181206125,1.42670671514532,-1.015728835463915,-0.5751748431472055,-0.01497884094715118,-0.008860996924340725,-0.01078612916171551,0.002319097518920898,-0.001470446586608887,0.001759946346282959,XArbitraryZVertical,-0.1177506515609527,0.5148129353339346,-0.6526033564723622,-0.5433336801910714,-0.7131193280220032,0.5439814925193787,-0.4422048628330231,0,0,0,-1,-1,61937.41118925,unknown,2,2025-04-18T10:45:15.179+03:00,2025-04-17T15:44:39.500+03:00,7159,1.080567,0,0,5908.069,4,10,2025-04-18T10:45:17.758+03:00,766655120.4251046,0,107.72,100.5628,1,0.7,2025-04-18T10:44:07.044+03:00,81,1.35,2025-04-18T08:51:18.885+03:00,0.03057091307199995,1
2025-04-18T10:45:20.970+03:00,1744962319.922001,40.95359498604372,29.14098320424353,93.80547,-1,-1,-1,-1,30,35.56216926140436,-9999,61943.196321125,-0.712371826171875,0.537933349609375,-0.4409942626953125,61943.191283125,1.426488171882369,-1.015935743031595,-0.5751604116268201,-0.008006751537322998,-0.004836228210479021,-0.01035899110138416,0.004660248756408691,-0.001351594924926758,0.002196311950683594,XArbitraryZVertical,-0.1177671888062611,0.5148788274181348,-0.6525304263159467,-0.543355084387705,-0.7132173776626587,0.5439693927764893,-0.4420613646507263,0,0,0,-1,-1,61937.41118925,unknown,2,2025-04-18T10:45:15.179+03:00,2025-04-17T15:44:39.500+03:00,7159,1.080567,0,0,5908.069,4,10,2025-04-18T10:45:17.758+03:00,766655120.4251046,0,107.72,100.5628,1,0.7,2025-04-18T10:44:07.044+03:00,81,1.35,2025-04-18T08:51:18.885+03:00,0.03057091307199995,1
2025-04-18T10:45:20.980+03:00,1744962319.922001,40.95359498604372,29.14098320424353,93.80547,-1,-1,-1,-1,30,35.56216926140436,-9999,61943.206398125,-0.717193603515625,0.54022216796875,-0.4444427490234375,61943.20135912501,1.426358301490261,-1.015991051018588,-0.5750916580208756,-0.005130538251250982,0.004303208086639643,-0.009265230968594551,0.00163424015045166,-0.00533747673034668,0.001184761524200439,XArbitraryZVertical,-0.1177766459096233,0.5148862330473252,-0.6524853324979579,-0.5434002719459055,-0.7132737040519714,0.5439116954803467,-0.4420416653156281,0,0,0,-1,-1,61937.41118925,unknown,2,2025-04-18T10:45:15.179+03:00,2025-04-17T15:44:39.500+03:00,7159,1.080567,0,0,5908.069,4,10,2025-04-18T10:45:17.758+03:00,766655120.4251046,0,107.72,100.5628,1,0.7,2025-04-18T10:44:07.044+03:00,81,1.35,2025-04-18T08:51:18.885+03:00,0.03057091307199995,1
2025-04-18T10:45:20.990+03:00,1744962319.922001,40.95359498604372,29.14098320424353,93.80547,-1,-1,-1,-1,30,35.56216926140436,-9999,61943.216474125,-0.7162628173828125,0.5435791015625,-0.4474029541015625,61943.21143612501,1.426309769732679,-1.015918041272887,-0.5749989266708738,0.001816717209294438,0.01084592938423157,-0.006638355553150177,-0.003543198108673096,-0.004038989543914795,-0.001742571592330933,XArbitraryZVertical,-0.1177739462874863,0.5148486873297115,-0.6524676040751894,-0.5434575856882833,-0.7132841944694519,0.5438339114189148,-0.4421202540397644,0,0,0,-1,-1,61937.41118925,unknown,2,2025-04-18T10:45:15.179+03:00,2025-04-17T15:44:39.500+03:00,7159,1.080567,0,0,5908.069,4,10,2025-04-18T10:45:17.758+03:00,766655120.4251046,0,107.72,100.5628,1,0.7,2025-04-18T10:44:07.044+03:00,81,1.35,2025-04-18T08:51:18.885+03:00,0.03057091307199995,1
2025-04-18T10:45:21.000+03:00,1744962319.922001,40.95359498604372,29.14098320424353,93.80547,-1,-1,-1,-1,30,35.56216926140436,-9999,61943.226551125,-0.7162628173828125,0.5468597412109375,-0.446380615234375,61943.221512125,1.426332498077002,-1.015740752312132,-0.5748978661696907,0.006683643907308578,0.02157553844153881,-0.004500103648751974,-0.003208637237548828,-0.0005819201469421387,-0.004669427871704102,XArbitraryZVertical,-0.1177584975458605,0.5147767307655109,-0.6524745861276291,-0.543520822078028,-0.7132526040077209,0.5437490940093994,-0.4422757029533386,0,0,0,-1,-1,61937.41118925,unknown,2,2025-04-18T10:45:15.179+03:00,2025-04-17T15:44:39.500+03:00,7159,1.080567,0,0,5908.069,4,10,2025-04-18T10:45:17.758+03:00,766655120.4251046,0,107.72,100.5628,1,0.7,2025-04-18T10:44:07.044+03:00,81,1.35,2025-04-18T08:51:18.885+03:00,0.03057091307199995,1
2025-04-18T10:45:21.010+03:00,1744962319.922001,40.95359498604372,29.14098320424353,93.80547,-1,-1,-1,-1,30,35.56216926140436,-9999,61943.23662712501,-0.71533203125,0.550537109375,-0.4431304931640625,61943.231589125,1.426398817300296,-1.015505831443515,-0.5748156906703837,0.01038803439587355,0.01307013444602489,-0.001560672884806991,-0.001992881298065186,0.002294659614562988,-0.004371523857116699,XArbitraryZVertical,-0.1177287009028465,0.5146907473177603,-0.6524986084754664,-0.5435797786848463,-0.7131866216659546,0.5436801314353943,-0.4424667656421661,0,0,0,-1,-1,61937.41118925,unknown,2,2025-04-18T10:45:15.179+03:00,2025-04-17T15:44:39.500+03:00,7159,1.080567,0,0,5908.069,4,10,2025-04-18T10:45:17.758+03:00,766655120.4251046,0,107.72,100.5628,1,0.7,2025-04-18T10:44:07.044+03:00,81,1.35,2025-04-18T08:51:18.885+03:00,0.03057091307199995,1
2025-04-18T10:45:21.020+03:00,1744962319.922001,40.95359498604372,29.14098320424353,93.80547,-1,-1,-1,-1,30,35.56216926140436,-9999,61943.24670412501,-0.7060089111328125,0.5454559326171875,-0.4420166015625,61943.241665125,1.426480973254835,-1.015448267072936,-0.574773515273692,0.005274232942610979,-0.009029841050505638,-0.002966023050248623,-0.002899110317230225,0.007319629192352295,-0.0006867945194244385,XArbitraryZVertical,-0.1177463260178864,0.5146609008423982,-0.6525203080628327,-0.5435781776047384,-0.7131806015968323,0.5436447262763977,-0.4425199329853058,0,0,0,-1,-1,61937.41118925,unknown,2,2025-04-18T10:45:15.179+03:00,2025-04-17T15:44:39.500+03:00,7159,1.080567,0,0,5908.069,4,10,2025-04-18T10:45:17.758+03:00,766655120.4251046,0,107.72,100.5628,1,0.7,2025-04-18T10:44:07.044+03:00,81,1.35,2025-04-18T08:51:18.885+03:00,0.03057091307199995,1
2025-04-18T10:45:21.030+03:00,1744962319.922001,40.95359498604372,29.14098320424353,93.80547,-1,-1,-1,-1,30,35.56216926140436,-9999,61943.256780125,-0.705535888671875,0.5447235107421875,-0.442230224609375,61943.251742125,1.426537388145711,-1.015420601364375,-0.5747256838409683,0.01177700608968735,0.01319650188088417,0.0007775159319862723,0.005579352378845215,0.002980470657348633,-8.878111839294434e-05,XArbitraryZVertical,-0.1177691267777416,0.5146394381574333,-0.6525327132165747,-0.543578674248153,-0.7131904363632202,0.5436045527458191,-0.4425533711910248,0,0,0,-1,-1,61937.41118925,unknown,2,2025-04-18T10:45:15.179+03:00,2025-04-17T15:44:39.500+03:00,7159,1.080567,0,0,5908.069,4,10,2025-04-18T10:45:17.758+03:00,766655120.4251046,0,107.72,100.5628,1,0.7,2025-04-18T10:44:07.044+03:00,81,1.35,2025-04-18T08:51:18.885+03:00,0.03057091307199995,1
2025-04-18T10:45:21.040+03:00,1744962319.922001,40.95359498604372,29.14098320424353,93.80547,-1,-1,-1,-1,30,35.56216926140436,-9999,61943.266857125,-0.7192230224609375,0.5535736083984375,-0.4459991455078125,61943.261819125,1.426718560816823,-1.01510185115204,-0.5746372779843395,0.0212048627436161,0.02681217901408672,-0.0005162477609701455,0.008607089519500732,-0.0005005598068237305,0.0008047223091125488,XArbitraryZVertical,-0.1177437244511744,0.5145224959467054,-0.6525923045359645,-0.5436233732888639,-0.713090181350708,0.5435303449630737,-0.4428060352802277,0,0,0,-1,-1,61937.41118925,unknown,2,2025-04-18T10:45:15.179+03:00,2025-04-17T15:44:39.500+03:00,7159,1.080567,0,0,5908.069,4,10,2025-04-18T10:45:17.758+03:00,766655120.4251046,0,107.72,100.5628,1,0.7,2025-04-18T10:44:07.044+03:00,81,1.35,2025-04-18T08:51:18.885+03:00,0.03057091307199995,1
2025-04-18T10:45:21.050+03:00,1744962319.922001,40.95359498604372,29.14098320424353,93.80547,-1,-1,-1,-1,30,35.56216926140436,-9999,61943.276933125,-0.7139739990234375,0.5496978759765625,-0.446990966796875,61943.27189512501,1.426975082424457,-1.014772321117947,-0.57451278144437,0.03104737401008606,0.0131435040384531,0.0003637938061729074,-0.004680216312408447,0.009689927101135254,-0.00313606858253479,XArbitraryZVertical,-0.1177472911040139,0.5143901727672916,-0.6526695842889179,-0.5436549034555067,-0.7130016088485718,0.5434258580207825,-0.4430766403675079,0,0,0,-1,-1,61937.41118925,unknown,2,2025-04-18T10:45:15.179+03:00,2025-04-17T15:44:39.500+03:00,7159,1.080567,0,0,5908.069,4,10,2025-04-18T10:45:17.758+03:00,766655120.4251046,0,107.72,100.5628,1,0.7,2025-04-18T10:44:07.044+03:00,81,1.35,2025-04-18T08:51:18.885+03:00,0.03057091307199995,1
2025-04-18T10:45:21.060+03:00,1744962319.922001,40.95359498604372,29.14098320424353,93.80547,-1,-1,-1,-1,30,35.56216926140436,-9999,61943.287010125,-0.7113189697265625,0.543243408203125,-0.4482574462890625,61943.28197212501,1.427266221258021,-1.014477192263851,-0.5743643822848961,0.02605927176773548,0.0176844596862793,0.001454624580219388,-0.00205695629119873,0.006655991077423096,-0.003752768039703369,XArbitraryZVertical,-0.1177794852518507,0.5142597969455589,-0.6527519913831344,-0.543672514133933,-0.712939441204071,0.5433012843132019,-0.4433297216892242,0,0,0,-1,-1,61937.41118925,unknown,2,2025-04-18T10:45:15.179+03:00,2025-04-17T15:44:39.500+03:00,7159,1.080567,0,0,5908.069,4,10,2025-04-18T10:45:17.758+03:00,766655120.4251046,0,107.72,100.5628,1,0.7,2025-04-18T10:44:07.044+03:00,81,1.35,2025-04-18T08:51:18.885+03:00,0.03057091307199995,1
2025-04-18T10:45:21.070+03:00,1744962319.922001,40.95359498604372,29.14098320424353,93.80547,-1,-1,-1,-1,30,35.56216926140436,-9999,61943.29708612501,-0.720672607421875,0.540740966796875,-0.4470062255859375,61943.292048125,1.42752976766382,-1.014100125159644,-0.5742109595334616,0.02702813036739826,0.02747477404773235,0.001744509558193386,0.002637863159179688,0.0008034110069274902,-0.004248678684234619,XArbitraryZVertical,-0.1177796753742877,0.5141076441791526,-0.6528312625410559,-0.5437212306837438,-0.7128430008888245,0.5431724786758423,-0.4436425566673279,0,0,0,-1,-1,61937.41118925,unknown,2,2025-04-18T10:45:15.179+03:00,2025-04-17T15:44:39.500+03:00,7159,1.080567,0,0,5908.069,4,10,2025-04-18T10:45:17.758+03:00,766655120.4251046,0,107.72,100.5628,1,0.7,2025-04-18T10:44:07.044+03:00,81,1.35,2025-04-18T08:51:18.885+03:00,0.03057091307199995,1
2025-04-18T10:45:21.083+03:00,1744962319.922001,40.95359498604372,29.14098320424353,93.80547,-1,-1,-1,-1,30,35.56216926140436,-9999,61943.30716312501,-0.717132568359375,0.5367279052734375,-0.44549560546875,61943.302125125,1.42778502943847,-1.013727236797305,-0.5740925680258089,0.01923891715705395,0.02032658271491528,0.002459834795445204,-0.006552040576934814,-0.001004576683044434,-0.002575576305389404,XArbitraryZVertical,-0.1177664187549148,0.5139648948166931,-0.6529113776619564,-0.5437628123900049,-0.7127320766448975,0.5430730581283569,-0.4439423084259033,0,0,0,-1,-1,61937.41118925,unknown,2,2025-04-18T10:45:15.179+03:00,2025-04-17T15:44:39.500+03:00,7159,1.080567,0,0,5908.069,4,10,2025-04-18T10:45:17.758+03:00,766655120.4251046,0,107.72,100.5628,1,0.7,2025-04-18T10:44:07.044+03:00,81,1.35,2025-04-18T08:51:18.885+03:00,0.03057091307199995,1
2025-04-18T10:45:21.091+03:00,1744962319.922001,40.95359498604372,29.14098320424353,93.80547,-1,-1,-1,-1,30,35.56216926140436,-9999,61943.317239125,-0.711212158203125,0.537872314453125,-0.4474334716796875,61943.312201125,1.427973287851527,-1.013426234539983,-0.5740019026336457,0.01751225627958775,0.01963589154183865,-0.0004505342221818864,-0.004690766334533691,-0.006162166595458984,-0.001297354698181152,XArbitraryZVertical,-0.1177492955222911,0.513851776518119,-0.6529716845176231,-0.5438011129094754,-0.7126402258872986,0.5429969429969788,-0.4441829025745392,0,0,0,-1,-1,61937.41118925,unknown,2,2025-04-18T10:45:15.179+03:00,2025-04-17T15:44:39.500+03:00,7159,1.080567,0,0,5908.069,4,10,2025-04-18T10:45:17.758+03:00,766655120.4251046,0,107.72,100.5628,1,0.7,2025-04-18T10:44:07.044+03:00,81,1.35,2025-04-18T08:51:18.885+03:00,0.03057091307199995,1
2025-04-18T10:45:21.100+03:00,1744962319.922001,40.95359498604372,29.14098320424353,93.80547,-1,-1,-1,-1,30,35.56216926140436,-9999,61943.327316125,-0.7108612060546875,0.53924560546875,-0.4493865966796875,61943.322278125,1.428115367069446,-1.013176462820186,-0.5739556939974524,0.01408929564058781,0.01733385398983955,-0.001483840751461685,0.001185774803161621,-0.005253612995147705,-0.002235352993011475,XArbitraryZVertical,-0.1177209895444556,0.513765213527056,-0.6530206387405099,-0.5438301850746052,-0.7125505208969116,0.54295814037323,-0.444374144077301,0,0,0,-1,-1,61937.41118925,unknown,2,2025-04-18T10:45:15.179+03:00,2025-04-17T15:44:39.500+03:00,7159,1.080567,0,0,5908.069,4,10,2025-04-18T10:45:17.758+03:00,766655120.4251046,0,107.72,100.5628,1,0.7,2025-04-18T10:44:07.044+03:00,81,1.35,2025-04-18T08:51:18.885+03:00,0.03057091307199995,1
2025-04-18T10:45:21.111+03:00,1744962319.922001,40.95359498604372,29.14098320424353,93.80547,-1,-1,-1,-1,30,35.56216926140436,-9999,61943.337392125,-0.70989990234375,0.535736083984375,-0.449981689453125,61943.33235412501,1.428267396416229,-1.012940323979989,-0.5738942663686938,0.02073268406093121,0.01085797976702452,-0.001816935604438186,0.001429438591003418,-0.004332304000854492,-0.004109323024749756,XArbitraryZVertical,-0.1177051902361048,0.5136783784200776,-0.653070055611581,-0.5438562174014008,-0.7124738097190857,0.5429065227508545,-0.4445600211620331,0,0,0,-1,-1,61937.41118925,unknown,2,2025-04-18T10:45:15.179+03:00,2025-04-17T15:44:39.500+03:00,7159,1.080567,0,0,5908.069,4,10,2025-04-18T10:45:17.758+03:00,766655120.4251046,0,107.72,100.5628,1,0.7,2025-04-18T10:44:07.044+03:00,81,1.35,2025-04-18T08:51:18.885+03:00,0.03057091307199995,1
2025-04-18T10:45:21.120+03:00,1744962319.922001,40.95359498604372,29.14098320424353,93.80547,-1,-1,-1,-1,30,35.56216926140436,-9999,61943.347469125,-0.7079620361328125,0.5394287109375,-0.4477386474609375,61943.34243112501,1.428491504685333,-1.012702985190735,-0.5737989278109539,0.02012575045228004,0.01090831309556961,-0.001094952691346407,0.002115547657012939,-0.006281673908233643,-0.005148828029632568,XArbitraryZVertical,-0.1177197342808317,0.5135794031719241,-0.6531359368350387,-0.5438674403776126,-0.7124122381210327,0.5428264737129211,-0.4447565078735352,0,0,0,-1,-1,61937.41118925,unknown,2,2025-04-18T10:45:15.179+03:00,2025-04-17T15:44:39.500+03:00,7159,1.080567,0,0,5908.069,4,10,2025-04-18T10:45:17.758+03:00,766655120.4251046,0,107.72,100.5628,1,0.7,2025-04-18T10:44:07.044+03:00,81,1.35,2025-04-18T08:51:18.885+03:00,0.03057091307199995,1
2025-04-18T10:45:21.131+03:00,1744962319.922001,40.95359498604372,29.14098320424353,93.80547,-1,-1,-1,-1,30,35.56216926140436,-9999,61943.35754512501,-0.712982177734375,0.546234130859375,-0.442718505859375,61943.352507125,1.428716755992576,-1.012412366957378,-0.5737224193018795,0.02138582430779934,0.02340799197554588,0.002772023668512702,0.004127204418182373,-0.003867506980895996,-0.003042936325073242,XArbitraryZVertical,-0.1177103263369837,0.5134700562857732,-0.6532070550938567,-0.5438873521734561,-0.7123181819915771,0.5427622199058533,-0.444985568523407,0,0,0,-1,-1,61937.41118925,unknown,2,2025-04-18T10:45:15.179+03:00,2025-04-17T15:44:39.500+03:00,7159,1.080567,0,0,5908.069,4,10,2025-04-18T10:45:17.758+03:00,766655120.4251046,0,107.72,100.5628,1,0.7,2025-04-18T10:44:07.044+03:00,81,1.35,2025-04-18T08:51:18.885+03:00,0.03057091307199995,1
2025-04-18T10:45:21.141+03:00,1744962319.922001,40.95359498604372,29.14098320424353,93.80547,-1,-1,-1,-1,30,35.56216926140436,-9999,61943.36762212501,-0.7149200439453125,0.5340118408203125,-0.4407196044921875,61943.362584125,1.428883964873567,-1.012089476316185,-0.5736606134233326,0.009017571806907654,0.02178026735782623,-0.001395556959323585,0.0001819729804992676,0.003462791442871094,0.001278877258300781,XArbitraryZVertical,-0.1176701488472981,0.5133586224429049,-0.6532656831506783,-0.5439308241306897,-0.7122029066085815,0.5427103042602539,-0.4452333152294159,0,0,0,-1,-1,61937.41118925,unknown,2,2025-04-18T10:45:15.179+03:00,2025-04-17T15:44:39.500+03:00,7159,1.080567,0,0,5908.069,4,10,2025-04-18T10:45:17.758+03:00,766655120.4251046,0,107.72,100.5628,1,0.7,2025-04-18T10:44:07.044+03:00,81,1.35,2025-04-18T08:51:18.885+03:00,0.03057091307199995,1
2025-04-18T10:45:21.151+03:00,1744962319.922001,40.95359498604372,29.14098320424353,93.80547,-1,-1,-1,-1,30,35.56216926140436,-9999,61943.377698125,-0.7065277099609375,0.5265655517578125,-0.4397735595703125,61943.372660125,1.428942229499014,-1.011874027243785,-0.5736398428942974,-0.0009317316580563784,0.01469279825687408,9.847641922533512e-05,-0.003658056259155273,-0.006956756114959717,0.004444301128387451,XArbitraryZVertical,-0.1176222401681946,0.513291964192967,-0.6532922397916031,-0.5439722076303898,-0.712116539478302,0.5426928400993347,-0.4453927278518677,0,0,0,-1,-1,61937.41118925,unknown,2,2025-04-18T10:45:15.179+03:00,2025-04-17T15:44:39.500+03:00,7159,1.080567,0,0,5908.069,4,10,2025-04-18T10:45:17.758+03:00,766655120.4251046,0,107.72,100.5628,1,0.7,2025-04-18T10:44:07.044+03:00,81,1.35,2025-04-18T08:51:18.885+03:00,0.03057091307199995,1
2025-04-18T10:45:21.161+03:00,1744962319.922001,40.95359498604372,29.14098320424353,93.80547,-1,-1,-1,-1,30,35.56216926140436,-9999,61943.387775125,-0.70648193359375,0.5314483642578125,-0.440216064453125,61943.382737125,1.428874847028551,-1.011757432803963,-0.5736623253130448,-0.009256507270038128,0.01925133168697357,0.0005797095946036279,0.004626214504241943,-0.01561212539672852,0.006153523921966553,XArbitraryZVertical,-0.1175587329178781,0.5132692292236058,-0.6532828915531808,-0.5440185985928825,-0.7120542526245117,0.5427117347717285,-0.4454692900180817,0,0,0,-1,-1,61937.41118925,unknown,2,2025-04-18T10:45:15.179+03:00,2025-04-17T15:44:39.500+03:00,7159,1.080567,0,0,5908.069,4,10,2025-04-18T10:45:17.758+03:00,766655120.4251046,0,107.72,100.5628,1,0.7,2025-04-18T10:44:07.044+03:00,81,1.35,2025-04-18T08:51:18.885+03:00,0.03057091307199995,1
2025-04-18T10:45:21.171+03:00,1744962319.922001,40.95359498604372,29.14098320424353,93.80547,-1,-1,-1,-1,30,35.56216926140436,-9999,61943.397851125,-0.7083587646484375,0.52880859375,-0.4417724609375,61943.39281312501,1.428763475582423,-1.011632225211177,-0.5736953482683793,-0.01036518067121506,0.01825877092778683,0.0006975545547902584,0.006432116031646729,-0.01196247339248657,0.005866944789886475,XArbitraryZVertical,-0.117477281157231,0.5132490735518088,-0.6532630732205212,-0.5440790700296693,-0.711983323097229,0.5427394509315491,-0.445548951625824,0,0,0,-1,-1,61937.41118925,unknown,2,2025-04-18T10:45:15.179+03:00,2025-04-17T15:44:39.500+03:00,7159,1.080567,0,0,5908.069,4,10,2025-04-18T10:45:17.758+03:00,766655120.4251046,0,107.72,100.5628,1,0.7,2025-04-18T10:44:07.044+03:00,81,1.35,2025-04-18T08:51:18.885+03:00,0.03057091307199995,1
2025-04-18T10:45:21.181+03:00,1744962319.922001,40.95359498604372,29.14098320424353,93.80547,-1,-1,-1,-1,30,35.56216926140436,-9999,61943.407928125,-0.7063140869140625,0.5326385498046875,-0.4453125,61943.40289012501,1.428649160649932,-1.011545988179878,-0.5737250263296517,-0.01257134322077036,0.01123654842376709,-0.001449486007913947,0.003740191459655762,-0.01404732465744019,0.004775404930114746,XArbitraryZVertical,-0.1174090528098558,0.5132389489923431,-0.653239841058708,-0.5441312020059688,-0.7119311690330505,0.54276442527771,-0.4456017911434174,0,0,0,-1,-1,61937.41118925,unknown,2,2025-04-18T10:45:15.179+03:00,2025-04-17T15:44:39.500+03:00,7159,1.080567,0,0,5908.069,4,10,2025-04-18T10:45:17.758+03:00,766655120.4251046,0,107.72,100.5628,1,0.7,2025-04-18T10:44:07.044+03:00,81,1.35,2025-04-18T08:51:18.885+03:00,0.03057091307199995,1
2025-04-18T10:45:21.191+03:00,1744962319.922001,40.95359498604372,29.14098320424353,93.80547,-1,-1,-1,-1,30,35.56216926140436,-9999,61943.418005125,-0.705841064453125,0.53692626953125,-0.4483184814453125,61943.412966125,1.4285571679295,-1.011465256556964,-0.5737560268932118,-0.006346936337649822,0.01240068301558495,-0.001155306585133076,0.005154788494110107,-0.01176929473876953,0.0006124973297119141,XArbitraryZVertical,-0.1173478737681204,0.5132293012559366,-0.6532224783291118,-0.5441743025266426,-0.7118809223175049,0.542790412902832,-0.4456503093242645,0,0,0,-1,-1,61937.41118925,unknown,2,2025-04-18T10:45:15.179+03:00,2025-04-17T15:44:39.500+03:00,7159,1.080567,0,0,5908.069,4,10,2025-04-18T10:45:17.758+03:00,766655120.4251046,0,107.72,100.5628,1,0.7,2025-04-18T10:44:07.044+03:00,81,1.35,2025-04-18T08:51:18.885+03:00,0.03057091307199995,1
2025-04-18T10:45:21.201+03:00,1744962319.922001,40.95359498604372,29.14098320424353,93.80547,-1,-1,-1,-1,30,35.56216926140436,-9999,61943.428080625,-0.7082672119140625,0.5357818603515625,-0.4483642578125,61943.423043125,1.428506228128894,-1.011354665058448,-0.5737679588579673,-0.004088043235242367,0.01263903547078371,0.0009624391095712781,0.006824195384979248,-0.005950450897216797,-0.002028226852416992,XArbitraryZVertical,-0.1172943872424483,0.5132048654369019,-0.6532162317979047,-0.5442163130359738,-0.7118260860443115,0.5428004860877991,-0.4457255899906158,0,0,0,-1,-1,61937.41118925,unknown,2,2025-04-18T10:45:15.179+03:00,2025-04-17T15:44:39.500+03:00,7159,1.080567,0,0,5908.069,4,10,2025-04-18T10:45:17.758+03:00,766655120.4251046,0,107.72,100.5628,1,0.7,2025-04-18T10:44:07.044+03:00,81,1.35,2025-04-18T08:51:18.885+03:00,0.03057091307199995,1
2025-04-18T10:45:21.211+03:00,1744962319.922001,40.95359498604372,29.14098320424353,93.80547,-1,-1,-1,-1,30,35.56216926140436,-9999,61943.438157625,-0.708526611328125,0.5381317138671875,-0.445098876953125,61943.43311862501,1.428463338285269,-1.011248285165902,-0.5738237537610379,-0.01095706876367331,0.009028654545545578,0.00479715783149004,0.002860128879547119,-0.006912887096405029,-0.003128230571746826,XArbitraryZVertical,-0.1172284783273295,0.5131908862065204,-0.653216066379083,-0.5442438044510787,-0.7117529511451721,0.5428473353385925,-0.4457851946353912,0,0,0,-1,-1,61937.41118925,unknown,2,2025-04-18T10:45:15.179+03:00,2025-04-17T15:44:39.500+03:00,7159,1.080567,0,0,5908.069,4,10,2025-04-18T10:45:17.758+03:00,766655120.4251046,0,107.72,100.5628,1,0.7,2025-04-18T10:44:07.044+03:00,81,1.35,2025-04-18T08:51:18.885+03:00,0.03057091307199995,1
2025-04-18T10:45:21.222+03:00,1744962319.922001,40.95359498604372,29.14098320424353,93.80547,-1,-1,-1,-1,30,35.56216926140436,-9999,61943.448233625,-0.7059173583984375,0.5330657958984375,-0.4485321044921875,61943.443195625,1.428346737187444,-1.011251013788295,-0.5739555773730076,-0.01699898205697536,0.003849871456623077,0.005484519526362419,0.003395795822143555,-0.00543665885925293,2.080202102661133e-05,XArbitraryZVertical,-0.1171517339331308,0.5132278586568142,-0.653196623094691,-0.544248818275613,-0.7116935253143311,0.5429580211639404,-0.4457452595233917,0,0,0,-1,-1,61937.41118925,unknown,2,2025-04-18T10:45:15.179+03:00,2025-04-17T15:44:39.500+03:00,7159,1.080567,0,0,5908.069,4,10,2025-04-18T10:45:17.758+03:00,766655120.4251046,0,107.72,100.5628,1,0.7,2025-04-18T10:44:07.044+03:00,81,1.35,2025-04-18T08:51:18.885+03:00,0.03057091307199995,1
2025-04-18T10:45:21.232+03:00,1744962319.922001,40.95359498604372,29.14098320424353,93.80547,-1,-1,-1,-1,30,35.56216926140436,-9999,61943.45831062501,-0.7093658447265625,0.533111572265625,-0.4490203857421875,61943.453271625,1.428161187931027,-1.011360550457379,-0.5740727007800186,-0.02236398681998253,0.0001469454728066921,0.006231903098523617,0.005649030208587646,-0.008846163749694824,-0.002257645130157471,XArbitraryZVertical,-0.1170974756774583,0.5132946412862004,-0.6531507753986838,-0.5442526005806936,-0.7116885185241699,0.5430563688278198,-0.445633590221405,0,0,0,-1,-1,61937.41118925,unknown,2,2025-04-18T10:45:15.179+03:00,2025-04-17T15:44:39.500+03:00,7159,1.080567,0,0,5908.069,4,10,2025-04-18T10:45:17.758+03:00,766655120.4251046,0,107.72,100.5628,1,0.7,2025-04-18T10:44:07.044+03:00,81,1.35,2025-04-18T08:51:18.885+03:00,0.03057091307199995,1
2025-04-18T10:45:21.242+03:00,1744962319.922001,40.95359498604372,29.14098320424353,93.80547,-1,-1,-1,-1,30,35.56216926140436,-9999,61943.46838662501,-0.709381103515625,0.532867431640625,-0.45025634765625,61943.463348625,1.427979462103468,-1.011459663803713,-0.574190867536702,-0.02027180790901184,0.001671072794124484,0.008744860999286175,0.002434432506561279,-0.01033389568328857,-0.003796517848968506,XArbitraryZVertical,-0.1170404283095767,0.5133585901143036,-0.6531066818301108,-0.5442574740936591,-0.7116782665252686,0.5431556105613708,-0.4455289840698242,0,0,0,-1,-1,61937.41118925,unknown,2,2025-04-18T10:45:15.179+03:00,2025-04-17T15:44:39.500+03:00,7159,1.080567,0,0,5908.069,4,10,2025-04-18T10:45:17.758+03:00,766655120.4251046,0,107.72,100.5628,1,0.7,2025-04-18T10:44:07.044+03:00,81,1.35,2025-04-18T08:51:18.885+03:00,0.03057091307199995,1
2025-04-18T10:45:21.252+03:00,1744962319.922001,40.95359498604372,29.14098320424353,93.80547,-1,-1,-1,-1,30,35.56216926140436,-9999,61943.478463625,-0.708709716796875,0.539520263671875,-0.4550628662109375,61943.473424625,1.427837164279024,-1.011493271054367,-0.5743288440031549,-0.01564842648804188,0.01134140975773335,0.007614016532897949,0.002553761005401611,-0.01034301519393921,-0.004913061857223511,XArbitraryZVertical,-0.1169649557546504,0.5134068154191106,-0.6530790251077214,-0.544261334000972,-0.7116296887397766,0.5432714223861694,-0.4454652965068817,0,0,0,-1,-1,61937.41118925,unknown,2,2025-04-18T10:45:15.179+03:00,2025-04-17T15:44:39.500+03:00,7159,1.080567,0,0,5908.069,4,10,2025-04-18T10:45:17.758+03:00,766655120.4251046,0,107.72,100.5628,1,0.7,2025-04-18T10:44:07.044+03:00,81,1.35,2025-04-18T08:51:18.885+03:00,0.03057091307199995,1
2025-04-18T10:45:21.262+03:00,1744962319.922001,40.95359498604372,29.14098320424353,93.80547,-1,-1,-1,-1,30,35.56216926140436,-9999,61943.488539625,-0.7133636474609375,0.5440673828125,-0.4527740478515625,61943.48350162501,1.427734707279976,-1.011411501003901,-0.5744040766973927,-0.008222201839089394,0.01896683871746063,0.004687202628701925,0.002299606800079346,-0.005263864994049072,-0.008843779563903809,XArbitraryZVertical,-0.1168846648896265,0.5134073006835068,-0.6530630294196649,-0.5442974681106693,-0.7115586996078491,0.5433346033096313,-0.445501834154129,0,0,0,-1,-1,61937.41118925,unknown,2,2025-04-18T10:45:15.179+03:00,2025-04-17T15:44:39.500+03:00,7159,1.080567,0,0,5908.069,4,10,2025-04-18T10:45:17.758+03:00,766655120.4251046,0,107.72,100.5628,1,0.7,2025-04-18T10:44:07.044+03:00,81,1.35,2025-04-18T08:51:18.885+03:00,0.03057091307199995,1
2025-04-18T10:45:21.272+03:00,1744962319.922001,40.95359498604372,29.14098320424353,93.80547,-1,-1,-1,-1,30,35.56216926140436,-9999,61943.498616625,-0.7146453857421875,0.5388336181640625,-0.451812744140625,61943.49357762501,1.427699409483018,-1.011204594056885,-0.5744383941555845,-0.007470124866813421,0.02489743381738663,0.00581531785428524,-0.001256883144378662,0.001558482646942139,-0.007790923118591309,XArbitraryZVertical,-0.1167956189904403,0.513360696994013,-0.6530687506269707,-0.5443536729764256,-0.7114506959915161,0.5433633923530579,-0.4456391632556915,0,0,0,-1,-1,61937.41118925,unknown,2,2025-04-18T10:45:15.179+03:00,2025-04-17T15:44:39.500+03:00,7159,1.080567,0,0,5908.069,4,10,2025-04-18T10:45:17.758+03:00,766655120.4251046,0,107.72,100.5628,1,0.7,2025-04-18T10:44:07.044+03:00,81,1.35,2025-04-18T08:51:18.885+03:00,0.03057091307199995,1
2025-04-18T10:45:21.282+03:00,1744962319.922001,40.95359498604372,29.14098320424353,93.80547,-1,-1,-1,-1,30,35.56216926140436,-9999,61943.508692625,-0.7132110595703125,0.539794921875,-0.44744873046875,61943.503654625,1.427695964655074,-1.010913690155885,-0.5744797171127063,-0.005359570030122995,0.0311710424721241,0.004231269471347332,-0.004091143608093262,-0.004656076431274414,-0.005703896284103394,XArbitraryZVertical,-0.1166848292244693,0.5132909371182409,-0.6530886925086622,-0.544419163741607,-0.7113019227981567,0.5433980822563171,-0.4458341300487518,0,0,0,-1,-1,61937.41118925,unknown,2,2025-04-18T10:45:15.179+03:00,2025-04-17T15:44:39.500+03:00,7159,1.080567,0,0,5908.069,4,10,2025-04-18T10:45:17.758+03:00,766655120.4251046,0,107.72,100.5628,1,0.7,2025-04-18T10:44:07.044+03:00,81,1.35,2025-04-18T08:51:18.885+03:00,0.03057091307199995,1
2025-04-18T10:45:21.292+03:00,1744962319.922001,40.95359498604372,29.14098320424353,93.80547,-1,-1,-1,-1,30,35.56216926140436,-9999,61943.51876962501,-0.7125091552734375,0.5314788818359375,-0.44451904296875,61943.513730625,1.427587110133339,-1.010609517868596,-0.5745248432724581,-0.01978724449872971,0.03563636168837547,-0.002038211096078157,-0.002187609672546387,-0.003366410732269287,-0.001945257186889648,XArbitraryZVertical,-0.1165411925578924,0.5132245239232748,-0.653081050483716,-0.5445218047429479,-0.7111455798149109,0.5434359908103943,-0.4460374712944031,0,0,0,-1,-1,61937.41118925,unknown,2,2025-04-18T10:45:15.179+03:00,2025-04-17T15:44:39.500+03:00,7159,1.080567,0,0,5908.069,4,10,2025-04-18T10:45:17.758+03:00,766655120.4251046,0,107.72,100.5628,1,0.7,2025-04-18T10:44:07.044+03:00,81,1.35,2025-04-18T08:51:18.885+03:00,0.03057091307199995,1
2025-04-18T10:45:21.302+03:00,1744962319.922001,40.95359498604372,29.14098320424353,93.80547,-1,-1,-1,-1,30,35.56216926140436,-9999,61943.52884562501,-0.709808349609375,0.5252685546875,-0.447174072265625,61943.523807625,1.427289395336297,-1.01039804265645,-0.5746305343760536,-0.04009091854095459,0.03788167238235474,-0.00599753251299262,-0.001689791679382324,-0.01108449697494507,0.001226305961608887,XArbitraryZVertical,-0.1163575166182983,0.5132078396001682,-0.6530222631885485,-0.5446471900666757,-0.71100252866745,0.5435246825218201,-0.4461572766304016,0,0,0,-1,-1,61937.41118925,unknown,2,2025-04-18T10:45:15.179+03:00,2025-04-17T15:44:39.500+03:00,7159,1.080567,0,0,5908.069,4,10,2025-04-18T10:45:17.758+03:00,766655120.4251046,0,107.72,100.5628,1,0.7,2025-04-18T10:44:07.044+03:00,81,1.35,2025-04-18T08:51:18.885+03:00,0.03057091307199995,1
2025-04-18T10:45:21.312+03:00,1744962319.922001,40.95359498604372,29.14098320424353,93.80547,-1,-1,-1,-1,30,35.56216926140436,-9999,61943.538922625,-0.702789306640625,0.5277099609375,-0.4547576904296875,61943.533883625,1.426583661857257,-1.010367236097186,-0.5747859108030345,-0.07375181466341019,0.04010554775595665,-0.02284102700650692,0.0007579326629638672,-0.0190732479095459,-0.0009939372539520264,XArbitraryZVertical,-0.11611007024623,0.5132750707717741,-0.6528464835425646,-0.5448473745762695,-0.7109172344207764,0.5436550974845886,-0.4461342990398407,0,0,0,-1,-1,61937.41118925,unknown,2,2025-04-18T10:45:15.179+03:00,2025-04-17T15:44:39.500+03:00,7159,1.080567,0,0,5908.069,4,10,2025-04-18T10:45:17.758+03:00,766655120.4251046,0,107.72,100.5628,1,0.7,2025-04-18T10:44:07.044+03:00,81,1.35,2025-04-18T08:51:18.885+03:00,0.03057091307199995,1
2025-04-18T10:45:21.322+03:00,1744962319.922001,40.95359498604372,29.14098320424353,93.80547,-1,-1,-1,-1,30,35.56216926140436,-9999,61943.548998625,-0.6974334716796875,0.520751953125,-0.4653778076171875,61943.543960625,1.42546409026323,-1.010606058547819,-0.5749897398213178,-0.114515483379364,0.02753595821559429,-0.03798562660813332,0.007102906703948975,-0.01608568429946899,-0.008226394653320312,XArbitraryZVertical,-0.1158268143020103,0.5134504314324964,-0.6525468097610085,-0.5451013324172043,-0.7109298706054688,0.543826162815094,-0.4459055960178375,0,0,0,-1,-1,61937.41118925,unknown,2,2025-04-18T10:45:15.179+03:00,2025-04-17T15:44:39.500+03:00,7159,1.080567,0,0,5908.069,4,10,2025-04-18T10:45:17.758+03:00,766655120.4251046,0,107.72,100.5628,1,0.7,2025-04-18T10:44:07.044+03:00,81,1.35,2025-04-18T08:51:18.885+03:00,0.03057091307199995,1
2025-04-18T10:45:21.333+03:00,1744962319.922001,40.95359498604372,29.14098320424353,93.80547,-1,-1,-1,-1,30,35.56216926140436,-9999,61943.559075625,-0.6975250244140625,0.511138916015625,-0.467041015625,61943.55403662501,1.423900097474788,-1.011247944631494,-0.5753039764405519,-0.1435512602329254,0.01147803012281656,-0.03774334490299225,0.01259994506835938,-0.02191883325576782,-0.0195157527923584,XArbitraryZVertical,-0.1155206460407542,0.5137857063476277,-0.6521130431199035,-0.5453694427407787,-0.7110710740089417,0.5440898537635803,-0.4453584551811218,0,0,0,-1,-1,61937.41118925,unknown,2,2025-04-18T10:45:15.179+03:00,2025-04-17T15:44:39.500+03:00,7159,1.080567,0,0,5908.069,4,10,2025-04-18T10:45:17.758+03:00,766655120.4251046,0,107.72,100.5628,1,0.7,2025-04-18T10:44:07.044+03:00,81,1.35,2025-04-18T08:51:18.885+03:00,0.03057091307199995,1
2025-04-18T10:45:21.342+03:00,1744962319.922001,40.95359498604372,29.14098320424353,93.80547,-1,-1,-1,-1,30,35.56216926140436,-9999,61943.569151625,-0.703399658203125,0.5181121826171875,-0.4710845947265625,61943.56411362501,1.422116544215762,-1.012056756178262,-0.5757557981416029,-0.156978651881218,0.01836682856082916,-0.03965123370289803,0.01476567983627319,-0.03230762481689453,-0.02244913578033447,XArbitraryZVertical,-0.1151620542108009,0.5142093655070806,-0.6516228049037748,-0.5456319952868609,-0.7112225890159607,0.544468879699707,-0.4446528553962708,0,0,0,-1,-1,61937.41118925,unknown,2,2025-04-18T10:45:15.179+03:00,2025-04-17T15:44:39.500+03:00,7159,1.080567,0,0,5908.069,4,10,2025-04-18T10:45:17.758+03:00,766655120.4251046,0,107.72,100.5628,1,0.7,2025-04-18T10:44:07.044+03:00,81,1.35,2025-04-18T08:51:18.885+03:00,0.03057091307199995,1
2025-04-18T10:45:21.353+03:00,1744962319.922001,40.95359498604372,29.14098320424353,93.80547,-1,-1,-1,-1,30,35.56216926140436,-9999,61943.57922862501,-0.7104644775390625,0.5349884033203125,-0.4815826416015625,61943.574190625,1.42040428256911,-1.012849999622819,-0.5762144587371146,-0.1401478052139282,0.005625400692224503,-0.03417633846402168,0.009702980518341064,-0.02808409929275513,-0.02639579772949219,XArbitraryZVertical,-0.1148136261270122,0.5146257699224909,-0.6511536139211164,-0.5458729517958266,-0.7113631963729858,0.5448535680770874,-0.4439562857151031,0,0,0,-1,-1,61937.41118925,unknown,2,2025-04-18T10:45:15.179+03:00,2025-04-17T15:44:39.500+03:00,7159,1.080567,0,0,5908.069,4,10,2025-04-18T10:45:17.758+03:00,766655120.4251046,0,107.72,100.5628,1,0.7,2025-04-18T10:44:07.044+03:00,81,1.35,2025-04-18T08:51:18.885+03:00,0.03057091307199995,1
2025-04-18T10:45:21.380+03:00,1744962319.922001,40.95359498604372,29.14098320424353,93.80547,-1,-1,-1,-1,30,35.56216926140436,-9999,61943.58930462501,-0.705047607421875,0.5421295166015625,-0.4891357421875,61943.584266625,1.418859080784117,-1.013639844116351,-0.5765480280598849,-0.1232292875647545,0.004495954141020775,-0.0394749641418457,0.0017203688621521,-0.01180803775787354,-0.03718584775924683,XArbitraryZVertical,-0.1145519465830834,0.5150036790817994,-0.6507183365323777,-0.5460904274256271,-0.7115592360496521,0.5451332330703735,-0.4432981312274933,0,0,0,-1,-1,61937.41118925,unknown,2,2025-04-18T10:45:15.179+03:00,2025-04-17T15:44:39.500+03:00,7159,1.080567,0,0,5908.069,4,10,2025-04-18T10:45:17.758+03:00,766655120.4251046,0,107.72,100.5628,1,0.7,2025-04-18T10:44:07.044+03:00,81,1.35,2025-04-18T08:51:18.885+03:00,0.03057091307199995,1
2025-04-18T10:45:21.383+03:00,1744962319.922001,40.95359498604372,29.14098320424353,93.80547,-1,-1,-1,-1,30,35.56216926140436,-9999,61943.599381625,-0.70782470703125,0.5457916259765625,-0.5036468505859375,61943.594343625,1.41727997486768,-1.014317272656132,-0.5768287305142551,-0.1294821202754974,0.0340687595307827,-0.04346144944429398,0.005476295948028564,-0.003956198692321777,-0.04522562026977539,XArbitraryZVertical,-0.1142636737577397,0.5153409196793319,-0.6502751816302014,-0.5463603573544142,-0.7117293477058411,0.5453685522079468,-0.4427351057529449,0,0,0,-1,-1,61937.41118925,unknown,2,2025-04-18T10:45:15.179+03:00,2025-04-17T15:44:39.500+03:00,7159,1.080567,0,0,5908.069,4,10,2025-04-18T10:45:17.758+03:00,766655120.4251046,0,107.72,100.5628,1,0.7,2025-04-18T10:44:07.044+03:00,81,1.35,2025-04-18T08:51:18.885+03:00,0.03057091307199995,1
2025-04-18T10:45:21.384+03:00,1744962319.922001,40.95359498604372,29.14098320424353,93.80547,-1,-1,-1,-1,30,35.56216926140436,-9999,61943.609457625,-0.704986572265625,0.54339599609375,-0.5349884033203125,61943.604419625,1.415841112184466,-1.014681470825338,-0.5769613226922082,-0.09586823731660843,0.04095090180635452,-0.04658027738332748,0.005133628845214844,0.0003576874732971191,-0.0588744580745697,XArbitraryZVertical,-0.1139630651126605,0.5155517193931102,-0.6498739352653068,-0.5467015948546197,-0.7118291258811951,0.5454796552658081,-0.4424376785755157,0,0,0,-1,-1,61937.41118925,unknown,2,2025-04-18T10:45:15.179+03:00,2025-04-17T15:44:39.500+03:00,7159,1.080567,0,0,5908.069,4,10,2025-04-18T10:45:17.758+03:00,766655120.4251046,0,107.72,100.5628,1,0.7,2025-04-18T10:44:07.044+03:00,81,1.35,2025-04-18T08:51:18.885+03:00,0.03057091307199995,1
2025-04-18T10:45:21.393+03:00,1744962319.922001,40.95359498604372,29.14098320424353,93.80547,-1,-1,-1,-1,30,35.56216926140436,-9999,61943.619534625,-0.6836395263671875,0.55926513671875,-0.56402587890625,61943.61449662501,1.414652406064327,-1.015066547390917,-0.5768920562181942,-0.07024895399808884,0.008675718680024147,-0.0579376295208931,0.004847824573516846,-0.002254486083984375,-0.08828818798065186,XArbitraryZVertical,-0.1138067729488636,0.5157094501952737,-0.6495203201444215,-0.5470057529912631,-0.7120317220687866,0.5454216003417969,-0.4421835541725159,0,0,0,-1,-1,61937.41118925,unknown,2,2025-04-18T10:45:15.179+03:00,2025-04-17T15:44:39.500+03:00,7159,1.080567,0,0,5908.069,4,10,2025-04-18T10:45:17.758+03:00,766655120.4251046,0,107.72,100.5628,1,0.7,2025-04-18T10:44:07.044+03:00,81,1.35,2025-04-18T08:51:18.885+03:00,0.03057091307199995,1
2025-04-18T10:45:21.403+03:00,1744962319.922001,40.95359498604372,29.14098320424353,93.80547,-1,-1,-1,-1,30,35.56216926140436,-9999,61943.629610625,-0.671478271484375,0.5812225341796875,-0.5731048583984375,61943.62457262501,1.413607352490532,-1.015824477543156,-0.5765981843260368,-0.07391852140426636,-0.05706281587481499,-0.09226097911596298,0.02639126777648926,0.01054984331130981,-0.1202225089073181,XArbitraryZVertical,-0.1138901490190291,0.5159117670433208,-0.6491629452881977,-0.5472217128145622,-0.7125027775764465,0.5451752543449402,-0.4417281746864319,0,0,0,-1,-1,61937.41118925,unknown,2,2025-04-18T10:45:15.179+03:00,2025-04-17T15:44:39.500+03:00,7159,1.080567,0,0,5908.069,4,10,2025-04-18T10:45:17.758+03:00,766655120.4251046,0,107.72,100.5628,1,0.7,2025-04-18T10:44:07.044+03:00,81,1.35,2025-04-18T08:51:18.885+03:00,0.03057091307199995,1
2025-04-18T10:45:21.413+03:00,1744962319.922001,40.95359498604372,29.14098320424353,93.80547,-1,-1,-1,-1,30,35.56216926140436,-9999,61943.63968762501,-0.6632080078125,0.5707244873046875,-0.5779266357421875,61943.634649625,1.411805058771881,-1.017768185068919,-0.5761651997784168,-0.1356018632650375,-0.1592626869678497,-0.1267397254705429,0.04115176200866699,0.03497600555419922,-0.1319975256919861,XArbitraryZVertical,-0.1142129190362326,0.5164515515976392,-0.6485169145905701,-0.5474113026915111,-0.7135608792304993,0.5448122620582581,-0.4404664039611816,0,0,0,-1,-1,61937.41118925,unknown,2,2025-04-18T10:45:15.179+03:00,2025-04-17T15:44:39.500+03:00,7159,1.080567,0,0,5908.069,4,10,2025-04-18T10:45:17.758+03:00,766655120.4251046,0,107.72,100.5628,1,0.7,2025-04-18T10:44:07.044+03:00,81,1.35,2025-04-18T08:51:18.885+03:00,0.03057091307199995,1
2025-04-18T10:45:21.423+03:00,1744962319.922001,40.95359498604372,29.14098320424353,93.80547,-1,-1,-1,-1,30,35.56216926140436,-9999,61943.64976362501,-0.644256591796875,0.516571044921875,-0.5752105712890625,61943.644725625,1.408965543456298,-1.02179489692291,-0.575980176793592,-0.269370824098587,-0.3366885781288147,-0.1583613008260727,0.05014663934707642,0.03008049726486206,-0.1402234435081482,XArbitraryZVertical,-0.1148507627549665,0.5176758100605656,-0.6474910827961136,-0.5473357444161061,-0.7154146432876587,0.5446571111679077,-0.4376421272754669,0,0,0,-1,-1,61937.41118925,unknown,2,2025-04-18T10:45:15.179+03:00,2025-04-17T15:44:39.500+03:00,7159,1.080567,0,0,5908.069,4,10,2025-04-18T10:45:17.758+03:00,766655120.4251046,0,107.72,100.5628,1,0.7,2025-04-18T10:44:07.044+03:00,81,1.35,2025-04-18T08:51:18.885+03:00,0.03057091307199995,1
2025-04-18T10:45:21.433+03:00,1744962319.922001,40.95359498604372,29.14098320424353,93.80547,-1,-1,-1,-1,30,35.56216926140436,-9999,61943.65984062501,-0.639251708984375,0.48016357421875,-0.571990966796875,61943.654802625,1.404028060361756,-1.028433409455701,-0.576494415874714,-0.4850448071956635,-0.4483006000518799,-0.1679364293813705,0.07067948579788208,-0.02070474624633789,-0.1434789896011353,XArbitraryZVertical,-0.1155293618427394,0.5198881227339056,-0.6458088490605328,-0.5470834993870959,-0.7180641889572144,0.5450882911682129,-0.4327386021614075,0,0,0,-1,-1,61937.41118925,unknown,2,2025-04-18T10:45:15.179+03:00,2025-04-17T15:44:39.500+03:00,7159,1.080567,0,0,5908.069,4,10,2025-04-18T10:45:17.758+03:00,766655120.4251046,0,107.72,100.5628,1,0.7,2025-04-18T10:44:07.044+03:00,81,1.35,2025-04-18T08:51:18.885+03:00,0.03057091307199995,1
2025-04-18T10:45:21.443+03:00,1744962319.922001,40.95359498604372,29.14098320424353,93.80547,-1,-1,-1,-1,30,35.56216926140436,-9999,61943.669916625,-0.657196044921875,0.4754638671875,-0.6104888916015625,61943.664878625,1.397013196754575,-1.036851706233331,-0.5781928222491378,-0.6886664032936096,-0.4555236399173737,-0.1377273947000504,0.08228802680969238,-0.06343340873718262,-0.1449755430221558,XArbitraryZVertical,-0.1157958510842853,0.5229607766405222,-0.6435755925847996,-0.5467301990235688,-0.7208836674690247,0.5465114116668701,-0.4262067079544067,0,0,0,-1,-1,61937.41118925,unknown,2,2025-04-18T10:45:15.179+03:00,2025-04-17T15:44:39.500+03:00,7159,1.080567,0,0,5908.069,4,10,2025-04-18T10:45:17.758+03:00,766655120.4251046,0,107.72,100.5628,1,0.7,2025-04-18T10:44:07.044+03:00,81,1.35,2025-04-18T08:51:18.885+03:00,0.03057091307199995,1
2025-04-18T10:45:21.453+03:00,1744962319.922001,40.95359498604372,29.14098320424353,93.80547,-1,-1,-1,-1,30,35.56216926140436,-9999,61943.679993625,-0.6812744140625,0.478759765625,-0.674041748046875,61943.67495562501,1.388380874219614,-1.045791929042018,-0.5813365826093188,-0.8637493252754211,-0.381109744310379,-0.04378112778067589,0.0686337947845459,-0.07326561212539673,-0.1841914057731628,XArbitraryZVertical,-0.1152562320057186,0.5265692649193572,-0.6410250056311286,-0.5463768919376191,-0.7231748104095459,0.5491414666175842,-0.4188816249370575,0,0,0,-1,-1,61937.41118925,unknown,2,2025-04-18T10:45:15.179+03:00,2025-04-17T15:44:39.500+03:00,7159,1.080567,0,0,5908.069,4,10,2025-04-18T10:45:17.758+03:00,766655120.4251046,0,107.72,100.5628,1,0.7,2025-04-18T10:44:07.044+03:00,81,1.35,2025-04-18T08:51:18.885+03:00,0.03057091307199995,1
