loggingTime(txt),locationTimestamp_since1970(s),locationLatitude(WGS84),locationLongitude(WGS84),locationAltitude(m),locationSpeed(m/s),locationSpeedAccuracy(m/s),locationCourse(°),locationCourseAccuracy(°),locationVerticalAccuracy(m),locationHorizontalAccuracy(m),locationFloor(Z),accelerometerTimestamp_sinceReboot(s),accelerometerAccelerationX(G),accelerometerAccelerationY(G),accelerometerAccelerationZ(G),motionTimestamp_sinceReboot(s),motionYaw(rad),motionRoll(rad),motionPitch(rad),motionRotationRateX(rad/s),motionRotationRateY(rad/s),motionRotationRateZ(rad/s),motionUserAccelerationX(G),motionUserAccelerationY(G),motionUserAccelerationZ(G),motionAttitudeReferenceFrame(txt),motionQuaternionX(R),motionQuaternionY(R),motionQuaternionZ(R),motionQuaternionW(R),motionGravityX(G),motionGravityY(G),motionGravityZ(G),motionMagneticFieldX(µT),motionMagneticFieldY(µT),motionMagneticFieldZ(µT),motionHeading(°),motionMagneticFieldCalibrationAccuracy(Z),activityTimestamp_sinceReboot(s),activity(txt),activityActivityConfidence(Z),activityActivityStartDate(txt),pedometerStartDate(txt),pedometerNumberofSteps(N),pedometerAverageActivePace(s/m),pedometerCurrentPace(s/m),pedometerCurrentCadence(steps/s),pedometerDistance(m),pedometerFloorAscended(N),pedometerFloorDescended(N),pedometerEndDate(txt),altimeterTimestamp_sinceReboot(s),altimeterReset(bool),altimeterRelativeAltitude(m),altimeterPressure(kPa),batteryState(N),batteryLevel(R),heartRateBPMTimestamp(txt),heartRateBPM(N),heartRateBPS(R),heartRateVariabilityTimestamp(txt),heartRateVariability(ms),label
2025-04-18T10:24:32.749+03:00,1744961070.736034,40.95357670179703,29.14098774185739,90.2052,-1,-1,-1,-1,30,28.42953063879919,-9999,61017.80322091667,-0.6842193603515625,0.4118499755859375,-0.6072845458984375,61017.79818391667,1.915610564191449,-0.8130491571713931,-0.4683734831402276,0.009611812420189381,0.03346453979611397,0.002010525669902563,-0.01088523864746094,0.009334146976470947,0.002047300338745117,XArbitraryZVertical,-0.1919744732635977,0.3956153469180043,-0.7835527578191008,-0.4389527765416822,-0.6481571793556213,0.4514355361461639,-0.6132686138153076,0,0,0,-1,-1,61012.46857112501,unknown,2,2025-04-18T10:24:13.823+03:00,2025-04-17T15:44:39.500+03:00,7123,1.071601,0,0,5881.288,4,10,2025-04-18T10:24:21.561+03:00,766653871.9649173,0,107.42,100.5673,1,0.75,2025-04-18T10:21:40.418+03:00,121,2.016666666666667,2025-04-18T08:51:18.885+03:00,0.03057091307199995,1
2025-04-18T10:24:32.753+03:00,1744961070.736034,40.95357670179703,29.14098774185739,90.2052,-1,-1,-1,-1,30,28.42953063879919,-9999,61017.81329691667,-0.6227569580078125,0.46209716796875,-0.60833740234375,61017.80825891667,1.915629118504774,-0.8127748997848181,-0.4682983214420684,0.00261409068480134,0.03047460876405239,-0.003355477703735232,-0.04353004693984985,-0.04447758197784424,0.006429314613342285,XArbitraryZVertical,-0.1918928234919137,0.3955278873603907,-0.7835813923658652,-0.4390162033418578,-0.6480135917663574,0.4513684809207916,-0.613469660282135,0,0,0,-1,-1,61012.46857112501,unknown,2,2025-04-18T10:24:13.823+03:00,2025-04-17T15:44:39.500+03:00,7123,1.071601,0,0,5881.288,4,10,2025-04-18T10:24:21.561+03:00,766653871.9649173,0,107.42,100.5673,1,0.75,2025-04-18T10:21:40.418+03:00,121,2.016666666666667,2025-04-18T08:51:18.885+03:00,0.03057091307199995,1
2025-04-18T10:24:32.754+03:00,1744961070.736034,40.95357670179703,29.14098774185739,90.2052,-1,-1,-1,-1,30,28.42953063879919,-9999,61017.82337191667,-0.6507110595703125,0.4468536376953125,-0.610107421875,61017.81833391667,1.915665549715509,-0.8124398252777273,-0.4682147108236347,0.008714860305190086,0.03415190055966377,-0.0005096237291581929,0.02291160821914673,0.007904231548309326,0.006123006343841553,XArbitraryZVertical,-0.1917933739680106,0.3954224877430954,-0.7836195689529523,-0.4390864450559612,-0.647835373878479,0.4512938559055328,-0.6137127280235291,0,0,0,-1,-1,61012.46857112501,unknown,2,2025-04-18T10:24:13.823+03:00,2025-04-17T15:44:39.500+03:00,7123,1.071601,0,0,5881.288,4,10,2025-04-18T10:24:21.561+03:00,766653871.9649173,0,107.42,100.5673,1,0.75,2025-04-18T10:21:40.418+03:00,121,2.016666666666667,2025-04-18T08:51:18.885+03:00,0.03057091307199995,1
2025-04-18T10:24:32.762+03:00,1744961070.736034,40.95357670179703,29.14098774185739,90.2052,-1,-1,-1,-1,30,28.42953063879919,-9999,61017.83344691667,-0.644500732421875,0.449920654296875,-0.605072021484375,61017.82840891667,1.91578603353501,-0.8121317018975938,-0.4681250121267359,0.01995632983744144,0.01999586820602417,0.006096879951655865,0.0006723999977111816,-0.0015677809715271,0.003405511379241943,XArbitraryZVertical,-0.1917228865194976,0.3953128708702409,-0.7836734597459495,-0.4391197183062649,-0.647675633430481,0.4512138068675995,-0.6139401197433472,0,0,0,-1,-1,61012.46857112501,unknown,2,2025-04-18T10:24:13.823+03:00,2025-04-17T15:44:39.500+03:00,7123,1.071601,0,0,5881.288,4,10,2025-04-18T10:24:21.561+03:00,766653871.9649173,0,107.42,100.5673,1,0.75,2025-04-18T10:21:40.418+03:00,121,2.016666666666667,2025-04-18T08:51:18.885+03:00,0.03057091307199995,1
2025-04-18T10:24:32.771+03:00,1744961070.736034,40.95357670179703,29.14098774185739,90.2052,-1,-1,-1,-1,30,28.42953063879919,-9999,61017.84352191667,-0.6333465576171875,0.459991455078125,-0.6077117919921875,61017.83848491667,1.916049461333876,-0.8117916878920193,-0.4680038587150649,0.02913937531411648,0.01960591413080692,0.001134844962507486,-0.000397026538848877,-0.002405703067779541,0.008195161819458008,XArbitraryZVertical,-0.1916774097554129,0.3951718803322232,-0.7837610395889852,-0.4391100643884108,-0.6475064754486084,0.4511056840419769,-0.6141979098320007,0,0,0,-1,-1,61012.46857112501,unknown,2,2025-04-18T10:24:13.823+03:00,2025-04-17T15:44:39.500+03:00,7123,1.071601,0,0,5881.288,4,10,2025-04-18T10:24:21.561+03:00,766653871.9649173,0,107.42,100.5673,1,0.75,2025-04-18T10:21:40.418+03:00,121,2.016666666666667,2025-04-18T08:51:18.885+03:00,0.03057091307199995,1
2025-04-18T10:24:32.781+03:00,1744961070.736034,40.95357670179703,29.14098774185739,90.2052,-1,-1,-1,-1,30,28.42953063879919,-9999,61017.85359691667,-0.6473236083984375,0.46563720703125,-0.6069488525390625,61017.84855991667,1.916345868226845,-0.8114071275157068,-0.4678348260479746,0.03650754317641258,0.02035852335393429,0.001198494574055076,0.01439088582992554,0.008578896522521973,0.007718443870544434,XArbitraryZVertical,-0.1916350107821936,0.3950016941086589,-0.7838590393166002,-0.4391067982952842,-0.6473255157470703,0.4509548246860504,-0.6144993901252747,0,0,0,-1,-1,61012.46857112501,unknown,2,2025-04-18T10:24:13.823+03:00,2025-04-17T15:44:39.500+03:00,7123,1.071601,0,0,5881.288,4,10,2025-04-18T10:24:21.561+03:00,766653871.9649173,0,107.42,100.5673,1,0.75,2025-04-18T10:21:40.418+03:00,121,2.016666666666667,2025-04-18T08:51:18.885+03:00,0.03057091307199995,1
2025-04-18T10:24:32.792+03:00,1744961070.736034,40.95357670179703,29.14098774185739,90.2052,-1,-1,-1,-1,30,28.42953063879919,-9999,61017.86367291667,-0.6425628662109375,0.4555816650390625,-0.604339599609375,61017.85863491667,1.916680103770521,-0.8110231209002643,-0.4676779572759167,0.03349317610263824,0.015593396499753,-0.001345589873380959,0.0007631778717041016,0.01409000158309937,0.007527351379394531,XArbitraryZVertical,-0.1915966698721463,0.3948321252100618,-0.7839655689172377,-0.4390858588979401,-0.6471408009529114,0.450814813375473,-0.6147966384887695,0,0,0,-1,-1,61012.46857112501,unknown,2,2025-04-18T10:24:13.823+03:00,2025-04-17T15:44:39.500+03:00,7123,1.071601,0,0,5881.288,4,10,2025-04-18T10:24:21.561+03:00,766653871.9649173,0,107.42,100.5673,1,0.75,2025-04-18T10:21:40.418+03:00,121,2.016666666666667,2025-04-18T08:51:18.885+03:00,0.03057091307199995,1
2025-04-18T10:24:32.801+03:00,1744961070.736034,40.95357670179703,29.14098774185739,90.2052,-1,-1,-1,-1,30,28.42953063879919,-9999,61017.87374791667,-0.63470458984375,0.4469146728515625,-0.6025238037109375,61017.86870991667,1.91695111277433,-0.8107742571159138,-0.4676367976856419,0.02693647518754005,-0.001482259482145309,0.004281669389456511,0.003187060356140137,0.007153481245040894,0.00992894172668457,XArbitraryZVertical,-0.1915647388632259,0.3947375622676879,-0.7840479365821382,-0.4390376770199683,-0.6470012068748474,0.450778067111969,-0.6149703860282898,0,0,0,-1,-1,61012.46857112501,unknown,2,2025-04-18T10:24:13.823+03:00,2025-04-17T15:44:39.500+03:00,7123,1.071601,0,0,5881.288,4,10,2025-04-18T10:24:21.561+03:00,766653871.9649173,0,107.42,100.5673,1,0.75,2025-04-18T10:21:40.418+03:00,121,2.016666666666667,2025-04-18T08:51:18.885+03:00,0.03057091307199995,1
2025-04-18T10:24:32.811+03:00,1744961070.736034,40.95357670179703,29.14098774185739,90.2052,-1,-1,-1,-1,30,28.42953063879919,-9999,61017.88382291667,-0.6341400146484375,0.4396820068359375,-0.6036834716796875,61017.87878591667,1.917088288452903,-0.8108023279076014,-0.4676063349370689,0.005149220116436481,-0.002801256719976664,0.003989154472947121,0.01136249303817749,-0.003531038761138916,0.01170557737350464,XArbitraryZVertical,-0.1916118020442449,0.3947202444965796,-0.7840746372325427,-0.4389849401503846,-0.647028386592865,0.4507508873939514,-0.6149616837501526,0,0,0,-1,-1,61012.46857112501,unknown,2,2025-04-18T10:24:13.823+03:00,2025-04-17T15:44:39.500+03:00,7123,1.071601,0,0,5881.288,4,10,2025-04-18T10:24:21.561+03:00,766653871.9649173,0,107.42,100.5673,1,0.75,2025-04-18T10:21:40.418+03:00,121,2.016666666666667,2025-04-18T08:51:18.885+03:00,0.03057091307199995,1
2025-04-18T10:24:32.821+03:00,1744961070.736034,40.95357670179703,29.14098774185739,90.2052,-1,-1,-1,-1,30,28.42953063879919,-9999,61017.89389791667,-0.641204833984375,0.43408203125,-0.6042327880859375,61017.88886091667,1.91697288701726,-0.8110559042200681,-0.4673683190068724,-0.01167769730091095,-0.000269921962171793,0.003989687189459801,0.0131678581237793,-0.01016974449157715,0.0109134316444397,XArbitraryZVertical,-0.1917584750363924,0.3947061559826519,-0.7840194857473846,-0.4390320645670884,-0.6472620964050293,0.4505383968353271,-0.6148715019226074,0,0,0,-1,-1,61012.46857112501,unknown,2,2025-04-18T10:24:13.823+03:00,2025-04-17T15:44:39.500+03:00,7123,1.071601,0,0,5881.288,4,10,2025-04-18T10:24:21.561+03:00,766653871.9649173,0,107.42,100.5673,1,0.75,2025-04-18T10:21:40.418+03:00,121,2.016666666666667,2025-04-18T08:51:18.885+03:00,0.03057091307199995,1
2025-04-18T10:24:32.831+03:00,1744961070.736034,40.95357670179703,29.14098774185739,90.2052,-1,-1,-1,-1,30,28.42953063879919,-9999,61017.90397391667,-0.6436614990234375,0.4442291259765625,-0.6064605712890625,61017.89893591667,1.916910085234436,-0.8110722494344824,-0.4676003647578933,-0.01655627600848675,-0.009181591682136059,0.003921010997146368,0.007212221622467041,-0.01699921488761902,0.01067823171615601,XArbitraryZVertical,-0.1916842015879423,0.3947945409563079,-0.7840095179314129,-0.4390028214329331,-0.6471962928771973,0.450745552778244,-0.6147888898849487,0,0,0,-1,-1,61012.46857112501,unknown,2,2025-04-18T10:24:13.823+03:00,2025-04-17T15:44:39.500+03:00,7123,1.071601,0,0,5881.288,4,10,2025-04-18T10:24:21.561+03:00,766653871.9649173,0,107.42,100.5673,1,0.75,2025-04-18T10:21:40.418+03:00,121,2.016666666666667,2025-04-18T08:51:18.885+03:00,0.03057091307199995,1
2025-04-18T10:24:32.841+03:00,1744961070.736034,40.95357670179703,29.14098774185739,90.2052,-1,-1,-1,-1,30,28.42953063879919,-9999,61017.91404891667,-0.640411376953125,0.44952392578125,-0.611083984375,61017.90901091667,1.916808371712679,-0.8112529249708678,-0.467742020581051,-0.01330695208162069,-0.01429379545152187,0.005030483938753605,0.003675878047943115,-0.00737529993057251,0.008320033550262451,XArbitraryZVertical,-0.1916932617896388,0.3948920326186581,-0.7839731563973894,-0.4389760891806209,-0.6472610831260681,0.450872004032135,-0.6146279573440552,0,0,0,-1,-1,61012.46857112501,unknown,2,2025-04-18T10:24:13.823+03:00,2025-04-17T15:44:39.500+03:00,7123,1.071601,0,0,5881.288,4,10,2025-04-18T10:24:21.561+03:00,766653871.9649173,0,107.42,100.5673,1,0.75,2025-04-18T10:21:40.418+03:00,121,2.016666666666667,2025-04-18T08:51:18.885+03:00,0.03057091307199995,1
2025-04-18T10:24:32.851+03:00,1744961070.736034,40.95357670179703,29.14098774185739,90.2052,-1,-1,-1,-1,30,28.42953063879919,-9999,61017.92412391667,-0.640777587890625,0.4521484375,-0.6139373779296875,61017.91908591667,1.91676150014391,-0.8114727394938698,-0.4678580972848638,-0.004943760577589273,-0.01859366893768311,0.006996463052928448,0.007435142993927002,-0.001588970422744751,0.004372835159301758,XArbitraryZVertical,-0.1917359409546064,0.3949841543047284,-0.7839445440810262,-0.4389259239941736,-0.647358238697052,0.4509755969047546,-0.614449679851532,0,0,0,-1,-1,61012.46857112501,unknown,2,2025-04-18T10:24:13.823+03:00,2025-04-17T15:44:39.500+03:00,7123,1.071601,0,0,5881.288,4,10,2025-04-18T10:24:21.561+03:00,766653871.9649173,0,107.42,100.5673,1,0.75,2025-04-18T10:21:40.418+03:00,121,2.016666666666667,2025-04-18T08:51:18.885+03:00,0.03057091307199995,1
2025-04-18T10:24:32.861+03:00,1744961070.736034,40.95357670179703,29.14098774185739,90.2052,-1,-1,-1,-1,30,28.42953063879919,-9999,61017.93419891667,-0.6415863037109375,0.4577484130859375,-0.6142120361328125,61017.92916191667,1.916803378935456,-0.8116413283759821,-0.4680093457290733,0.001451820600777864,-0.02045974507927895,0.006467025727033615,0.007107734680175781,4.604458808898926e-05,0.0006613731384277344,XArbitraryZVertical,-0.1917658033120657,0.3950684677219395,-0.7839410612649274,-0.4388431091622311,-0.6474123001098633,0.4511105716228485,-0.6142935752868652,0,0,0,-1,-1,61012.46857112501,unknown,2,2025-04-18T10:24:13.823+03:00,2025-04-17T15:44:39.500+03:00,7123,1.071601,0,0,5881.288,4,10,2025-04-18T10:24:21.561+03:00,766653871.9649173,0,107.42,100.5673,1,0.75,2025-04-18T10:21:40.418+03:00,121,2.016666666666667,2025-04-18T08:51:18.885+03:00,0.03057091307199995,1
2025-04-18T10:24:32.871+03:00,1744961070.736034,40.95357670179703,29.14098774185739,90.2052,-1,-1,-1,-1,30,28.42953063879919,-9999,61017.94427491667,-0.642608642578125,0.4529571533203125,-0.6130523681640625,61017.93923691667,1.916842522302076,-0.8118703444146271,-0.4681239350131458,0.0009070709347724915,-0.02063191868364811,0.005230586975812912,0.006310582160949707,0.005940496921539307,-8.702278137207031e-05,XArbitraryZVertical,-0.1918295687002959,0.3951538429014889,-0.7839303533810595,-0.4387575263656613,-0.6475154757499695,0.4512128531932831,-0.6141096949577332,0,0,0,-1,-1,61012.46857112501,unknown,2,2025-04-18T10:24:13.823+03:00,2025-04-17T15:44:39.500+03:00,7123,1.071601,0,0,5881.288,4,10,2025-04-18T10:24:21.561+03:00,766653871.9649173,0,107.42,100.5673,1,0.75,2025-04-18T10:21:40.418+03:00,121,2.016666666666667,2025-04-18T08:51:18.885+03:00,0.03057091307199995,1
2025-04-18T10:24:32.881+03:00,1744961070.736034,40.95357670179703,29.14098774185739,90.2052,-1,-1,-1,-1,30,28.42953063879919,-9999,61017.95434991667,-0.647735595703125,0.451446533203125,-0.6131591796875,61017.94931191667,1.916900169298012,-0.812060909462568,-0.4681825350521857,0.009505086578428745,-0.02055948227643967,0.004243619274348021,0.005721807479858398,0.002424448728561401,0.0007784366607666016,XArbitraryZVertical,-0.1918984045393391,0.3952099984272809,-0.7839260801843242,-0.4386844853163245,-0.6476133465766907,0.4512651562690735,-0.6139681339263916,0,0,0,-1,-1,61012.46857112501,unknown,2,2025-04-18T10:24:13.823+03:00,2025-04-17T15:44:39.500+03:00,7123,1.071601,0,0,5881.288,4,10,2025-04-18T10:24:21.561+03:00,766653871.9649173,0,107.42,100.5673,1,0.75,2025-04-18T10:21:40.418+03:00,121,2.016666666666667,2025-04-18T08:51:18.885+03:00,0.03057091307199995,1
2025-04-18T10:24:32.892+03:00,1744961070.736034,40.95357670179703,29.14098774185739,90.2052,-1,-1,-1,-1,30,28.42953063879919,-9999,61017.96442491667,-0.650482177734375,0.45599365234375,-0.6114501953125,61017.95938691667,1.917033134888843,-0.8121982926431933,-0.4681475960876374,0.01290993764996529,-0.01773093827068806,0.002352242358028889,0.001224696636199951,6.002187728881836e-05,0.0008224248886108398,XArbitraryZVertical,-0.1919888071957448,0.395215513124204,-0.7839412496739762,-0.438612865605723,-0.6477091312408447,0.4512339532375336,-0.6138899922370911,0,0,0,-1,-1,61012.46857112501,unknown,2,2025-04-18T10:24:13.823+03:00,2025-04-17T15:44:39.500+03:00,7123,1.071601,0,0,5881.288,4,10,2025-04-18T10:24:21.561+03:00,766653871.9649173,0,107.42,100.5673,1,0.75,2025-04-18T10:21:40.418+03:00,121,2.016666666666667,2025-04-18T08:51:18.885+03:00,0.03057091307199995,1
2025-04-18T10:24:32.902+03:00,1744961070.736034,40.95357670179703,29.14098774185739,90.2052,-1,-1,-1,-1,30,28.42953063879919,-9999,61017.97449991667,-0.6506195068359375,0.4534454345703125,-0.6097869873046875,61017.96946291667,1.91715789430501,-0.8122818739542456,-0.4680465863360713,0.01541810296475887,-0.01263711042702198,0.001523200538940728,-0.002948164939880371,0.004193723201751709,0.001348912715911865,XArbitraryZVertical,-0.1920759629451616,0.3951875915858866,-0.783958221836818,-0.4385694593350054,-0.6477934718132019,0.4511438310146332,-0.6138671636581421,0,0,0,-1,-1,61012.46857112501,unknown,2,2025-04-18T10:24:13.823+03:00,2025-04-17T15:44:39.500+03:00,7123,1.071601,0,0,5881.288,4,10,2025-04-18T10:24:21.561+03:00,766653871.9649173,0,107.42,100.5673,1,0.75,2025-04-18T10:21:40.418+03:00,121,2.016666666666667,2025-04-18T08:51:18.885+03:00,0.03057091307199995,1
2025-04-18T10:24:32.912+03:00,1744961070.736034,40.95357670179703,29.14098774185739,90.2052,-1,-1,-1,-1,30,28.42953063879919,-9999,61017.98457491667,-0.6506500244140625,0.44659423828125,-0.61102294921875,61017.97953791667,1.917280029635417,-0.8123603797553142,-0.4678928073779972,0.01540771592408419,-0.01234283111989498,-0.0009504766785539687,-0.002452850341796875,0.003217071294784546,0.004122912883758545,XArbitraryZVertical,-0.1921760773745819,0.3951408826469963,-0.7839739146610468,-0.4385397921042124,-0.6478920578956604,0.4510065615177155,-0.6138640642166138,0,0,0,-1,-1,61012.46857112501,unknown,2,2025-04-18T10:24:13.823+03:00,2025-04-17T15:44:39.500+03:00,7123,1.071601,0,0,5881.288,4,10,2025-04-18T10:24:21.561+03:00,766653871.9649173,0,107.42,100.5673,1,0.75,2025-04-18T10:21:40.418+03:00,121,2.016666666666667,2025-04-18T08:51:18.885+03:00,0.03057091307199995,1
2025-04-18T10:24:32.922+03:00,1744961070.736034,40.95357670179703,29.14098774185739,90.2052,-1,-1,-1,-1,30,28.42953063879919,-9999,61017.99465091667,-0.64996337890625,0.44781494140625,-0.6045074462890625,61017.98961291667,1.917366640757663,-0.8124473813282311,-0.4677821453793251,0.008554071187973022,-0.009645581245422363,-0.00149962049908936,-0.003141403198242188,-0.003581136465072632,0.00254446268081665,XArbitraryZVertical,-0.1922598808690087,0.3951140856564321,-0.7839819416351754,-0.4385127334210351,-0.6479816436767578,0.4509077966213226,-0.6138420104980469,0,0,0,-1,-1,61012.46857112501,unknown,2,2025-04-18T10:24:13.823+03:00,2025-04-17T15:44:39.500+03:00,7123,1.071601,0,0,5881.288,4,10,2025-04-18T10:24:21.561+03:00,766653871.9649173,0,107.42,100.5673,1,0.75,2025-04-18T10:21:40.418+03:00,121,2.016666666666667,2025-04-18T08:51:18.885+03:00,0.03057091307199995,1
2025-04-18T10:24:32.935+03:00,1744961070.736034,40.95357670179703,29.14098774185739,90.2052,-1,-1,-1,-1,30,28.42953063879919,-9999,61018.00472591667,-0.6457061767578125,0.4473114013671875,-0.604339599609375,61017.99968791667,1.917439954426451,-0.8124772890109809,-0.4677361097068958,0.007443600334227085,-0.006480347365140915,0.000900320359505713,-0.001826226711273193,-0.003189116716384888,0.008322417736053467,XArbitraryZVertical,-0.1922996482230778,0.3950979741879725,-0.783994053764323,-0.4384880904607465,-0.6480150818824768,0.45086669921875,-0.6138368844985962,0,0,0,-1,-1,61012.46857112501,unknown,2,2025-04-18T10:24:13.823+03:00,2025-04-17T15:44:39.500+03:00,7123,1.071601,0,0,5881.288,4,10,2025-04-18T10:24:21.561+03:00,766653871.9649173,0,107.42,100.5673,1,0.75,2025-04-18T10:21:40.418+03:00,121,2.016666666666667,2025-04-18T08:51:18.885+03:00,0.03057091307199995,1
2025-04-18T10:24:32.942+03:00,1744961070.736034,40.95357670179703,29.14098774185739,90.2052,-1,-1,-1,-1,30,28.42953063879919,-9999,61018.01480091667,-0.6447296142578125,0.4477691650390625,-0.6063385009765625,61018.00976391667,1.917531871478261,-0.8124805732061738,-0.4676878609287709,0.0102119566872716,-0.006784746423363686,-0.00170345208607614,0.002311408519744873,-0.003466427326202393,0.01045620441436768,XArbitraryZVertical,-0.1923332820763884,0.3950734795301294,-0.7840127688878924,-0.4384619671643195,-0.6480329036712646,0.4508236348628998,-0.6138496994972229,0,0,0,-1,-1,61012.46857112501,unknown,2,2025-04-18T10:24:13.823+03:00,2025-04-17T15:44:39.500+03:00,7123,1.071601,0,0,5881.288,4,10,2025-04-18T10:24:21.561+03:00,766653871.9649173,0,107.42,100.5673,1,0.75,2025-04-18T10:21:40.418+03:00,121,2.016666666666667,2025-04-18T08:51:18.885+03:00,0.03057091307199995,1
2025-04-18T10:24:32.952+03:00,1744961070.736034,40.95357670179703,29.14098774185739,90.2052,-1,-1,-1,-1,30,28.42953063879919,-9999,61018.02487591667,-0.645111083984375,0.448577880859375,-0.6073760986328125,61018.01983891667,1.917604244785708,-0.8124990421825873,-0.4676302641329064,0.01034797728061676,-0.007848212495446205,-0.004268642049282789,0.003562331199645996,-0.003643959760665894,0.007715523242950439,XArbitraryZVertical,-0.1923717992177363,0.3950510259457307,-0.7840254850700961,-0.4384424089014953,-0.6480630040168762,0.450772225856781,-0.6138555407524109,0,0,0,-1,-1,61012.46857112501,unknown,2,2025-04-18T10:24:13.823+03:00,2025-04-17T15:44:39.500+03:00,7123,1.071601,0,0,5881.288,4,10,2025-04-18T10:24:21.561+03:00,766653871.9649173,0,107.42,100.5673,1,0.75,2025-04-18T10:21:40.418+03:00,121,2.016666666666667,2025-04-18T08:51:18.885+03:00,0.03057091307199995,1
2025-04-18T10:24:32.962+03:00,1744961070.736034,40.95357670179703,29.14098774185739,90.2052,-1,-1,-1,-1,30,28.42953063879919,-9999,61018.03495191667,-0.6480255126953125,0.4477386474609375,-0.606475830078125,61018.02991391667,1.917654920455687,-0.8125345407741803,-0.4675476476641865,0.01018898654729128,-0.00931934267282486,-0.005882251542061567,0.002878725528717041,-0.00193747878074646,0.007000923156738281,XArbitraryZVertical,-0.1924199507213999,0.39502587773462,-0.7840313130551241,-0.4384338225547127,-0.6481119394302368,0.4506984949111938,-0.6138582229614258,0,0,0,-1,-1,61012.46857112501,unknown,2,2025-04-18T10:24:13.823+03:00,2025-04-17T15:44:39.500+03:00,7123,1.071601,0,0,5881.288,4,10,2025-04-18T10:24:21.561+03:00,766653871.9649173,0,107.42,100.5673,1,0.75,2025-04-18T10:21:40.418+03:00,121,2.016666666666667,2025-04-18T08:51:18.885+03:00,0.03057091307199995,1
2025-04-18T10:24:32.972+03:00,1744961070.736034,40.95357670179703,29.14098774185739,90.2052,-1,-1,-1,-1,30,28.42953063879919,-9999,61018.04502691667,-0.649810791015625,0.4486083984375,-0.6064605712890625,61018.03998891667,1.917666200174599,-0.8126423402642321,-0.4674725047052739,0.004517851397395134,-0.01300935260951519,-0.006527368910610676,0.001199483871459961,-0.003014802932739258,0.007076442241668701,XArbitraryZVertical,-0.1924865537245739,0.3950229206467681,-0.7840216470320204,-0.4384244818704536,-0.6482027173042297,0.4506314098834991,-0.6138116121292114,0,0,0,-1,-1,61012.46857112501,unknown,2,2025-04-18T10:24:13.823+03:00,2025-04-17T15:44:39.500+03:00,7123,1.071601,0,0,5881.288,4,10,2025-04-18T10:24:21.561+03:00,766653871.9649173,0,107.42,100.5673,1,0.75,2025-04-18T10:21:40.418+03:00,121,2.016666666666667,2025-04-18T08:51:18.885+03:00,0.03057091307199995,1
2025-04-18T10:24:32.982+03:00,1744961070.736034,40.95357670179703,29.14098774185739,90.2052,-1,-1,-1,-1,30,28.42953063879919,-9999,61018.05510191667,-0.64947509765625,0.4481048583984375,-0.6059112548828125,61018.05006391667,1.917650497192523,-0.8128110963906862,-0.4674351794450784,0.000953476526774466,-0.01459553092718124,-0.005426418036222458,-0.0008972883224487305,-0.002462714910507202,0.00688701868057251,XArbitraryZVertical,-0.1925606364361564,0.3950487654900817,-0.7840010452527946,-0.438405293162549,-0.6483184099197388,0.4505980908870697,-0.6137137413024902,0,0,0,-1,-1,61012.46857112501,unknown,2,2025-04-18T10:24:13.823+03:00,2025-04-17T15:44:39.500+03:00,7123,1.071601,0,0,5881.288,4,10,2025-04-18T10:24:21.561+03:00,766653871.9649173,0,107.42,100.5673,1,0.75,2025-04-18T10:21:40.418+03:00,121,2.016666666666667,2025-04-18T08:51:18.885+03:00,0.03057091307199995,1
2025-04-18T10:24:32.992+03:00,1744961070.736034,40.95357670179703,29.14098774185739,90.2052,-1,-1,-1,-1,30,28.42953063879919,-9999,61018.06517691667,-0.65118408203125,0.4501800537109375,-0.6030731201171875,61018.06013991667,1.917629446058248,-0.8129786438317614,-0.4674070749265007,0.001642636023461819,-0.01167757250368595,-0.002584459260106087,-0.001578748226165771,-0.002910643815994263,0.007336437702178955,XArbitraryZVertical,-0.1926304391920299,0.3950779831339738,-0.7839796249772248,-0.4383865370699741,-0.6484304070472717,0.4505729973316193,-0.6136137843132019,0,0,0,-1,-1,61012.46857112501,unknown,2,2025-04-18T10:24:13.823+03:00,2025-04-17T15:44:39.500+03:00,7123,1.071601,0,0,5881.288,4,10,2025-04-18T10:24:21.561+03:00,766653871.9649173,0,107.42,100.5673,1,0.75,2025-04-18T10:21:40.418+03:00,121,2.016666666666667,2025-04-18T08:51:18.885+03:00,0.03057091307199995,1
2025-04-18T10:24:33.020+03:00,1744961070.736034,40.95357670179703,29.14098774185739,90.2052,-1,-1,-1,-1,30,28.42953063879919,-9999,61018.07525291667,-0.6522216796875,0.4482421875,-0.6023406982421875,61018.07021491667,1.917609062217532,-0.8131350465050236,-0.4673598487467863,-0.0005198506987653673,-0.01283231936395168,-0.001943436334840953,-0.002657532691955566,-0.0001829266548156738,0.009752035140991211,XArbitraryZVertical,-0.1927015891660888,0.3950981971958334,-0.7839590004945289,-0.4383740209165405,-0.6485418677330017,0.4505308270454407,-0.6135269999504089,0,0,0,-1,-1,61012.46857112501,unknown,2,2025-04-18T10:24:13.823+03:00,2025-04-17T15:44:39.500+03:00,7123,1.071601,0,0,5881.288,4,10,2025-04-18T10:24:21.561+03:00,766653871.9649173,0,107.42,100.5673,1,0.75,2025-04-18T10:21:40.418+03:00,121,2.016666666666667,2025-04-18T08:51:18.885+03:00,0.03057091307199995,1
2025-04-18T10:24:33.021+03:00,1744961070.736034,40.95357670179703,29.14098774185739,90.2052,-1,-1,-1,-1,30,28.42953063879919,-9999,61018.08532791667,-0.6497802734375,0.44775390625,-0.604705810546875,61018.08028991667,1.917552765506441,-0.8133359503578425,-0.4673586199854985,-0.002916695550084114,-0.01220834068953991,-0.002208953490480781,-0.003296792507171631,-0.002470642328262329,0.01085805892944336,XArbitraryZVertical,-0.1927695758112895,0.3951472398031929,-0.7839272727859763,-0.4383566695951144,-0.6486654877662659,0.4505297243595123,-0.6133971214294434,0,0,0,-1,-1,61012.46857112501,unknown,2,2025-04-18T10:24:13.823+03:00,2025-04-17T15:44:39.500+03:00,7123,1.071601,0,0,5881.288,4,10,2025-04-18T10:24:21.561+03:00,766653871.9649173,0,107.42,100.5673,1,0.75,2025-04-18T10:21:40.418+03:00,121,2.016666666666667,2025-04-18T08:51:18.885+03:00,0.03057091307199995,1
2025-04-18T10:24:33.022+03:00,1744961070.736034,40.95357670179703,29.14098774185739,90.2052,-1,-1,-1,-1,30,28.42953063879919,-9999,61018.09540291667,-0.647125244140625,0.4496612548828125,-0.605560302734375,61018.09036491667,1.917491583606322,-0.8135341958967475,-0.4673851050002406,-0.002606437541544437,-0.01269836351275444,-0.00230109877884388,-0.001474857330322266,-0.003577649593353271,0.009164929389953613,XArbitraryZVertical,-0.1928273740226851,0.3952055701809797,-0.7838953963459084,-0.4383357725369805,-0.6487784385681152,0.4505533874034882,-0.6132603287696838,0,0,0,-1,-1,61012.46857112501,unknown,2,2025-04-18T10:24:13.823+03:00,2025-04-17T15:44:39.500+03:00,7123,1.071601,0,0,5881.288,4,10,2025-04-18T10:24:21.561+03:00,766653871.9649173,0,107.42,100.5673,1,0.75,2025-04-18T10:21:40.418+03:00,121,2.016666666666667,2025-04-18T08:51:18.885+03:00,0.03057091307199995,1
2025-04-18T10:24:33.032+03:00,1744961070.736034,40.95357670179703,29.14098774185739,90.2052,-1,-1,-1,-1,30,28.42953063879919,-9999,61018.10547791667,-0.64642333984375,0.44921875,-0.605255126953125,61018.10044091667,1.917460962618536,-0.8136632923880162,-0.4673833653250701,0.001622396055608988,-0.007308923173695803,-0.001107070595026016,0.001412510871887207,-0.001317799091339111,0.008196711540222168,XArbitraryZVertical,-0.1928724245586863,0.3952362243775918,-0.7838762031806573,-0.4383226713138723,-0.6488581895828247,0.450551837682724,-0.6131771206855774,0,0,0,-1,-1,61012.46857112501,unknown,2,2025-04-18T10:24:13.823+03:00,2025-04-17T15:44:39.500+03:00,7123,1.071601,0,0,5881.288,4,10,2025-04-18T10:24:21.561+03:00,766653871.9649173,0,107.42,100.5673,1,0.75,2025-04-18T10:21:40.418+03:00,121,2.016666666666667,2025-04-18T08:51:18.885+03:00,0.03057091307199995,1
2025-04-18T10:24:33.043+03:00,1744961070.736034,40.95357670179703,29.14098774185739,90.2052,-1,-1,-1,-1,30,28.42953063879919,-9999,61018.11555291667,-0.6506500244140625,0.44598388671875,-0.604736328125,61018.11051591667,1.917480076213602,-0.813710245266576,-0.4673782066988619,0.001580850686877966,-0.002040391322225332,0.0007917631883174181,0.003624975681304932,-0.001664131879806519,0.007587969303131104,XArbitraryZVertical,-0.1928961201725375,0.395242920530413,-0.7838757436490013,-0.4383070343426924,-0.6488887071609497,0.4505472183227539,-0.6131482124328613,0,0,0,-1,-1,61012.46857112501,unknown,2,2025-04-18T10:24:13.823+03:00,2025-04-17T15:44:39.500+03:00,7123,1.071601,0,0,5881.288,4,10,2025-04-18T10:24:21.561+03:00,766653871.9649173,0,107.42,100.5673,1,0.75,2025-04-18T10:21:40.418+03:00,121,2.016666666666667,2025-04-18T08:51:18.885+03:00,0.03057091307199995,1
2025-04-18T10:24:33.053+03:00,1744961070.736034,40.95357670179703,29.14098774185739,90.2052,-1,-1,-1,-1,30,28.42953063879919,-9999,61018.12562891667,-0.6492919921875,0.4474334716796875,-0.602569580078125,61018.12059091667,1.917510168216594,-0.813715776548354,-0.4673543491992146,0.006008622236549854,0.003746657632291317,-0.00057696842122823,-0.001109302043914795,-0.004084259271621704,0.008217334747314453,XArbitraryZVertical,-0.1929112487183532,0.395233134968709,-0.7838812458215773,-0.4382993754575321,-0.6488999128341675,0.4505259394645691,-0.613152027130127,0,0,0,-1,-1,61012.46857112501,unknown,2,2025-04-18T10:24:13.823+03:00,2025-04-17T15:44:39.500+03:00,7123,1.071601,0,0,5881.288,4,10,2025-04-18T10:24:21.561+03:00,766653871.9649173,0,107.42,100.5673,1,0.75,2025-04-18T10:21:40.418+03:00,121,2.016666666666667,2025-04-18T08:51:18.885+03:00,0.03057091307199995,1
2025-04-18T10:24:33.063+03:00,1744961070.736034,40.95357670179703,29.14098774185739,90.2052,-1,-1,-1,-1,30,28.42953063879919,-9999,61018.13570391667,-0.649505615234375,0.4465484619140625,-0.60101318359375,61018.13066591667,1.917498008586537,-0.8136979653595092,-0.4673364742361184,-0.0009488860378041863,0.00594403175637126,-0.003340530674904585,-0.0006871223449707031,-0.002496629953384399,0.01095050573348999,XArbitraryZVertical,-0.1929071289615739,0.3952243406680922,-0.7838798727751503,-0.4383115493468946,-0.6488948464393616,0.4505099654197693,-0.6131691336631775,0,0,0,-1,-1,61012.46857112501,unknown,2,2025-04-18T10:24:13.823+03:00,2025-04-17T15:44:39.500+03:00,7123,1.071601,0,0,5881.288,4,10,2025-04-18T10:24:21.561+03:00,766653871.9649173,0,107.42,100.5673,1,0.75,2025-04-18T10:21:40.418+03:00,121,2.016666666666667,2025-04-18T08:51:18.885+03:00,0.03057091307199995,1
2025-04-18T10:24:33.073+03:00,1744961073.049429,40.95360440245199,29.14096835387985,93.53751,-1,-1,-1,-1,30,26.84681577818391,-9999,61018.14577891667,-0.6490936279296875,0.443267822265625,-0.60247802734375,61018.14074191667,1.917419649946503,-0.8137269604353273,-0.4673458816821909,-0.008471117354929447,0.001392023637890816,-0.004683096893131733,-0.000474095344543457,-0.003649473190307617,0.01218003034591675,XArbitraryZVertical,-0.1929002826346919,0.3952414523888659,-0.7838600910699862,-0.4383343407512438,-0.6489094495773315,0.4505183696746826,-0.6131473779678345,0,0,0,-1,-1,61012.46857112501,unknown,2,2025-04-18T10:24:13.823+03:00,2025-04-17T15:44:39.500+03:00,7123,1.071601,0,0,5881.288,4,10,2025-04-18T10:24:21.561+03:00,766653871.9649173,0,107.42,100.5673,1,0.75,2025-04-18T10:21:40.418+03:00,121,2.016666666666667,2025-04-18T08:51:18.885+03:00,0.03057091307199995,1
2025-04-18T10:24:33.083+03:00,1744961073.049429,40.95360440245199,29.14096835387985,93.53751,-1,-1,-1,-1,30,26.84681577818391,-9999,61018.15585391667,-0.64593505859375,0.44219970703125,-0.6027374267578125,61018.15081691667,1.917255746008202,-0.8138347683189455,-0.4674191283713439,-0.01549573708325624,-0.0001725833863019943,-0.004136083647608757,-0.0002793669700622559,-0.007056504487991333,0.01121765375137329,XArbitraryZVertical,-0.1928885356779578,0.395305728394613,-0.7838155441106455,-0.4383614408947697,-0.6489516496658325,0.4505837559700012,-0.6130548119544983,0,0,0,-1,-1,61012.46857112501,unknown,2,2025-04-18T10:24:13.823+03:00,2025-04-17T15:44:39.500+03:00,7123,1.071601,0,0,5881.288,4,10,2025-04-18T10:24:21.561+03:00,766653871.9649173,0,107.42,100.5673,1,0.75,2025-04-18T10:21:40.418+03:00,121,2.016666666666667,2025-04-18T08:51:18.885+03:00,0.03057091307199995,1
2025-04-18T10:24:33.093+03:00,1744961073.049429,40.95360440245199,29.14096835387985,93.53751,-1,-1,-1,-1,30,26.84681577818391,-9999,61018.16592991667,-0.648590087890625,0.446990966796875,-0.5999603271484375,61018.16089191667,1.917041310252433,-0.8139713167279149,-0.4675076031312806,-0.02098058350384235,0.001707808114588261,-0.006385289132595062,0.002293050289154053,-0.007944226264953613,0.009652078151702881,XArbitraryZVertical,-0.1928736500160855,0.3953863539077797,-0.7837574454097013,-0.438399072052499,-0.6490063667297363,0.4506627321243286,-0.6129387617111206,0,0,0,-1,-1,61012.46857112501,unknown,2,2025-04-18T10:24:13.823+03:00,2025-04-17T15:44:39.500+03:00,7123,1.071601,0,0,5881.288,4,10,2025-04-18T10:24:21.561+03:00,766653871.9649173,0,107.42,100.5673,1,0.75,2025-04-18T10:21:40.418+03:00,121,2.016666666666667,2025-04-18T08:51:18.885+03:00,0.03057091307199995,1
2025-04-18T10:24:33.103+03:00,1744961073.049429,40.95360440245199,29.14096835387985,93.53751,-1,-1,-1,-1,30,26.84681577818391,-9999,61018.17600491667,-0.65045166015625,0.452667236328125,-0.600860595703125,61018.17096691667,1.916806410144482,-0.8140982634016903,-0.4675992075017083,-0.01927376352250576,0.001616461668163538,-0.007367995567619801,0.000677645206451416,-0.004623264074325562,0.01248633861541748,XArbitraryZVertical,-0.1928499689713078,0.3954678964333154,-0.7836958994880543,-0.438446079940034,-0.6490541696548462,0.4507445096969604,-0.6128280758857727,0,0,0,-1,-1,61012.46857112501,unknown,2,2025-04-18T10:24:13.823+03:00,2025-04-17T15:44:39.500+03:00,7123,1.071601,0,0,5881.288,4,10,2025-04-18T10:24:21.561+03:00,766653871.9649173,0,107.42,100.5673,1,0.75,2025-04-18T10:21:40.418+03:00,121,2.016666666666667,2025-04-18T08:51:18.885+03:00,0.03057091307199995,1
2025-04-18T10:24:33.113+03:00,1744961073.049429,40.95360440245199,29.14096835387985,93.53751,-1,-1,-1,-1,30,26.84681577818391,-9999,61018.18607991667,-0.6475677490234375,0.4542236328125,-0.6059722900390625,61018.18104291667,1.916579571619479,-0.8142177259332245,-0.4676662690134217,-0.01532063446938992,-0.001015340909361839,-0.00753887090831995,-0.001376926898956299,0.001847624778747559,0.01177763938903809,XArbitraryZVertical,-0.1928322406735154,0.3955387091801067,-0.7836361916708084,-0.4384964915612144,-0.6491053104400635,0.4508043825626373,-0.6127297282218933,0,0,0,-1,-1,61012.46857112501,unknown,2,2025-04-18T10:24:13.823+03:00,2025-04-17T15:44:39.500+03:00,7123,1.071601,0,0,5881.288,4,10,2025-04-18T10:24:21.561+03:00,766653871.9649173,0,107.42,100.5673,1,0.75,2025-04-18T10:21:40.418+03:00,121,2.016666666666667,2025-04-18T08:51:18.885+03:00,0.03057091307199995,1
2025-04-18T10:24:33.123+03:00,1744961073.049429,40.95360440245199,29.14096835387985,93.53751,-1,-1,-1,-1,30,26.84681577818391,-9999,61018.19615491667,-0.6461639404296875,0.4537353515625,-0.6056671142578125,61018.19111791667,1.916387481440676,-0.8143258324754978,-0.4677070939425971,-0.01127156428992748,0.0009764372371137142,-0.009338635951280594,0.001575112342834473,0.00373375415802002,0.007193505764007568,XArbitraryZVertical,-0.192824610223834,0.3955947782341672,-0.7835846012992667,-0.4385413734924367,-0.6491581201553345,0.4508408010005951,-0.6126468777656555,0,0,0,-1,-1,61012.46857112501,unknown,2,2025-04-18T10:24:13.823+03:00,2025-04-17T15:44:39.500+03:00,7123,1.071601,0,0,5881.288,4,10,2025-04-18T10:24:21.561+03:00,766653871.9649173,0,107.42,100.5673,1,0.75,2025-04-18T10:21:40.418+03:00,121,2.016666666666667,2025-04-18T08:51:18.885+03:00,0.03057091307199995,1
2025-04-18T10:24:33.133+03:00,1744961073.049429,40.95360440245199,29.14096835387985,93.53751,-1,-1,-1,-1,30,26.84681577818391,-9999,61018.20623091667,-0.6476593017578125,0.4504852294921875,-0.6024169921875,61018.20119291667,1.916198609449834,-0.814420340949203,-0.4677211758740983,-0.01469978597015142,0.003631409257650375,-0.007417663931846619,0.003581583499908447,0.002317428588867188,0.007051467895507812,XArbitraryZVertical,-0.1928200625568759,0.3956384734294295,-0.7835344621910667,-0.4385938135107025,-0.6492115259170532,0.4508533775806427,-0.6125812530517578,0,0,0,-1,-1,61012.46857112501,unknown,2,2025-04-18T10:24:13.823+03:00,2025-04-17T15:44:39.500+03:00,7123,1.071601,0,0,5881.288,4,10,2025-04-18T10:24:21.561+03:00,766653871.9649173,0,107.42,100.5673,1,0.75,2025-04-18T10:21:40.418+03:00,121,2.016666666666667,2025-04-18T08:51:18.885+03:00,0.03057091307199995,1
2025-04-18T10:24:33.144+03:00,1744961073.049429,40.95360440245199,29.14096835387985,93.53751,-1,-1,-1,-1,30,26.84681577818391,-9999,61018.21630591667,-0.648284912109375,0.444671630859375,-0.6025390625,61018.21126791667,1.915976472221041,-0.814548731407966,-0.4677679496076473,-0.01941517740488052,0.002884658984839916,-0.008142576552927494,0.001386582851409912,0.0006735026836395264,0.009120464324951172,XArbitraryZVertical,-0.1928126382665306,0.3957039002300612,-0.7834744823829928,-0.4386452174672631,-0.6492748260498047,0.4508951306343079,-0.6124834418296814,0,0,0,-1,-1,61012.46857112501,unknown,2,2025-04-18T10:24:13.823+03:00,2025-04-17T15:44:39.500+03:00,7123,1.071601,0,0,5881.288,4,10,2025-04-18T10:24:21.561+03:00,766653871.9649173,0,107.42,100.5673,1,0.75,2025-04-18T10:21:40.418+03:00,121,2.016666666666667,2025-04-18T08:51:18.885+03:00,0.03057091307199995,1
2025-04-18T10:24:33.153+03:00,1744961073.049429,40.95360440245199,29.14096835387985,93.53751,-1,-1,-1,-1,30,26.84681577818391,-9999,61018.22638091667,-0.64874267578125,0.4443817138671875,-0.60369873046875,61018.22134291667,1.915691443858011,-0.8147023349335035,-0.4678468034444163,-0.02274612709879875,0.001805413048714399,-0.012346176430583,0.000890195369720459,-0.00553092360496521,0.01006436347961426,XArbitraryZVertical,-0.1927931996982416,0.3957917941208262,-0.7833990252708938,-0.4387091880478917,-0.6493430137634277,0.4509655237197876,-0.6123592853546143,0,0,0,-1,-1,61012.46857112501,unknown,2,2025-04-18T10:24:13.823+03:00,2025-04-17T15:44:39.500+03:00,7123,1.071601,0,0,5881.288,4,10,2025-04-18T10:24:21.561+03:00,766653871.9649173,0,107.42,100.5673,1,0.75,2025-04-18T10:21:40.418+03:00,121,2.016666666666667,2025-04-18T08:51:18.885+03:00,0.03057091307199995,1
2025-04-18T10:24:33.164+03:00,1744961073.049429,40.95360440245199,29.14096835387985,93.53751,-1,-1,-1,-1,30,26.84681577818391,-9999,61018.23645591667,-0.6509552001953125,0.44659423828125,-0.605804443359375,61018.23141891667,1.915389879445567,-0.8148472382205885,-0.4679012881258641,-0.02472751960158348,0.004653131123632193,-0.01143404375761747,0.0008389949798583984,-0.006922334432601929,0.008793771266937256,XArbitraryZVertical,-0.1927742156669733,0.3958711101369001,-0.7833202088802994,-0.4387867339220008,-0.6494138836860657,0.4510141313076019,-0.6122483611106873,0,0,0,-1,-1,61012.46857112501,unknown,2,2025-04-18T10:24:13.823+03:00,2025-04-17T15:44:39.500+03:00,7123,1.071601,0,0,5881.288,4,10,2025-04-18T10:24:21.561+03:00,766653871.9649173,0,107.42,100.5673,1,0.75,2025-04-18T10:21:40.418+03:00,121,2.016666666666667,2025-04-18T08:51:18.885+03:00,0.03057091307199995,1
2025-04-18T10:24:33.174+03:00,1744961073.049429,40.95360440245199,29.14096835387985,93.53751,-1,-1,-1,-1,30,26.84681577818391,-9999,61018.24653191667,-0.6537933349609375,0.4498291015625,-0.6080780029296875,61018.24149391667,1.915111997734457,-0.8149173255629144,-0.4679198118981508,-0.01628689654171467,0.01108919270336628,-0.01187626086175442,-0.001474082469940186,-0.003871828317642212,0.00631636381149292,XArbitraryZVertical,-0.1927412255193241,0.3959195498708087,-0.7832529062284325,-0.4388775638709784,-0.6494506597518921,0.4510306715965271,-0.6121970415115356,0,0,0,-1,-1,61012.46857112501,unknown,2,2025-04-18T10:24:13.823+03:00,2025-04-17T15:44:39.500+03:00,7123,1.071601,0,0,5881.288,4,10,2025-04-18T10:24:21.561+03:00,766653871.9649173,0,107.42,100.5673,1,0.75,2025-04-18T10:21:40.418+03:00,121,2.016666666666667,2025-04-18T08:51:18.885+03:00,0.03057091307199995,1
2025-04-18T10:24:33.184+03:00,1744961073.049429,40.95360440245199,29.14096835387985,93.53751,-1,-1,-1,-1,30,26.84681577818391,-9999,61018.25660691667,-0.6542510986328125,0.4517974853515625,-0.60986328125,61018.25156891667,1.914913078384391,-0.8148957259159881,-0.4679134493106989,-0.006825749762356281,0.01668768934905529,-0.01077184826135635,-0.005070984363555908,-0.00169941782951355,0.004165589809417725,XArbitraryZVertical,-0.1926952607534254,0.3959318217479711,-0.7832111820400722,-0.4389611377484603,-0.6494395136833191,0.4510250091552734,-0.6122130751609802,0,0,0,-1,-1,61012.46857112501,unknown,2,2025-04-18T10:24:13.823+03:00,2025-04-17T15:44:39.500+03:00,7123,1.071601,0,0,5881.288,4,10,2025-04-18T10:24:21.561+03:00,766653871.9649173,0,107.42,100.5673,1,0.75,2025-04-18T10:21:40.418+03:00,121,2.016666666666667,2025-04-18T08:51:18.885+03:00,0.03057091307199995,1
2025-04-18T10:24:33.194+03:00,1744961073.049429,40.95360440245199,29.14096835387985,93.53751,-1,-1,-1,-1,30,26.84681577818391,-9999,61018.26668191667,-0.65399169921875,0.453216552734375,-0.6082000732421875,61018.26164391667,1.914741069063781,-0.8148311301643638,-0.467917246745566,-0.006192383822053671,0.02019593864679337,-0.01185998320579529,-0.004242062568664551,0.0003571510314941406,0.002634704113006592,XArbitraryZVertical,-0.1926348012801372,0.3959355005587258,-0.7831797338075882,-0.4390404305240088,-0.6493987441062927,0.4510283768177032,-0.6122538447380066,0,0,0,-1,-1,61012.46857112501,unknown,2,2025-04-18T10:24:13.823+03:00,2025-04-17T15:44:39.500+03:00,7123,1.071601,0,0,5881.288,4,10,2025-04-18T10:24:21.561+03:00,766653871.9649173,0,107.42,100.5673,1,0.75,2025-04-18T10:21:40.418+03:00,121,2.016666666666667,2025-04-18T08:51:18.885+03:00,0.03057091307199995,1
2025-04-18T10:24:33.204+03:00,1744961073.049429,40.95360440245199,29.14096835387985,93.53751,-1,-1,-1,-1,30,26.84681577818391,-9999,61018.27675691667,-0.650482177734375,0.4494781494140625,-0.60858154296875,61018.27171991667,1.914601052822015,-0.8147146151111807,-0.4678949978552943,-0.00565975159406662,0.01975305378437042,-0.01366746984422207,-0.004519760608673096,0.002085953950881958,0.004761993885040283,XArbitraryZVertical,-0.1925680561465828,0.3959158762494147,-0.7831596484174393,-0.4391230561486654,-0.6493346691131592,0.451008528470993,-0.6123363375663757,0,0,0,-1,-1,61012.46857112501,unknown,2,2025-04-18T10:24:13.823+03:00,2025-04-17T15:44:39.500+03:00,7123,1.071601,0,0,5881.288,4,10,2025-04-18T10:24:21.561+03:00,766653871.9649173,0,107.42,100.5673,1,0.75,2025-04-18T10:21:40.418+03:00,121,2.016666666666667,2025-04-18T08:51:18.885+03:00,0.03057091307199995,1
2025-04-18T10:24:33.214+03:00,1744961073.049429,40.95360440245199,29.14096835387985,93.53751,-1,-1,-1,-1,30,26.84681577818391,-9999,61018.28683291667,-0.6496429443359375,0.44488525390625,-0.6093902587890625,61018.28179491667,1.914409100682451,-0.8146107481931975,-0.4678967079283767,-0.01259422395378351,0.02085147611796856,-0.01603908091783524,-0.002234041690826416,-0.001348823308944702,0.004325330257415771,XArbitraryZVertical,-0.1924888781137114,0.3959121251059267,-0.7831275417175911,-0.4392184205530754,-0.6492704749107361,0.4510100483894348,-0.6124032139778137,0,0,0,-1,-1,61012.46857112501,unknown,2,2025-04-18T10:24:13.823+03:00,2025-04-17T15:44:39.500+03:00,7123,1.071601,0,0,5881.288,4,10,2025-04-18T10:24:21.561+03:00,766653871.9649173,0,107.42,100.5673,1,0.75,2025-04-18T10:21:40.418+03:00,121,2.016666666666667,2025-04-18T08:51:18.885+03:00,0.03057091307199995,1
2025-04-18T10:24:33.224+03:00,1744961073.049429,40.95360440245199,29.14096835387985,93.53751,-1,-1,-1,-1,30,26.84681577818391,-9999,61018.29690791667,-0.6483917236328125,0.4498748779296875,-0.6072845458984375,61018.29186991667,1.914142130601733,-0.8145471651462712,-0.467897889224661,-0.0182100310921669,0.02237853221595287,-0.01790462620556355,-0.0007779598236083984,-0.006095349788665771,0.003145515918731689,XArbitraryZVertical,-0.1924107810235418,0.3959242483846392,-0.7830750544268699,-0.4393352934140864,-0.6492311358451843,0.4510111212730408,-0.6124441623687744,0,0,0,-1,-1,61012.46857112501,unknown,2,2025-04-18T10:24:13.823+03:00,2025-04-17T15:44:39.500+03:00,7123,1.071601,0,0,5881.288,4,10,2025-04-18T10:24:21.561+03:00,766653871.9649173,0,107.42,100.5673,1,0.75,2025-04-18T10:21:40.418+03:00,121,2.016666666666667,2025-04-18T08:51:18.885+03:00,0.03057091307199995,1
2025-04-18T10:24:33.234+03:00,1744961073.049429,40.95360440245199,29.14096835387985,93.53751,-1,-1,-1,-1,30,26.84681577818391,-9999,61018.30698291667,-0.6496124267578125,0.448760986328125,-0.60601806640625,61018.30194491667,1.913822883678021,-0.8145119533337341,-0.4678960101986302,-0.02050201408565044,0.02159922383725643,-0.01820985786616802,0.001169443130493164,-0.001348197460174561,0.004755914211273193,XArbitraryZVertical,-0.192334351985714,0.39594658388696,-0.7830082544457527,-0.4394676548817865,-0.6492102146148682,0.4510094225406647,-0.6124675869941711,0,0,0,-1,-1,61012.46857112501,unknown,2,2025-04-18T10:24:13.823+03:00,2025-04-17T15:44:39.500+03:00,7123,1.071601,0,0,5881.288,4,10,2025-04-18T10:24:21.561+03:00,766653871.9649173,0,107.42,100.5673,1,0.75,2025-04-18T10:21:40.418+03:00,121,2.016666666666667,2025-04-18T08:51:18.885+03:00,0.03057091307199995,1
2025-04-18T10:24:33.244+03:00,1744961073.049429,40.95360440245199,29.14096835387985,93.53751,-1,-1,-1,-1,30,26.84681577818391,-9999,61018.31705791667,-0.6495361328125,0.4485626220703125,-0.606109619140625,61018.31202091667,1.91346462628178,-0.8144893916976139,-0.4678766060523478,-0.02120562084019184,0.01946443505585194,-0.02042161300778389,0.0004143118858337402,-0.001758098602294922,0.005875170230865479,XArbitraryZVertical,-0.1922603082173306,0.3959695006733382,-0.7829312270489344,-0.4396166336460355,-0.6492027640342712,0.4509921073913574,-0.6124882698059082,0,0,0,-1,-1,61012.46857112501,unknown,2,2025-04-18T10:24:13.823+03:00,2025-04-17T15:44:39.500+03:00,7123,1.071601,0,0,5881.288,4,10,2025-04-18T10:24:21.561+03:00,766653871.9649173,0,107.42,100.5673,1,0.75,2025-04-18T10:21:40.418+03:00,121,2.016666666666667,2025-04-18T08:51:18.885+03:00,0.03057091307199995,1
2025-04-18T10:24:33.254+03:00,1744961073.049429,40.95360440245199,29.14096835387985,93.53751,-1,-1,-1,-1,30,26.84681577818391,-9999,61018.32713291667,-0.646759033203125,0.4492950439453125,-0.608489990234375,61018.32209591667,1.913114472462898,-0.8144628684509306,-0.4678443524269377,-0.01828473247587681,0.02023881487548351,-0.02395379729568958,-0.0002474784851074219,-0.002400666475296021,0.007229924201965332,XArbitraryZVertical,-0.192190057786929,0.3959863953280677,-0.7828560628641695,-0.4397661750132535,-0.6491971611976624,0.4509633183479309,-0.6125155091285706,0,0,0,-1,-1,61012.46857112501,unknown,2,2025-04-18T10:24:13.823+03:00,2025-04-17T15:44:39.500+03:00,7123,1.071601,0,0,5881.288,4,10,2025-04-18T10:24:21.561+03:00,766653871.9649173,0,107.42,100.5673,1,0.75,2025-04-18T10:21:40.418+03:00,121,2.016666666666667,2025-04-18T08:51:18.885+03:00,0.03057091307199995,1
2025-04-18T10:24:33.265+03:00,1744961073.049429,40.95360440245199,29.14096835387985,93.53751,-1,-1,-1,-1,30,26.84681577818391,-9999,61018.33720891667,-0.6473541259765625,0.4505615234375,-0.6123504638671875,61018.33217091667,1.912748817876151,-0.8144501308441323,-0.4677669064540987,-0.0163400936871767,0.02034267783164978,-0.02580842189490795,0.002486228942871094,-0.001889050006866455,0.004973292350769043,XArbitraryZVertical,-0.1921355073959941,0.395992510042984,-0.7827750123092948,-0.4399287869772869,-0.6492147445678711,0.4508942067623138,-0.612547755241394,0,0,0,-1,-1,61012.46857112501,unknown,2,2025-04-18T10:24:13.823+03:00,2025-04-17T15:44:39.500+03:00,7123,1.071601,0,0,5881.288,4,10,2025-04-18T10:24:21.561+03:00,766653871.9649173,0,107.42,100.5673,1,0.75,2025-04-18T10:21:40.418+03:00,121,2.016666666666667,2025-04-18T08:51:18.885+03:00,0.03057091307199995,1
2025-04-18T10:24:33.274+03:00,1744961073.049429,40.95360440245199,29.14096835387985,93.53751,-1,-1,-1,-1,30,26.84681577818391,-9999,61018.34728391667,-0.6459808349609375,0.4464111328125,-0.615264892578125,61018.34224591667,1.912385239616073,-0.8144444377922172,-0.4676914993568913,-0.01930146105587482,0.01915337704122066,-0.02753491699695587,0.002492129802703857,-0.001028269529342651,0.0001633167266845703,XArbitraryZVertical,-0.1920835508936009,0.3960006621680767,-0.7826937384178542,-0.4400886544011991,-0.6492359638214111,0.45082688331604,-0.6125747561454773,0,0,0,-1,-1,61012.46857112501,unknown,2,2025-04-18T10:24:13.823+03:00,2025-04-17T15:44:39.500+03:00,7123,1.071601,0,0,5881.288,4,10,2025-04-18T10:24:21.561+03:00,766653871.9649173,0,107.42,100.5673,1,0.75,2025-04-18T10:21:40.418+03:00,121,2.016666666666667,2025-04-18T08:51:18.885+03:00,0.03057091307199995,1
2025-04-18T10:24:33.285+03:00,1744961073.049429,40.95360440245199,29.14096835387985,93.53751,-1,-1,-1,-1,30,26.84681577818391,-9999,61018.35735891667,-0.64697265625,0.4379119873046875,-0.616729736328125,61018.35232191667,1.911962480142319,-0.8144628220017236,-0.4676391044706805,-0.02590130642056465,0.02326503209769726,-0.02879698947072029,0.003100454807281494,-0.002980411052703857,-0.002044916152954102,XArbitraryZVertical,-0.1920224698982843,0.3960275696153958,-0.7825976813769635,-0.4402619911617324,-0.6492644548416138,0.4507801234722137,-0.6125790476799011,0,0,0,-1,-1,61012.46857112501,unknown,2,2025-04-18T10:24:13.823+03:00,2025-04-17T15:44:39.500+03:00,7123,1.071601,0,0,5881.288,4,10,2025-04-18T10:24:21.561+03:00,766653871.9649173,0,107.42,100.5673,1,0.75,2025-04-18T10:21:40.418+03:00,121,2.016666666666667,2025-04-18T08:51:18.885+03:00,0.03057091307199995,1
2025-04-18T10:24:33.295+03:00,1744961073.049429,40.95360440245199,29.14096835387985,93.53751,-1,-1,-1,-1,30,26.84681577818391,-9999,61018.36743491667,-0.647796630859375,0.4393768310546875,-0.61590576171875,61018.36239691667,1.911440617062647,-0.8145130150930738,-0.4676118963286787,-0.03378326445817947,0.01875516772270203,-0.03388938680291176,0.002941727638244629,-0.01168417930603027,-0.00454103946685791,XArbitraryZVertical,-0.1919468745055262,0.3960795248864046,-0.7824772365621986,-0.4404619406606098,-0.6493040323257446,0.4507558345794678,-0.6125547885894775,0,0,0,-1,-1,61012.46857112501,unknown,2,2025-04-18T10:24:13.823+03:00,2025-04-17T15:44:39.500+03:00,7123,1.071601,0,0,5881.288,4,10,2025-04-18T10:24:21.561+03:00,766653871.9649173,0,107.42,100.5673,1,0.75,2025-04-18T10:21:40.418+03:00,121,2.016666666666667,2025-04-18T08:51:18.885+03:00,0.03057091307199995,1
2025-04-18T10:24:33.305+03:00,1744961073.049429,40.95360440245199,29.14096835387985,93.53751,-1,-1,-1,-1,30,26.84681577818391,-9999,61018.37750991667,-0.6420135498046875,0.44171142578125,-0.6134490966796875,61018.37247191667,1.91082561645534,-0.8146334258450816,-0.4675943671989328,-0.04770280793309212,0.01790455542504787,-0.03781302273273468,0.0012969970703125,-0.01188215613365173,-0.003286302089691162,XArbitraryZVertical,-0.1918773393969121,0.3961591322532563,-0.7823297862962387,-0.4406825422787327,-0.649383544921875,0.4507401883602142,-0.6124820709228516,0,0,0,-1,-1,61012.46857112501,unknown,2,2025-04-18T10:24:13.823+03:00,2025-04-17T15:44:39.500+03:00,7123,1.071601,0,0,5881.288,4,10,2025-04-18T10:24:21.561+03:00,766653871.9649173,0,107.42,100.5673,1,0.75,2025-04-18T10:21:40.418+03:00,121,2.016666666666667,2025-04-18T08:51:18.885+03:00,0.03057091307199995,1
2025-04-18T10:24:33.315+03:00,1744961073.049429,40.95360440245199,29.14096835387985,93.53751,-1,-1,-1,-1,30,26.84681577818391,-9999,61018.38758491667,-0.6427764892578125,0.4344482421875,-0.6133880615234375,61018.38254691667,1.910080545300485,-0.8148102458800648,-0.4676907698882176,-0.0611887238919735,0.01695813238620758,-0.03975443169474602,0.007431387901306152,-0.00880962610244751,-0.001950860023498535,XArbitraryZVertical,-0.1917703523005667,0.3963021485433611,-0.7821510180025536,-0.4409180367486742,-0.6494602560997009,0.4508262574672699,-0.6123374700546265,0,0,0,-1,-1,61012.46857112501,unknown,2,2025-04-18T10:24:13.823+03:00,2025-04-17T15:44:39.500+03:00,7123,1.071601,0,0,5881.288,4,10,2025-04-18T10:24:21.561+03:00,766653871.9649173,0,107.42,100.5673,1,0.75,2025-04-18T10:21:40.418+03:00,121,2.016666666666667,2025-04-18T08:51:18.885+03:00,0.03057091307199995,1
2025-04-18T10:24:33.326+03:00,1744961073.049429,40.95360440245199,29.14096835387985,93.53751,-1,-1,-1,-1,30,26.84681577818391,-9999,61018.39765991667,-0.6401824951171875,0.4392547607421875,-0.6151580810546875,61018.39262291667,1.909153742112145,-0.8151056009040243,-0.4678610815459429,-0.07805878669023514,0.01020062901079655,-0.04821902513504028,0.006671309471130371,-0.01596540212631226,-0.001493453979492188,XArbitraryZVertical,-0.1916518369592982,0.3965136815110732,-0.7819224866228628,-0.4411845754767594,-0.6495851874351501,0.4509782493114471,-0.6120929718017578,0,0,0,-1,-1,61012.46857112501,unknown,2,2025-04-18T10:24:13.823+03:00,2025-04-17T15:44:39.500+03:00,7123,1.071601,0,0,5881.288,4,10,2025-04-18T10:24:21.561+03:00,766653871.9649173,0,107.42,100.5673,1,0.75,2025-04-18T10:21:40.418+03:00,121,2.016666666666667,2025-04-18T08:51:18.885+03:00,0.03057091307199995,1
2025-04-18T10:24:33.335+03:00,1744961073.049429,40.95360440245199,29.14096835387985,93.53751,-1,-1,-1,-1,30,26.84681577818391,-9999,61018.40773591667,-0.6355438232421875,0.440673828125,-0.6162109375,61018.40269791667,1.907949909495174,-0.8155733487477104,-0.4681142546894119,-0.1102988794445992,0.01547382026910782,-0.0585486926138401,0.009270012378692627,-0.01310908794403076,-0.003264188766479492,XArbitraryZVertical,-0.1915210851717311,0.3968177299347386,-0.7816182463198786,-0.4415068601752651,-0.6497882604598999,0.4512042105197906,-0.6117107272148132,0,0,0,-1,-1,61012.46857112501,unknown,2,2025-04-18T10:24:13.823+03:00,2025-04-17T15:44:39.500+03:00,7123,1.071601,0,0,5881.288,4,10,2025-04-18T10:24:21.561+03:00,766653871.9649173,0,107.42,100.5673,1,0.75,2025-04-18T10:21:40.418+03:00,121,2.016666666666667,2025-04-18T08:51:18.885+03:00,0.03057091307199995,1
2025-04-18T10:24:33.345+03:00,1744961073.049429,40.95360440245199,29.14096835387985,93.53751,-1,-1,-1,-1,30,26.84681577818391,-9999,61018.41781091667,-0.646087646484375,0.43621826171875,-0.625518798828125,61018.41277291667,1.906419014361942,-0.8160222177297395,-0.468534716958385,-0.1404163092374802,0.02685830183327198,-0.06540659070014954,0.01390761137008667,-0.009745866060256958,-0.004754066467285156,XArbitraryZVertical,-0.1912681631132286,0.3972052543520381,-0.7812476042772416,-0.4419238001200581,-0.6499245166778564,0.4515793919563293,-0.6112889647483826,0,0,0,-1,-1,61012.46857112501,unknown,2,2025-04-18T10:24:13.823+03:00,2025-04-17T15:44:39.500+03:00,7123,1.071601,0,0,5881.288,4,10,2025-04-18T10:24:21.561+03:00,766653871.9649173,0,107.42,100.5673,1,0.75,2025-04-18T10:21:40.418+03:00,121,2.016666666666667,2025-04-18T08:51:18.885+03:00,0.03057091307199995,1
2025-04-18T10:24:33.355+03:00,1744961073.049429,40.95360440245199,29.14096835387985,93.53751,-1,-1,-1,-1,30,26.84681577818391,-9999,61018.42788591667,-0.6394195556640625,0.43475341796875,-0.64642333984375,61018.42284791667,1.904608392413055,-0.8167931860107501,-0.4690871045433835,-0.1760806292295456,-0.02946149557828903,-0.07752574235200882,0.005484044551849365,-0.01525884866714478,-0.01215529441833496,XArbitraryZVertical,-0.1910457915813134,0.3977349535077027,-0.7807874316018617,-0.442356557755885,-0.6502136588096619,0.4520721733570099,-0.6106168031692505,0,0,0,-1,-1,61012.46857112501,unknown,2,2025-04-18T10:24:13.823+03:00,2025-04-17T15:44:39.500+03:00,7123,1.071601,0,0,5881.288,4,10,2025-04-18T10:24:21.561+03:00,766653871.9649173,0,107.42,100.5673,1,0.75,2025-04-18T10:21:40.418+03:00,121,2.016666666666667,2025-04-18T08:51:18.885+03:00,0.03057091307199995,1
2025-04-18T10:24:33.365+03:00,1744961073.049429,40.95360440245199,29.14096835387985,93.53751,-1,-1,-1,-1,30,26.84681577818391,-9999,61018.43796091667,-0.6128692626953125,0.43170166015625,-0.6456146240234375,61018.43292391667,1.902357438131166,-0.8183721912127158,-0.4698231841443325,-0.2237914204597473,-0.0854019895195961,-0.08556342869997025,0.00841677188873291,-0.01738014817237854,-0.03500151634216309,XArbitraryZVertical,-0.190995578388485,0.3985471015851347,-0.7801571236106453,-0.4427591657577102,-0.6509338617324829,0.4527286291122437,-0.6093617677688599,0,0,0,-1,-1,61012.46857112501,unknown,2,2025-04-18T10:24:13.823+03:00,2025-04-17T15:44:39.500+03:00,7123,1.071601,0,0,5881.288,4,10,2025-04-18T10:24:21.561+03:00,766653871.9649173,0,107.42,100.5673,1,0.75,2025-04-18T10:21:40.418+03:00,121,2.016666666666667,2025-04-18T08:51:18.885+03:00,0.03057091307199995,1
2025-04-18T10:24:33.375+03:00,1744961073.049429,40.95360440245199,29.14096835387985,93.53751,-1,-1,-1,-1,30,26.84681577818391,-9999,61018.44803591667,-0.614654541015625,0.4173431396484375,-0.6518707275390625,61018.44299891667,1.899412756558701,-0.8207394514245543,-0.4708804324887744,-0.3246841430664062,-0.1330085843801498,-0.1141625568270683,0.0367896556854248,-0.02114540338516235,-0.03874754905700684,XArbitraryZVertical,-0.1910167434310156,0.3997077709178039,-0.7793060067108377,-0.4432026615432723,-0.6520240902900696,0.4536710679531097,-0.6074926257133484,0,0,0,-1,-1,61012.46857112501,unknown,2,2025-04-18T10:24:13.823+03:00,2025-04-17T15:44:39.500+03:00,7123,1.071601,0,0,5881.288,4,10,2025-04-18T10:24:21.561+03:00,766653871.9649173,0,107.42,100.5673,1,0.75,2025-04-18T10:21:40.418+03:00,121,2.016666666666667,2025-04-18T08:51:18.885+03:00,0.03057091307199995,1
2025-04-18T10:24:33.385+03:00,1744961073.049429,40.95360440245199,29.14096835387985,93.53751,-1,-1,-1,-1,30,26.84681577818391,-9999,61018.458112,-0.6180419921875,0.3976287841796875,-0.6639862060546875,61018.453074,1.895163950620406,-0.8241214637106203,-0.4725298782279413,-0.4632774293422699,-0.1635310798883438,-0.1461527049541473,0.04044187068939209,-0.0351116955280304,-0.04585981369018555,XArbitraryZVertical,-0.190991596165838,0.4014159402903253,-0.7780840761193005,-0.4438161484840095,-0.6535248160362244,0.4551403820514679,-0.6047748923301697,0,0,0,-1,-1,61012.46857112501,unknown,2,2025-04-18T10:24:13.823+03:00,2025-04-17T15:44:39.500+03:00,7123,1.071601,0,0,5881.288,4,10,2025-04-18T10:24:21.561+03:00,766653871.9649173,0,107.42,100.5673,1,0.75,2025-04-18T10:21:40.418+03:00,121,2.016666666666667,2025-04-18T08:51:18.885+03:00,0.03057091307199995,1
