loggingTime(txt),locationTimestamp_since1970(s),locationLatitude(WGS84),locationLongitude(WGS84),locationAltitude(m),locationSpeed(m/s),locationSpeedAccuracy(m/s),locationCourse(°),locationCourseAccuracy(°),locationVerticalAccuracy(m),locationHorizontalAccuracy(m),locationFloor(Z),accelerometerTimestamp_sinceReboot(s),accelerometerAccelerationX(G),accelerometerAccelerationY(G),accelerometerAccelerationZ(G),motionTimestamp_sinceReboot(s),motionYaw(rad),motionRoll(rad),motionPitch(rad),motionRotationRateX(rad/s),motionRotationRateY(rad/s),motionRotationRateZ(rad/s),motionUserAccelerationX(G),motionUserAccelerationY(G),motionUserAccelerationZ(G),motionAttitudeReferenceFrame(txt),motionQuaternionX(R),motionQuaternionY(R),motionQuaternionZ(R),motionQuaternionW(R),motionGravityX(G),motionGravityY(G),motionGravityZ(G),motionMagneticFieldX(µT),motionMagneticFieldY(µT),motionMagneticFieldZ(µT),motionHeading(°),motionMagneticFieldCalibrationAccuracy(Z),activityTimestamp_sinceReboot(s),activity(txt),activityActivityConfidence(Z),activityActivityStartDate(txt),pedometerStartDate(txt),pedometerNumberofSteps(N),pedometerAverageActivePace(s/m),pedometerCurrentPace(s/m),pedometerCurrentCadence(steps/s),pedometerDistance(m),pedometerFloorAscended(N),pedometerFloorDescended(N),pedometerEndDate(txt),altimeterTimestamp_sinceReboot(s),altimeterReset(bool),altimeterRelativeAltitude(m),altimeterPressure(kPa),batteryState(N),batteryLevel(R),heartRateBPMTimestamp(txt),heartRateBPM(N),heartRateBPS(R),heartRateVariabilityTimestamp(txt),heartRateVariability(ms),label
2025-04-22T11:02:08.938+03:00,1745308928.387496,40.95218625471538,29.14025411606978,76.06111,-1,-1,-1,-1,30,23.97249025624534,-9999,27404.67825816667,-0.6494293212890625,0.6096038818359375,-0.1297607421875,27404.67071816667,-1.322750436655548,-1.347663346786214,-0.7405304365485315,-0.02497344091534615,-0.117296002805233,0.00699284253641963,-0.04019761085510254,-0.09086316823959351,0.0257602334022522,XArbitraryZVertical,0.580430237901987,0.2853663545221796,0.2692469464051669,-0.7135634159768545,-0.7198120951652527,0.6746795177459717,-0.1633335649967194,0,0,0,-1,-1,27398.99798816667,unknown,2,2025-04-22T11:01:23.743+03:00,2025-04-21T17:08:51.449+03:00,7097,0.9398554,0,0,5930.618,5,20,2025-04-22T11:01:54.697+03:00,767001673.5380644,0,-22.1,100.4668,1,0.95,2025-04-22T11:01:09.511+03:00,84,1.4,2025-04-22T09:54:17.825+03:00,0.02225348692287972,0
2025-04-22T11:02:08.939+03:00,1745308928.387496,40.95218625471538,29.14025411606978,76.06111,-1,-1,-1,-1,30,23.97249025624534,-9999,27404.68833416667,-0.707977294921875,0.759490966796875,-0.162139892578125,27404.68079416667,-1.322984695274514,-1.348668338185682,-0.7406590283609281,-0.003463755128905177,-0.03307126462459564,0.009774980135262012,0.05973505973815918,-0.1221775412559509,0.05097287893295288,XArbitraryZVertical,0.580626931496146,0.2856166663006747,0.268998126830617,-0.7133970957971609,-0.7198913097381592,0.6747744083404541,-0.162590965628624,0,0,0,-1,-1,27398.99798816667,unknown,2,2025-04-22T11:01:23.743+03:00,2025-04-21T17:08:51.449+03:00,7097,0.9398554,0,0,5930.618,5,20,2025-04-22T11:01:54.697+03:00,767001673.5380644,0,-22.1,100.4668,1,0.95,2025-04-22T11:01:09.511+03:00,84,1.4,2025-04-22T09:54:17.825+03:00,0.02225348692287972,0
2025-04-22T11:02:08.943+03:00,1745308928.387496,40.95218625471538,29.14025411606978,76.06111,-1,-1,-1,-1,30,23.97249025624534,-9999,27404.69841016667,-0.7582244873046875,0.706573486328125,-0.1616058349609375,27404.69087016667,-1.322834853701171,-1.348388699344197,-0.7408135673528731,0.01295969262719154,0.05826051160693169,0.02538163773715496,0.04275739192962646,0.04883575439453125,0.005710482597351074,XArbitraryZVertical,0.5806016093604892,0.2855120635973481,0.2689769415889217,-0.7134675414854662,-0.719744086265564,0.6748884916305542,-0.1627692729234695,0,0,0,-1,-1,27398.99798816667,unknown,2,2025-04-22T11:01:23.743+03:00,2025-04-21T17:08:51.449+03:00,7097,0.9398554,0,0,5930.618,5,20,2025-04-22T11:01:54.697+03:00,767001673.5380644,0,-22.1,100.4668,1,0.95,2025-04-22T11:01:09.511+03:00,84,1.4,2025-04-22T09:54:17.825+03:00,0.02225348692287972,0
2025-04-22T11:02:08.952+03:00,1745308928.387496,40.95218625471538,29.14025411606978,76.06111,-1,-1,-1,-1,30,23.97249025624534,-9999,27404.70848616667,-0.725189208984375,0.6280670166015625,-0.1558685302734375,27404.70094616667,-1.3227714409598,-1.347861091781613,-0.7410665059964903,-0.009962134994566441,0.02819741889834404,0.02941965498030186,-0.02985221147537231,0.0679667592048645,0.0001930594444274902,XArbitraryZVertical,0.5805767089686096,0.2852631379829671,0.2690274620776907,-0.7135683643676646,-0.7194916605949402,0.6750751137733459,-0.1631112545728683,0,0,0,-1,-1,27398.99798816667,unknown,2,2025-04-22T11:01:23.743+03:00,2025-04-21T17:08:51.449+03:00,7097,0.9398554,0,0,5930.618,5,20,2025-04-22T11:01:54.697+03:00,767001673.5380644,0,-22.1,100.4668,1,0.95,2025-04-22T11:01:09.511+03:00,84,1.4,2025-04-22T09:54:17.825+03:00,0.02225348692287972,0
2025-04-22T11:02:08.963+03:00,1745308928.387496,40.95218625471538,29.14025411606978,76.06111,-1,-1,-1,-1,30,23.97249025624534,-9999,27404.71856216667,-0.69366455078125,0.642242431640625,-0.159423828125,27404.71102216667,-1.322983879584997,-1.348054733354371,-0.7413109286416298,-0.0329100601375103,-0.03407767415046692,0.0149333905428648,-0.02371025085449219,-0.02700120210647583,0.005266308784484863,XArbitraryZVertical,0.5806863244991721,0.2851940722566022,0.2689696862896261,-0.7135285410328548,-0.7193622589111328,0.6752554178237915,-0.1629354655742645,0,0,0,-1,-1,27398.99798816667,unknown,2,2025-04-22T11:01:23.743+03:00,2025-04-21T17:08:51.449+03:00,7097,0.9398554,0,0,5930.618,5,20,2025-04-22T11:01:54.697+03:00,767001673.5380644,0,-22.1,100.4668,1,0.95,2025-04-22T11:01:09.511+03:00,84,1.4,2025-04-22T09:54:17.825+03:00,0.02225348692287972,0
2025-04-22T11:02:08.972+03:00,1745308928.387496,40.95218625471538,29.14025411606978,76.06111,-1,-1,-1,-1,30,23.97249025624534,-9999,27404.72863816667,-0.7080841064453125,0.694549560546875,-0.1696624755859375,27404.72109816667,-1.323352834404024,-1.348678208329837,-0.7415200975265923,-0.02529861405491829,-0.03457821533083916,0.008758917450904846,0.0189475417137146,-0.04804474115371704,0.006144702434539795,XArbitraryZVertical,0.5808683146907037,0.2852439122197062,0.2688540699363824,-0.7134040787533883,-0.7193259596824646,0.6754096746444702,-0.162455826997757,0,0,0,-1,-1,27398.99798816667,unknown,2,2025-04-22T11:01:23.743+03:00,2025-04-21T17:08:51.449+03:00,7097,0.9398554,0,0,5930.618,5,20,2025-04-22T11:01:54.697+03:00,767001673.5380644,0,-22.1,100.4668,1,0.95,2025-04-22T11:01:09.511+03:00,84,1.4,2025-04-22T09:54:17.825+03:00,0.02225348692287972,0
2025-04-22T11:02:08.983+03:00,1745308928.387496,40.95218625471538,29.14025411606978,76.06111,-1,-1,-1,-1,30,23.97249025624534,-9999,27404.73871416667,-0.7294158935546875,0.707855224609375,-0.17413330078125,27404.73117416667,-1.323547989549576,-1.348993225614812,-0.7416727969723806,-0.009150802157819271,-0.003799264784902334,0.008533081039786339,0.02075964212417603,0.001861035823822021,-0.004785731434822083,XArbitraryZVertical,0.5809717098912746,0.2852518246243788,0.2687838619025088,-0.7133432106687133,-0.7192765474319458,0.6755222678184509,-0.1622065305709839,0,0,0,-1,-1,27398.99798816667,unknown,2,2025-04-22T11:01:23.743+03:00,2025-04-21T17:08:51.449+03:00,7097,0.9398554,0,0,5930.618,5,20,2025-04-22T11:01:54.697+03:00,767001673.5380644,0,-22.1,100.4668,1,0.95,2025-04-22T11:01:09.511+03:00,84,1.4,2025-04-22T09:54:17.825+03:00,0.02225348692287972,0
2025-04-22T11:02:08.993+03:00,1745308928.387496,40.95218625471538,29.14025411606978,76.06111,-1,-1,-1,-1,30,23.97249025624534,-9999,27404.74879016667,-0.7272186279296875,0.6876678466796875,-0.167938232421875,27404.74125016667,-1.32348982398068,-1.34890332355722,-0.7417465343665788,0.01171865966171026,0.009915083646774292,0.008136337623000145,-0.005167245864868164,0.03362119197845459,-0.01057618856430054,XArbitraryZVertical,0.5809673994336916,0.2852135534679535,0.2687658623896143,-0.7133687513320172,-0.7192133069038391,0.6755766272544861,-0.1622602194547653,0,0,0,-1,-1,27398.99798816667,unknown,2,2025-04-22T11:01:23.743+03:00,2025-04-21T17:08:51.449+03:00,7097,0.9398554,0,0,5930.618,5,20,2025-04-22T11:01:54.697+03:00,767001673.5380644,0,-22.1,100.4668,1,0.95,2025-04-22T11:01:09.511+03:00,84,1.4,2025-04-22T09:54:17.825+03:00,0.02225348692287972,0
2025-04-22T11:02:09.003+03:00,1745308928.387496,40.95218625471538,29.14025411606978,76.06111,-1,-1,-1,-1,30,23.97249025624534,-9999,27404.75886616667,-0.7182769775390625,0.6760101318359375,-0.15814208984375,27404.75132616667,-1.323284814214843,-1.348733941074689,-0.7417250927349522,0.0192631296813488,-0.001353816594928503,-0.0001828452222980559,-0.01119256019592285,0.01991939544677734,-0.008726909756660461,XArbitraryZVertical,0.5809107292470276,0.2852194016544247,0.2687487314440339,-0.7134190310535476,-0.7191999554634094,0.6755608320236206,-0.1623852401971817,0,0,0,-1,-1,27398.99798816667,unknown,2,2025-04-22T11:01:23.743+03:00,2025-04-21T17:08:51.449+03:00,7097,0.9398554,0,0,5930.618,5,20,2025-04-22T11:01:54.697+03:00,767001673.5380644,0,-22.1,100.4668,1,0.95,2025-04-22T11:01:09.511+03:00,84,1.4,2025-04-22T09:54:17.825+03:00,0.02225348692287972,0
2025-04-22T11:02:09.013+03:00,1745308928.387496,40.95218625471538,29.14025411606978,76.06111,-1,-1,-1,-1,30,23.97249025624534,-9999,27404.76894216667,-0.722137451171875,0.6800994873046875,-0.157379150390625,27404.76140216667,-1.323074002799384,-1.348581021883672,-0.7416683175311486,0.01334991306066513,0.005329718813300133,-1.157069345936179e-05,-0.001048088073730469,0.001894831657409668,0.001050293445587158,XArbitraryZVertical,0.5808477506639311,0.2852438522869493,0.2687359224926626,-0.7134653713855537,-0.719212532043457,0.6755189895629883,-0.1625036746263504,0,0,0,-1,-1,27398.99798816667,unknown,2,2025-04-22T11:01:23.743+03:00,2025-04-21T17:08:51.449+03:00,7097,0.9398554,0,0,5930.618,5,20,2025-04-22T11:01:54.697+03:00,767001673.5380644,0,-22.1,100.4668,1,0.95,2025-04-22T11:01:09.511+03:00,84,1.4,2025-04-22T09:54:17.825+03:00,0.02225348692287972,0
2025-04-22T11:02:09.023+03:00,1745308928.387496,40.95218625471538,29.14025411606978,76.06111,-1,-1,-1,-1,30,23.97249025624534,-9999,27404.77901816667,-0.7254180908203125,0.677734375,-0.16290283203125,27404.77147816667,-1.322912826517569,-1.348351053359674,-0.7416522387243795,0.01466391608119011,0.01792354136705399,-0.002011604607105255,-0.0005103945732116699,0.002501726150512695,0.006543412804603577,XArbitraryZVertical,0.580790389440743,0.2852136159716813,0.2687502637552801,-0.7135186817501267,-0.7191856503486633,0.675507128238678,-0.1626714318990707,0,0,0,-1,-1,27398.99798816667,unknown,2,2025-04-22T11:01:23.743+03:00,2025-04-21T17:08:51.449+03:00,7097,0.9398554,0,0,5930.618,5,20,2025-04-22T11:01:54.697+03:00,767001673.5380644,0,-22.1,100.4668,1,0.95,2025-04-22T11:01:09.511+03:00,84,1.4,2025-04-22T09:54:17.825+03:00,0.02225348692287972,0
2025-04-22T11:02:09.033+03:00,1745308928.387496,40.95218625471538,29.14025411606978,76.06111,-1,-1,-1,-1,30,23.97249025624534,-9999,27404.78909416667,-0.72247314453125,0.669403076171875,-0.163330078125,27404.78155416667,-1.322741426273963,-1.348034939725303,-0.7416173807150445,0.01213504560291767,0.02130449004471302,-0.001482534455135465,-0.005772590637207031,0.003687202930450439,0.002259358763694763,XArbitraryZVertical,0.5807158402516803,0.2851615532467289,0.2687919785992999,-0.7135845389093387,-0.7191572785377502,0.6754814386367798,-0.1629040092229843,0,0,0,-1,-1,27398.99798816667,unknown,2,2025-04-22T11:01:23.743+03:00,2025-04-21T17:08:51.449+03:00,7097,0.9398554,0,0,5930.618,5,20,2025-04-22T11:01:54.697+03:00,767001673.5380644,0,-22.1,100.4668,1,0.95,2025-04-22T11:01:09.511+03:00,84,1.4,2025-04-22T09:54:17.825+03:00,0.02225348692287972,0
2025-04-22T11:02:09.043+03:00,1745308928.387496,40.95218625471538,29.14025411606978,76.06111,-1,-1,-1,-1,30,23.97249025624534,-9999,27404.79917016667,-0.71697998046875,0.665252685546875,-0.161102294921875,27404.79163016667,-1.322681783386437,-1.347805991908526,-0.7415944313902156,0.0001574783236719668,0.01677285693585873,0.002413403708487749,-0.004772484302520752,-0.002567291259765625,-0.0009752511978149414,XArbitraryZVertical,0.5806715916081021,0.2851043271284112,0.2688444003399263,-0.713623593084772,-0.7191349864006042,0.6754645109176636,-0.1630720496177673,0,0,0,-1,-1,27398.99798816667,unknown,2,2025-04-22T11:01:23.743+03:00,2025-04-21T17:08:51.449+03:00,7097,0.9398554,0,0,5930.618,5,20,2025-04-22T11:01:54.697+03:00,767001673.5380644,0,-22.1,100.4668,1,0.95,2025-04-22T11:01:09.511+03:00,84,1.4,2025-04-22T09:54:17.825+03:00,0.02225348692287972,0
2025-04-22T11:02:09.053+03:00,1745308928.387496,40.95218625471538,29.14025411606978,76.06111,-1,-1,-1,-1,30,23.97249025624534,-9999,27404.80924616667,-0.712188720703125,0.6652069091796875,-0.1580352783203125,27404.80170616667,-1.322728300175701,-1.347719021832115,-0.7415950202108883,-0.004589406307786703,0.01011382229626179,-0.003828812623396516,-0.0002093911170959473,-0.008747577667236328,0.000460505485534668,XArbitraryZVertical,0.5806666414081431,0.285059626938954,0.268886083815463,-0.7136298179227418,-0.7191204428672791,0.675464928150177,-0.1631345152854919,0,0,0,-1,-1,27398.99798816667,unknown,2,2025-04-22T11:01:23.743+03:00,2025-04-21T17:08:51.449+03:00,7097,0.9398554,0,0,5930.618,5,20,2025-04-22T11:01:54.697+03:00,767001673.5380644,0,-22.1,100.4668,1,0.95,2025-04-22T11:01:09.511+03:00,84,1.4,2025-04-22T09:54:17.825+03:00,0.02225348692287972,0
2025-04-22T11:02:09.063+03:00,1745308928.387496,40.95218625471538,29.14025411606978,76.06111,-1,-1,-1,-1,30,23.97249025624534,-9999,27404.81932216667,-0.7156219482421875,0.66705322265625,-0.1578216552734375,27404.81178216667,-1.322776849262824,-1.347648654784132,-0.7415878284417958,-0.003693785518407822,0.01220040768384933,-0.004038403742015362,0.005856812000274658,-0.01006978750228882,0.004708349704742432,XArbitraryZVertical,0.5806625388486639,0.2850226655237562,0.2689261042629443,-0.7136328221591738,-0.7191137075424194,0.675459623336792,-0.1631861925125122,0,0,0,-1,-1,27398.99798816667,unknown,2,2025-04-22T11:01:23.743+03:00,2025-04-21T17:08:51.449+03:00,7097,0.9398554,0,0,5930.618,5,20,2025-04-22T11:01:54.697+03:00,767001673.5380644,0,-22.1,100.4668,1,0.95,2025-04-22T11:01:09.511+03:00,84,1.4,2025-04-22T09:54:17.825+03:00,0.02225348692287972,0
2025-04-22T11:02:09.073+03:00,1745308928.387496,40.95218625471538,29.14025411606978,76.06111,-1,-1,-1,-1,30,23.97249025624534,-9999,27404.82939816667,-0.719451904296875,0.6704254150390625,-0.159759521484375,27404.82185816667,-1.32281386473844,-1.347515691250774,-0.7415979251532405,-0.0002364698448218405,0.01668890006840229,0.0006832479848526418,0.005401253700256348,-0.008978545665740967,0.005962133407592773,XArbitraryZVertical,0.5806521409382337,0.2849613066357871,0.2689747114283443,-0.7136474489369797,-0.7190852761268616,0.6754670739173889,-0.1632802933454514,0,0,0,-1,-1,27398.99798816667,unknown,2,2025-04-22T11:01:23.743+03:00,2025-04-21T17:08:51.449+03:00,7097,0.9398554,0,0,5930.618,5,20,2025-04-22T11:01:54.697+03:00,767001673.5380644,0,-22.1,100.4668,1,0.95,2025-04-22T11:01:09.511+03:00,84,1.4,2025-04-22T09:54:17.825+03:00,0.02225348692287972,0
2025-04-22T11:02:09.090+03:00,1745308928.387496,40.95218625471538,29.14025411606978,76.06111,-1,-1,-1,-1,30,23.97249025624534,-9999,27404.83947416667,-0.7147216796875,0.67474365234375,-0.1604156494140625,27404.83193416667,-1.322763143538681,-1.347324628155643,-0.7415882929795439,0.007135159801691771,0.009604092687368393,-0.0004866786766797304,0.0002646446228027344,-0.005782365798950195,0.004513978958129883,XArbitraryZVertical,0.5806171113078935,0.2849108762372679,0.2690151369995097,-0.7136808627621533,-0.719060480594635,0.6754599809646606,-0.1634191274642944,0,0,0,-1,-1,27398.99798816667,unknown,2,2025-04-22T11:01:23.743+03:00,2025-04-21T17:08:51.449+03:00,7097,0.9398554,0,0,5930.618,5,20,2025-04-22T11:01:54.697+03:00,767001673.5380644,0,-22.1,100.4668,1,0.95,2025-04-22T11:01:09.511+03:00,84,1.4,2025-04-22T09:54:17.825+03:00,0.02225348692287972,0
2025-04-22T11:02:09.094+03:00,1745308928.387496,40.95218625471538,29.14025411606978,76.06111,-1,-1,-1,-1,30,23.97249025624534,-9999,27404.84955016667,-0.7061004638671875,0.6820220947265625,-0.1562347412109375,27404.84201016667,-1.322692761771445,-1.347265610216486,-0.74154275637796,-0.0003844749298878014,-0.00782063789665699,-0.005234928335994482,0.002024412155151367,-0.002590298652648926,0.002838984131813049,XArbitraryZVertical,0.5805892599287,0.2849244455984329,0.2690215115915103,-0.7136955961002243,-0.7190806269645691,0.6754263639450073,-0.1634683459997177,0,0,0,-1,-1,27398.99798816667,unknown,2,2025-04-22T11:01:23.743+03:00,2025-04-21T17:08:51.449+03:00,7097,0.9398554,0,0,5930.618,5,20,2025-04-22T11:01:54.697+03:00,767001673.5380644,0,-22.1,100.4668,1,0.95,2025-04-22T11:01:09.511+03:00,84,1.4,2025-04-22T09:54:17.825+03:00,0.02225348692287972,0
2025-04-22T11:02:09.104+03:00,1745308928.387496,40.95218625471538,29.14025411606978,76.06111,-1,-1,-1,-1,30,23.97249025624534,-9999,27404.85962616667,-0.7052154541015625,0.676177978515625,-0.1609649658203125,27404.85208616667,-1.32262276961443,-1.347388797877297,-0.7414934362994976,0.01229084096848965,-0.01689349487423897,-0.004616010002791882,0.009477496147155762,0.004083633422851562,0.005168691277503967,XArbitraryZVertical,0.5805851131513249,0.2850041418142192,0.2689763669785036,-0.7136841382310071,-0.719133198261261,0.6753900051116943,-0.1633871346712112,0,0,0,-1,-1,27398.99798816667,unknown,2,2025-04-22T11:01:23.743+03:00,2025-04-21T17:08:51.449+03:00,7097,0.9398554,0,0,5930.618,5,20,2025-04-22T11:01:54.697+03:00,767001673.5380644,0,-22.1,100.4668,1,0.95,2025-04-22T11:01:09.511+03:00,84,1.4,2025-04-22T09:54:17.825+03:00,0.02225348692287972,0
2025-04-22T11:02:09.114+03:00,1745308928.387496,40.95218625471538,29.14025411606978,76.06111,-1,-1,-1,-1,30,23.97249025624534,-9999,27404.86970216667,-0.711517333984375,0.6661376953125,-0.167327880859375,27404.86216216667,-1.322566933736459,-1.347515064186549,-0.7414327972643423,-0.002963213715702295,-0.01194001547992229,-0.001848319545388222,0.01498550176620483,0.005501627922058105,0.005651503801345825,XArbitraryZVertical,0.5805809214722734,0.285084371133327,0.2689389672020951,-0.7136695823952894,-0.7191937565803528,0.6753453016281128,-0.1633053869009018,0,0,0,-1,-1,27398.99798816667,unknown,2,2025-04-22T11:01:23.743+03:00,2025-04-21T17:08:51.449+03:00,7097,0.9398554,0,0,5930.618,5,20,2025-04-22T11:01:54.697+03:00,767001673.5380644,0,-22.1,100.4668,1,0.95,2025-04-22T11:01:09.511+03:00,84,1.4,2025-04-22T09:54:17.825+03:00,0.02225348692287972,0
2025-04-22T11:02:09.124+03:00,1745308928.387496,40.95218625471538,29.14025411606978,76.06111,-1,-1,-1,-1,30,23.97249025624534,-9999,27404.87977816667,-0.713623046875,0.66717529296875,-0.1600189208984375,27404.87223816667,-1.322621719217686,-1.347626294637247,-0.7414322837562985,-0.003929941449314356,-0.009431850165128708,0.002872399752959609,0.01038056612014771,-0.006521880626678467,-0.003949865698814392,XArbitraryZVertical,0.5806035567795644,0.2851083415626354,0.2689264125196166,-0.7136463714643348,-0.7192123532295227,0.6753449440002441,-0.1632254868745804,0,0,0,-1,-1,27398.99798816667,unknown,2,2025-04-22T11:01:23.743+03:00,2025-04-21T17:08:51.449+03:00,7097,0.9398554,0,0,5930.618,5,20,2025-04-22T11:01:54.697+03:00,767001673.5380644,0,-22.1,100.4668,1,0.95,2025-04-22T11:01:09.511+03:00,84,1.4,2025-04-22T09:54:17.825+03:00,0.02225348692287972,0
2025-04-22T11:02:09.134+03:00,1745308928.387496,40.95218625471538,29.14025411606978,76.06111,-1,-1,-1,-1,30,23.97249025624534,-9999,27404.88985416667,-0.7110443115234375,0.672698974609375,-0.1574249267578125,27404.88231416667,-1.322726229678494,-1.34785611302417,-0.7414830591619813,-0.01471860706806183,-0.02222720719873905,0.007764792535454035,0.006035983562469482,-0.009336352348327637,-3.337860107421875e-05,XArbitraryZVertical,0.5806603897553466,0.285144157353975,0.2688809567378904,-0.7136030324685966,-0.719216525554657,0.6753823757171631,-0.1630526483058929,0,0,0,-1,-1,27398.99798816667,unknown,2,2025-04-22T11:01:23.743+03:00,2025-04-21T17:08:51.449+03:00,7097,0.9398554,0,0,5930.618,5,20,2025-04-22T11:01:54.697+03:00,767001673.5380644,0,-22.1,100.4668,1,0.95,2025-04-22T11:01:09.511+03:00,84,1.4,2025-04-22T09:54:17.825+03:00,0.02225348692287972,0
2025-04-22T11:02:09.144+03:00,1745308928.387496,40.95218625471538,29.14025411606978,76.06111,-1,-1,-1,-1,30,23.97249025624534,-9999,27404.89993016667,-0.7181854248046875,0.674652099609375,-0.158538818359375,27404.89239016667,-1.322915683341196,-1.348176827482807,-0.7415667565976285,-0.01163999270647764,-0.01466888934373856,0.006074750795960426,0.007696270942687988,-0.005201995372772217,0.004743590950965881,XArbitraryZVertical,0.5807487746519533,0.2851773594575843,0.2688289146938168,-0.7135373850926578,-0.7192135453224182,0.6754440665245056,-0.1628094613552094,0,0,0,-1,-1,27398.99798816667,unknown,2,2025-04-22T11:01:23.743+03:00,2025-04-21T17:08:51.449+03:00,7097,0.9398554,0,0,5930.618,5,20,2025-04-22T11:01:54.697+03:00,767001673.5380644,0,-22.1,100.4668,1,0.95,2025-04-22T11:01:09.511+03:00,84,1.4,2025-04-22T09:54:17.825+03:00,0.02225348692287972,0
2025-04-22T11:02:09.154+03:00,1745308928.387496,40.95218625471538,29.14025411606978,76.06111,-1,-1,-1,-1,30,23.97249025624534,-9999,27404.91000616667,-0.7274932861328125,0.6700592041015625,-0.161895751953125,27404.90246616667,-1.323057023738505,-1.34835499862911,-0.7416502710533829,-0.01024456229060888,0.002477273577824235,0.006556616630405188,0.004893183708190918,-0.00103682279586792,0.004267334938049316,XArbitraryZVertical,0.5808110399035418,0.2851737806089712,0.2688012002252187,-0.7134986409039736,-0.7191876173019409,0.6755056381225586,-0.1626688987016678,0,0,0,-1,-1,27398.99798816667,unknown,2,2025-04-22T11:01:23.743+03:00,2025-04-21T17:08:51.449+03:00,7097,0.9398554,0,0,5930.618,5,20,2025-04-22T11:01:54.697+03:00,767001673.5380644,0,-22.1,100.4668,1,0.95,2025-04-22T11:01:09.511+03:00,84,1.4,2025-04-22T09:54:17.825+03:00,0.02225348692287972,0
2025-04-22T11:02:09.164+03:00,1745308928.387496,40.95218625471538,29.14025411606978,76.06111,-1,-1,-1,-1,30,23.97249025624534,-9999,27404.92008216667,-0.7244415283203125,0.67181396484375,-0.1637725830078125,27404.91254216667,-1.323137692635492,-1.348358036437529,-0.7416983445292643,-0.003487590234726667,0.01171604543924332,0.003692120779305696,-0.006368458271026611,-0.003513693809509277,0.002289652824401855,XArbitraryZVertical,0.5808334071650347,0.2851364087825889,0.2688138951045894,-0.7134906151665001,-0.7191565036773682,0.6755411028862,-0.1626595556735992,0,0,0,-1,-1,27398.99798816667,unknown,2,2025-04-22T11:01:23.743+03:00,2025-04-21T17:08:51.449+03:00,7097,0.9398554,0,0,5930.618,5,20,2025-04-22T11:01:54.697+03:00,767001673.5380644,0,-22.1,100.4668,1,0.95,2025-04-22T11:01:09.511+03:00,84,1.4,2025-04-22T09:54:17.825+03:00,0.02225348692287972,0
2025-04-22T11:02:09.174+03:00,1745308928.387496,40.95218625471538,29.14025411606978,76.06111,-1,-1,-1,-1,30,23.97249025624534,-9999,27404.93015816667,-0.7171630859375,0.6800994873046875,-0.162109375,27404.92261816667,-1.323196150614532,-1.348315918393169,-0.7417307950764097,-0.004935550969094038,0.003067163750529289,0.001903009135276079,-0.007236003875732422,-0.005704343318939209,-0.0002331733703613281,XArbitraryZVertical,0.5808431716219624,0.2850942197733733,0.2688366789963499,-0.7134908747789058,-0.7191281318664551,0.6755650639533997,-0.1626849919557571,0,0,0,-1,-1,27398.99798816667,unknown,2,2025-04-22T11:01:23.743+03:00,2025-04-21T17:08:51.449+03:00,7097,0.9398554,0,0,5930.618,5,20,2025-04-22T11:01:54.697+03:00,767001673.5380644,0,-22.1,100.4668,1,0.95,2025-04-22T11:01:09.511+03:00,84,1.4,2025-04-22T09:54:17.825+03:00,0.02225348692287972,0
2025-04-22T11:02:09.184+03:00,1745308928.387496,40.95218625471538,29.14025411606978,76.06111,-1,-1,-1,-1,30,23.97249025624534,-9999,27404.94023416667,-0.7119293212890625,0.686492919921875,-0.1625213623046875,27404.93269416667,-1.323274454303538,-1.348383704468366,-0.7417689765613058,-0.004459377843886614,-0.004333494231104851,-0.004688847344368696,-0.0002767443656921387,0.0006762146949768066,-0.0008979439735412598,XArbitraryZVertical,0.5808717208490809,0.2850837586895649,0.2688328880930058,-0.7134733368357382,-0.7191141843795776,0.6755931973457336,-0.1626305878162384,0,0,0,-1,-1,27398.99798816667,unknown,2,2025-04-22T11:01:23.743+03:00,2025-04-21T17:08:51.449+03:00,7097,0.9398554,0,0,5930.618,5,20,2025-04-22T11:01:54.697+03:00,767001673.5380644,0,-22.1,100.4668,1,0.95,2025-04-22T11:01:09.511+03:00,84,1.4,2025-04-22T09:54:17.825+03:00,0.02225348692287972,0
2025-04-22T11:02:09.194+03:00,1745308928.387496,40.95218625471538,29.14025411606978,76.06111,-1,-1,-1,-1,30,23.97249025624534,-9999,27404.95031016667,-0.712799072265625,0.6832427978515625,-0.16632080078125,27404.94277016667,-1.323336340406001,-1.348495865141626,-0.741800418421556,-0.002307011047378182,-0.009207611903548241,-0.004759287927299738,0.005915701389312744,0.00942683219909668,0.0009087920188903809,XArbitraryZVertical,0.5809025081255758,0.2850959005506292,0.2688123809564718,-0.7134510305207764,-0.7191115021705627,0.6756163835525513,-0.1625452041625977,0,0,0,-1,-1,27398.99798816667,unknown,2,2025-04-22T11:01:23.743+03:00,2025-04-21T17:08:51.449+03:00,7097,0.9398554,0,0,5930.618,5,20,2025-04-22T11:01:54.697+03:00,767001673.5380644,0,-22.1,100.4668,1,0.95,2025-04-22T11:01:09.511+03:00,84,1.4,2025-04-22T09:54:17.825+03:00,0.02225348692287972,0
2025-04-22T11:02:09.204+03:00,1745308928.387496,40.95218625471538,29.14025411606978,76.06111,-1,-1,-1,-1,30,23.97249025624534,-9999,27404.96038616667,-0.7170257568359375,0.6782379150390625,-0.167724609375,27404.95284616667,-1.323329390578912,-1.348546729145268,-0.7417611161072191,0.006338941864669323,-0.006198505870997906,-0.003919593058526516,0.007109582424163818,0.00942528247833252,-0.002188980579376221,XArbitraryZVertical,0.5808997804708261,0.2851283843723835,0.2688075901522493,-0.7134421201450604,-0.7191457152366638,0.6755874156951904,-0.1625144928693771,0,0,0,-1,-1,27398.99798816667,unknown,2,2025-04-22T11:01:23.743+03:00,2025-04-21T17:08:51.449+03:00,7097,0.9398554,0,0,5930.618,5,20,2025-04-22T11:01:54.697+03:00,767001673.5380644,0,-22.1,100.4668,1,0.95,2025-04-22T11:01:09.511+03:00,84,1.4,2025-04-22T09:54:17.825+03:00,0.02225348692287972,0
2025-04-22T11:02:09.214+03:00,1745308928.387496,40.95218625471538,29.14025411606978,76.06111,-1,-1,-1,-1,30,23.97249025624534,-9999,27404.97046216667,-0.722381591796875,0.676422119140625,-0.167449951171875,27404.96292216667,-1.323194849037466,-1.348448228222696,-0.7416964883218787,0.009696788154542446,0.009123325347900391,-0.001260892837308347,0.004267513751983643,0.004422307014465332,-0.005648508667945862,XArbitraryZVertical,0.5808532827712978,0.2851525545728538,0.2688086683181789,-0.7134699290659423,-0.7191723585128784,0.6755397319793701,-0.1625949740409851,0,0,0,-1,-1,27398.99798816667,unknown,2,2025-04-22T11:01:23.743+03:00,2025-04-21T17:08:51.449+03:00,7097,0.9398554,0,0,5930.618,5,20,2025-04-22T11:01:54.697+03:00,767001673.5380644,0,-22.1,100.4668,1,0.95,2025-04-22T11:01:09.511+03:00,84,1.4,2025-04-22T09:54:17.825+03:00,0.02225348692287972,0
2025-04-22T11:02:09.224+03:00,1745308928.387496,40.95218625471538,29.14025411606978,76.06111,-1,-1,-1,-1,30,23.97249025624534,-9999,27404.98053816667,-0.7208709716796875,0.676666259765625,-0.1654510498046875,27404.97299816667,-1.323082905528165,-1.348239388669567,-0.7416698453437219,0.01433521509170532,0.01711680367588997,3.926240606233478e-05,-0.00128781795501709,0.001146018505096436,-0.004685640335083008,XArbitraryZVertical,0.5808034594249989,0.2851188883918024,0.2688378049915384,-0.7135129431798128,-0.7191559076309204,0.675520122051239,-0.1627491265535355,0,0,0,-1,-1,27398.99798816667,unknown,2,2025-04-22T11:01:23.743+03:00,2025-04-21T17:08:51.449+03:00,7097,0.9398554,0,0,5930.618,5,20,2025-04-22T11:01:54.697+03:00,767001673.5380644,0,-22.1,100.4668,1,0.95,2025-04-22T11:01:09.511+03:00,84,1.4,2025-04-22T09:54:17.825+03:00,0.02225348692287972,0
2025-04-22T11:02:09.235+03:00,1745308928.387496,40.95218625471538,29.14025411606978,76.06111,-1,-1,-1,-1,30,23.97249025624534,-9999,27404.99061416667,-0.7164154052734375,0.6685791015625,-0.16046142578125,27404.98307416667,-1.322894360822929,-1.347988904967344,-0.7416471720779736,0.01496525295078754,0.00701057305559516,-0.001695154584012926,-0.003129482269287109,0.002062976360321045,-0.00326615571975708,XArbitraryZVertical,0.5807379760473041,0.285091363810718,0.2688504457705375,-0.7135724679748188,-0.7191300392150879,0.6755033731460571,-0.1629326343536377,0,0,0,-1,-1,27398.99798816667,unknown,2,2025-04-22T11:01:23.743+03:00,2025-04-21T17:08:51.449+03:00,7097,0.9398554,0,0,5930.618,5,20,2025-04-22T11:01:54.697+03:00,767001673.5380644,0,-22.1,100.4668,1,0.95,2025-04-22T11:01:09.511+03:00,84,1.4,2025-04-22T09:54:17.825+03:00,0.02225348692287972,0
2025-04-22T11:02:09.245+03:00,1745308928.387496,40.95218625471538,29.14025411606978,76.06111,-1,-1,-1,-1,30,23.97249025624534,-9999,27405.00069016667,-0.7179718017578125,0.6663665771484375,-0.1596527099609375,27404.99315016667,-1.322828062700776,-1.347883883018212,-0.7415897682349993,-0.003142910543829203,0.006193249020725489,0.0009658759227022529,0.002582788467407227,-0.003509938716888428,0.0008767843246459961,XArbitraryZVertical,0.5807018957422103,0.2850911099237409,0.268875457050621,-0.7135925196267915,-0.719150722026825,0.6754610538482666,-0.1630167365074158,0,0,0,-1,-1,27398.99798816667,unknown,2,2025-04-22T11:01:23.743+03:00,2025-04-21T17:08:51.449+03:00,7097,0.9398554,0,0,5930.618,5,20,2025-04-22T11:01:54.697+03:00,767001673.5380644,0,-22.1,100.4668,1,0.95,2025-04-22T11:01:09.511+03:00,84,1.4,2025-04-22T09:54:17.825+03:00,0.02225348692287972,0
2025-04-22T11:02:09.255+03:00,1745308928.387496,40.95218625471538,29.14025411606978,76.06111,-1,-1,-1,-1,30,23.97249025624534,-9999,27405.01076616667,-0.7174835205078125,0.667449951171875,-0.1623382568359375,27405.00322616667,-1.322941398245878,-1.347890073507178,-0.7415892387002857,-0.01381006930023432,0.007991814985871315,0.003451337572187185,0.002324700355529785,-0.009735107421875,0.003420650959014893,XArbitraryZVertical,0.5807187652820002,0.2850605792270205,0.2689142668862873,-0.7135763689233654,-0.7191520929336548,0.6754606366157532,-0.163012370467186,0,0,0,-1,-1,27398.99798816667,unknown,2,2025-04-22T11:01:23.743+03:00,2025-04-21T17:08:51.449+03:00,7097,0.9398554,0,0,5930.618,5,20,2025-04-22T11:01:54.697+03:00,767001673.5380644,0,-22.1,100.4668,1,0.95,2025-04-22T11:01:09.511+03:00,84,1.4,2025-04-22T09:54:17.825+03:00,0.02225348692287972,0
2025-04-22T11:02:09.265+03:00,1745308928.387496,40.95218625471538,29.14025411606978,76.06111,-1,-1,-1,-1,30,23.97249025624534,-9999,27405.02084216667,-0.7131805419921875,0.670806884765625,-0.1632232666015625,27405.01330216667,-1.32313348696083,-1.348016382692812,-0.7416300792914633,-0.01803703792393208,-0.007631619926542044,-0.0002118404081556946,0.001265406608581543,-0.007812142372131348,0.00153835117816925,XArbitraryZVertical,0.5807720735745154,0.2850370249315455,0.268933136885564,-0.7135351523885733,-0.7191455960273743,0.6754907965660095,-0.1629153788089752,0,0,0,-1,-1,27398.99798816667,unknown,2,2025-04-22T11:01:23.743+03:00,2025-04-21T17:08:51.449+03:00,7097,0.9398554,0,0,5930.618,5,20,2025-04-22T11:01:54.697+03:00,767001673.5380644,0,-22.1,100.4668,1,0.95,2025-04-22T11:01:09.511+03:00,84,1.4,2025-04-22T09:54:17.825+03:00,0.02225348692287972,0
2025-04-22T11:02:09.275+03:00,1745308928.387496,40.95218625471538,29.14025411606978,76.06111,-1,-1,-1,-1,30,23.97249025624534,-9999,27405.03091816667,-0.709686279296875,0.6769256591796875,-0.16156005859375,27405.02337816667,-1.323347679962078,-1.348259819095139,-0.7417082088462902,-0.01137147936969995,-0.01365522388368845,-0.003263856284320354,0.004381656646728516,-0.00632864236831665,-0.001059219241142273,XArbitraryZVertical,0.5808523382246328,0.2850372316805342,0.2689141415011361,-0.7134769166988238,-0.7191337943077087,0.6755483746528625,-0.1627286821603775,0,0,0,-1,-1,27398.99798816667,unknown,2,2025-04-22T11:01:23.743+03:00,2025-04-21T17:08:51.449+03:00,7097,0.9398554,0,0,5930.618,5,20,2025-04-22T11:01:54.697+03:00,767001673.5380644,0,-22.1,100.4668,1,0.95,2025-04-22T11:01:09.511+03:00,84,1.4,2025-04-22T09:54:17.825+03:00,0.02225348692287972,0
2025-04-22T11:02:09.285+03:00,1745308928.387496,40.95218625471538,29.14025411606978,76.06111,-1,-1,-1,-1,30,23.97249025624534,-9999,27405.04099416667,-0.71405029296875,0.6818389892578125,-0.1623077392578125,27405.03345416667,-1.323414603972916,-1.34841471206942,-0.7417103963240476,-0.0009023266611620784,-0.006368015892803669,-0.006994412280619144,0.009303510189056396,-0.0009744167327880859,0.000934794545173645,XArbitraryZVertical,0.5808831726508749,0.2850723725746457,0.2688923442248102,-0.7134460031862226,-0.7191575765609741,0.6755499839782715,-0.1626169681549072,0,0,0,-1,-1,27398.99798816667,unknown,2,2025-04-22T11:01:23.743+03:00,2025-04-21T17:08:51.449+03:00,7097,0.9398554,0,0,5930.618,5,20,2025-04-22T11:01:54.697+03:00,767001673.5380644,0,-22.1,100.4668,1,0.95,2025-04-22T11:01:09.511+03:00,84,1.4,2025-04-22T09:54:17.825+03:00,0.02225348692287972,0
2025-04-22T11:02:09.315+03:00,1745308928.387496,40.95218625471538,29.14025411606978,76.06111,-1,-1,-1,-1,30,23.97249025624534,-9999,27405.05107016667,-0.7149810791015625,0.6898345947265625,-0.160003662109375,27405.04353016667,-1.323355840425807,-1.348368745939558,-0.7416592896511328,0.008945177309215069,-0.0001642489805817604,-0.008458252064883709,0.007117271423339844,0.004342854022979736,0.000304102897644043,XArbitraryZVertical,0.5808574451939565,0.285089090563529,0.268900962259335,-0.7134571352114695,-0.7191839218139648,0.6755123138427734,-0.1626576781272888,0,0,0,-1,-1,27398.99798816667,unknown,2,2025-04-22T11:01:23.743+03:00,2025-04-21T17:08:51.449+03:00,7097,0.9398554,0,0,5930.618,5,20,2025-04-22T11:01:54.697+03:00,767001673.5380644,0,-22.1,100.4668,1,0.95,2025-04-22T11:01:09.511+03:00,84,1.4,2025-04-22T09:54:17.825+03:00,0.02225348692287972,0
2025-04-22T11:02:09.317+03:00,1745308928.387496,40.95218625471538,29.14025411606978,76.06111,-1,-1,-1,-1,30,23.97249025624534,-9999,27405.06114616667,-0.71173095703125,0.6892547607421875,-0.1631927490234375,27405.05360616667,-1.323110665153693,-1.348206882138762,-0.7415101456556026,0.02654547616839409,-0.005550225730985403,-0.0103248618543148,0.004198431968688965,0.01134985685348511,0.003189265727996826,XArbitraryZVertical,0.5807682669270596,0.2851491980371922,0.2689076871672074,-0.7135031365337621,-0.719255805015564,0.6754023432731628,-0.1627963036298752,0,0,0,-1,-1,27398.99798816667,unknown,2,2025-04-22T11:01:23.743+03:00,2025-04-21T17:08:51.449+03:00,7097,0.9398554,0,0,5930.618,5,20,2025-04-22T11:01:54.697+03:00,767001673.5380644,0,-22.1,100.4668,1,0.95,2025-04-22T11:01:09.511+03:00,84,1.4,2025-04-22T09:54:17.825+03:00,0.02225348692287972,0
2025-04-22T11:02:09.318+03:00,1745308928.387496,40.95218625471538,29.14025411606978,76.06111,-1,-1,-1,-1,30,23.97249025624534,-9999,27405.07122216667,-0.7100982666015625,0.67822265625,-0.1635894775390625,27405.06368216667,-1.32276215762958,-1.348052817702257,-0.741329175665243,0.02543666958808899,-0.01173954643309116,-0.01204053591936827,0.006672799587249756,0.01633554697036743,0.001694396138191223,XArbitraryZVertical,0.5806584636631877,0.2852520034215736,0.2688853134715005,-0.7135597521743475,-0.71934974193573,0.6752688884735107,-0.1629340797662735,0,0,0,-1,-1,27398.99798816667,unknown,2,2025-04-22T11:01:23.743+03:00,2025-04-21T17:08:51.449+03:00,7097,0.9398554,0,0,5930.618,5,20,2025-04-22T11:01:54.697+03:00,767001673.5380644,0,-22.1,100.4668,1,0.95,2025-04-22T11:01:09.511+03:00,84,1.4,2025-04-22T09:54:17.825+03:00,0.02225348692287972,0
2025-04-22T11:02:09.325+03:00,1745308928.387496,40.95218625471538,29.14025411606978,76.06111,-1,-1,-1,-1,30,23.97249025624534,-9999,27405.08129816667,-0.7100372314453125,0.6671142578125,-0.1616363525390625,27405.07375816667,-1.322518936718104,-1.348054649230342,-0.7411578747179185,0.01622053422033787,-0.01924886181950569,-0.0129430815577507,0.009410440921783447,0.00806957483291626,-0.001149997115135193,XArbitraryZVertical,0.5805866714267766,0.2853768637885008,0.2688522215103432,-0.7135807295311519,-0.7194628715515137,0.6751425266265869,-0.1629583239555359,0,0,0,-1,-1,27398.99798816667,unknown,2,2025-04-22T11:01:23.743+03:00,2025-04-21T17:08:51.449+03:00,7097,0.9398554,0,0,5930.618,5,20,2025-04-22T11:01:54.697+03:00,767001673.5380644,0,-22.1,100.4668,1,0.95,2025-04-22T11:01:09.511+03:00,84,1.4,2025-04-22T09:54:17.825+03:00,0.02225348692287972,0
2025-04-22T11:02:09.335+03:00,1745308928.387496,40.95218625471538,29.14025411606978,76.06111,-1,-1,-1,-1,30,23.97249025624534,-9999,27405.09137416667,-0.710693359375,0.6615753173828125,-0.163604736328125,27405.08383416667,-1.32242344071968,-1.348189293276164,-0.7410279786591889,0.007915066555142403,-0.02117445878684521,-0.004460714291781187,0.009212791919708252,-0.003782212734222412,0.00106126070022583,XArbitraryZVertical,0.5805628044630641,0.2854932823962555,0.2688201972919935,-0.7135656984644968,-0.7195704579353333,0.6750466823577881,-0.1628808379173279,0,0,0,-1,-1,27398.99798816667,unknown,2,2025-04-22T11:01:23.743+03:00,2025-04-21T17:08:51.449+03:00,7097,0.9398554,0,0,5930.618,5,20,2025-04-22T11:01:54.697+03:00,767001673.5380644,0,-22.1,100.4668,1,0.95,2025-04-22T11:01:09.511+03:00,84,1.4,2025-04-22T09:54:17.825+03:00,0.02225348692287972,0
2025-04-22T11:02:09.345+03:00,1745308928.387496,40.95218625471538,29.14025411606978,76.06111,-1,-1,-1,-1,30,23.97249025624534,-9999,27405.10145016667,-0.7147064208984375,0.6630401611328125,-0.1602020263671875,27405.09391016667,-1.322403740510454,-1.348435925443279,-0.7409397574038774,-0.0006920035229995847,-0.02771704830229282,-0.007223211228847504,0.008761703968048096,-0.01244521141052246,-0.001086696982383728,XArbitraryZVertical,0.5805739209368664,0.2856145709780515,0.2687694791410146,-0.7135271876247153,-0.7196686267852783,0.6749815940856934,-0.1627164781093597,0,0,0,-1,-1,27398.99798816667,unknown,2,2025-04-22T11:01:23.743+03:00,2025-04-21T17:08:51.449+03:00,7097,0.9398554,0,0,5930.618,5,20,2025-04-22T11:01:54.697+03:00,767001673.5380644,0,-22.1,100.4668,1,0.95,2025-04-22T11:01:09.511+03:00,84,1.4,2025-04-22T09:54:17.825+03:00,0.02225348692287972,0
2025-04-22T11:02:09.355+03:00,1745308928.387496,40.95218625471538,29.14025411606978,76.06111,-1,-1,-1,-1,30,23.97249025624534,-9999,27405.11152616667,-0.721771240234375,0.667938232421875,-0.157196044921875,27405.10398616667,-1.32255149824712,-1.348744856936892,-0.74090491430641,-0.01296644657850266,-0.0166504830121994,-0.005444984883069992,0.007843077182769775,-0.01347225904464722,0.001534342765808105,XArbitraryZVertical,0.5806289214375092,0.2856928142240404,0.2687435649698235,-0.7134609269324713,-0.7197418808937073,0.6749559044837952,-0.162499338388443,0,0,0,-1,-1,27398.99798816667,unknown,2,2025-04-22T11:01:23.743+03:00,2025-04-21T17:08:51.449+03:00,7097,0.9398554,0,0,5930.618,5,20,2025-04-22T11:01:54.697+03:00,767001673.5380644,0,-22.1,100.4668,1,0.95,2025-04-22T11:01:09.511+03:00,84,1.4,2025-04-22T09:54:17.825+03:00,0.02225348692287972,0
2025-04-22T11:02:09.365+03:00,1745308928.387496,40.95218625471538,29.14025411606978,76.06111,-1,-1,-1,-1,30,23.97249025624534,-9999,27405.12160216667,-0.723388671875,0.6723175048828125,-0.1558074951171875,27405.11406216667,-1.322717028087272,-1.348983749476285,-0.7409051553830733,-0.01025401707738638,-0.007925433106720448,-0.006602661218494177,0.0005269646644592285,-0.009123682975769043,0.003498554229736328,XArbitraryZVertical,0.5806847269727947,0.285729889856017,0.2687331707410935,-0.7134045585942682,-0.7197805047035217,0.6749560832977295,-0.1623273491859436,0,0,0,-1,-1,27398.99798816667,unknown,2,2025-04-22T11:01:23.743+03:00,2025-04-21T17:08:51.449+03:00,7097,0.9398554,0,0,5930.618,5,20,2025-04-22T11:01:54.697+03:00,767001673.5380644,0,-22.1,100.4668,1,0.95,2025-04-22T11:01:09.511+03:00,84,1.4,2025-04-22T09:54:17.825+03:00,0.02225348692287972,0
2025-04-22T11:02:09.375+03:00,1745308928.387496,40.95218625471538,29.14025411606978,76.06111,-1,-1,-1,-1,30,23.97249025624534,-9999,27405.13167816667,-0.721160888671875,0.673858642578125,-0.1597137451171875,27405.12413816667,-1.32278206227477,-1.349036617975151,-0.7408843979395972,0.001492387847974896,0.003499527927488089,-0.005969761405140162,-0.003677546977996826,-0.003600001335144043,0.007430866360664368,XArbitraryZVertical,0.5806966251330153,0.2857363279027359,0.2687475581816213,-0.7133868123823737,-0.7198026776313782,0.6749407649040222,-0.1622923612594604,0,0,0,-1,-1,27398.99798816667,unknown,2,2025-04-22T11:01:23.743+03:00,2025-04-21T17:08:51.449+03:00,7097,0.9398554,0,0,5930.618,5,20,2025-04-22T11:01:54.697+03:00,767001673.5380644,0,-22.1,100.4668,1,0.95,2025-04-22T11:01:09.511+03:00,84,1.4,2025-04-22T09:54:17.825+03:00,0.02225348692287972,0
2025-04-22T11:02:09.386+03:00,1745308928.387496,40.95218625471538,29.14025411606978,76.06111,-1,-1,-1,-1,30,23.97249025624534,-9999,27405.14175416667,-0.7144317626953125,0.674591064453125,-0.161529541015625,27405.13421416667,-1.322776431272238,-1.349012349297283,-0.7408667374011803,0.006402990315109491,0.001317866146564484,-0.009532804600894451,-0.002784907817840576,-0.001221895217895508,0.003971889615058899,XArbitraryZVertical,0.5806887237117436,0.285734816667348,0.2687581723304392,-0.7133898222571798,-0.7198103070259094,0.6749277114868164,-0.1623124480247498,0,0,0,-1,-1,27398.99798816667,unknown,2,2025-04-22T11:01:23.743+03:00,2025-04-21T17:08:51.449+03:00,7097,0.9398554,0,0,5930.618,5,20,2025-04-22T11:01:54.697+03:00,767001673.5380644,0,-22.1,100.4668,1,0.95,2025-04-22T11:01:09.511+03:00,84,1.4,2025-04-22T09:54:17.825+03:00,0.02225348692287972,0
2025-04-22T11:02:09.396+03:00,1745308928.387496,40.95218625471538,29.14025411606978,76.06111,-1,-1,-1,-1,30,23.97249025624534,-9999,27405.15183016667,-0.7084503173828125,0.6778717041015625,-0.16363525390625,27405.14429016667,-1.322710186471087,-1.348990734532099,-0.7408567609163462,0.007353006396442652,-0.008840428665280342,-0.006146162282675505,0.00272667407989502,-0.001077175140380859,0.001486554741859436,XArbitraryZVertical,0.5806741595954885,0.2857494878771109,0.2687440035498775,-0.713401194241988,-0.7198134660720825,0.674920380115509,-0.1623294949531555,0,0,0,-1,-1,27398.99798816667,unknown,2,2025-04-22T11:01:23.743+03:00,2025-04-21T17:08:51.449+03:00,7097,0.9398554,0,0,5930.618,5,20,2025-04-22T11:01:54.697+03:00,767001673.5380644,0,-22.1,100.4668,1,0.95,2025-04-22T11:01:09.511+03:00,84,1.4,2025-04-22T09:54:17.825+03:00,0.02225348692287972,0
2025-04-22T11:02:09.406+03:00,1745308928.387496,40.95218625471538,29.14025411606978,76.06111,-1,-1,-1,-1,30,23.97249025624534,-9999,27405.16190616667,-0.7047271728515625,0.6752471923828125,-0.16033935546875,27405.15436616667,-1.322694803252258,-1.349155361079281,-0.7408658403285634,-0.004608048591762781,-0.02882825210690498,-0.004745073150843382,0.008682966232299805,0.001998364925384521,0.0003290325403213501,XArbitraryZVertical,0.5806960919375466,0.2858097942194277,0.2686878025763608,-0.7133802666216643,-0.71983402967453,0.6749270558357239,-0.162209615111351,0,0,0,-1,-1,27398.99798816667,unknown,2,2025-04-22T11:01:23.743+03:00,2025-04-21T17:08:51.449+03:00,7097,0.9398554,0,0,5930.618,5,20,2025-04-22T11:01:54.697+03:00,767001673.5380644,0,-22.1,100.4668,1,0.95,2025-04-22T11:01:09.511+03:00,84,1.4,2025-04-22T09:54:17.825+03:00,0.02225348692287972,0
2025-04-22T11:02:09.416+03:00,1745308928.387496,40.95218625471538,29.14025411606978,76.06111,-1,-1,-1,-1,30,23.97249025624534,-9999,27405.17198216667,-0.7100372314453125,0.66961669921875,-0.157684326171875,27405.16444216667,-1.322826511663807,-1.349539839203603,-0.7408584969704165,-0.0118177579715848,-0.03164480999112129,-0.003779011545702815,0.013419508934021,0.001652896404266357,-0.00147247314453125,XArbitraryZVertical,0.5807648935951129,0.2859110672354737,0.2686255520961606,-0.7133072968082509,-0.7199015021324158,0.6749216318130493,-0.1619340032339096,0,0,0,-1,-1,27398.99798816667,unknown,2,2025-04-22T11:01:23.743+03:00,2025-04-21T17:08:51.449+03:00,7097,0.9398554,0,0,5930.618,5,20,2025-04-22T11:01:54.697+03:00,767001673.5380644,0,-22.1,100.4668,1,0.95,2025-04-22T11:01:09.511+03:00,84,1.4,2025-04-22T09:54:17.825+03:00,0.02225348692287972,0
2025-04-22T11:02:09.426+03:00,1745308928.387496,40.95218625471538,29.14025411606978,76.06111,-1,-1,-1,-1,30,23.97249025624534,-9999,27405.18205816667,-0.7204742431640625,0.66851806640625,-0.16864013671875,27405.17451816667,-1.322962693156276,-1.34988201266606,-0.7408423977514542,-0.005098603200167418,-0.01866935752332211,-0.0002516547101549804,0.01324135065078735,-0.00306546688079834,0.00576038658618927,XArbitraryZVertical,0.5808268242952751,0.2859985747339245,0.2685798372078432,-0.713238975190129,-0.7199674248695374,0.674909770488739,-0.1616900265216827,0,0,0,-1,-1,27398.99798816667,unknown,2,2025-04-22T11:01:23.743+03:00,2025-04-21T17:08:51.449+03:00,7097,0.9398554,0,0,5930.618,5,20,2025-04-22T11:01:54.697+03:00,767001673.5380644,0,-22.1,100.4668,1,0.95,2025-04-22T11:01:09.511+03:00,84,1.4,2025-04-22T09:54:17.825+03:00,0.02225348692287972,0
2025-04-22T11:02:09.436+03:00,1745308928.387496,40.95218625471538,29.14025411606978,76.06111,-1,-1,-1,-1,30,23.97249025624534,-9999,27405.19213416667,-0.724456787109375,0.6792755126953125,-0.160919189453125,27405.18459416667,-1.32301391187939,-1.349996875780494,-0.7408340968995322,-0.001311654457822442,-0.0006547369994223118,0.001562324119731784,0.003286123275756836,-0.007423341274261475,-0.003308534622192383,XArbitraryZVertical,0.5808477701569669,0.2860272537873737,0.2685673681769453,-0.7132151033860256,-0.7199914455413818,0.6749036312103271,-0.161608561873436,0,0,0,-1,-1,27398.99798816667,unknown,2,2025-04-22T11:01:23.743+03:00,2025-04-21T17:08:51.449+03:00,7097,0.9398554,0,0,5930.618,5,20,2025-04-22T11:01:54.697+03:00,767001673.5380644,0,-22.1,100.4668,1,0.95,2025-04-22T11:01:09.511+03:00,84,1.4,2025-04-22T09:54:17.825+03:00,0.02225348692287972,0
2025-04-22T11:02:09.446+03:00,1745308928.387496,40.95218625471538,29.14025411606978,76.06111,-1,-1,-1,-1,30,23.97249025624534,-9999,27405.20221016667,-0.717437744140625,0.6825103759765625,-0.1536712646484375,27405.19467016667,-1.323047791599108,-1.350068778530972,-0.7408349649859896,0.0005658740410581231,-0.00582020403817296,0.0008946697344072163,-0.004393279552459717,-0.0002981424331665039,-0.004062280058860779,XArbitraryZVertical,0.5808624632975878,0.286042778980375,0.2685582879293121,-0.7132003204271188,-0.7200024724006653,0.6749042868614197,-0.1615566611289978,0,0,0,-1,-1,27398.99798816667,unknown,2,2025-04-22T11:01:23.743+03:00,2025-04-21T17:08:51.449+03:00,7097,0.9398554,0,0,5930.618,5,20,2025-04-22T11:01:54.697+03:00,767001673.5380644,0,-22.1,100.4668,1,0.95,2025-04-22T11:01:09.511+03:00,84,1.4,2025-04-22T09:54:17.825+03:00,0.02225348692287972,0
2025-04-22T11:02:09.456+03:00,1745308928.387496,40.95218625471538,29.14025411606978,76.06111,-1,-1,-1,-1,30,23.97249025624534,-9999,27405.21228616667,-0.7146453857421875,0.6699066162109375,-0.1634979248046875,27405.20474616667,-1.323031341424318,-1.350161697386331,-0.7408364544710045,0.004469535313546658,-0.006444449070841074,0.003064613323658705,-0.0006866455078125,0.008611857891082764,0.007787719368934631,XArbitraryZVertical,0.580872922159743,0.2860802114103774,0.2685249494164947,-0.7131893121428422,-0.7200164198875427,0.6749053597450256,-0.1614895164966583,0,0,0,-1,-1,27398.99798816667,unknown,2,2025-04-22T11:01:23.743+03:00,2025-04-21T17:08:51.449+03:00,7097,0.9398554,0,0,5930.618,5,20,2025-04-22T11:01:54.697+03:00,767001673.5380644,0,-22.1,100.4668,1,0.95,2025-04-22T11:01:09.511+03:00,84,1.4,2025-04-22T09:54:17.825+03:00,0.02225348692287972,0
2025-04-22T11:02:09.466+03:00,1745308928.387496,40.95218625471538,29.14025411606978,76.06111,-1,-1,-1,-1,30,23.97249025624534,-9999,27405.22236216667,-0.7154998779296875,0.66400146484375,-0.1605987548828125,27405.21482216667,-1.323002420907868,-1.350143336882698,-0.7408805384751259,-0.00341075798496604,0.002973021008074284,0.005617519374936819,0.005003392696380615,4.965066909790039e-05,0.001507773995399475,XArbitraryZVertical,0.5808759171323705,0.2860682708700557,0.2685060056756489,-0.7131987858379187,-0.7199844121932983,0.674937903881073,-0.1614962220191956,0,0,0,-1,-1,27398.99798816667,unknown,2,2025-04-22T11:01:23.743+03:00,2025-04-21T17:08:51.449+03:00,7097,0.9398554,0,0,5930.618,5,20,2025-04-22T11:01:54.697+03:00,767001673.5380644,0,-22.1,100.4668,1,0.95,2025-04-22T11:01:09.511+03:00,84,1.4,2025-04-22T09:54:17.825+03:00,0.02225348692287972,0
2025-04-22T11:02:09.477+03:00,1745308928.387496,40.95218625471538,29.14025411606978,76.06111,-1,-1,-1,-1,30,23.97249025624534,-9999,27405.23243816667,-0.7109832763671875,0.67181396484375,-0.156768798828125,27405.22489816667,-1.323151389026125,-1.350289899808611,-0.7409918527808312,-0.02048108726739883,-0.01810589991509914,0.008133141323924065,0.005167484283447266,-0.01056087017059326,-0.002169504761695862,XArbitraryZVertical,0.5809410630345888,0.2860425172890321,0.2684813778556606,-0.713165468055091,-0.7199349999427795,0.6750200390815735,-0.1613743156194687,0,0,0,-1,-1,27398.99798816667,unknown,2,2025-04-22T11:01:23.743+03:00,2025-04-21T17:08:51.449+03:00,7097,0.9398554,0,0,5930.618,5,20,2025-04-22T11:01:54.697+03:00,767001673.5380644,0,-22.1,100.4668,1,0.95,2025-04-22T11:01:09.511+03:00,84,1.4,2025-04-22T09:54:17.825+03:00,0.02225348692287972,0
2025-04-22T11:02:09.487+03:00,1745308928.387496,40.95218625471538,29.14025411606978,76.06111,-1,-1,-1,-1,30,23.97249025624534,-9999,27405.24251416667,-0.711822509765625,0.672027587890625,-0.15753173828125,27405.23497416667,-1.32343872684966,-1.350782988265624,-0.7411084527707791,-0.01993380859494209,-0.03802447766065598,-0.002637480851262808,0.007611513137817383,-0.006206631660461426,0.004950389266014099,XArbitraryZVertical,0.5810737109340147,0.2860983763434162,0.2684036510291086,-0.7130642263430799,-0.7199376225471497,0.6751060485839844,-0.16100212931633,0,0,0,-1,-1,27398.99798816667,unknown,2,2025-04-22T11:01:23.743+03:00,2025-04-21T17:08:51.449+03:00,7097,0.9398554,0,0,5930.618,5,20,2025-04-22T11:01:54.697+03:00,767001673.5380644,0,-22.1,100.4668,1,0.95,2025-04-22T11:01:09.511+03:00,84,1.4,2025-04-22T09:54:17.825+03:00,0.02225348692287972,0
2025-04-22T11:02:09.497+03:00,1745308928.387496,40.95218625471538,29.14025411606978,76.06111,-1,-1,-1,-1,30,23.97249025624534,-9999,27405.25259016667,-0.7239990234375,0.6728363037109375,-0.1586761474609375,27405.24505016667,-1.32369886075217,-1.351268745995965,-0.7411293762170877,-0.02157964184880257,-0.02204684540629387,-0.007429572753608227,0.01089537143707275,-0.002071738243103027,0.00299537181854248,XArbitraryZVertical,0.5811807013561391,0.2861893691581884,0.2683485675425894,-0.7129611348411239,-0.7200018167495728,0.6751214861869812,-0.1606492698192596,0,0,0,-1,-1,27398.99798816667,unknown,2,2025-04-22T11:01:23.743+03:00,2025-04-21T17:08:51.449+03:00,7097,0.9398554,0,0,5930.618,5,20,2025-04-22T11:01:54.697+03:00,767001673.5380644,0,-22.1,100.4668,1,0.95,2025-04-22T11:01:09.511+03:00,84,1.4,2025-04-22T09:54:17.825+03:00,0.02225348692287972,0
2025-04-22T11:02:09.507+03:00,1745308928.387496,40.95218625471538,29.14025411606978,76.06111,-1,-1,-1,-1,30,23.97249025624534,-9999,27405.26266616667,-0.729034423828125,0.6811981201171875,-0.161773681640625,27405.25512616667,-1.323941041234964,-1.351569487509851,-0.7410939371566289,-0.009348542429506779,-0.005420197267085314,-0.01254151109606028,0.001521885395050049,-0.003785073757171631,0.002387285232543945,XArbitraryZVertical,0.5812479982993011,0.2862372967289593,0.2683587415129067,-0.7128832357927003,-0.7200735211372375,0.6750953197479248,-0.1604379415512085,0,0,0,-1,-1,27398.99798816667,unknown,2,2025-04-22T11:01:23.743+03:00,2025-04-21T17:08:51.449+03:00,7097,0.9398554,0,0,5930.618,5,20,2025-04-22T11:01:54.697+03:00,767001673.5380644,0,-22.1,100.4668,1,0.95,2025-04-22T11:01:09.511+03:00,84,1.4,2025-04-22T09:54:17.825+03:00,0.02225348692287972,0
2025-04-22T11:02:09.517+03:00,1745308928.387496,40.95218625471538,29.14025411606978,76.06111,-1,-1,-1,-1,30,23.97249025624534,-9999,27405.27274216667,-0.7211761474609375,0.68115234375,-0.1609954833984375,27405.26520216667,-1.324021824991054,-1.351640092041583,-0.7409691410195397,0.0008999676210805774,-0.003313503693789244,-0.01356289908289909,-0.008882761001586914,0.003066599369049072,-0.0004680603742599487,XArbitraryZVertical,0.5812419677807171,0.2862779786118685,0.2684065011564369,-0.7128537357596669,-0.7201669216156006,0.6750032901763916,-0.1604053825139999,0,0,0,-1,-1,27398.99798816667,unknown,2,2025-04-22T11:01:23.743+03:00,2025-04-21T17:08:51.449+03:00,7097,0.9398554,0,0,5930.618,5,20,2025-04-22T11:01:54.697+03:00,767001673.5380644,0,-22.1,100.4668,1,0.95,2025-04-22T11:01:09.511+03:00,84,1.4,2025-04-22T09:54:17.825+03:00,0.02225348692287972,0
2025-04-22T11:02:09.527+03:00,1745308928.387496,40.95218625471538,29.14025411606978,76.06111,-1,-1,-1,-1,30,23.97249025624534,-9999,27405.28281816667,-0.71258544921875,0.6761016845703125,-0.15789794921875,27405.27527816667,-1.324028445653317,-1.351708583291443,-0.7408090343305586,-0.0001535789342597127,-0.01281379722058773,-0.01354052871465683,-0.00469207763671875,0.007258832454681396,-0.001668855547904968,XArbitraryZVertical,0.5812173114921804,0.2863505783296909,0.2684396993274131,-0.7128322292024897,-0.7202834486961365,0.6748851537704468,-0.160379558801651,0,0,0,-1,-1,27398.99798816667,unknown,2,2025-04-22T11:01:23.743+03:00,2025-04-21T17:08:51.449+03:00,7097,0.9398554,0,0,5930.618,5,20,2025-04-22T11:01:54.697+03:00,767001673.5380644,0,-22.1,100.4668,1,0.95,2025-04-22T11:01:09.511+03:00,84,1.4,2025-04-22T09:54:17.825+03:00,0.02225348692287972,0
2025-04-22T11:02:09.537+03:00,1745308928.387496,40.95218625471538,29.14025411606978,76.06111,-1,-1,-1,-1,30,23.97249025624534,-9999,27405.29289416667,-0.71038818359375,0.670257568359375,-0.1593475341796875,27405.28535416667,-1.324187127825833,-1.352004500905364,-0.7407207827634484,-0.01165583822876215,-0.01970239728689194,-0.01408730912953615,0.005545258522033691,0.003066778182983398,0.001381039619445801,XArbitraryZVertical,0.581260587386777,0.2864375321484189,0.2684382084026444,-0.7127625592666602,-0.7203890085220337,0.6748200058937073,-0.1601793467998505,0,0,0,-1,-1,27398.99798816667,unknown,2,2025-04-22T11:01:23.743+03:00,2025-04-21T17:08:51.449+03:00,7097,0.9398554,0,0,5930.618,5,20,2025-04-22T11:01:54.697+03:00,767001673.5380644,0,-22.1,100.4668,1,0.95,2025-04-22T11:01:09.511+03:00,84,1.4,2025-04-22T09:54:17.825+03:00,0.02225348692287972,0
2025-04-22T11:02:09.547+03:00,1745308928.387496,40.95218625471538,29.14025411606978,76.06111,-1,-1,-1,-1,30,23.97249025624534,-9999,27405.30297016667,-0.7134552001953125,0.661224365234375,-0.1560211181640625,27405.29543016667,-1.324439473987309,-1.352395611850952,-0.7406581573458417,-0.01798377558588982,-0.02558505348861217,-0.008623034693300724,0.009799540042877197,-0.001724064350128174,0.0008033066987991333,XArbitraryZVertical,0.581335632159111,0.286523153628653,0.2684342970935282,-0.7126684060908529,-0.7204928398132324,0.6747738122940063,-0.159906730055809,0,0,0,-1,-1,27398.99798816667,unknown,2,2025-04-22T11:01:23.743+03:00,2025-04-21T17:08:51.449+03:00,7097,0.9398554,0,0,5930.618,5,20,2025-04-22T11:01:54.697+03:00,767001673.5380644,0,-22.1,100.4668,1,0.95,2025-04-22T11:01:09.511+03:00,84,1.4,2025-04-22T09:54:17.825+03:00,0.02225348692287972,0
2025-04-22T11:02:09.558+03:00,1745308928.387496,40.95218625471538,29.14025411606978,76.06111,-1,-1,-1,-1,30,23.97249025624534,-9999,27405.31304616667,-0.717193603515625,0.6630096435546875,-0.1563262939453125,27405.30550616667,-1.32463373868253,-1.352774296380578,-0.7405998947078957,-0.01188127510249615,-0.02325838431715965,-0.004380553029477596,0.00860142707824707,-0.01074481010437012,0.001576557755470276,XArbitraryZVertical,0.5814016386436938,0.286619851776226,0.2684119090682765,-0.7125841258117955,-0.7205917835235596,0.6747307777404785,-0.1596423834562302,0,0,0,-1,-1,27398.99798816667,unknown,2,2025-04-22T11:01:23.743+03:00,2025-04-21T17:08:51.449+03:00,7097,0.9398554,0,0,5930.618,5,20,2025-04-22T11:01:54.697+03:00,767001673.5380644,0,-22.1,100.4668,1,0.95,2025-04-22T11:01:09.511+03:00,84,1.4,2025-04-22T09:54:17.825+03:00,0.02225348692287972,0
2025-04-22T11:02:09.567+03:00,1745308928.387496,40.95218625471538,29.14025411606978,76.06111,-1,-1,-1,-1,30,23.97249025624534,-9999,27405.32312216667,-0.7166900634765625,0.67230224609375,-0.156402587890625,27405.31558216667,-1.324827472338201,-1.353119151272685,-0.7405914916436769,-0.01482353545725346,-0.02145835384726524,-0.002561347559094429,0.004389524459838867,-0.0136377215385437,0.003816366195678711,XArbitraryZVertical,0.5814738586351375,0.286689025481155,0.2683833423571318,-0.7125081352124218,-0.7206523418426514,0.6747245788574219,-0.1593951135873795,0,0,0,-1,-1,27398.99798816667,unknown,2,2025-04-22T11:01:23.743+03:00,2025-04-21T17:08:51.449+03:00,7097,0.9398554,0,0,5930.618,5,20,2025-04-22T11:01:54.697+03:00,767001673.5380644,0,-22.1,100.4668,1,0.95,2025-04-22T11:01:09.511+03:00,84,1.4,2025-04-22T09:54:17.825+03:00,0.02225348692287972,0
2025-04-22T11:02:09.577+03:00,1745308928.387496,40.95218625471538,29.14025411606978,76.06111,-1,-1,-1,-1,30,23.97249025624534,-9999,27405.33319816667,-0.7147216796875,0.6783599853515625,-0.1519622802734375,27405.32565816667,-1.324976755398644,-1.353447884271816,-0.7406010848328293,-0.004499658010900021,-0.02416718751192093,-0.004344666842371225,0.003489494323730469,-0.005054175853729248,0.001609757542610168,XArbitraryZVertical,0.5815414704386971,0.2867597011932678,0.2683378766866919,-0.7124415822747857,-0.7206982970237732,0.6747316718101501,-0.1591567844152451,0,0,0,-1,-1,27398.99798816667,unknown,2,2025-04-22T11:01:23.743+03:00,2025-04-21T17:08:51.449+03:00,7097,0.9398554,0,0,5930.618,5,20,2025-04-22T11:01:54.697+03:00,767001673.5380644,0,-22.1,100.4668,1,0.95,2025-04-22T11:01:09.511+03:00,84,1.4,2025-04-22T09:54:17.825+03:00,0.02225348692287972,0
2025-04-22T11:02:09.599+03:00,1745308928.387496,40.95218625471538,29.14025411606978,76.06111,-1,-1,-1,-1,30,23.97249025624534,-9999,27405.34327416667,-0.720367431640625,0.6788787841796875,-0.1519775390625,27405.33573416667,-1.325071536823121,-1.353737120489549,-0.7405672992895989,-0.007628605701029301,-0.02058257162570953,-0.006235244683921337,0.006014406681060791,0.001944065093994141,0.005739644169807434,XArbitraryZVertical,0.5815865393524893,0.2868457410076367,0.2682982440656072,-0.7123850854376333,-0.720766544342041,0.674706757068634,-0.1589532345533371,0,0,0,-1,-1,27398.99798816667,unknown,2,2025-04-22T11:01:23.743+03:00,2025-04-21T17:08:51.449+03:00,7097,0.9398554,0,0,5930.618,5,20,2025-04-22T11:01:54.697+03:00,767001673.5380644,0,-22.1,100.4668,1,0.95,2025-04-22T11:01:09.511+03:00,84,1.4,2025-04-22T09:54:17.825+03:00,0.02225348692287972,0
2025-04-22T11:02:09.601+03:00,1745308928.387496,40.95218625471538,29.14025411606978,76.06111,-1,-1,-1,-1,30,23.97249025624534,-9999,27405.35335016667,-0.7249298095703125,0.675872802734375,-0.1543121337890625,27405.34581016667,-1.325178505021564,-1.353951937119048,-0.7405087132622038,-0.004082340281456709,-0.007846270687878132,-0.005210194736719131,0.002440214157104492,0.004031956195831299,0.00701238214969635,XArbitraryZVertical,0.5816180212371563,0.2869094527933357,0.2682924198151702,-0.7123358678478361,-0.7208392024040222,0.6746634840965271,-0.1588068902492523,0,0,0,-1,-1,27398.99798816667,unknown,2,2025-04-22T11:01:23.743+03:00,2025-04-21T17:08:51.449+03:00,7097,0.9398554,0,0,5930.618,5,20,2025-04-22T11:01:54.697+03:00,767001673.5380644,0,-22.1,100.4668,1,0.95,2025-04-22T11:01:09.511+03:00,84,1.4,2025-04-22T09:54:17.825+03:00,0.02225348692287972,0
