loggingTime(txt),locationTimestamp_since1970(s),locationLatitude(WGS84),locationLongitude(WGS84),locationAltitude(m),locationSpeed(m/s),locationSpeedAccuracy(m/s),locationCourse(°),locationCourseAccuracy(°),locationVerticalAccuracy(m),locationHorizontalAccuracy(m),locationFloor(Z),accelerometerTimestamp_sinceReboot(s),accelerometerAccelerationX(G),accelerometerAccelerationY(G),accelerometerAccelerationZ(G),motionTimestamp_sinceReboot(s),motionYaw(rad),motionRoll(rad),motionPitch(rad),motionRotationRateX(rad/s),motionRotationRateY(rad/s),motionRotationRateZ(rad/s),motionUserAccelerationX(G),motionUserAccelerationY(G),motionUserAccelerationZ(G),motionAttitudeReferenceFrame(txt),motionQuaternionX(R),motionQuaternionY(R),motionQuaternionZ(R),motionQuaternionW(R),motionGravityX(G),motionGravityY(G),motionGravityZ(G),motionMagneticFieldX(µT),motionMagneticFieldY(µT),motionMagneticFieldZ(µT),motionHeading(°),motionMagneticFieldCalibrationAccuracy(Z),activityTimestamp_sinceReboot(s),activity(txt),activityActivityConfidence(Z),activityActivityStartDate(txt),pedometerStartDate(txt),pedometerNumberofSteps(N),pedometerAverageActivePace(s/m),pedometerCurrentPace(s/m),pedometerCurrentCadence(steps/s),pedometerDistance(m),pedometerFloorAscended(N),pedometerFloorDescended(N),pedometerEndDate(txt),altimeterTimestamp_sinceReboot(s),altimeterReset(bool),altimeterRelativeAltitude(m),altimeterPressure(kPa),batteryState(N),batteryLevel(R),heartRateBPMTimestamp(txt),heartRateBPM(N),heartRateBPS(R),heartRateVariabilityTimestamp(txt),heartRateVariability(ms),label
2025-04-22T11:23:32.165+03:00,1745310211.420269,40.95223836967934,29.14033012467102,76.57301,-1,-1,-1,-1,44.07244744262695,38.82724410217911,-9999,28305.3562385,-0.6561126708984375,0.7864227294921875,0.10357666015625,28305.3461625,-1.754084083845002,-1.733191064094096,-0.8662871428000259,-0.0575932115316391,-0.006732650101184845,0.02000191062688828,0.06673562526702881,-0.05738550424575806,0.01097716391086578,XArbitraryZVertical,-0.7056093687489735,-0.2333942302434132,-0.2472604345060926,0.6216951487664956,-0.6391386985778809,0.7619295120239258,0.1047148928046227,0,0,0,-1,-1,28295.084453125,unknown,2,2025-04-22T11:23:21.875+03:00,2025-04-21T17:08:51.449+03:00,7165,0.9502622,0,0,5982.688,5,20,2025-04-22T11:23:19.296+03:00,767003004.5460862,0,-21.18,100.4553,1,0.9,2025-04-22T11:21:43.022+03:00,78,1.3,2025-04-22T09:54:17.825+03:00,0.02225348692287972,0
2025-04-22T11:23:32.166+03:00,1745310211.420269,40.95223836967934,29.14033012467102,76.57301,-1,-1,-1,-1,44.07244744262695,38.82724410217911,-9999,28305.3663155,-0.67681884765625,0.767578125,0.0997161865234375,28305.3562385,-1.754777691518852,-1.73348505356185,-0.866521382378062,-0.02481462620198727,0.03452064841985703,0.03398304060101509,0.02632170915603638,0.003452062606811523,0.006591558456420898,XArbitraryZVertical,-0.7057418046825694,-0.2331639681181027,-0.2472959873780152,0.6216170231714443,-0.6389316320419312,0.7620812058448792,0.1048738583922386,0,0,0,-1,-1,28295.084453125,unknown,2,2025-04-22T11:23:21.875+03:00,2025-04-21T17:08:51.449+03:00,7165,0.9502622,0,0,5982.688,5,20,2025-04-22T11:23:19.296+03:00,767003004.5460862,0,-21.18,100.4553,1,0.9,2025-04-22T11:21:43.022+03:00,78,1.3,2025-04-22T09:54:17.825+03:00,0.02225348692287972,0
2025-04-22T11:23:32.172+03:00,1745310211.420269,40.95223836967934,29.14033012467102,76.57301,-1,-1,-1,-1,44.07244744262695,38.82724410217911,-9999,28305.3763915,-0.60687255859375,0.7512664794921875,0.116729736328125,28305.3663155,-1.755318941769005,-1.733881554436941,-0.8667902661987835,-0.01512604672461748,-0.009171172976493835,0.01299573294818401,-0.05261176824569702,0.01919293403625488,-0.008109092712402344,XArbitraryZVertical,-0.705871277021022,-0.2330079270192595,-0.2472367159180347,0.6215520730859913,-0.6386877298355103,0.7622553110122681,0.1050939038395882,0,0,0,-1,-1,28295.084453125,unknown,2,2025-04-22T11:23:21.875+03:00,2025-04-21T17:08:51.449+03:00,7165,0.9502622,0,0,5982.688,5,20,2025-04-22T11:23:19.296+03:00,767003004.5460862,0,-21.18,100.4553,1,0.9,2025-04-22T11:21:43.022+03:00,78,1.3,2025-04-22T09:54:17.825+03:00,0.02225348692287972,0
2025-04-22T11:23:32.183+03:00,1745310211.420269,40.95223836967934,29.14033012467102,76.57301,-1,-1,-1,-1,44.07244744262695,38.82724410217911,-9999,28305.3864685,-0.6279144287109375,0.76483154296875,0.11865234375,28305.3763915,-1.755476524689021,-1.734047559732733,-0.8667995903500044,-0.008503497578203678,-0.001097734086215496,0.019197603687644,0.01244258880615234,-0.009896337985992432,0.006205439567565918,XArbitraryZVertical,-0.7059107527228716,-0.2330008696616913,-0.2472240933283915,0.6215149515645924,-0.6386633515357971,0.7622613310813904,0.1051987931132317,0,0,0,-1,-1,28295.084453125,unknown,2,2025-04-22T11:23:21.875+03:00,2025-04-21T17:08:51.449+03:00,7165,0.9502622,0,0,5982.688,5,20,2025-04-22T11:23:19.296+03:00,767003004.5460862,0,-21.18,100.4553,1,0.9,2025-04-22T11:21:43.022+03:00,78,1.3,2025-04-22T09:54:17.825+03:00,0.02225348692287972,0
2025-04-22T11:23:32.192+03:00,1745310211.420269,40.95223836967934,29.14033012467102,76.57301,-1,-1,-1,-1,44.07244744262695,38.82724410217911,-9999,28305.3965445,-0.6558990478515625,0.7709503173828125,0.1108245849609375,28305.3864685,-1.755605357159561,-1.733944905614286,-0.8670522158182862,-0.009864106774330139,0.0311835054308176,0.02038963325321674,0.02727800607681274,-0.004078388214111328,0.0150151252746582,XArbitraryZVertical,-0.7059293431576193,-0.2328405778954892,-0.2472181088460703,0.6215562737677474,-0.6384840607643127,0.7624248266220093,0.1051019430160522,0,0,0,-1,-1,28295.084453125,unknown,2,2025-04-22T11:23:21.875+03:00,2025-04-21T17:08:51.449+03:00,7165,0.9502622,0,0,5982.688,5,20,2025-04-22T11:23:19.296+03:00,767003004.5460862,0,-21.18,100.4553,1,0.9,2025-04-22T11:21:43.022+03:00,78,1.3,2025-04-22T09:54:17.825+03:00,0.02225348692287972,0
2025-04-22T11:23:32.202+03:00,1745310211.420269,40.95223836967934,29.14033012467102,76.57301,-1,-1,-1,-1,44.07244744262695,38.82724410217911,-9999,28305.4066215,-0.6334686279296875,0.760528564453125,0.1068267822265625,28305.3965445,-1.75579333342649,-1.733814107047291,-0.8672161296373928,-0.01380125712603331,0.01268339157104492,0.006464930716902018,-0.01352691650390625,0.01044869422912598,0.008695006370544434,XArbitraryZVertical,-0.7059456119029877,-0.2326797191690501,-0.247269272528474,0.6215775968201935,-0.6383743286132812,0.7625308632850647,0.1049981191754341,0,0,0,-1,-1,28295.084453125,unknown,2,2025-04-22T11:23:21.875+03:00,2025-04-21T17:08:51.449+03:00,7165,0.9502622,0,0,5982.688,5,20,2025-04-22T11:23:19.296+03:00,767003004.5460862,0,-21.18,100.4553,1,0.9,2025-04-22T11:21:43.022+03:00,78,1.3,2025-04-22T09:54:17.825+03:00,0.02225348692287972,0
2025-04-22T11:23:32.212+03:00,1745310211.420269,40.95223836967934,29.14033012467102,76.57301,-1,-1,-1,-1,44.07244744262695,38.82724410217911,-9999,28305.4166985,-0.6209259033203125,0.76580810546875,0.1047515869140625,28305.4066215,-1.755899519243239,-1.73384401140899,-0.8672065998045503,-0.007893566973507404,-0.00666074501350522,0.005445206072181463,-0.005878210067749023,0.0002924799919128418,0.003227345645427704,XArbitraryZVertical,-0.7059610489040276,-0.2326546608697722,-0.2472948213266406,0.6215592812442273,-0.6383783221244812,0.7625247240066528,0.1050183847546577,0,0,0,-1,-1,28295.084453125,unknown,2,2025-04-22T11:23:21.875+03:00,2025-04-21T17:08:51.449+03:00,7165,0.9502622,0,0,5982.688,5,20,2025-04-22T11:23:19.296+03:00,767003004.5460862,0,-21.18,100.4553,1,0.9,2025-04-22T11:21:43.022+03:00,78,1.3,2025-04-22T09:54:17.825+03:00,0.02225348692287972,0
2025-04-22T11:23:32.222+03:00,1745310211.420269,40.95223836967934,29.14033012467102,76.57301,-1,-1,-1,-1,44.07244744262695,38.82724410217911,-9999,28305.4267745,-0.6342010498046875,0.7651214599609375,0.1064300537109375,28305.4166985,-1.755888652385305,-1.733869111786731,-0.8672093818800726,-0.0002622793545015156,-0.001753604505211115,0.006054537370800972,0.01732569932937622,-0.0002738237380981445,0.0003734827041625977,XArbitraryZVertical,-0.7059630629282639,-0.2326654119917702,-0.2472817066880983,0.6215582266304492,-0.6383737325668335,0.7625265121459961,0.1050340831279755,0,0,0,-1,-1,28295.084453125,unknown,2,2025-04-22T11:23:21.875+03:00,2025-04-21T17:08:51.449+03:00,7165,0.9502622,0,0,5982.688,5,20,2025-04-22T11:23:19.296+03:00,767003004.5460862,0,-21.18,100.4553,1,0.9,2025-04-22T11:21:43.022+03:00,78,1.3,2025-04-22T09:54:17.825+03:00,0.02225348692287972,0
2025-04-22T11:23:32.233+03:00,1745310211.420269,40.95223836967934,29.14033012467102,76.57301,-1,-1,-1,-1,44.07244744262695,38.82724410217911,-9999,28305.4368515,-0.6343841552734375,0.7575225830078125,0.1095428466796875,28305.4267745,-1.756041359265988,-1.734040452877345,-0.8673121981704833,-0.007362267002463341,-0.003341647330671549,0.01192840468138456,0.009448528289794922,0.00475621223449707,0.0003378540277481079,XArbitraryZVertical,-0.7060086083330028,-0.232631084921587,-0.2472352875970548,0.6215379163147718,-0.6382785439491272,0.7625930309295654,0.1051307544112206,0,0,0,-1,-1,28295.084453125,unknown,2,2025-04-22T11:23:21.875+03:00,2025-04-21T17:08:51.449+03:00,7165,0.9502622,0,0,5982.688,5,20,2025-04-22T11:23:19.296+03:00,767003004.5460862,0,-21.18,100.4553,1,0.9,2025-04-22T11:21:43.022+03:00,78,1.3,2025-04-22T09:54:17.825+03:00,0.02225348692287972,0
2025-04-22T11:23:32.242+03:00,1745310211.420269,40.95223836967934,29.14033012467102,76.57301,-1,-1,-1,-1,44.07244744262695,38.82724410217911,-9999,28305.4469275,-0.6329345703125,0.7533111572265625,0.112152099609375,28305.4368515,-1.756278763618801,-1.734306087507602,-0.8674508959872703,-0.01326729357242584,-0.009104728698730469,0.008977356366813183,0.001946210861206055,-0.002886593341827393,0.002840533852577209,XArbitraryZVertical,-0.7060779570108271,-0.2325843075295039,-0.247170142966777,0.6215025621199154,-0.6381462812423706,0.7626827359199524,0.1052830815315247,0,0,0,-1,-1,28295.084453125,unknown,2,2025-04-22T11:23:21.875+03:00,2025-04-21T17:08:51.449+03:00,7165,0.9502622,0,0,5982.688,5,20,2025-04-22T11:23:19.296+03:00,767003004.5460862,0,-21.18,100.4553,1,0.9,2025-04-22T11:21:43.022+03:00,78,1.3,2025-04-22T09:54:17.825+03:00,0.02225348692287972,0
2025-04-22T11:23:32.252+03:00,1745310211.420269,40.95223836967934,29.14033012467102,76.57301,-1,-1,-1,-1,44.07244744262695,38.82724410217911,-9999,28305.4570045,-0.6419219970703125,0.7609710693359375,0.108978271484375,28305.4469275,-1.756405789678748,-1.734435940846021,-0.8674703507474245,-0.005678350105881691,-0.002490235026925802,0.01551009062677622,0.005610466003417969,-0.0083160400390625,0.005705133080482483,XArbitraryZVertical,-0.7061100294480047,-0.2325733923743922,-0.2471574026469735,0.6214752254043915,-0.6381178498268127,0.7626953125,0.1053635105490685,0,0,0,-1,-1,28295.084453125,unknown,2,2025-04-22T11:23:21.875+03:00,2025-04-21T17:08:51.449+03:00,7165,0.9502622,0,0,5982.688,5,20,2025-04-22T11:23:19.296+03:00,767003004.5460862,0,-21.18,100.4553,1,0.9,2025-04-22T11:21:43.022+03:00,78,1.3,2025-04-22T09:54:17.825+03:00,0.02225348692287972,0
2025-04-22T11:23:32.262+03:00,1745310211.420269,40.95223836967934,29.14033012467102,76.57301,-1,-1,-1,-1,44.07244744262695,38.82724410217911,-9999,28305.4670815,-0.64569091796875,0.765716552734375,0.102935791015625,28305.4570045,-1.756559564609928,-1.734587844990135,-0.8676116951759508,-0.004656228702515364,-0.0008734297007322311,0.01412205118685961,-0.0005238652229309082,-0.005218386650085449,0.005793586373329163,XArbitraryZVertical,-0.7061557318300228,-0.2325199379280725,-0.247105568561349,0.6214639488400118,-0.6379955410957336,0.7627867460250854,0.1054428815841675,0,0,0,-1,-1,28295.084453125,unknown,2,2025-04-22T11:23:21.875+03:00,2025-04-21T17:08:51.449+03:00,7165,0.9502622,0,0,5982.688,5,20,2025-04-22T11:23:19.296+03:00,767003004.5460862,0,-21.18,100.4553,1,0.9,2025-04-22T11:21:43.022+03:00,78,1.3,2025-04-22T09:54:17.825+03:00,0.02225348692287972,0
2025-04-22T11:23:32.272+03:00,1745310211.420269,40.95223836967934,29.14033012467102,76.57301,-1,-1,-1,-1,44.07244744262695,38.82724410217911,-9999,28305.4771575,-0.6425628662109375,0.7678985595703125,0.09844970703125,28305.4670815,-1.756698965608648,-1.734749093755996,-0.867811129038434,-0.001020214986056089,-0.001980239059776068,0.01338115893304348,-0.007588028907775879,0.002739667892456055,-0.0008151605725288391,XArbitraryZVertical,-0.7062046315687236,-0.2324552815052998,-0.2470269410991522,0.6214637090063915,-0.6378281712532043,0.7629156708717346,0.1055208817124367,0,0,0,-1,-1,28295.084453125,unknown,2,2025-04-22T11:23:21.875+03:00,2025-04-21T17:08:51.449+03:00,7165,0.9502622,0,0,5982.688,5,20,2025-04-22T11:23:19.296+03:00,767003004.5460862,0,-21.18,100.4553,1,0.9,2025-04-22T11:21:43.022+03:00,78,1.3,2025-04-22T09:54:17.825+03:00,0.02225348692287972,0
2025-04-22T11:23:32.282+03:00,1745310211.420269,40.95223836967934,29.14033012467102,76.57301,-1,-1,-1,-1,44.07244744262695,38.82724410217911,-9999,28305.4872345,-0.64007568359375,0.7701416015625,0.10064697265625,28305.4771575,-1.756795750094314,-1.734844660326524,-0.8679153576215607,-0.001578147173859179,-0.002682781312614679,0.01321977190673351,-0.006852388381958008,0.003298044204711914,-0.005242452025413513,XArbitraryZVertical,-0.7062343288070911,-0.232416700956714,-0.246989449063632,0.6214594466083198,-0.6377399563789368,0.7629830241203308,0.1055689007043839,0,0,0,-1,-1,28295.084453125,unknown,2,2025-04-22T11:23:21.875+03:00,2025-04-21T17:08:51.449+03:00,7165,0.9502622,0,0,5982.688,5,20,2025-04-22T11:23:19.296+03:00,767003004.5460862,0,-21.18,100.4553,1,0.9,2025-04-22T11:21:43.022+03:00,78,1.3,2025-04-22T09:54:17.825+03:00,0.02225348692287972,0
2025-04-22T11:23:32.293+03:00,1745310211.420269,40.95223836967934,29.14033012467102,76.57301,-1,-1,-1,-1,44.07244744262695,38.82724410217911,-9999,28305.4973105,-0.6432037353515625,0.761749267578125,0.110076904296875,28305.4872345,-1.756873138031833,-1.734928823397798,-0.8679666716811226,-0.003215458709746599,-0.001341347116976976,0.003281919984146953,-0.002719342708587646,0.007354021072387695,-0.007670067250728607,XArbitraryZVertical,-0.7062570171558721,-0.2323985268652517,-0.2469669121351295,0.6214491931595759,-0.6376919746398926,0.7630162239074707,0.1056161001324654,0,0,0,-1,-1,28295.084453125,unknown,2,2025-04-22T11:23:21.875+03:00,2025-04-21T17:08:51.449+03:00,7165,0.9502622,0,0,5982.688,5,20,2025-04-22T11:23:19.296+03:00,767003004.5460862,0,-21.18,100.4553,1,0.9,2025-04-22T11:21:43.022+03:00,78,1.3,2025-04-22T09:54:17.825+03:00,0.02225348692287972,0
2025-04-22T11:23:32.303+03:00,1745310211.420269,40.95223836967934,29.14033012467102,76.57301,-1,-1,-1,-1,44.07244744262695,38.82724410217911,-9999,28305.5073875,-0.6443328857421875,0.7640533447265625,0.10760498046875,28305.4973105,-1.756883120358122,-1.734957722193242,-0.8680439566543223,0.005556527525186539,0.004015668295323849,0.004298215731978416,-0.004367470741271973,0.002238154411315918,0.001018628478050232,XArbitraryZVertical,-0.7062666777916871,-0.2323786332961225,-0.2469346672658843,0.6214584912047306,-0.637630820274353,0.7630661725997925,0.1056248992681503,0,0,0,-1,-1,28295.084453125,unknown,2,2025-04-22T11:23:21.875+03:00,2025-04-21T17:08:51.449+03:00,7165,0.9502622,0,0,5982.688,5,20,2025-04-22T11:23:19.296+03:00,767003004.5460862,0,-21.18,100.4553,1,0.9,2025-04-22T11:21:43.022+03:00,78,1.3,2025-04-22T09:54:17.825+03:00,0.02225348692287972,0
2025-04-22T11:23:32.313+03:00,1745310211.420269,40.95223836967934,29.14033012467102,76.57301,-1,-1,-1,-1,44.07244744262695,38.82724410217911,-9999,28305.5174645,-0.6432952880859375,0.7660675048828125,0.10748291015625,28305.5073875,-1.756724299036339,-1.734714407847426,-0.8681459123114497,0.01706431433558464,0.01896452344954014,0.002898192033171654,-0.006005346775054932,-0.0004063844680786133,0.004085659980773926,XArbitraryZVertical,-0.7062246878695748,-0.2323257024451835,-0.2469381020423346,0.6215247145262156,-0.6375799179077148,0.7631320357322693,0.1054570823907852,0,0,0,-1,-1,28295.084453125,unknown,2,2025-04-22T11:23:21.875+03:00,2025-04-21T17:08:51.449+03:00,7165,0.9502622,0,0,5982.688,5,20,2025-04-22T11:23:19.296+03:00,767003004.5460862,0,-21.18,100.4553,1,0.9,2025-04-22T11:21:43.022+03:00,78,1.3,2025-04-22T09:54:17.825+03:00,0.02225348692287972,0
2025-04-22T11:23:32.323+03:00,1745310211.420269,40.95223836967934,29.14033012467102,76.57301,-1,-1,-1,-1,44.07244744262695,38.82724410217911,-9999,28305.5275405,-0.6377410888671875,0.7574920654296875,0.1143951416015625,28305.5174645,-1.75640431417558,-1.73427149249434,-0.8682058527325704,0.02608776837587357,0.02075669914484024,0.002037391765043139,-0.006598889827728271,0.003781557083129883,0.001186370849609375,XArbitraryZVertical,-0.7061366618107937,-0.2322813710883933,-0.2469755426951045,0.6216264333300252,-0.637581467628479,0.7631707787513733,0.1051672399044037,0,0,0,-1,-1,28295.084453125,unknown,2,2025-04-22T11:23:21.875+03:00,2025-04-21T17:08:51.449+03:00,7165,0.9502622,0,0,5982.688,5,20,2025-04-22T11:23:19.296+03:00,767003004.5460862,0,-21.18,100.4553,1,0.9,2025-04-22T11:21:43.022+03:00,78,1.3,2025-04-22T09:54:17.825+03:00,0.02225348692287972,0
2025-04-22T11:23:32.333+03:00,1745310211.420269,40.95223836967934,29.14033012467102,76.57301,-1,-1,-1,-1,44.07244744262695,38.82724410217911,-9999,28305.5376175,-0.62811279296875,0.7579803466796875,0.1109771728515625,28305.5275405,-1.756109563027818,-1.733916046517428,-0.8682450130706915,0.01863384805619717,0.01197918597608805,0.0008749220287427306,-0.00396651029586792,-0.001736879348754883,0.007460355758666992,XArbitraryZVertical,-0.7060610470074812,-0.2322620734889937,-0.2469966447245882,0.6217111167682599,-0.6375892162322998,0.7631961107254028,0.1049357429146767,0,0,0,-1,-1,28295.084453125,unknown,2,2025-04-22T11:23:21.875+03:00,2025-04-21T17:08:51.449+03:00,7165,0.9502622,0,0,5982.688,5,20,2025-04-22T11:23:19.296+03:00,767003004.5460862,0,-21.18,100.4553,1,0.9,2025-04-22T11:21:43.022+03:00,78,1.3,2025-04-22T09:54:17.825+03:00,0.02225348692287972,0
2025-04-22T11:23:32.343+03:00,1745310211.420269,40.95223836967934,29.14033012467102,76.57301,-1,-1,-1,-1,44.07244744262695,38.82724410217911,-9999,28305.5476935,-0.6289520263671875,0.7610321044921875,0.1012115478515625,28305.5376175,-1.75595295158376,-1.733697803178194,-0.8682701639101806,0.01247388869524002,0.01177991554141045,0.007086445111781359,0.00610804557800293,-0.006468236446380615,0.009372696280479431,XArbitraryZVertical,-0.7060175285470661,-0.2322412014523663,-0.2470167565075352,0.621760261542509,-0.6375930309295654,0.7632123231887817,0.1047934517264366,0,0,0,-1,-1,28295.084453125,unknown,2,2025-04-22T11:23:21.875+03:00,2025-04-21T17:08:51.449+03:00,7165,0.9502622,0,0,5982.688,5,20,2025-04-22T11:23:19.296+03:00,767003004.5460862,0,-21.18,100.4553,1,0.9,2025-04-22T11:21:43.022+03:00,78,1.3,2025-04-22T09:54:17.825+03:00,0.02225348692287972,0
2025-04-22T11:23:32.353+03:00,1745310211.420269,40.95223836967934,29.14033012467102,76.57301,-1,-1,-1,-1,44.07244744262695,38.82724410217911,-9999,28305.5577705,-0.6304473876953125,0.7552032470703125,0.1024017333984375,28305.5476935,-1.755843422483527,-1.73352561944442,-0.8682671359817812,0.003064142074435949,0.001816496718674898,-0.002116640098392963,0.01049244403839111,-0.002117455005645752,-0.0009092167019844055,XArbitraryZVertical,-0.7059833458314314,-0.232227347609799,-0.2470444904134439,0.6217932561566154,-0.6376134157180786,0.7632104158401489,0.104684054851532,0,0,0,-1,-1,28295.084453125,unknown,2,2025-04-22T11:23:21.875+03:00,2025-04-21T17:08:51.449+03:00,7165,0.9502622,0,0,5982.688,5,20,2025-04-22T11:23:19.296+03:00,767003012.2848356,0,-21.05,100.4553,1,0.9,2025-04-22T11:21:43.022+03:00,78,1.3,2025-04-22T09:54:17.825+03:00,0.02225348692287972,0
2025-04-22T11:23:32.363+03:00,1745310211.420269,40.95223836967934,29.14033012467102,76.57301,-1,-1,-1,-1,44.07244744262695,38.82724410217911,-9999,28305.5678465,-0.6314239501953125,0.7595367431640625,0.108001708984375,28305.5577705,-1.755799650798145,-1.733490045056354,-0.8682377272705677,-0.004169802647083998,-0.002736444119364023,-0.001257637515664101,0.007329285144805908,-0.007530570030212402,-0.00371289998292923,XArbitraryZVertical,-0.7059719766565921,-0.2322414170398901,-0.2470530382721091,0.6217975464586591,-0.6376393437385559,0.7631914019584656,0.1046650186181068,0,0,0,-1,-1,28295.084453125,unknown,2,2025-04-22T11:23:21.875+03:00,2025-04-21T17:08:51.449+03:00,7165,0.9502622,0,0,5982.688,5,20,2025-04-22T11:23:19.296+03:00,767003012.2848356,0,-21.05,100.4553,1,0.9,2025-04-22T11:21:43.022+03:00,78,1.3,2025-04-22T09:54:17.825+03:00,0.02225348692287972,0
2025-04-22T11:23:32.373+03:00,1745310211.420269,40.95223836967934,29.14033012467102,76.57301,-1,-1,-1,-1,44.07244744262695,38.82724410217911,-9999,28305.5779235,-0.6371917724609375,0.7593536376953125,0.1092529296875,28305.5678465,-1.755857333171755,-1.733560560599157,-0.868233558256018,-0.0126711456105113,-0.006546628195792437,-0.003692565485835075,0.006867289543151855,-0.005650997161865234,0.001536369323730469,XArbitraryZVertical,-0.7059871145220031,-0.2322443667240628,-0.2470474571805245,0.6217815021278519,-0.6376351714134216,0.7631887197494507,0.1047105044126511,0,0,0,-1,-1,28295.084453125,unknown,2,2025-04-22T11:23:21.875+03:00,2025-04-21T17:08:51.449+03:00,7165,0.9502622,0,0,5982.688,5,20,2025-04-22T11:23:19.296+03:00,767003012.2848356,0,-21.05,100.4553,1,0.9,2025-04-22T11:21:43.022+03:00,78,1.3,2025-04-22T09:54:17.825+03:00,0.02225348692287972,0
2025-04-22T11:23:32.384+03:00,1745310211.420269,40.95223836967934,29.14033012467102,76.57301,-1,-1,-1,-1,44.07244744262695,38.82724410217911,-9999,28305.5880005,-0.6421966552734375,0.7563934326171875,0.106414794921875,28305.5779235,-1.756092216119593,-1.733798439462386,-0.8681779330615271,-0.01778761111199856,-0.005622511263936758,-0.001735941274091601,0.003313720226287842,-0.002395451068878174,0.00392603874206543,XArbitraryZVertical,-0.7060402035717108,-0.2322536700672994,-0.2470546208031841,0.6217149052708133,-0.6376520991325378,0.7631527781486511,0.1048690751194954,0,0,0,-1,-1,28295.084453125,unknown,2,2025-04-22T11:23:21.875+03:00,2025-04-21T17:08:51.449+03:00,7165,0.9502622,0,0,5982.688,5,20,2025-04-22T11:23:19.296+03:00,767003012.2848356,0,-21.05,100.4553,1,0.9,2025-04-22T11:21:43.022+03:00,78,1.3,2025-04-22T09:54:17.825+03:00,0.02225348692287972,0
2025-04-22T11:23:32.393+03:00,1745310211.420269,40.95223836967934,29.14033012467102,76.57301,-1,-1,-1,-1,44.07244744262695,38.82724410217911,-9999,28305.5980765,-0.640380859375,0.7622222900390625,0.102691650390625,28305.5880005,-1.756379776279705,-1.734079810068535,-0.8680892982923419,-0.01931546628475189,-0.003516749944537878,-0.001326613361015916,-0.003637731075286865,-0.007144808769226074,0.002606496214866638,XArbitraryZVertical,-0.7061026865210318,-0.2322686323052096,-0.2470734505524893,0.6216307578396542,-0.6376891136169434,0.763095498085022,0.1050594449043274,0,0,0,-1,-1,28295.084453125,unknown,2,2025-04-22T11:23:21.875+03:00,2025-04-21T17:08:51.449+03:00,7165,0.9502622,0,0,5982.688,5,20,2025-04-22T11:23:19.296+03:00,767003012.2848356,0,-21.05,100.4553,1,0.9,2025-04-22T11:21:43.022+03:00,78,1.3,2025-04-22T09:54:17.825+03:00,0.02225348692287972,0
2025-04-22T11:23:32.404+03:00,1745310211.420269,40.95223836967934,29.14033012467102,76.57301,-1,-1,-1,-1,44.07244744262695,38.82724410217911,-9999,28305.6081535,-0.6372528076171875,0.7644195556640625,0.1027069091796875,28305.5980765,-1.756645971400407,-1.734318971659401,-0.868037339850933,-0.01576753705739975,-0.00370896328240633,0.0008482903940603137,-0.004279851913452148,-0.003189682960510254,-0.001046784222126007,XArbitraryZVertical,-0.7061598189677012,-0.2322660425808832,-0.2470886664322177,0.6215607856881263,-0.6377031207084656,0.7630618810653687,0.1052184104919434,0,0,0,-1,-1,28295.084453125,unknown,2,2025-04-22T11:23:21.875+03:00,2025-04-21T17:08:51.449+03:00,7165,0.9502622,0,0,5982.688,5,20,2025-04-22T11:23:19.296+03:00,767003012.2848356,0,-21.05,100.4553,1,0.9,2025-04-22T11:21:43.022+03:00,78,1.3,2025-04-22T09:54:17.825+03:00,0.02225348692287972,0
2025-04-22T11:23:32.414+03:00,1745310211.420269,40.95223836967934,29.14033012467102,76.57301,-1,-1,-1,-1,44.07244744262695,38.82724410217911,-9999,28305.6182295,-0.6350555419921875,0.7631988525390625,0.103790283203125,28305.6081535,-1.756904364523144,-1.73459319787004,-0.8679720053753157,-0.01124895084649324,-0.007342047989368439,-0.001186098321340978,-0.000399172306060791,0.001582741737365723,-0.003213420510292053,XArbitraryZVertical,-0.7062195320242217,-0.2322814508548277,-0.2470933860764356,0.6214852761945514,-0.6377233266830444,0.7630196809768677,0.1054013967514038,0,0,0,-1,-1,28295.084453125,unknown,2,2025-04-22T11:23:21.875+03:00,2025-04-21T17:08:51.449+03:00,7165,0.9502622,0,0,5982.688,5,20,2025-04-22T11:23:19.296+03:00,767003012.2848356,0,-21.05,100.4553,1,0.9,2025-04-22T11:21:43.022+03:00,78,1.3,2025-04-22T09:54:17.825+03:00,0.02225348692287972,0
2025-04-22T11:23:32.424+03:00,1745310211.420269,40.95223836967934,29.14033012467102,76.57301,-1,-1,-1,-1,44.07244744262695,38.82724410217911,-9999,28305.6283065,-0.6321258544921875,0.7637176513671875,0.1061859130859375,28305.6182295,-1.757202298324713,-1.734945677195197,-0.8679373875059008,-0.01779833063483238,-0.009992026723921299,0.001788985449820757,0.002122879028320312,0.0006745457649230957,-0.002847418189048767,XArbitraryZVertical,-0.7062954535423864,-0.2322972366989141,-0.2470728695500425,0.6214014051231169,-0.6377125382423401,0.7629972696304321,0.1056305468082428,0,0,0,-1,-1,28295.084453125,unknown,2,2025-04-22T11:23:21.875+03:00,2025-04-21T17:08:51.449+03:00,7165,0.9502622,0,0,5982.688,5,20,2025-04-22T11:23:19.296+03:00,767003012.2848356,0,-21.05,100.4553,1,0.9,2025-04-22T11:21:43.022+03:00,78,1.3,2025-04-22T09:54:17.825+03:00,0.02225348692287972,0
2025-04-22T11:23:32.434+03:00,1745310211.420269,40.95223836967934,29.14033012467102,76.57301,-1,-1,-1,-1,44.07244744262695,38.82724410217911,-9999,28305.6383835,-0.6329803466796875,0.764312744140625,0.106719970703125,28305.6283065,-1.757410319267713,-1.735173120275236,-0.8679706508150783,-0.0097782202064991,-0.004908318631350994,0.0006504841148853302,0.004957497119903564,7.295608520507812e-05,-0.0006232410669326782,XArbitraryZVertical,-0.706349845725026,-0.2322834266847283,-0.2470462548742822,0.6213551913548576,-0.6376631855964661,0.763018786907196,0.105771392583847,0,0,0,-1,-1,28295.084453125,unknown,2,2025-04-22T11:23:21.875+03:00,2025-04-21T17:08:51.449+03:00,7165,0.9502622,0,0,5982.688,5,20,2025-04-22T11:23:19.296+03:00,767003012.2848356,0,-21.05,100.4553,1,0.9,2025-04-22T11:21:43.022+03:00,78,1.3,2025-04-22T09:54:17.825+03:00,0.02225348692287972,0
2025-04-22T11:23:32.444+03:00,1745310211.420269,40.95223836967934,29.14033012467102,76.57301,-1,-1,-1,-1,44.07244744262695,38.82724410217911,-9999,28305.6484595,-0.63140869140625,0.7691802978515625,0.1093292236328125,28305.6383835,-1.757466251121242,-1.735218053375262,-0.867981513225115,0.0001670888013904914,0.0009988392703235149,0.003389545017853379,0.005020976066589355,0.001179993152618408,0.0007532835006713867,XArbitraryZVertical,-0.7063625781000632,-0.232274106417135,-0.2470442661314832,0.621345047530049,-0.6376503705978394,0.7630258202552795,0.1057987064123154,0,0,0,-1,-1,28295.084453125,unknown,2,2025-04-22T11:23:21.875+03:00,2025-04-21T17:08:51.449+03:00,7165,0.9502622,0,0,5982.688,5,20,2025-04-22T11:23:19.296+03:00,767003012.2848356,0,-21.05,100.4553,1,0.9,2025-04-22T11:21:43.022+03:00,78,1.3,2025-04-22T09:54:17.825+03:00,0.02225348692287972,0
2025-04-22T11:23:32.454+03:00,1745310211.420269,40.95223836967934,29.14033012467102,76.57301,-1,-1,-1,-1,44.07244744262695,38.82724410217911,-9999,28305.6585365,-0.6344757080078125,0.7711029052734375,0.1133880615234375,28305.6484595,-1.757325638944258,-1.735103781387809,-0.867997668250604,0.01831120625138283,0.003581839380785823,-0.00503989215940237,0.00494462251663208,0.003290474414825439,0.002430319786071777,XArbitraryZVertical,-0.706333160476742,-0.2322829747643031,-0.2470356923049368,0.6213785994180354,-0.6376503705978394,0.7630362510681152,0.1057238280773163,0,0,0,-1,-1,28295.084453125,unknown,2,2025-04-22T11:23:21.875+03:00,2025-04-21T17:08:51.449+03:00,7165,0.9502622,0,0,5982.688,5,20,2025-04-22T11:23:19.296+03:00,767003012.2848356,0,-21.05,100.4553,1,0.9,2025-04-22T11:21:43.022+03:00,78,1.3,2025-04-22T09:54:17.825+03:00,0.02225348692287972,0
2025-04-22T11:23:32.464+03:00,1745310211.420269,40.95223836967934,29.14033012467102,76.57301,-1,-1,-1,-1,44.07244744262695,38.82724410217911,-9999,28305.6686125,-0.6432342529296875,0.7700653076171875,0.114044189453125,28305.6585365,-1.756829579031876,-1.734654715434334,-0.867982407068265,0.04040538892149925,0.01551047153770924,-0.006259719841182232,0.005232334136962891,0.008534014225006104,0.007017835974693298,XArbitraryZVertical,-0.7062191054410734,-0.2323235896340431,-0.2470450682069438,0.6214892602638211,-0.6377091407775879,0.7630263566970825,0.1054393500089645,0,0,0,-1,-1,28295.084453125,unknown,2,2025-04-22T11:23:21.875+03:00,2025-04-21T17:08:51.449+03:00,7165,0.9502622,0,0,5982.688,5,20,2025-04-22T11:23:19.296+03:00,767003012.2848356,0,-21.05,100.4553,1,0.9,2025-04-22T11:21:43.022+03:00,78,1.3,2025-04-22T09:54:17.825+03:00,0.02225348692287972,0
2025-04-22T11:23:32.474+03:00,1745310211.420269,40.95223836967934,29.14033012467102,76.57301,-1,-1,-1,-1,44.07244744262695,38.82724410217911,-9999,28305.6786895,-0.643829345703125,0.7665252685546875,0.1100311279296875,28305.6686125,-1.756142074922529,-1.733959210881412,-0.8679373712916734,0.0492316372692585,0.01885034143924713,-0.00886695459485054,-0.002732336521148682,0.007052600383758545,0.01029384136199951,XArbitraryZVertical,-0.7060504254253199,-0.2323650132390615,-0.2470916821797104,0.6216469580053881,-0.6378163695335388,0.7629972696304321,0.1050014048814774,0,0,0,-1,-1,28295.084453125,unknown,2,2025-04-22T11:23:21.875+03:00,2025-04-21T17:08:51.449+03:00,7165,0.9502622,0,0,5982.688,5,20,2025-04-22T11:23:19.296+03:00,767003012.2848356,0,-21.05,100.4553,1,0.9,2025-04-22T11:21:43.022+03:00,78,1.3,2025-04-22T09:54:17.825+03:00,0.02225348692287972,0
2025-04-22T11:23:32.484+03:00,1745310211.420269,40.95223836967934,29.14033012467102,76.57301,-1,-1,-1,-1,44.07244744262695,38.82724410217911,-9999,28305.6887665,-0.6387939453125,0.75567626953125,0.1064300537109375,28305.6786895,-1.755452067691432,-1.733216194347369,-0.8679144248849414,0.03904431313276291,0.01943390630185604,-0.00610575545579195,-0.006879270076751709,0.006563901901245117,0.00778961181640625,XArbitraryZVertical,-0.7058769795161699,-0.2323850902909959,-0.2471468867392306,0.6218144026390923,-0.6379113793373108,0.7629824280738831,0.1045302823185921,0,0,0,-1,-1,28295.084453125,unknown,2,2025-04-22T11:23:21.875+03:00,2025-04-21T17:08:51.449+03:00,7165,0.9502622,0,0,5982.688,5,20,2025-04-22T11:23:19.296+03:00,767003012.2848356,0,-21.05,100.4553,1,0.9,2025-04-22T11:21:43.022+03:00,78,1.3,2025-04-22T09:54:17.825+03:00,0.02225348692287972,0
2025-04-22T11:23:32.494+03:00,1745310211.420269,40.95223836967934,29.14033012467102,76.57301,-1,-1,-1,-1,44.07244744262695,38.82724410217911,-9999,28305.6988425,-0.63568115234375,0.7543182373046875,0.1020965576171875,28305.6887665,-1.754957979101103,-1.732674265786121,-0.8678982164681429,0.02252632193267345,0.01140633970499039,-0.006883664987981319,-0.002690732479095459,-0.003801703453063965,0.003189422190189362,XArbitraryZVertical,-0.7057515590116754,-0.2323962154710428,-0.2471897254807542,0.6219354857935159,-0.6379799842834473,0.7629719376564026,0.1041865274310112,0,0,0,-1,-1,28295.084453125,unknown,2,2025-04-22T11:23:21.875+03:00,2025-04-21T17:08:51.449+03:00,7165,0.9502622,0,0,5982.688,5,20,2025-04-22T11:23:19.296+03:00,767003012.2848356,0,-21.05,100.4553,1,0.9,2025-04-22T11:21:43.022+03:00,78,1.3,2025-04-22T09:54:17.825+03:00,0.02225348692287972,0
2025-04-22T11:23:32.507+03:00,1745310211.420269,40.95223836967934,29.14033012467102,76.57301,-1,-1,-1,-1,44.07244744262695,38.82724410217911,-9999,28305.7089195,-0.637603759765625,0.75787353515625,0.0988006591796875,28305.6988425,-1.754700069852915,-1.732408101472023,-0.8678658164250438,0.009230758063495159,0.002691677771508694,-0.008563187904655933,0.001740753650665283,-0.009411215782165527,0.0004408285021781921,XArbitraryZVertical,-0.7056865900290588,-0.2324151372215982,-0.247214040111001,0.6219925401021763,-0.6380322575569153,0.7629510164260864,0.1040207222104073,0,0,0,-1,-1,28295.084453125,unknown,2,2025-04-22T11:23:21.875+03:00,2025-04-21T17:08:51.449+03:00,7165,0.9502622,0,0,5982.688,5,20,2025-04-22T11:23:19.296+03:00,767003012.2848356,0,-21.05,100.4553,1,0.9,2025-04-22T11:21:43.022+03:00,78,1.3,2025-04-22T09:54:17.825+03:00,0.02225348692287972,0
2025-04-22T11:23:32.515+03:00,1745310211.420269,40.95223836967934,29.14033012467102,76.57301,-1,-1,-1,-1,44.07244744262695,38.82724410217911,-9999,28305.7189955,-0.6410675048828125,0.7599334716796875,0.1028289794921875,28305.7089195,-1.754547449240953,-1.732304901298731,-0.8678136058264847,0.007733528967946768,-0.001848212908953428,-0.008395940996706486,0.001592457294464111,-0.006630778312683105,-0.003909587860107422,XArbitraryZVertical,-0.7056527145114088,-0.2324540680008648,-0.2472200227588313,0.6220140929000402,-0.6380823850631714,0.7629172801971436,0.1039612963795662,0,0,0,-1,-1,28295.084453125,unknown,2,2025-04-22T11:23:21.875+03:00,2025-04-21T17:08:51.449+03:00,7165,0.9502622,0,0,5982.688,5,20,2025-04-22T11:23:19.296+03:00,767003012.2848356,0,-21.05,100.4553,1,0.9,2025-04-22T11:21:43.022+03:00,78,1.3,2025-04-22T09:54:17.825+03:00,0.02225348692287972,0
2025-04-22T11:23:32.540+03:00,1745310211.420269,40.95223836967934,29.14033012467102,76.57301,-1,-1,-1,-1,44.07244744262695,38.82724410217911,-9999,28305.7290725,-0.637725830078125,0.7679901123046875,0.10614013671875,28305.7189955,-1.754320435352604,-1.732162418537059,-0.8677701484280018,0.02354591526091099,-0.0001274114474654198,-0.009937578812241554,-0.001808345317840576,-0.004069626331329346,-0.003076180815696716,XArbitraryZVertical,-0.7056058939523329,-0.2325041628061904,-0.2472138864050231,0.6220509872609988,-0.6381300091743469,0.7628891468048096,0.1038757264614105,0,0,0,-1,-1,28295.084453125,unknown,2,2025-04-22T11:23:21.875+03:00,2025-04-21T17:08:51.449+03:00,7165,0.9502622,0,0,5982.688,5,20,2025-04-22T11:23:19.296+03:00,767003012.2848356,0,-21.05,100.4553,1,0.9,2025-04-22T11:21:43.022+03:00,78,1.3,2025-04-22T09:54:17.825+03:00,0.02225348692287972,0
2025-04-22T11:23:32.541+03:00,1745310211.420269,40.95223836967934,29.14033012467102,76.57301,-1,-1,-1,-1,44.07244744262695,38.82724410217911,-9999,28305.7391495,-0.6364898681640625,0.769989013671875,0.105377197265625,28305.7290725,-1.753923111706742,-1.731835707814463,-0.8677319250410974,0.03019849210977554,0.009053570218384266,-0.008810795843601227,-0.0009064674377441406,0.001875519752502441,0.002925887703895569,XArbitraryZVertical,-0.7055168374238082,-0.232555257547487,-0.2472180034552453,0.6221312545510539,-0.6381927132606506,0.7628644704818726,0.1036719083786011,0,0,0,-1,-1,28295.084453125,unknown,2,2025-04-22T11:23:21.875+03:00,2025-04-21T17:08:51.449+03:00,7165,0.9502622,0,0,5982.688,5,20,2025-04-22T11:23:19.296+03:00,767003012.2848356,0,-21.05,100.4553,1,0.9,2025-04-22T11:21:43.022+03:00,78,1.3,2025-04-22T09:54:17.825+03:00,0.02225348692287972,0
2025-04-22T11:23:32.546+03:00,1745310211.420269,40.95223836967934,29.14033012467102,76.57301,-1,-1,-1,-1,44.07244744262695,38.82724410217911,-9999,28305.7492255,-0.6324920654296875,0.7639923095703125,0.11151123046875,28305.7391495,-1.753437486875507,-1.73137797288504,-0.8677402649686374,0.03809709474444389,0.01189509592950344,-0.01073496229946613,0.001286089420318604,0.007683694362640381,0.00216616690158844,XArbitraryZVertical,-0.7054043276103343,-0.2325814156787175,-0.2472256700086179,0.6222459998667073,-0.6382338404655457,0.7628698348999023,0.1033787578344345,0,0,0,-1,-1,28295.084453125,unknown,2,2025-04-22T11:23:21.875+03:00,2025-04-21T17:08:51.449+03:00,7165,0.9502622,0,0,5982.688,5,20,2025-04-22T11:23:19.296+03:00,767003012.2848356,0,-21.05,100.4553,1,0.9,2025-04-22T11:21:43.022+03:00,78,1.3,2025-04-22T09:54:17.825+03:00,0.02225348692287972,0
2025-04-22T11:23:32.555+03:00,1745310211.420269,40.95223836967934,29.14033012467102,76.57301,-1,-1,-1,-1,44.07244744262695,38.82724410217911,-9999,28305.7593025,-0.6309814453125,0.7565765380859375,0.1117706298828125,28305.7492255,-1.752967693231818,-1.730983657970508,-0.8677158938169575,0.02801782824099064,0.006827100645750761,-0.00689308624714613,0.00386279821395874,0.004189789295196533,0.005695454776287079,XArbitraryZVertical,-0.705299370513399,-0.2326323444437222,-0.2472264278751302,0.6223455286856596,-0.638292670249939,0.7628540992736816,0.1031300202012062,0,0,0,-1,-1,28295.084453125,unknown,2,2025-04-22T11:23:21.875+03:00,2025-04-21T17:08:51.449+03:00,7165,0.9502622,0,0,5982.688,5,20,2025-04-22T11:23:19.296+03:00,767003012.2848356,0,-21.05,100.4553,1,0.9,2025-04-22T11:21:43.022+03:00,78,1.3,2025-04-22T09:54:17.825+03:00,0.02225348692287972,0
2025-04-22T11:23:32.565+03:00,1745310211.420269,40.95223836967934,29.14033012467102,76.57301,-1,-1,-1,-1,44.07244744262695,38.82724410217911,-9999,28305.7693785,-0.634368896484375,0.7484130859375,0.107147216796875,28305.7593025,-1.752713372990539,-1.730771681846324,-0.8676766412428103,0.01046892814338207,0.005174875725060701,-0.002336284145712852,0.007301628589630127,-0.00333791971206665,0.009732246398925781,XArbitraryZVertical,-0.7052410225122278,-0.2326689540468238,-0.2472348236423458,0.6223946279819899,-0.6383441090583801,0.7628287076950073,0.1029994860291481,0,0,0,-1,-1,28295.084453125,unknown,2,2025-04-22T11:23:21.875+03:00,2025-04-21T17:08:51.449+03:00,7165,0.9502622,0,0,5982.688,5,20,2025-04-22T11:23:19.296+03:00,767003012.2848356,0,-21.05,100.4553,1,0.9,2025-04-22T11:21:43.022+03:00,78,1.3,2025-04-22T09:54:17.825+03:00,0.02225348692287972,0
2025-04-22T11:23:32.575+03:00,1745310211.420269,40.95223836967934,29.14033012467102,76.57301,-1,-1,-1,-1,44.07244744262695,38.82724410217911,-9999,28305.7794555,-0.6322479248046875,0.74761962890625,0.1049041748046875,28305.7693785,-1.752677870376005,-1.730748179277197,-0.8676290433527425,-0.006495674140751362,-0.002648692112416029,-0.0004624841676559299,0.004974663257598877,-0.01157748699188232,0.005942091345787048,XArbitraryZVertical,-0.7052308853240011,-0.2326897533273158,-0.2472475294576914,0.622393237382678,-0.6383822560310364,0.7627979516983032,0.1029902473092079,0,0,0,-1,-1,28295.084453125,unknown,2,2025-04-22T11:23:21.875+03:00,2025-04-21T17:08:51.449+03:00,7165,0.9502622,0,0,5982.688,5,20,2025-04-22T11:23:19.296+03:00,767003012.2848356,0,-21.05,100.4553,1,0.9,2025-04-22T11:21:43.022+03:00,78,1.3,2025-04-22T09:54:17.825+03:00,0.02225348692287972,0
2025-04-22T11:23:32.585+03:00,1745310211.420269,40.95223836967934,29.14033012467102,76.57301,-1,-1,-1,-1,44.07244744262695,38.82724410217911,-9999,28305.7895325,-0.6307830810546875,0.75225830078125,0.10064697265625,28305.7794555,-1.75282954392426,-1.730921487141424,-0.8675766374240163,-0.009958183392882347,-0.007881404832005501,-0.0023985356092453,0.004874348640441895,-0.01560240983963013,0.002452842891216278,XArbitraryZVertical,-0.7052665287285991,-0.2327074621804761,-0.2472507381115996,0.6223450238453969,-0.6384040117263794,0.762764036655426,0.1031072810292244,0,0,0,-1,-1,28295.084453125,unknown,2,2025-04-22T11:23:21.875+03:00,2025-04-21T17:08:51.449+03:00,7165,0.9502622,0,0,5982.688,5,20,2025-04-22T11:23:19.296+03:00,767003012.2848356,0,-21.05,100.4553,1,0.9,2025-04-22T11:21:43.022+03:00,78,1.3,2025-04-22T09:54:17.825+03:00,0.02225348692287972,0
2025-04-22T11:23:32.595+03:00,1745310211.420269,40.95223836967934,29.14033012467102,76.57301,-1,-1,-1,-1,44.07244744262695,38.82724410217911,-9999,28305.7996085,-0.631988525390625,0.7581024169921875,0.099639892578125,28305.7895325,-1.753001002883592,-1.731166332995132,-0.8675144400664889,-0.01306582614779472,-0.01457099989056587,-0.001146583701483905,0.007856011390686035,-0.01119822263717651,-0.001159444451332092,XArbitraryZVertical,-0.7053127007635664,-0.2327435533589445,-0.247237948480271,0.6222842003203438,-0.6384254097938538,0.7627238035202026,0.1032711341977119,0,0,0,-1,-1,28295.084453125,unknown,2,2025-04-22T11:23:21.875+03:00,2025-04-21T17:08:51.449+03:00,7165,0.9502622,0,0,5982.688,5,20,2025-04-22T11:23:19.296+03:00,767003012.2848356,0,-21.05,100.4553,1,0.9,2025-04-22T11:21:43.022+03:00,78,1.3,2025-04-22T09:54:17.825+03:00,0.02225348692287972,0
2025-04-22T11:23:32.605+03:00,1745310211.420269,40.95223836967934,29.14033012467102,76.57301,-1,-1,-1,-1,44.07244744262695,38.82724410217911,-9999,28305.809684,-0.6333160400390625,0.7647857666015625,0.09991455078125,28305.7996085,-1.753169775471575,-1.731436052297725,-0.8674345139450863,-0.01296302769333124,-0.01698994822800159,-0.007649357430636883,0.006133675575256348,-0.006950259208679199,-0.003675937652587891,XArbitraryZVertical,-0.70536046408173,-0.232794271202287,-0.247221447550348,0.6222177511654265,-0.6384579539299011,0.7626721262931824,0.1034531146287918,0,0,0,-1,-1,28295.084453125,unknown,2,2025-04-22T11:23:21.875+03:00,2025-04-21T17:08:51.449+03:00,7165,0.9502622,0,0,5982.688,5,20,2025-04-22T11:23:19.296+03:00,767003012.2848356,0,-21.05,100.4553,1,0.9,2025-04-22T11:21:43.022+03:00,78,1.3,2025-04-22T09:54:17.825+03:00,0.02225348692287972,0
2025-04-22T11:23:32.615+03:00,1745310211.420269,40.95223836967934,29.14033012467102,76.57301,-1,-1,-1,-1,44.07244744262695,38.82724410217911,-9999,28305.819761,-0.6369476318359375,0.7645721435546875,0.1034698486328125,28305.809684,-1.753315395464979,-1.731724278642579,-0.8673345272685477,-0.007410070393234491,-0.01489137671887875,-0.01211388036608696,0.006133317947387695,-0.0002478957176208496,-0.003567084670066833,XArbitraryZVertical,-0.7054065325204543,-0.2328654074995463,-0.2471976603237151,0.6221483525077017,-0.63850337266922,0.7626074552536011,0.1036493480205536,0,0,0,-1,-1,28295.084453125,unknown,2,2025-04-22T11:23:21.875+03:00,2025-04-21T17:08:51.449+03:00,7165,0.9502622,0,0,5982.688,5,20,2025-04-22T11:23:19.296+03:00,767003012.2848356,0,-21.05,100.4553,1,0.9,2025-04-22T11:21:43.022+03:00,78,1.3,2025-04-22T09:54:17.825+03:00,0.02225348692287972,0
2025-04-22T11:23:32.625+03:00,1745310211.420269,40.95223836967934,29.14033012467102,76.57301,-1,-1,-1,-1,44.07244744262695,38.82724410217911,-9999,28305.829837,-0.64111328125,0.7602386474609375,0.1068572998046875,28305.819761,-1.753369631017434,-1.731910766868328,-0.8672358061691845,-0.001083132228814065,-0.01073597930371761,-0.01461375690996647,0.003685712814331055,0.003020107746124268,-0.001867190003395081,XArbitraryZVertical,-0.7054294810654199,-0.2329366511329712,-0.2471808588449697,0.6221022655198364,-0.6385581493377686,0.7625436186790466,0.1037804707884789,0,0,0,-1,-1,28295.084453125,unknown,2,2025-04-22T11:23:21.875+03:00,2025-04-21T17:08:51.449+03:00,7165,0.9502622,0,0,5982.688,5,20,2025-04-22T11:23:19.296+03:00,767003012.2848356,0,-21.05,100.4553,1,0.9,2025-04-22T11:21:43.022+03:00,78,1.3,2025-04-22T09:54:17.825+03:00,0.02225348692287972,0
2025-04-22T11:23:32.635+03:00,1745310211.420269,40.95223836967934,29.14033012467102,76.57301,-1,-1,-1,-1,44.07244744262695,38.82724410217911,-9999,28305.839914,-0.6399688720703125,0.7608489990234375,0.10821533203125,28305.829837,-1.753388334977728,-1.732035469412109,-0.8671339346900497,0.0002689546963665634,-0.007726075127720833,-0.01374529954046011,-0.001774013042449951,-0.0015067458152771,0.00206911563873291,XArbitraryZVertical,-0.7054404339584346,-0.2330023508706357,-0.2471759361859517,0.6220672869782758,-0.6386221051216125,0.762477695941925,0.1038726046681404,0,0,0,-1,-1,28295.084453125,unknown,2,2025-04-22T11:23:21.875+03:00,2025-04-21T17:08:51.449+03:00,7165,0.9502622,0,0,5982.688,5,20,2025-04-22T11:23:19.296+03:00,767003012.2848356,0,-21.05,100.4553,1,0.9,2025-04-22T11:21:43.022+03:00,78,1.3,2025-04-22T09:54:17.825+03:00,0.02225348692287972,0
2025-04-22T11:23:32.646+03:00,1745310211.420269,40.95223836967934,29.14033012467102,76.57301,-1,-1,-1,-1,44.07244744262695,38.82724410217911,-9999,28305.84999,-0.63275146484375,0.754241943359375,0.1035614013671875,28305.839914,-1.753509594370401,-1.732270402546096,-0.8670240869521944,-0.01383920758962631,-0.01212222315371037,-0.01264092046767473,-0.00284498929977417,-0.001542508602142334,0.003934979438781738,XArbitraryZVertical,-0.705476454084091,-0.2330687031626908,-0.2471665527010446,0.6220052975402686,-0.6386802792549133,0.762406587600708,0.1040360927581787,0,0,0,-1,-1,28295.084453125,unknown,2,2025-04-22T11:23:21.875+03:00,2025-04-21T17:08:51.449+03:00,7165,0.9502622,0,0,5982.688,5,20,2025-04-22T11:23:19.296+03:00,767003012.2848356,0,-21.05,100.4553,1,0.9,2025-04-22T11:21:43.022+03:00,78,1.3,2025-04-22T09:54:17.825+03:00,0.02225348692287972,0
2025-04-22T11:23:32.656+03:00,1745310211.420269,40.95223836967934,29.14033012467102,76.57301,-1,-1,-1,-1,44.07244744262695,38.82724410217911,-9999,28305.860067,-0.6295623779296875,0.7476959228515625,0.1030426025390625,28305.84999,-1.753827978036647,-1.732715595955269,-0.8668362787213284,-0.02944559790194035,-0.02154901437461376,-0.01382922288030386,0.003399193286895752,-0.003725051879882812,0.001430273056030273,XArbitraryZVertical,-0.7055563820603385,-0.23315647202592,-0.2471696693422398,0.6218804778275291,-0.6387751698493958,0.762285053730011,0.1043434962630272,0,0,0,-1,-1,28295.084453125,unknown,2,2025-04-22T11:23:21.875+03:00,2025-04-21T17:08:51.449+03:00,7165,0.9502622,0,0,5982.688,5,20,2025-04-22T11:23:19.296+03:00,767003012.2848356,0,-21.05,100.4553,1,0.9,2025-04-22T11:21:43.022+03:00,78,1.3,2025-04-22T09:54:17.825+03:00,0.02225348692287972,0
2025-04-22T11:23:32.666+03:00,1745310211.420269,40.95223836967934,29.14033012467102,76.57301,-1,-1,-1,-1,44.07244744262695,38.82724410217911,-9999,28305.870144,-0.63421630859375,0.751739501953125,0.10418701171875,28305.860067,-1.75437804972876,-1.733386929029993,-0.8666334984783144,-0.04335575550794601,-0.02597378939390182,-0.008018970489501953,0.008715212345123291,-0.0135272741317749,-0.002426266670227051,XArbitraryZVertical,-0.7056903411666932,-0.2332376438741051,-0.247169838508641,0.6216979110631232,-0.6388574242591858,0.7621538043022156,0.1047973111271858,0,0,0,-1,-1,28295.084453125,unknown,2,2025-04-22T11:23:21.875+03:00,2025-04-21T17:08:51.449+03:00,7165,0.9502622,0,0,5982.688,5,20,2025-04-22T11:23:19.296+03:00,767003012.2848356,0,-21.05,100.4553,1,0.9,2025-04-22T11:21:43.022+03:00,78,1.3,2025-04-22T09:54:17.825+03:00,0.02225348692287972,0
2025-04-22T11:23:32.676+03:00,1745310211.420269,40.95223836967934,29.14033012467102,76.57301,-1,-1,-1,-1,44.07244744262695,38.82724410217911,-9999,28305.88022,-0.637420654296875,0.7539215087890625,0.1029815673828125,28305.870144,-1.755059478712447,-1.734196922247963,-0.86647844441865,-0.05074549466371536,-0.03021354228258133,-0.007463168818503618,0.006610512733459473,-0.01164156198501587,-0.001665949821472168,XArbitraryZVertical,-0.7058598909731159,-0.2332998117726889,-0.2471462847506444,0.6214914492849427,-0.638888955116272,0.7620534300804138,0.1053339764475822,0,0,0,-1,-1,28295.084453125,unknown,2,2025-04-22T11:23:21.875+03:00,2025-04-21T17:08:51.449+03:00,7165,0.9502622,0,0,5982.688,5,20,2025-04-22T11:23:19.296+03:00,767003012.2848356,0,-21.05,100.4553,1,0.9,2025-04-22T11:21:43.022+03:00,78,1.3,2025-04-22T09:54:17.825+03:00,0.02225348692287972,0
2025-04-22T11:23:32.686+03:00,1745310211.420269,40.95223836967934,29.14033012467102,76.57301,-1,-1,-1,-1,44.07244744262695,38.82724410217911,-9999,28305.890297,-0.63616943359375,0.7618560791015625,0.10540771484375,28305.88022,-1.755820693868639,-1.735050256617267,-0.866338109618183,-0.05004701390862465,-0.02855898812413216,-0.007520060520619154,0.001148104667663574,-0.009109318256378174,-0.002945661544799805,XArbitraryZVertical,-0.706045091906363,-0.2333423309607749,-0.2471273117396279,0.6212726846718031,-0.6389045119285583,0.7619625329971313,0.1058966293931007,0,0,0,-1,-1,28295.084453125,unknown,2,2025-04-22T11:23:21.875+03:00,2025-04-21T17:08:51.449+03:00,7165,0.9502622,0,0,5982.688,5,20,2025-04-22T11:23:19.296+03:00,767003012.2848356,0,-21.05,100.4553,1,0.9,2025-04-22T11:21:43.022+03:00,78,1.3,2025-04-22T09:54:17.825+03:00,0.02225348692287972,0
2025-04-22T11:23:32.696+03:00,1745310211.420269,40.95223836967934,29.14033012467102,76.57301,-1,-1,-1,-1,44.07244744262695,38.82724410217911,-9999,28305.900373,-0.6351776123046875,0.773895263671875,0.1091766357421875,28305.890297,-1.756452729530576,-1.73580094854989,-0.8662271375132656,-0.03697888180613518,-0.02827616035938263,-0.009009833447635174,0.002631843090057373,-0.004383504390716553,-0.002584576606750488,XArbitraryZVertical,-0.7062044696950885,-0.2333887254502789,-0.2470946791240886,0.6210870385935819,-0.6389081478118896,0.7618906497955322,0.1063901036977768,0,0,0,-1,-1,28295.084453125,unknown,2,2025-04-22T11:23:21.875+03:00,2025-04-21T17:08:51.449+03:00,7165,0.9502622,0,0,5982.688,5,20,2025-04-22T11:23:19.296+03:00,767003012.2848356,0,-21.05,100.4553,1,0.9,2025-04-22T11:21:43.022+03:00,78,1.3,2025-04-22T09:54:17.825+03:00,0.02225348692287972,0
2025-04-22T11:23:32.706+03:00,1745310211.420269,40.95223836967934,29.14033012467102,76.57301,-1,-1,-1,-1,44.07244744262695,38.82724410217911,-9999,28305.91045,-0.63629150390625,0.7745819091796875,0.106353759765625,28305.900373,-1.756778193978659,-1.736292722424534,-0.8661017574897512,-0.01217952556908131,-0.02531951665878296,-0.01499755121767521,0.003467082977294922,0.007691144943237305,0.001785159111022949,XArbitraryZVertical,-0.7062951856798851,-0.2334675818012632,-0.2470628509983841,0.6209668394977937,-0.6389498710632324,0.7618094682693481,0.1067200005054474,0,0,0,-1,-1,28295.084453125,unknown,2,2025-04-22T11:23:21.875+03:00,2025-04-21T17:08:51.449+03:00,7165,0.9502622,0,0,5982.688,5,20,2025-04-22T11:23:19.296+03:00,767003012.2848356,0,-21.05,100.4553,1,0.9,2025-04-22T11:21:43.022+03:00,78,1.3,2025-04-22T09:54:17.825+03:00,0.02225348692287972,0
2025-04-22T11:23:32.716+03:00,1745310211.420269,40.95223836967934,29.14033012467102,76.57301,-1,-1,-1,-1,44.07244744262695,38.82724410217911,-9999,28305.920527,-0.6365814208984375,0.7666778564453125,0.105316162109375,28305.91045,-1.756828619920774,-1.736548535317848,-0.8659128844325127,-0.001886940677650273,-0.01727144420146942,-0.01851585321128368,0.003642737865447998,0.01443582773208618,0.0006823539733886719,XArbitraryZVertical,-0.7063205848723372,-0.2335911665755863,-0.2470496675460054,0.6208967561999805,-0.6390645503997803,0.7616870999336243,0.1069072037935257,0,0,0,-1,-1,28295.084453125,unknown,2,2025-04-22T11:23:21.875+03:00,2025-04-21T17:08:51.449+03:00,7165,0.9502622,0,0,5982.688,5,20,2025-04-22T11:23:19.296+03:00,767003012.2848356,0,-21.05,100.4553,1,0.9,2025-04-22T11:21:43.022+03:00,78,1.3,2025-04-22T09:54:17.825+03:00,0.02225348692287972,0
2025-04-22T11:23:32.726+03:00,1745310211.420269,40.95223836967934,29.14033012467102,76.57301,-1,-1,-1,-1,44.07244744262695,38.82724410217911,-9999,28305.930603,-0.63421630859375,0.7577667236328125,0.1053314208984375,28305.920527,-1.756770937263395,-1.736714371972898,-0.8657233760812115,0.001158983097411692,-0.02261154726147652,-0.01581417582929134,0.00160062313079834,0.008775532245635986,-0.001629471778869629,XArbitraryZVertical,-0.7063222056500745,-0.2337251621359742,-0.2470348697204975,0.6208503698077135,-0.6391891241073608,0.7615642547607422,0.1070370227098465,0,0,0,-1,-1,28295.084453125,unknown,2,2025-04-22T11:23:21.875+03:00,2025-04-21T17:08:51.449+03:00,7165,0.9502622,0,0,5982.688,5,20,2025-04-22T11:23:19.296+03:00,767003012.2848356,0,-21.05,100.4553,1,0.9,2025-04-22T11:21:43.022+03:00,78,1.3,2025-04-22T09:54:17.825+03:00,0.02225348692287972,0
2025-04-22T11:23:32.736+03:00,1745310211.420269,40.95223836967934,29.14033012467102,76.57301,-1,-1,-1,-1,44.07244744262695,38.82724410217911,-9999,28305.94068,-0.635467529296875,0.7519683837890625,0.1078033447265625,28305.930603,-1.756836533029899,-1.737014607588297,-0.865555877562429,-0.01581786945462227,-0.02524727769196033,-0.01416647899895906,0.004532396793365479,-0.000545799732208252,-0.002040863037109375,XArbitraryZVertical,-0.7063562390163783,-0.2338501184263796,-0.2470037168660648,0.6207769953395081,-0.639282763004303,0.7614557147026062,0.107250027358532,0,0,0,-1,-1,28295.084453125,unknown,2,2025-04-22T11:23:21.875+03:00,2025-04-21T17:08:51.449+03:00,7165,0.9502622,0,0,5982.688,5,20,2025-04-22T11:23:19.296+03:00,767003012.2848356,0,-21.05,100.4553,1,0.9,2025-04-22T11:21:43.022+03:00,78,1.3,2025-04-22T09:54:17.825+03:00,0.02225348692287972,0
2025-04-22T11:23:32.746+03:00,1745310211.420269,40.95223836967934,29.14033012467102,76.57301,-1,-1,-1,-1,44.07244744262695,38.82724410217911,-9999,28305.950756,-0.6404266357421875,0.748626708984375,0.1106414794921875,28305.94068,-1.757121998469505,-1.737505209063978,-0.8653854287106888,-0.02976317889988422,-0.03159725293517113,-0.01276935078203678,0.004912853240966797,-0.007408618927001953,-0.001521468162536621,XArbitraryZVertical,-0.7064393193342331,-0.2339574273972323,-0.2469744959168359,0.6206536237518507,-0.6393580436706543,0.7613452076911926,0.1075851768255234,0,0,0,-1,-1,28295.084453125,unknown,2,2025-04-22T11:23:21.875+03:00,2025-04-21T17:08:51.449+03:00,7165,0.9502622,0,0,5982.688,5,20,2025-04-22T11:23:19.296+03:00,767003012.2848356,0,-21.05,100.4553,1,0.9,2025-04-22T11:21:43.022+03:00,78,1.3,2025-04-22T09:54:17.825+03:00,0.02225348692287972,0
2025-04-22T11:23:32.756+03:00,1745310211.420269,40.95223836967934,29.14033012467102,76.57301,-1,-1,-1,-1,44.07244744262695,38.82724410217911,-9999,28305.960833,-0.6445465087890625,0.7533416748046875,0.1105194091796875,28305.950756,-1.757612250549965,-1.738186124622689,-0.8652149624025663,-0.03959823399782181,-0.02961905673146248,-0.009287800639867783,0.0006796717643737793,-0.01222670078277588,0.001454822719097137,XArbitraryZVertical,-0.7065698884654003,-0.2340513859715544,-0.2469415356834062,0.6204826379942219,-0.639412522315979,0.7612347006797791,0.1080421134829521,0,0,0,-1,-1,28295.084453125,unknown,2,2025-04-22T11:23:21.875+03:00,2025-04-21T17:08:51.449+03:00,7165,0.9502622,0,0,5982.688,5,20,2025-04-22T11:23:19.296+03:00,767003012.2848356,0,-21.05,100.4553,1,0.9,2025-04-22T11:21:43.022+03:00,78,1.3,2025-04-22T09:54:17.825+03:00,0.02225348692287972,0
2025-04-22T11:23:32.766+03:00,1745310211.420269,40.95223836967934,29.14033012467102,76.57301,-1,-1,-1,-1,44.07244744262695,38.82724410217911,-9999,28305.97091,-0.6443328857421875,0.76019287109375,0.10968017578125,28305.960833,-1.758160753770293,-1.738879752989666,-0.8650435094168278,-0.03637208044528961,-0.02593217790126801,-0.008403630927205086,-0.00430220365524292,-0.009536802768707275,0.002606980502605438,XArbitraryZVertical,-0.7067088242616074,-0.2341289196158771,-0.2469223707778214,0.620302726217249,-0.6394660472869873,0.7611234784126282,0.1085074245929718,0,0,0,-1,-1,28295.084453125,unknown,2,2025-04-22T11:23:21.875+03:00,2025-04-21T17:08:51.449+03:00,7165,0.9502622,0,0,5982.688,5,20,2025-04-22T11:23:19.296+03:00,767003012.2848356,0,-21.05,100.4553,1,0.9,2025-04-22T11:21:43.022+03:00,78,1.3,2025-04-22T09:54:17.825+03:00,0.02225348692287972,0
2025-04-22T11:23:32.777+03:00,1745310211.420269,40.95223836967934,29.14033012467102,76.57301,-1,-1,-1,-1,44.07244744262695,38.82724410217911,-9999,28305.980986,-0.6409912109375,0.7736663818359375,0.1077117919921875,28305.97091,-1.758565700152197,-1.739410632928869,-0.8649022359562369,-0.02166876941919327,-0.02378220669925213,-0.01147292368113995,-0.004711627960205078,-0.003524661064147949,0.0005861520767211914,XArbitraryZVertical,-0.7068128057721967,-0.2341967840495991,-0.2469063472999257,0.6201650452229588,-0.6395144462585449,0.7610318660736084,0.1088649556040764,0,0,0,-1,-1,28295.084453125,unknown,2,2025-04-22T11:23:21.875+03:00,2025-04-21T17:08:51.449+03:00,7165,0.9502622,0,0,5982.688,5,20,2025-04-22T11:23:19.296+03:00,767003012.2848356,0,-21.05,100.4553,1,0.9,2025-04-22T11:21:43.022+03:00,78,1.3,2025-04-22T09:54:17.825+03:00,0.02225348692287972,0
2025-04-22T11:23:32.787+03:00,1745310211.420269,40.95223836967934,29.14033012467102,76.57301,-1,-1,-1,-1,44.07244744262695,38.82724410217911,-9999,28305.991063,-0.6361541748046875,0.7747039794921875,0.107147216796875,28305.980986,-1.758710271328358,-1.739753251189678,-0.8648015674987924,-0.004631128627806902,-0.02196826227009296,-0.01484431978315115,-0.002705037593841553,0.007450640201568604,-0.001339554786682129,XArbitraryZVertical,-0.7068656489502236,-0.2342849299464236,-0.2468628581223162,0.6200888623690126,-0.6395527124404907,0.7609665393829346,0.1090969517827034,0,0,0,-1,-1,28295.084453125,unknown,2,2025-04-22T11:23:21.875+03:00,2025-04-21T17:08:51.449+03:00,7165,0.9502622,0,0,5982.688,5,20,2025-04-22T11:23:19.296+03:00,767003012.2848356,0,-21.05,100.4553,1,0.9,2025-04-22T11:21:43.022+03:00,78,1.3,2025-04-22T09:54:17.825+03:00,0.02225348692287972,0
2025-04-22T11:23:32.797+03:00,1745310211.420269,40.95223836967934,29.14033012467102,76.57301,-1,-1,-1,-1,44.07244744262695,38.82724410217911,-9999,28306.00114,-0.63751220703125,0.7696075439453125,0.104248046875,28305.991063,-1.75868395712856,-1.739961267993747,-0.8646879040374408,0.0008904034039005637,-0.0213346965610981,-0.0225917212665081,0.001996159553527832,0.01568782329559326,-0.002021081745624542,XArbitraryZVertical,-0.7068810429931877,-0.2343959451539773,-0.2468181396169918,0.6200471348956261,-0.6396151781082153,0.7608928084373474,0.1092445328831673,0,0,0,-1,-1,28295.084453125,unknown,2,2025-04-22T11:23:21.875+03:00,2025-04-21T17:08:51.449+03:00,7165,0.9502622,0,0,5982.688,5,20,2025-04-22T11:23:19.296+03:00,767003012.2848356,0,-21.05,100.4553,1,0.9,2025-04-22T11:21:43.022+03:00,78,1.3,2025-04-22T09:54:17.825+03:00,0.02225348692287972,0
2025-04-22T11:23:32.807+03:00,1745310211.420269,40.95223836967934,29.14033012467102,76.57301,-1,-1,-1,-1,44.07244744262695,38.82724410217911,-9999,28306.011216,-0.6409454345703125,0.7657928466796875,0.1030120849609375,28306.00114,-1.758537260109813,-1.740028276596227,-0.8645123396003648,0.006382041145116091,-0.01549871172755957,-0.02146097645163536,0.003097116947174072,0.01001870632171631,-0.002986788749694824,XArbitraryZVertical,-0.7068609893862512,-0.2345261042680774,-0.2468061156290618,0.620025594724038,-0.6397396326065063,0.7607788443565369,0.1093099042773247,0,0,0,-1,-1,28295.084453125,unknown,2,2025-04-22T11:23:21.875+03:00,2025-04-21T17:08:51.449+03:00,7165,0.9502622,0,0,5982.688,5,20,2025-04-22T11:23:19.296+03:00,767003012.2848356,0,-21.05,100.4553,1,0.9,2025-04-22T11:21:43.022+03:00,78,1.3,2025-04-22T09:54:17.825+03:00,0.02225348692287972,0
2025-04-22T11:23:32.817+03:00,1745310211.420269,40.95223836967934,29.14033012467102,76.57301,-1,-1,-1,-1,44.07244744262695,38.82724410217911,-9999,28306.021293,-0.644073486328125,0.75146484375,0.1092987060546875,28306.011216,-1.758404152590648,-1.740117470765024,-0.8643299653782762,-0.0008449789602309465,-0.02333452925086021,-0.02199414186179638,-2.598762512207031e-05,0.008077263832092285,-0.007400736212730408,XArbitraryZVertical,-0.7068448169664988,-0.2346605717015528,-0.2467926909452796,0.6199985402335951,-0.6398667097091675,0.7606604695320129,0.1093903556466103,0,0,0,-1,-1,28295.084453125,unknown,2,2025-04-22T11:23:21.875+03:00,2025-04-21T17:08:51.449+03:00,7165,0.9502622,0,0,5982.688,5,20,2025-04-22T11:23:19.296+03:00,767003012.2848356,0,-21.05,100.4553,1,0.9,2025-04-22T11:21:43.022+03:00,78,1.3,2025-04-22T09:54:17.825+03:00,0.02225348692287972,0
