loggingTime(txt),locationTimestamp_since1970(s),locationLatitude(WGS84),locationLongitude(WGS84),locationAltitude(m),locationSpeed(m/s),locationSpeedAccuracy(m/s),locationCourse(°),locationCourseAccuracy(°),locationVerticalAccuracy(m),locationHorizontalAccuracy(m),locationFloor(Z),accelerometerTimestamp_sinceReboot(s),accelerometerAccelerationX(G),accelerometerAccelerationY(G),accelerometerAccelerationZ(G),motionTimestamp_sinceReboot(s),motionYaw(rad),motionRoll(rad),motionPitch(rad),motionRotationRateX(rad/s),motionRotationRateY(rad/s),motionRotationRateZ(rad/s),motionUserAccelerationX(G),motionUserAccelerationY(G),motionUserAccelerationZ(G),motionAttitudeReferenceFrame(txt),motionQuaternionX(R),motionQuaternionY(R),motionQuaternionZ(R),motionQuaternionW(R),motionGravityX(G),motionGravityY(G),motionGravityZ(G),motionMagneticFieldX(µT),motionMagneticFieldY(µT),motionMagneticFieldZ(µT),motionHeading(°),motionMagneticFieldCalibrationAccuracy(Z),activityTimestamp_sinceReboot(s),activity(txt),activityActivityConfidence(Z),activityActivityStartDate(txt),pedometerStartDate(txt),pedometerNumberofSteps(N),pedometerAverageActivePace(s/m),pedometerCurrentPace(s/m),pedometerCurrentCadence(steps/s),pedometerDistance(m),pedometerFloorAscended(N),pedometerFloorDescended(N),pedometerEndDate(txt),altimeterTimestamp_sinceReboot(s),altimeterReset(bool),altimeterRelativeAltitude(m),altimeterPressure(kPa),batteryState(N),batteryLevel(R),heartRateBPMTimestamp(txt),heartRateBPM(N),heartRateBPS(R),heartRateVariabilityTimestamp(txt),heartRateVariability(ms),label
2025-04-22T17:02:33.717+03:00,1745330552.933554,40.95222141235789,29.14026153500561,76.7301,-1,-1,-1,-1,30,17.58926956519938,-9999,38848.72670087501,-0.46539306640625,0.679168701171875,-0.494110107421875,38848.716624875,-2.816531196660715,-0.7719107866316098,-0.786688387023016,-0.0204393994063139,-0.04622264951467514,-0.01835843361914158,-0.006601691246032715,-0.01404893398284912,-0.005110502243041992,XArbitraryZVertical,-0.400572471688098,0.2941425146046463,-0.8210646455392185,0.2808461579052681,-0.4925741851329803,0.7080185413360596,-0.5060437321662903,0,0,0,-1,-1,38843.99246366667,unknown,2,2025-04-22T17:02:28.952+03:00,2025-04-21T17:08:51.449+03:00,8997,1.055654,0,0,7505.379,7,22,2025-04-22T17:01:47.683+03:00,767023318.1019011,0,-13.68,100.3656,1,0.4,2025-04-22T17:01:55.525+03:00,120,2,2025-04-22T14:20:19.516+03:00,0.02197104130929222,0
2025-04-22T17:02:33.720+03:00,1745330552.933554,40.95222141235789,29.14026153500561,76.7301,-1,-1,-1,-1,30,17.58926956519938,-9999,38848.736775875,-0.517547607421875,0.73919677734375,-0.504638671875,38848.72670087501,-2.816711762109172,-0.7720703576306029,-0.7867219913807768,0.00774343591183424,0.03035115450620651,0.005793075077235699,0.01760184764862061,-0.03502297401428223,0.01109015941619873,XArbitraryZVertical,-0.4006113492602031,0.2941708434479427,-0.8210512424724588,0.2808003023866416,-0.4926383793354034,0.7080422639846802,-0.5059481263160706,0,0,0,-1,-1,38843.99246366667,unknown,2,2025-04-22T17:02:28.952+03:00,2025-04-21T17:08:51.449+03:00,8997,1.055654,0,0,7505.379,7,22,2025-04-22T17:01:47.683+03:00,767023318.1019011,0,-13.68,100.3656,1,0.4,2025-04-22T17:01:55.525+03:00,120,2,2025-04-22T14:20:19.516+03:00,0.02197104130929222,0
2025-04-22T17:02:33.724+03:00,1745330552.933554,40.95222141235789,29.14026153500561,76.7301,-1,-1,-1,-1,30,17.58926956519938,-9999,38848.746851875,-0.484588623046875,0.7042083740234375,-0.5043182373046875,38848.736775875,-2.816670851672973,-0.7718973323653034,-0.7867216778928743,0.003193424781784415,-0.005982351489365101,-0.007319530937820673,0.02248883247375488,-0.0201454758644104,0.01138919591903687,XArbitraryZVertical,-0.4005463436532229,0.294186821410127,-0.8210801692013023,0.2807916000679728,-0.4925509393215179,0.7080420255661011,-0.5060334801673889,0,0,0,-1,-1,38843.99246366667,unknown,2,2025-04-22T17:02:28.952+03:00,2025-04-21T17:08:51.449+03:00,8997,1.055654,0,0,7505.379,7,22,2025-04-22T17:01:47.683+03:00,767023318.1019011,0,-13.68,100.3656,1,0.4,2025-04-22T17:01:55.525+03:00,120,2,2025-04-22T14:20:19.516+03:00,0.02197104130929222,0
2025-04-22T17:02:33.727+03:00,1745330552.933554,40.95222141235789,29.14026153500561,76.7301,-1,-1,-1,-1,30,17.58926956519938,-9999,38848.756927875,-0.4777374267578125,0.704010009765625,-0.4995269775390625,38848.746851875,-2.816824529218238,-0.7721513845976082,-0.7866370881500839,0.002820715541020036,-0.001274548936635256,-0.006214652210474014,-0.02644360065460205,0.03168737888336182,0.0006563663482666016,XArbitraryZVertical,-0.4006282048036183,0.294145228529339,-0.8210680784446865,0.2807537918366413,-0.492721289396286,0.7079823017120361,-0.5059512257575989,0,0,0,-1,-1,38843.99246366667,unknown,2,2025-04-22T17:02:28.952+03:00,2025-04-21T17:08:51.449+03:00,8997,1.055654,0,0,7505.379,7,22,2025-04-22T17:01:47.683+03:00,767023318.1019011,0,-13.68,100.3656,1,0.4,2025-04-22T17:01:55.525+03:00,120,2,2025-04-22T14:20:19.516+03:00,0.02197104130929222,0
2025-04-22T17:02:33.732+03:00,1745330552.933554,40.95222141235789,29.14026153500561,76.7301,-1,-1,-1,-1,30,17.58926956519938,-9999,38848.767002875,-0.5047760009765625,0.71270751953125,-0.50262451171875,38848.756927875,-2.816823121559301,-0.7720672393539803,-0.7864406822043445,0.004552835132926702,0.01712922565639019,-6.967424997128546e-05,0.01363465189933777,-0.007251620292663574,0.002720057964324951,XArbitraryZVertical,-0.4005942440333853,0.2940715063204742,-0.8211247726124252,0.2807139327941688,-0.4927757680416107,0.707843542098999,-0.5060924291610718,0,0,0,-1,-1,38843.99246366667,unknown,2,2025-04-22T17:02:28.952+03:00,2025-04-21T17:08:51.449+03:00,8997,1.055654,0,0,7505.379,7,22,2025-04-22T17:01:47.683+03:00,767023318.1019011,0,-13.68,100.3656,1,0.4,2025-04-22T17:01:55.525+03:00,120,2,2025-04-22T14:20:19.516+03:00,0.02197104130929222,0
2025-04-22T17:02:33.742+03:00,1745330552.933554,40.95222141235789,29.14026153500561,76.7301,-1,-1,-1,-1,30,17.58926956519938,-9999,38848.77707887501,-0.4871368408203125,0.7037353515625,-0.5016021728515625,38848.767002875,-2.816703807795411,-0.7717682867307714,-0.7865329346328762,0.001700057415291667,0.007156220264732838,-0.001209640293382108,0.01046231389045715,-0.0009538531303405762,0.00619274377822876,XArbitraryZVertical,-0.4004888691739154,0.2941296076462903,-0.8211491218847692,0.2807321369043383,-0.4925788938999176,0.7079087495803833,-0.5061928629875183,0,0,0,-1,-1,38843.99246366667,unknown,2,2025-04-22T17:02:28.952+03:00,2025-04-21T17:08:51.449+03:00,8997,1.055654,0,0,7505.379,7,22,2025-04-22T17:01:47.683+03:00,767023318.1019011,0,-13.68,100.3656,1,0.4,2025-04-22T17:01:55.525+03:00,120,2,2025-04-22T14:20:19.516+03:00,0.02197104130929222,0
2025-04-22T17:02:33.764+03:00,1745330552.933554,40.95222141235789,29.14026153500561,76.7301,-1,-1,-1,-1,30,17.58926956519938,-9999,38848.787153875,-0.4883270263671875,0.706512451171875,-0.5040283203125,38848.77707887501,-2.816600354014614,-0.7715206768518569,-0.7865820415702522,0.003525387961417437,0.01494543347507715,-0.0004572973120957613,-0.01135477423667908,0.003695905208587646,0.00383305549621582,XArbitraryZVertical,-0.4004023294609276,0.2941649661963555,-0.8211741701436671,0.2807452070091767,-0.4924292862415314,0.7079434394836426,-0.5062898993492126,0,0,0,-1,-1,38843.99246366667,unknown,2,2025-04-22T17:02:28.952+03:00,2025-04-21T17:08:51.449+03:00,8997,1.055654,0,0,7505.379,7,22,2025-04-22T17:01:47.683+03:00,767023318.1019011,0,-13.68,100.3656,1,0.4,2025-04-22T17:01:55.525+03:00,120,2,2025-04-22T14:20:19.516+03:00,0.02197104130929222,0
2025-04-22T17:02:33.765+03:00,1745330552.933554,40.95222141235789,29.14026153500561,76.7301,-1,-1,-1,-1,30,17.58926956519938,-9999,38848.797229875,-0.4930877685546875,0.7116241455078125,-0.5033721923828125,38848.787153875,-2.816551472722054,-0.7713271694648576,-0.7865041617981571,0.007029974833130836,0.01205470599234104,0.0002554311649873853,0.007018297910690308,-0.004748225212097168,0.004089951515197754,XArbitraryZVertical,-0.4003302146839351,0.2941485517687097,-0.8212218707264476,0.2807257001395642,-0.4923697412014008,0.7078884243965149,-0.5064247250556946,0,0,0,-1,-1,38843.99246366667,unknown,2,2025-04-22T17:02:28.952+03:00,2025-04-21T17:08:51.449+03:00,8997,1.055654,0,0,7505.379,7,22,2025-04-22T17:01:47.683+03:00,767023318.1019011,0,-13.68,100.3656,1,0.4,2025-04-22T17:01:55.525+03:00,120,2,2025-04-22T14:20:19.516+03:00,0.02197104130929222,0
2025-04-22T17:02:33.772+03:00,1745330552.933554,40.95222141235789,29.14026153500561,76.7301,-1,-1,-1,-1,30,17.58926956519938,-9999,38848.807304875,-0.48773193359375,0.707977294921875,-0.5017547607421875,38848.797229875,-2.816491657631223,-0.7712003111195409,-0.7864136944230626,0.008670748211443424,0.007821611128747463,-0.0004492412554100156,0.001688629388809204,-0.0004882216453552246,0.001726448535919189,XArbitraryZVertical,-0.4002870775613694,0.2941151062127447,-0.8212573246840097,0.280718698354412,-0.492350161075592,0.7078245282173157,-0.506533145904541,0,0,0,-1,-1,38843.99246366667,unknown,2,2025-04-22T17:02:28.952+03:00,2025-04-21T17:08:51.449+03:00,8997,1.055654,0,0,7505.379,7,22,2025-04-22T17:01:47.683+03:00,767023318.1019011,0,-13.68,100.3656,1,0.4,2025-04-22T17:01:55.525+03:00,120,2,2025-04-22T14:20:19.516+03:00,0.02197104130929222,0
2025-04-22T17:02:33.782+03:00,1745330552.933554,40.95222141235789,29.14026153500561,76.7301,-1,-1,-1,-1,30,17.58926956519938,-9999,38848.817380875,-0.49249267578125,0.7059173583984375,-0.503997802734375,38848.807304875,-2.816438611050406,-0.7710769938906512,-0.7863456106678003,0.004708630498498678,0.008872893638908863,-5.742369103245437e-05,-0.000247657299041748,0.004412174224853516,0.004263043403625488,XArbitraryZVertical,-0.4002443956805442,0.2940923075400431,-0.8212882283714537,0.2807126246577923,-0.4923211634159088,0.7077764272689819,-0.5066282749176025,0,0,0,-1,-1,38843.99246366667,unknown,2,2025-04-22T17:02:28.952+03:00,2025-04-21T17:08:51.449+03:00,8997,1.055654,0,0,7505.379,7,22,2025-04-22T17:01:47.683+03:00,767023318.1019011,0,-13.68,100.3656,1,0.4,2025-04-22T17:01:55.525+03:00,120,2,2025-04-22T14:20:19.516+03:00,0.02197104130929222,0
2025-04-22T17:02:33.792+03:00,1745330552.933554,40.95222141235789,29.14026153500561,76.7301,-1,-1,-1,-1,30,17.58926956519938,-9999,38848.82745687501,-0.4923095703125,0.7042694091796875,-0.504974365234375,38848.817380875,-2.816378994607917,-0.7709137248952159,-0.7863174704007365,0.003268392756581306,0.009822577238082886,0.0001399165485054255,0.003620266914367676,-0.0002828836441040039,0.004159331321716309,XArbitraryZVertical,-0.4001861644341977,0.2940910785586214,-0.8213182613944376,0.2807090846893384,-0.4922523200511932,0.707756519317627,-0.5067229270935059,0,0,0,-1,-1,38843.99246366667,unknown,2,2025-04-22T17:02:28.952+03:00,2025-04-21T17:08:51.449+03:00,8997,1.055654,0,0,7505.379,7,22,2025-04-22T17:01:47.683+03:00,767023318.1019011,0,-13.68,100.3656,1,0.4,2025-04-22T17:01:55.525+03:00,120,2,2025-04-22T14:20:19.516+03:00,0.02197104130929222,0
2025-04-22T17:02:33.802+03:00,1745330552.933554,40.95222141235789,29.14026153500561,76.7301,-1,-1,-1,-1,30,17.58926956519938,-9999,38848.837531875,-0.4927825927734375,0.7034759521484375,-0.50433349609375,38848.82745687501,-2.816414146738029,-0.7709151486816047,-0.7863216658168194,0.00423512002453208,0.005531958304345608,-0.002033755648881197,-0.0008061528205871582,-0.001872777938842773,0.00243222713470459,XArbitraryZVertical,-0.4001815748347058,0.2940997370731634,-0.821322044961955,0.2806954562162557,-0.4922509789466858,0.7077594995498657,-0.5067201256752014,0,0,0,-1,-1,38843.99246366667,unknown,2,2025-04-22T17:02:28.952+03:00,2025-04-21T17:08:51.449+03:00,8997,1.055654,0,0,7505.379,7,22,2025-04-22T17:01:47.683+03:00,767023318.1019011,0,-13.68,100.3656,1,0.4,2025-04-22T17:01:55.525+03:00,120,2,2025-04-22T14:20:19.516+03:00,0.02197104130929222,0
2025-04-22T17:02:33.812+03:00,1745330552.933554,40.95222141235789,29.14026153500561,76.7301,-1,-1,-1,-1,30,17.58926956519938,-9999,38848.847607875,-0.490570068359375,0.70416259765625,-0.5029296875,38848.837531875,-2.816379531629684,-0.7708113670412964,-0.7862882508631829,0.007518531288951635,0.007920014671981335,-0.00100737321190536,-0.0003386735916137695,-0.003451347351074219,0.002134084701538086,XArbitraryZVertical,-0.4001440958062801,0.2940928591522666,-0.821344793481356,0.2806896476874083,-0.4922148883342743,0.7077358961105347,-0.5067881941795349,0,0,0,-1,-1,38843.99246366667,unknown,2,2025-04-22T17:02:28.952+03:00,2025-04-21T17:08:51.449+03:00,8997,1.055654,0,0,7505.379,7,22,2025-04-22T17:01:47.683+03:00,767023318.1019011,0,-13.68,100.3656,1,0.4,2025-04-22T17:01:55.525+03:00,120,2,2025-04-22T14:20:19.516+03:00,0.02197104130929222,0
2025-04-22T17:02:33.822+03:00,1745330552.933554,40.95222141235789,29.14026153500561,76.7301,-1,-1,-1,-1,30,17.58926956519938,-9999,38848.857682875,-0.486572265625,0.70635986328125,-0.4995574951171875,38848.847607875,-2.816329341722955,-0.7706883887457683,-0.7862371218806554,0.008527270518243313,0.006995032541453838,-0.002252434380352497,-0.0005283951759338379,-0.004101872444152832,0.002190113067626953,XArbitraryZVertical,-0.4001010668923112,0.2940778976629245,-0.821372714089769,0.2806848846101527,-0.4921777546405792,0.7076997756958008,-0.506874680519104,0,0,0,-1,-1,38843.99246366667,unknown,2,2025-04-22T17:02:28.952+03:00,2025-04-21T17:08:51.449+03:00,8997,1.055654,0,0,7505.379,7,22,2025-04-22T17:01:47.683+03:00,767023318.1019011,0,-13.68,100.3656,1,0.4,2025-04-22T17:01:55.525+03:00,120,2,2025-04-22T14:20:19.516+03:00,0.02197104130929222,0
2025-04-22T17:02:33.832+03:00,1745330552.933554,40.95222141235789,29.14026153500561,76.7301,-1,-1,-1,-1,30,17.58926956519938,-9999,38848.867758875,-0.486480712890625,0.7032012939453125,-0.499267578125,38848.857682875,-2.816305887346214,-0.7706331126047246,-0.7861600794963759,0.0065253721550107,0.005384352523833513,-0.002960835117846727,0.001968801021575928,-0.00267404317855835,0.004621565341949463,XArbitraryZVertical,-0.400081915139452,0.2940474692224632,-0.821396317427167,0.280675415079344,-0.4921878278255463,0.7076453566551208,-0.5069410800933838,0,0,0,-1,-1,38843.99246366667,unknown,2,2025-04-22T17:02:28.952+03:00,2025-04-21T17:08:51.449+03:00,8997,1.055654,0,0,7505.379,7,22,2025-04-22T17:01:47.683+03:00,767023318.1019011,0,-13.68,100.3656,1,0.4,2025-04-22T17:01:55.525+03:00,120,2,2025-04-22T14:20:19.516+03:00,0.02197104130929222,0
2025-04-22T17:02:33.842+03:00,1745330552.933554,40.95222141235789,29.14026153500561,76.7301,-1,-1,-1,-1,30,17.58926956519938,-9999,38848.87783487501,-0.4871063232421875,0.703369140625,-0.49896240234375,38848.867758875,-2.816258795876021,-0.7705360201993648,-0.7860739443705881,0.007824729196727276,0.006624054163694382,-0.003130744909867644,0.004922151565551758,-0.001911342144012451,0.006849288940429688,XArbitraryZVertical,-0.4000491414406862,0.2940143470214478,-0.8214264610083164,0.2806681937504529,-0.4921809434890747,0.7075844407081604,-0.5070325136184692,0,0,0,-1,-1,38843.99246366667,unknown,2,2025-04-22T17:02:28.952+03:00,2025-04-21T17:08:51.449+03:00,8997,1.055654,0,0,7505.379,7,22,2025-04-22T17:01:47.683+03:00,767023318.1019011,0,-13.68,100.3656,1,0.4,2025-04-22T17:01:55.525+03:00,120,2,2025-04-22T14:20:19.516+03:00,0.02197104130929222,0
2025-04-22T17:02:33.853+03:00,1745330552.933554,40.95222141235789,29.14026153500561,76.7301,-1,-1,-1,-1,30,17.58926956519938,-9999,38848.887909875,-0.489990234375,0.704345703125,-0.5001678466796875,38848.87783487501,-2.816252044509935,-0.7704608201853892,-0.7860207176955826,0.001293858746066689,0.005703133065253496,-0.002738993847742677,0.005993634462356567,-0.004727184772491455,0.008698642253875732,XArbitraryZVertical,-0.4000193409284077,0.2940004530517457,-0.8214513547777356,0.2806523242670776,-0.492169052362442,0.7075468301773071,-0.507096529006958,0,0,0,-1,-1,38843.99246366667,unknown,2,2025-04-22T17:02:28.952+03:00,2025-04-21T17:08:51.449+03:00,8997,1.055654,0,0,7505.379,7,22,2025-04-22T17:01:47.683+03:00,767023318.1019011,0,-13.68,100.3656,1,0.4,2025-04-22T17:01:55.525+03:00,120,2,2025-04-22T14:20:19.516+03:00,0.02197104130929222,0
2025-04-22T17:02:33.863+03:00,1745330552.933554,40.95222141235789,29.14026153500561,76.7301,-1,-1,-1,-1,30,17.58926956519938,-9999,38848.897985875,-0.4918975830078125,0.70074462890625,-0.5020751953125,38848.887909875,-2.816335290764352,-0.7704823996340787,-0.7860261282361217,-0.006284764967858791,0.004757111426442862,-0.004358894657343626,0.004842251539230347,-0.00357133150100708,0.007678091526031494,XArbitraryZVertical,-0.4000159568654112,0.2940164222963791,-0.8214576235629493,0.2806220764242701,-0.4921773076057434,0.7075507044792175,-0.5070831775665283,0,0,0,-1,-1,38843.99246366667,unknown,2,2025-04-22T17:02:28.952+03:00,2025-04-21T17:08:51.449+03:00,8997,1.055654,0,0,7505.379,7,22,2025-04-22T17:01:47.683+03:00,767023318.1019011,0,-13.68,100.3656,1,0.4,2025-04-22T17:01:55.525+03:00,120,2,2025-04-22T14:20:19.516+03:00,0.02197104130929222,0
2025-04-22T17:02:33.873+03:00,1745330552.933554,40.95222141235789,29.14026153500561,76.7301,-1,-1,-1,-1,30,17.58926956519938,-9999,38848.908060875,-0.4942169189453125,0.7042083740234375,-0.504302978515625,38848.897985875,-2.816518596085155,-0.7705661391124385,-0.7860738799373427,-0.01337410043925047,0.007569409906864166,-0.007288638036698103,0.001565277576446533,-0.004230737686157227,0.006407260894775391,XArbitraryZVertical,-0.4000233178086883,0.2940620602587615,-0.8214568944327465,0.2805659069027088,-0.492196261882782,0.7075844407081604,-0.5070176720619202,0,0,0,-1,-1,38843.99246366667,unknown,2,2025-04-22T17:02:28.952+03:00,2025-04-21T17:08:51.449+03:00,8997,1.055654,0,0,7505.379,7,22,2025-04-22T17:01:47.683+03:00,767023318.1019011,0,-13.68,100.3656,1,0.4,2025-04-22T17:01:55.525+03:00,120,2,2025-04-22T14:20:19.516+03:00,0.02197104130929222,0
2025-04-22T17:02:33.883+03:00,1745330552.933554,40.95222141235789,29.14026153500561,76.7301,-1,-1,-1,-1,30,17.58926956519938,-9999,38848.918136875,-0.494537353515625,0.7063751220703125,-0.5013275146484375,38848.908060875,-2.816704982002139,-0.7706623362496071,-0.786088257498211,-0.006861140020191669,0.003346368670463562,-0.009423861280083656,-0.0004224479198455811,-0.007307827472686768,0.004475772380828857,XArbitraryZVertical,-0.400035396540271,0.2940920856377371,-0.8214608798972104,0.2805055478300529,-0.49223792552948,0.7075945734977722,-0.5069630742073059,0,0,0,-1,-1,38843.99246366667,unknown,2,2025-04-22T17:02:28.952+03:00,2025-04-21T17:08:51.449+03:00,8997,1.055654,0,0,7505.379,7,22,2025-04-22T17:01:47.683+03:00,767023318.1019011,0,-13.68,100.3656,1,0.4,2025-04-22T17:01:55.525+03:00,120,2,2025-04-22T14:20:19.516+03:00,0.02197104130929222,0
2025-04-22T17:02:33.893+03:00,1745330552.933554,40.95222141235789,29.14026153500561,76.7301,-1,-1,-1,-1,30,17.58926956519938,-9999,38848.92821287501,-0.4926300048828125,0.704010009765625,-0.502593994140625,38848.918136875,-2.816817400105153,-0.7706865858198935,-0.7860223347044257,0.003793102223426104,0.006942701525986195,-0.008665658533573151,-0.001369506120681763,-0.002408981323242188,0.003230810165405273,XArbitraryZVertical,-0.4000289510877886,0.2940825672259865,-0.8214851637567814,0.2804535356496339,-0.4922827184200287,0.7075480222702026,-0.5069845914840698,0,0,0,-1,-1,38843.99246366667,unknown,2,2025-04-22T17:02:28.952+03:00,2025-04-21T17:08:51.449+03:00,8997,1.055654,0,0,7505.379,7,22,2025-04-22T17:01:47.683+03:00,767023318.1019011,0,-13.68,100.3656,1,0.4,2025-04-22T17:01:55.525+03:00,120,2,2025-04-22T14:20:19.516+03:00,0.02197104130929222,0
2025-04-22T17:02:33.903+03:00,1745330552.933554,40.95222141235789,29.14026153500561,76.7301,-1,-1,-1,-1,30,17.58926956519938,-9999,38848.938287875,-0.4831695556640625,0.7022857666015625,-0.506866455078125,38848.92821287501,-2.816863232473099,-0.7706865044348271,-0.7859353091328324,0.002985764993354678,0.0006721555255353451,-0.00789447408169508,-0.002257406711578369,-0.002042293548583984,0.006097972393035889,XArbitraryZVertical,-0.4000223298867885,0.294053960659777,-0.821509331954656,0.2804222867434717,-0.4923255741596222,0.7074865102767944,-0.5070288181304932,0,0,0,-1,-1,38843.99246366667,unknown,2,2025-04-22T17:02:28.952+03:00,2025-04-21T17:08:51.449+03:00,8997,1.055654,0,0,7505.379,7,22,2025-04-22T17:01:47.683+03:00,767023318.1019011,0,-13.68,100.3656,1,0.4,2025-04-22T17:01:55.525+03:00,120,2,2025-04-22T14:20:19.516+03:00,0.02197104130929222,0
2025-04-22T17:02:33.913+03:00,1745330552.933554,40.95222141235789,29.14026153500561,76.7301,-1,-1,-1,-1,30,17.58926956519938,-9999,38848.948363875,-0.4810333251953125,0.696990966796875,-0.5089111328125,38848.938287875,-2.816990122077391,-0.7708300160130813,-0.7859170904611914,-0.01330026425421238,-0.007552750874310732,-0.008005527779459953,0.0006929636001586914,-0.003402650356292725,0.004647970199584961,XArbitraryZVertical,-0.4000626474732958,0.294051299598239,-0.821502160856954,0.2803886693502703,-0.492407351732254,0.7074736356735229,-0.5069674253463745,0,0,0,-1,-1,38843.99246366667,unknown,2,2025-04-22T17:02:28.952+03:00,2025-04-21T17:08:51.449+03:00,8997,1.055654,0,0,7505.379,7,22,2025-04-22T17:01:47.683+03:00,767023318.1019011,0,-13.68,100.3656,1,0.4,2025-04-22T17:01:55.525+03:00,120,2,2025-04-22T14:20:19.516+03:00,0.02197104130929222,0
2025-04-22T17:02:33.923+03:00,1745330552.933554,40.95222141235789,29.14026153500561,76.7301,-1,-1,-1,-1,30,17.58926956519938,-9999,38848.958438875,-0.488037109375,0.6965179443359375,-0.5078887939453125,38848.948363875,-2.817253339513352,-0.7710727423979921,-0.7860111535142306,-0.02045045234262943,-0.004505428951233625,-0.006733003072440624,0.009924918413162231,-0.005971610546112061,-6.645917892456055e-05,XArbitraryZVertical,-0.4001234668782228,0.2941107623723025,-0.8214713658809829,0.2803296694335025,-0.4924840033054352,0.7075400948524475,-0.50680011510849,0,0,0,-1,-1,38843.99246366667,unknown,2,2025-04-22T17:02:28.952+03:00,2025-04-21T17:08:51.449+03:00,8997,1.055654,0,0,7505.379,7,22,2025-04-22T17:01:47.683+03:00,767023318.1019011,0,-13.68,100.3656,1,0.4,2025-04-22T17:01:55.525+03:00,120,2,2025-04-22T14:20:19.516+03:00,0.02197104130929222,0
2025-04-22T17:02:33.933+03:00,1745330552.933554,40.95222141235789,29.14026153500561,76.7301,-1,-1,-1,-1,30,17.58926956519938,-9999,38848.968514875,-0.4907989501953125,0.7025604248046875,-0.5054931640625,38848.958438875,-2.817564837343704,-0.7713463668051306,-0.7861380230529802,-0.02210081368684769,-0.005963243078440428,-0.008926648646593094,0.01016888022422791,-0.01173752546310425,-0.002295017242431641,XArbitraryZVertical,-0.4001897717491874,0.2941897782471616,-0.8214345596664508,0.2802600932300972,-0.4925601184368134,0.7076297402381897,-0.5066010355949402,0,0,0,-1,-1,38843.99246366667,unknown,2,2025-04-22T17:02:28.952+03:00,2025-04-21T17:08:51.449+03:00,8997,1.055654,0,0,7505.379,7,22,2025-04-22T17:01:47.683+03:00,767023318.1019011,0,-13.68,100.3656,1,0.4,2025-04-22T17:01:55.525+03:00,120,2,2025-04-22T14:20:19.516+03:00,0.02197104130929222,0
2025-04-22T17:02:33.943+03:00,1745330552.933554,40.95222141235789,29.14026153500561,76.7301,-1,-1,-1,-1,30,17.58926956519938,-9999,38848.97859087501,-0.493255615234375,0.7091522216796875,-0.501800537109375,38848.968514875,-2.817841183799162,-0.7715969561519265,-0.7862341406804576,-0.01543512009084225,-0.004267009906470776,-0.007313272915780544,0.004251658916473389,-0.01134771108627319,-0.001154899597167969,XArbitraryZVertical,-0.4002518411167943,0.2942516889671612,-0.8214035701855543,0.2801971914888207,-0.4926396012306213,0.7076976299285889,-0.5064288377761841,0,0,0,-1,-1,38843.99246366667,unknown,2,2025-04-22T17:02:28.952+03:00,2025-04-21T17:08:51.449+03:00,8997,1.055654,0,0,7505.379,7,22,2025-04-22T17:01:47.683+03:00,767023318.1019011,0,-13.68,100.3656,1,0.4,2025-04-22T17:01:55.525+03:00,120,2,2025-04-22T14:20:19.516+03:00,0.02197104130929222,0
2025-04-22T17:02:33.953+03:00,1745330552.933554,40.95222141235789,29.14026153500561,76.7301,-1,-1,-1,-1,30,17.58926956519938,-9999,38848.988665875,-0.4935150146484375,0.713958740234375,-0.5000762939453125,38848.97859087501,-2.818057013607291,-0.7717909809006503,-0.7862508541476637,-0.005591012071818113,-0.002844082191586494,-0.009635282680392265,0.001884967088699341,-0.003760635852813721,0.001441776752471924,XArbitraryZVertical,-0.40029974753411,0.2942749797575083,-0.8213915073615649,0.2801394835258509,-0.4927295446395874,0.7077094912528992,-0.5063247084617615,0,0,0,-1,-1,38843.99246366667,unknown,2,2025-04-22T17:02:28.952+03:00,2025-04-21T17:08:51.449+03:00,8997,1.055654,0,0,7505.379,7,22,2025-04-22T17:01:47.683+03:00,767023318.1019011,0,-13.68,100.3656,1,0.4,2025-04-22T17:01:55.525+03:00,120,2,2025-04-22T14:20:19.516+03:00,0.02197104130929222,0
2025-04-22T17:02:33.963+03:00,1745330552.933554,40.95222141235789,29.14026153500561,76.7301,-1,-1,-1,-1,30,17.58926956519938,-9999,38848.998741875,-0.490936279296875,0.714263916015625,-0.50238037109375,38848.988665875,-2.818183549294277,-0.7719215288446694,-0.7862108319759112,-0.0007268814370036125,-0.006167308893054724,-0.005431549623608589,-0.000699460506439209,0.00145566463470459,0.004922568798065186,XArbitraryZVertical,-0.4003348395402998,0.2942646634782112,-0.8213912062889396,0.2801009993797007,-0.492815375328064,0.7076811790466309,-0.5062806606292725,0,0,0,-1,-1,38843.99246366667,unknown,2,2025-04-22T17:02:28.952+03:00,2025-04-21T17:08:51.449+03:00,8997,1.055654,0,0,7505.379,7,22,2025-04-22T17:01:47.683+03:00,767023318.1019011,0,-13.68,100.3656,1,0.4,2025-04-22T17:01:55.525+03:00,120,2,2025-04-22T14:20:19.516+03:00,0.02197104130929222,0
2025-04-22T17:02:33.973+03:00,1745330552.933554,40.95222141235789,29.14026153500561,76.7301,-1,-1,-1,-1,30,17.58926956519938,-9999,38849.008816875,-0.4884185791015625,0.7095947265625,-0.502471923828125,38848.998741875,-2.818240133260704,-0.7720059612606062,-0.7861959239013491,-0.001170830335468054,-0.0005986387841403484,-0.001011234824545681,-0.0004662275314331055,0.006562650203704834,0.006460130214691162,XArbitraryZVertical,-0.4003611893679152,0.2942576359090981,-0.8213854482337094,0.280088059982799,-0.4928656220436096,0.7076706290245056,-0.5062467455863953,0,0,0,-1,-1,38843.99246366667,unknown,2,2025-04-22T17:02:28.952+03:00,2025-04-21T17:08:51.449+03:00,8997,1.055654,0,0,7505.379,7,22,2025-04-22T17:01:47.683+03:00,767023318.1019011,0,-13.68,100.3656,1,0.4,2025-04-22T17:01:55.525+03:00,120,2,2025-04-22T14:20:19.516+03:00,0.02197104130929222,0
2025-04-22T17:02:33.983+03:00,1745330552.933554,40.95222141235789,29.14026153500561,76.7301,-1,-1,-1,-1,30,17.58926956519938,-9999,38849.018892875,-0.4908447265625,0.70440673828125,-0.5008392333984375,38849.008816875,-2.818273904181795,-0.7720435627114635,-0.7862226064707375,-0.003290040884166956,0.0008870060555636883,0.001806589309126139,0.002270936965942383,0.00620800256729126,0.003788292407989502,XArbitraryZVertical,-0.400371631282504,0.2942707595974942,-0.8213770698853733,0.2800835324360607,-0.4928713738918304,0.7076895236968994,-0.5062145590782166,0,0,0,-1,-1,38843.99246366667,unknown,2,2025-04-22T17:02:28.952+03:00,2025-04-21T17:08:51.449+03:00,8997,1.055654,0,0,7505.379,7,22,2025-04-22T17:01:47.683+03:00,767023318.1019011,0,-13.68,100.3656,1,0.4,2025-04-22T17:01:55.525+03:00,120,2,2025-04-22T14:20:19.516+03:00,0.02197104130929222,0
2025-04-22T17:02:33.994+03:00,1745330552.933554,40.95222141235789,29.14026153500561,76.7301,-1,-1,-1,-1,30,17.58926956519938,-9999,38849.02896887501,-0.4947662353515625,0.7064361572265625,-0.5012359619140625,38849.018892875,-2.818258680243758,-0.7719903640248327,-0.7862686653818733,-0.001849803375080228,0.007156886160373688,0.004409562796354294,0.003915011882781982,0.001262187957763672,0.004538834095001221,XArbitraryZVertical,-0.4003519078355881,0.294295130785108,-0.8213762833610088,0.2800885485884298,-0.4928217232227325,0.7077220678329468,-0.5062174797058105,0,0,0,-1,-1,38843.99246366667,unknown,2,2025-04-22T17:02:28.952+03:00,2025-04-21T17:08:51.449+03:00,8997,1.055654,0,0,7505.379,7,22,2025-04-22T17:01:47.683+03:00,767023318.1019011,0,-13.68,100.3656,1,0.4,2025-04-22T17:01:55.525+03:00,120,2,2025-04-22T14:20:19.516+03:00,0.02197104130929222,0
2025-04-22T17:02:34.004+03:00,1745330552.933554,40.95222141235789,29.14026153500561,76.7301,-1,-1,-1,-1,30,17.58926956519938,-9999,38849.039043875,-0.4949798583984375,0.7093048095703125,-0.4999237060546875,38849.02896887501,-2.81816906653557,-0.7718201429280342,-0.7862740965750539,0.005072817672044039,0.01116840541362762,0.004513426218181849,0.000850677490234375,-0.004097461700439453,0.006176352500915527,XArbitraryZVertical,-0.4002951650222223,0.2943033745652929,-0.8213967475824914,0.280101083380185,-0.4927329123020172,0.7077258825302124,-0.5062986016273499,0,0,0,-1,-1,38843.99246366667,unknown,2,2025-04-22T17:02:28.952+03:00,2025-04-21T17:08:51.449+03:00,8997,1.055654,0,0,7505.379,7,22,2025-04-22T17:01:47.683+03:00,767023318.1019011,0,-13.68,100.3656,1,0.4,2025-04-22T17:01:55.525+03:00,120,2,2025-04-22T14:20:19.516+03:00,0.02197104130929222,0
2025-04-22T17:02:34.014+03:00,1745330552.933554,40.95222141235789,29.14026153500561,76.7301,-1,-1,-1,-1,30,17.58926956519938,-9999,38849.049119875,-0.4926910400390625,0.70745849609375,-0.5005035400390625,38849.039043875,-2.818071155944041,-0.7716134119807658,-0.7862667245935052,0.004311686381697655,0.01095695048570633,0.001636413391679525,-0.002073198556900024,-0.001254141330718994,0.00483238697052002,XArbitraryZVertical,-0.4002246793327169,0.2943095262193203,-0.8214259301213346,0.2801098218606374,-0.4926318824291229,0.7077206969261169,-0.5064042210578918,0,0,0,-1,-1,38843.99246366667,unknown,2,2025-04-22T17:02:28.952+03:00,2025-04-21T17:08:51.449+03:00,8997,1.055654,0,0,7505.379,7,22,2025-04-22T17:01:47.683+03:00,767023318.1019011,0,-13.68,100.3656,1,0.4,2025-04-22T17:01:55.525+03:00,120,2,2025-04-22T14:20:19.516+03:00,0.02197104130929222,0
2025-04-22T17:02:34.024+03:00,1745330552.933554,40.95222141235789,29.14026153500561,76.7301,-1,-1,-1,-1,30,17.58926956519938,-9999,38849.059194875,-0.490509033203125,0.7075042724609375,-0.502105712890625,38849.049119875,-2.818032015619346,-0.7714893517136694,-0.7862273400251639,0.001924228970892727,0.007681861519813538,-0.001897568115964532,-0.002711713314056396,0.002054333686828613,0.006668269634246826,XArbitraryZVertical,-0.4001795746072612,0.2943019835631109,-0.8214532585306209,0.280102011572966,-0.4925884902477264,0.7076928615570068,-0.5064852833747864,0,0,0,-1,-1,38843.99246366667,unknown,2,2025-04-22T17:02:28.952+03:00,2025-04-21T17:08:51.449+03:00,8997,1.055654,0,0,7505.379,7,22,2025-04-22T17:01:47.683+03:00,767023318.1019011,0,-13.68,100.3656,1,0.4,2025-04-22T17:01:55.525+03:00,120,2,2025-04-22T14:20:19.516+03:00,0.02197104130929222,0
2025-04-22T17:02:34.034+03:00,1745330552.933554,40.95222141235789,29.14026153500561,76.7301,-1,-1,-1,-1,30,17.58926956519938,-9999,38849.069270875,-0.4899444580078125,0.70855712890625,-0.5016632080078125,38849.059194875,-2.817978748252428,-0.7713909392939254,-0.7861791565978383,0.008645514957606792,0.004056234378367662,9.07479552552104e-05,0.0002529919147491455,-0.0007344484329223633,0.005261063575744629,XArbitraryZVertical,-0.400147091548429,0.2942841903873321,-0.8214753046682253,0.2801025246566965,-0.4925624132156372,0.7076588273048401,-0.5065582394599915,0,0,0,-1,-1,38843.99246366667,unknown,2,2025-04-22T17:02:28.952+03:00,2025-04-21T17:08:51.449+03:00,8997,1.055654,0,0,7505.379,7,22,2025-04-22T17:01:47.683+03:00,767023318.1019011,0,-13.68,100.3656,1,0.4,2025-04-22T17:01:55.525+03:00,120,2,2025-04-22T14:20:19.516+03:00,0.02197104130929222,0
2025-04-22T17:02:34.044+03:00,1745330552.933554,40.95222141235789,29.14026153500561,76.7301,-1,-1,-1,-1,30,17.58926956519938,-9999,38849.07934687501,-0.48876953125,0.7082977294921875,-0.503753662109375,38849.069270875,-2.817888919528825,-0.7712982329120405,-0.7860917135122385,0.01222460344433784,0.005529827903956175,-0.005154048092663288,0.002415865659713745,-0.0002607107162475586,0.004939138889312744,XArbitraryZVertical,-0.4001224191495805,0.2942412583768768,-0.8214990245833502,0.2801132863937295,-0.4925585687160492,0.707597017288208,-0.5066482424736023,0,0,0,-1,-1,38843.99246366667,unknown,2,2025-04-22T17:02:28.952+03:00,2025-04-21T17:08:51.449+03:00,8997,1.055654,0,0,7505.379,7,22,2025-04-22T17:01:47.683+03:00,767023318.1019011,0,-13.68,100.3656,1,0.4,2025-04-22T17:01:55.525+03:00,120,2,2025-04-22T14:20:19.516+03:00,0.02197104130929222,0
2025-04-22T17:02:34.054+03:00,1745330552.933554,40.95222141235789,29.14026153500561,76.7301,-1,-1,-1,-1,30,17.58926956519938,-9999,38849.089421875,-0.48828125,0.7028961181640625,-0.50311279296875,38849.07934687501,-2.817806743806029,-0.7712456790358206,-0.7860080197609203,0.01253033522516489,-0.001670827157795429,0.0005158216808922589,0.002048999071121216,0.001385331153869629,0.004381895065307617,XArbitraryZVertical,-0.4001131039799921,0.2941958683163436,-0.8215149970214125,0.2801273505387324,-0.4925732016563416,0.7075378894805908,-0.5067166090011597,0,0,0,-1,-1,38843.99246366667,unknown,2,2025-04-22T17:02:28.952+03:00,2025-04-21T17:08:51.449+03:00,8997,1.055654,0,0,7505.379,7,22,2025-04-22T17:01:47.683+03:00,767023318.1019011,0,-13.68,100.3656,1,0.4,2025-04-22T17:01:55.525+03:00,120,2,2025-04-22T14:20:19.516+03:00,0.02197104130929222,0
2025-04-22T17:02:34.064+03:00,1745330552.933554,40.95222141235789,29.14026153500561,76.7301,-1,-1,-1,-1,30,17.58926956519938,-9999,38849.099497875,-0.4909210205078125,0.6997833251953125,-0.5029144287109375,38849.089421875,-2.817728842453734,-0.7711929246730695,-0.7859786556582821,0.001771829556673765,0.002103538019582629,0.0001558289513923228,0.004173010587692261,-1.293420791625977e-05,0.003080010414123535,XArbitraryZVertical,-0.4001029523124947,0.2941749255549148,-0.8215206160311497,0.2801473953378321,-0.4925609827041626,0.707517147064209,-0.5067574977874756,0,0,0,-1,-1,38843.99246366667,unknown,2,2025-04-22T17:02:28.952+03:00,2025-04-21T17:08:51.449+03:00,8997,1.055654,0,0,7505.379,7,22,2025-04-22T17:01:47.683+03:00,767023318.1019011,0,-13.68,100.3656,1,0.4,2025-04-22T17:01:55.525+03:00,120,2,2025-04-22T14:20:19.516+03:00,0.02197104130929222,0
2025-04-22T17:02:34.074+03:00,1745330552.933554,40.95222141235789,29.14026153500561,76.7301,-1,-1,-1,-1,30,17.58926956519938,-9999,38849.109573875,-0.490386962890625,0.7011566162109375,-0.5041046142578125,38849.099497875,-2.81770873509684,-0.7711657080757183,-0.7860038579786207,0.002471441868692636,0.001086476724594831,0.001416569459252059,0.003902673721313477,-0.005127191543579102,0.004469156265258789,XArbitraryZVertical,-0.4000946696179331,0.2941856378139021,-0.8215181723238008,0.2801552535201808,-0.4925347864627838,0.7075349688529968,-0.5067581534385681,0,0,0,-1,-1,38843.99246366667,unknown,2,2025-04-22T17:02:28.952+03:00,2025-04-21T17:08:51.449+03:00,8997,1.055654,0,0,7505.379,7,22,2025-04-22T17:01:47.683+03:00,767023318.1019011,0,-13.68,100.3656,1,0.4,2025-04-22T17:01:55.525+03:00,120,2,2025-04-22T14:20:19.516+03:00,0.02197104130929222,0
2025-04-22T17:02:34.084+03:00,1745330552.933554,40.95222141235789,29.14026153500561,76.7301,-1,-1,-1,-1,30,17.58926956519938,-9999,38849.119648875,-0.4925079345703125,0.7070465087890625,-0.5023345947265625,38849.109573875,-2.817713109359752,-0.7711776087218674,-0.7860403788629154,-0.003072527004405856,-0.0005532982759177685,0.001633849926292896,0.001876503229141235,-0.007991194725036621,0.003559708595275879,XArbitraryZVertical,-0.4000988559744629,0.2942007253530441,-0.8215088921780921,0.2801604190726681,-0.4925227463245392,0.7075607776641846,-0.5067336559295654,0,0,0,-1,-1,38843.99246366667,unknown,2,2025-04-22T17:02:28.952+03:00,2025-04-21T17:08:51.449+03:00,8997,1.055654,0,0,7505.379,7,22,2025-04-22T17:01:47.683+03:00,767023318.1019011,0,-13.68,100.3656,1,0.4,2025-04-22T17:01:55.525+03:00,120,2,2025-04-22T14:20:19.516+03:00,0.02197104130929222,0
2025-04-22T17:02:34.095+03:00,1745330552.933554,40.95222141235789,29.14026153500561,76.7301,-1,-1,-1,-1,30,17.58926956519938,-9999,38849.12972487501,-0.495452880859375,0.7109375,-0.503143310546875,38849.119648875,-2.817689555620191,-0.7711579217775045,-0.7860635546175175,0.006348138675093651,0.002950356341898441,0.002348109846934676,0.001916170120239258,-0.005947589874267578,0.003191471099853516,XArbitraryZVertical,-0.4000941794975238,0.2942088172285581,-0.8215048605255988,0.2801705098754316,-0.4925013482570648,0.707577109336853,-0.5067316293716431,0,0,0,-1,-1,38843.99246366667,unknown,2,2025-04-22T17:02:28.952+03:00,2025-04-21T17:08:51.449+03:00,8997,1.055654,0,0,7505.379,7,22,2025-04-22T17:01:47.683+03:00,767023318.1019011,0,-13.68,100.3656,1,0.4,2025-04-22T17:01:55.525+03:00,120,2,2025-04-22T14:20:19.516+03:00,0.02197104130929222,0
2025-04-22T17:02:34.104+03:00,1745330552.933554,40.95222141235789,29.14026153500561,76.7301,-1,-1,-1,-1,30,17.58926956519938,-9999,38849.139799875,-0.4940338134765625,0.710784912109375,-0.503509521484375,38849.12972487501,-2.817587027808591,-0.7710510694879029,-0.7860436287847608,0.0114715276286006,0.00661167036741972,0.005618471652269363,-6.607174873352051e-05,0.001009225845336914,0.003940820693969727,XArbitraryZVertical,-0.4000654101966526,0.2941946256460903,-0.8215159304601556,0.280194060578265,-0.4924570322036743,0.707563042640686,-0.5067943930625916,0,0,0,-1,-1,38843.99246366667,unknown,2,2025-04-22T17:02:28.952+03:00,2025-04-21T17:08:51.449+03:00,8997,1.055654,0,0,7505.379,7,22,2025-04-22T17:01:47.683+03:00,767023318.1019011,0,-13.68,100.3656,1,0.4,2025-04-22T17:01:55.525+03:00,120,2,2025-04-22T14:20:19.516+03:00,0.02197104130929222,0
2025-04-22T17:02:34.115+03:00,1745330552.933554,40.95222141235789,29.14026153500561,76.7301,-1,-1,-1,-1,30,17.58926956519938,-9999,38849.149875875,-0.4904327392578125,0.708343505859375,-0.501708984375,38849.139799875,-2.817418007222614,-0.7708818103312121,-0.7859808863237325,0.01591501198709011,0.005031883250921965,0.003544934326782823,-0.003233730792999268,0.004334151744842529,0.003964483737945557,XArbitraryZVertical,-0.4000208904838671,0.2941573354984762,-0.821538745548634,0.2802296292218197,-0.4924021065235138,0.7075186967849731,-0.5069094896316528,0,0,0,-1,-1,38843.99246366667,unknown,2,2025-04-22T17:02:28.952+03:00,2025-04-21T17:08:51.449+03:00,8997,1.055654,0,0,7505.379,7,22,2025-04-22T17:01:47.683+03:00,767023318.1019011,0,-13.68,100.3656,1,0.4,2025-04-22T17:01:55.525+03:00,120,2,2025-04-22T14:20:19.516+03:00,0.02197104130929222,0
2025-04-22T17:02:34.124+03:00,1745330552.933554,40.95222141235789,29.14026153500561,76.7301,-1,-1,-1,-1,30,17.58926956519938,-9999,38849.159951875,-0.4890594482421875,0.701568603515625,-0.50335693359375,38849.149875875,-2.817226403248803,-0.770693757117245,-0.7859227999855971,0.01398774888366461,0.003471070900559425,0.004278801847249269,-0.0009963512420654297,0.003474950790405273,0.003338873386383057,XArbitraryZVertical,-0.3999719302069113,0.2941201477952655,-0.8215613314112848,0.280272389857799,-0.4923354387283325,0.7074776291847229,-0.5070315599441528,0,0,0,-1,-1,38843.99246366667,unknown,2,2025-04-22T17:02:28.952+03:00,2025-04-21T17:08:51.449+03:00,8997,1.055654,0,0,7505.379,7,22,2025-04-22T17:01:47.683+03:00,767023318.1019011,0,-13.68,100.3656,1,0.4,2025-04-22T17:01:55.525+03:00,120,2,2025-04-22T14:20:19.516+03:00,0.02197104130929222,0
2025-04-22T17:02:34.135+03:00,1745330552.933554,40.95222141235789,29.14026153500561,76.7301,-1,-1,-1,-1,30,17.58926956519938,-9999,38849.170026875,-0.4886322021484375,0.69921875,-0.50177001953125,38849.159951875,-2.817076108982715,-0.7705448790489695,-0.7859038928361398,0.005212100688368082,0.003164540976285934,0.005268432665616274,0.001729846000671387,-0.0001890659332275391,0.00519174337387085,XArbitraryZVertical,-0.3999329103930569,0.2941027502398274,-0.8215738830651067,0.2803095376316424,-0.4922692477703094,0.7074642777442932,-0.5071144700050354,0,0,0,-1,-1,38843.99246366667,unknown,2,2025-04-22T17:02:28.952+03:00,2025-04-21T17:08:51.449+03:00,8997,1.055654,0,0,7505.379,7,22,2025-04-22T17:01:47.683+03:00,767023318.1019011,0,-13.68,100.3656,1,0.4,2025-04-22T17:01:55.525+03:00,120,2,2025-04-22T14:20:19.516+03:00,0.02197104130929222,0
2025-04-22T17:02:34.145+03:00,1745330552.933554,40.95222141235789,29.14026153500561,76.7301,-1,-1,-1,-1,30,17.58926956519938,-9999,38849.18010287501,-0.489227294921875,0.6999664306640625,-0.5012054443359375,38849.170026875,-2.816988622039441,-0.7704546568214443,-0.7859469290456397,-0.0009403337026014924,0.002357070567086339,0.006185625214129686,0.00299033522605896,-0.006826519966125488,0.004100382328033447,XArbitraryZVertical,-0.3999086396883599,0.2941165909480997,-0.8215708890243761,0.2803383450010419,-0.4922022819519043,0.7074947357177734,-0.5071370005607605,0,0,0,-1,-1,38843.99246366667,unknown,2,2025-04-22T17:02:28.952+03:00,2025-04-21T17:08:51.449+03:00,8997,1.055654,0,0,7505.379,7,22,2025-04-22T17:01:47.683+03:00,767023318.1019011,0,-13.68,100.3656,1,0.4,2025-04-22T17:01:55.525+03:00,120,2,2025-04-22T14:20:19.516+03:00,0.02197104130929222,0
2025-04-22T17:02:34.155+03:00,1745330552.933554,40.95222141235789,29.14026153500561,76.7301,-1,-1,-1,-1,30,17.58926956519938,-9999,38849.190177875,-0.49017333984375,0.7034912109375,-0.503875732421875,38849.18010287501,-2.816941090714024,-0.7703948813493791,-0.7860119515006058,0.001149981399066746,0.002701950026676059,0.004822352901101112,0.003401100635528564,-0.008764564990997314,0.005714297294616699,XArbitraryZVertical,-0.3998909266896161,0.2941436367539849,-0.8215631292715464,0.2803583594848931,-0.4921400249004364,0.7075406908988953,-0.5071335434913635,0,0,0,-1,-1,38843.99246366667,unknown,2,2025-04-22T17:02:28.952+03:00,2025-04-21T17:08:51.449+03:00,8997,1.055654,0,0,7505.379,7,22,2025-04-22T17:01:47.683+03:00,767023318.1019011,0,-13.68,100.3656,1,0.4,2025-04-22T17:01:55.525+03:00,120,2,2025-04-22T14:20:19.516+03:00,0.02197104130929222,0
2025-04-22T17:02:34.165+03:00,1745330552.933554,40.95222141235789,29.14026153500561,76.7301,-1,-1,-1,-1,30,17.58926956519938,-9999,38849.200253875,-0.4884796142578125,0.707244873046875,-0.50384521484375,38849.190177875,-2.816887354402886,-0.770337630875626,-0.7860266167771562,0.00188714440446347,0.003897442948073149,0.006059125065803528,0.002876520156860352,-0.007935643196105957,0.00614696741104126,XArbitraryZVertical,-0.3998752992073505,0.2941473071266865,-0.8215639897345747,0.2803741006079424,-0.4921037256717682,0.7075510025024414,-0.5071542263031006,0,0,0,-1,-1,38843.99246366667,unknown,2,2025-04-22T17:02:28.952+03:00,2025-04-21T17:08:51.449+03:00,8997,1.055654,0,0,7505.379,7,22,2025-04-22T17:01:47.683+03:00,767023318.1019011,0,-13.68,100.3656,1,0.4,2025-04-22T17:01:55.525+03:00,120,2,2025-04-22T14:20:19.516+03:00,0.02197104130929222,0
2025-04-22T17:02:34.176+03:00,1745330552.933554,40.95222141235789,29.14026153500561,76.7301,-1,-1,-1,-1,30,17.58926956519938,-9999,38849.210329875,-0.4865570068359375,0.7071380615234375,-0.5035247802734375,38849.200253875,-2.816787085022567,-0.7702599174129431,-0.7860333374117268,0.004043239634484053,0.0006523812189698219,0.005749132949858904,0.001430004835128784,-0.003637433052062988,0.003633618354797363,XArbitraryZVertical,-0.3998581042442345,0.294141060726752,-0.8215641396973911,0.2804048198321589,-0.4920610189437866,0.7075557708740234,-0.5071890950202942,0,0,0,-1,-1,38843.99246366667,unknown,2,2025-04-22T17:02:28.952+03:00,2025-04-21T17:08:51.449+03:00,8997,1.055654,0,0,7505.379,7,22,2025-04-22T17:01:47.683+03:00,767023318.1019011,0,-13.68,100.3656,1,0.4,2025-04-22T17:01:55.525+03:00,120,2,2025-04-22T14:20:19.516+03:00,0.02197104130929222,0
2025-04-22T17:02:34.185+03:00,1745330552.933554,40.95222141235789,29.14026153500561,76.7301,-1,-1,-1,-1,30,17.58926956519938,-9999,38849.220404875,-0.4874725341796875,0.706085205078125,-0.5021209716796875,38849.210329875,-2.816670902408744,-0.7701821576061054,-0.7860294840455297,0.008960500359535217,-8.877646178007126e-05,0.002316850936040282,0.003864437341690063,-0.0004913806915283203,0.004040062427520752,XArbitraryZVertical,-0.3998432533657064,0.2941270596801431,-0.821564189479049,0.2804405610026894,-0.4920234680175781,0.7075530290603638,-0.5072292685508728,0,0,0,-1,-1,38843.99246366667,unknown,2,2025-04-22T17:02:28.952+03:00,2025-04-21T17:08:51.449+03:00,8997,1.055654,0,0,7505.379,7,22,2025-04-22T17:01:47.683+03:00,767023318.1019011,0,-13.68,100.3656,1,0.4,2025-04-22T17:01:55.525+03:00,120,2,2025-04-22T14:20:19.516+03:00,0.02197104130929222,0
2025-04-22T17:02:34.195+03:00,1745330552.933554,40.95222141235789,29.14026153500561,76.7301,-1,-1,-1,-1,30,17.58926956519938,-9999,38849.23048087501,-0.4881744384765625,0.7014617919921875,-0.5020294189453125,38849.220404875,-2.816603179661358,-0.7701541855717382,-0.7860216670313818,0.001573690329678357,-0.002012377604842186,0.002834835788235068,0.004952698945999146,-0.000211179256439209,0.004317164421081543,XArbitraryZVertical,-0.3998417263502855,0.2941140331442805,-0.8215619257432262,0.2804631553719181,-0.4920131862163544,0.7075475454330444,-0.5072470307350159,0,0,0,-1,-1,38843.99246366667,unknown,2,2025-04-22T17:02:28.952+03:00,2025-04-21T17:08:51.449+03:00,8997,1.055654,0,0,7505.379,7,22,2025-04-22T17:01:47.683+03:00,767023318.1019011,0,-13.68,100.3656,1,0.4,2025-04-22T17:01:55.525+03:00,120,2,2025-04-22T14:20:19.516+03:00,0.02197104130929222,0
2025-04-22T17:02:34.209+03:00,1745330552.933554,40.95222141235789,29.14026153500561,76.7301,-1,-1,-1,-1,30,17.58926956519938,-9999,38849.240556875,-0.4888763427734375,0.702392578125,-0.50323486328125,38849.23048087501,-2.816571462210084,-0.7701450487440249,-0.786058869490734,-0.0009190284181386232,0.0009530521929264069,0.006044211331754923,0.00473138689994812,-0.002465248107910156,0.005431950092315674,XArbitraryZVertical,-0.3998425717397199,0.2941251186588207,-0.8215517532318747,0.2804801422102798,-0.4919902086257935,0.7075738310813904,-0.507232666015625,0,0,0,-1,-1,38843.99246366667,unknown,2,2025-04-22T17:02:28.952+03:00,2025-04-21T17:08:51.449+03:00,8997,1.055654,0,0,7505.379,7,22,2025-04-22T17:01:47.683+03:00,767023318.1019011,0,-13.68,100.3656,1,0.4,2025-04-22T17:01:55.525+03:00,120,2,2025-04-22T14:20:19.516+03:00,0.02197104130929222,0
2025-04-22T17:02:34.216+03:00,1745330552.933554,40.95222141235789,29.14026153500561,76.7301,-1,-1,-1,-1,30,17.58926956519938,-9999,38849.250631875,-0.4910736083984375,0.70562744140625,-0.5028228759765625,38849.240556875,-2.81656151997875,-0.7701527949110941,-0.7861365843708794,-0.004698054399341345,-0.0009460477158427238,0.003613810520619154,0.004284977912902832,-0.005892455577850342,0.00496143102645874,XArbitraryZVertical,-0.3998471108996473,0.2941558282105871,-0.8215328569344093,0.2804964308284145,-0.4919557571411133,0.7076287269592285,-0.5071892738342285,0,0,0,-1,-1,38843.99246366667,unknown,2,2025-04-22T17:02:28.952+03:00,2025-04-21T17:08:51.449+03:00,8997,1.055654,0,0,7505.379,7,22,2025-04-22T17:01:47.683+03:00,767023318.1019011,0,-13.68,100.3656,1,0.4,2025-04-22T17:01:55.525+03:00,120,2,2025-04-22T14:20:19.516+03:00,0.02197104130929222,0
2025-04-22T17:02:34.225+03:00,1745330552.933554,40.95222141235789,29.14026153500561,76.7301,-1,-1,-1,-1,30,17.58926956519938,-9999,38849.260707875,-0.4907989501953125,0.7058563232421875,-0.504364013671875,38849.250631875,-2.81657089786288,-0.7701683601056346,-0.7862071777152372,-0.006888836622238159,-0.000393774826079607,0.005258412100374699,0.003251045942306519,-0.005698084831237793,0.00420069694519043,XArbitraryZVertical,-0.399851994456395,0.2941861463892208,-0.8215167580796482,0.2805049291174711,-0.491928905248642,0.7076786160469055,-0.5071457624435425,0,0,0,-1,-1,38843.99246366667,unknown,2,2025-04-22T17:02:28.952+03:00,2025-04-21T17:08:51.449+03:00,8997,1.055654,0,0,7505.379,7,22,2025-04-22T17:01:47.683+03:00,767023318.1019011,0,-13.68,100.3656,1,0.4,2025-04-22T17:01:55.525+03:00,120,2,2025-04-22T14:20:19.516+03:00,0.02197104130929222,0
2025-04-22T17:02:34.235+03:00,1745330552.933554,40.95222141235789,29.14026153500561,76.7301,-1,-1,-1,-1,30,17.58926956519938,-9999,38849.270782875,-0.4922943115234375,0.706695556640625,-0.504608154296875,38849.260707875,-2.816584554479471,-0.7701747691875395,-0.7862949357417315,-0.002616061363369226,0.003314144443720579,0.004946555942296982,5.248188972473145e-05,-0.001533448696136475,0.004275083541870117,XArbitraryZVertical,-0.3998524646221824,0.2942260678864384,-0.8214995561351337,0.2805127666867213,-0.4918889105319977,0.7077406048774719,-0.5070980787277222,0,0,0,-1,-1,38843.99246366667,unknown,2,2025-04-22T17:02:28.952+03:00,2025-04-21T17:08:51.449+03:00,8997,1.055654,0,0,7505.379,7,22,2025-04-22T17:01:47.683+03:00,767023354.2014439,0,-13.27,100.3636,1,0.4,2025-04-22T17:01:55.525+03:00,120,2,2025-04-22T14:20:19.516+03:00,0.02197104130929222,0
2025-04-22T17:02:34.246+03:00,1745330552.933554,40.95222141235789,29.14026153500561,76.7301,-1,-1,-1,-1,30,17.58926956519938,-9999,38849.280858875,-0.494049072265625,0.70806884765625,-0.50592041015625,38849.270782875,-2.816563642074289,-0.7701335632753278,-0.7863473861289378,-0.0008357380283996463,0.003125592600554228,0.004609666299074888,0.0007686614990234375,-0.001875638961791992,0.002147674560546875,XArbitraryZVertical,-0.3998385281999883,0.2942504389756274,-0.8214941772673149,0.2805227660429347,-0.4918421506881714,0.7077776789665222,-0.5070916414260864,0,0,0,-1,-1,38843.99246366667,unknown,2,2025-04-22T17:02:28.952+03:00,2025-04-21T17:08:51.449+03:00,8997,1.055654,0,0,7505.379,7,22,2025-04-22T17:01:47.683+03:00,767023354.2014439,0,-13.27,100.3636,1,0.4,2025-04-22T17:01:55.525+03:00,120,2,2025-04-22T14:20:19.516+03:00,0.02197104130929222,0
2025-04-22T17:02:34.256+03:00,1745330552.933554,40.95222141235789,29.14026153500561,76.7301,-1,-1,-1,-1,30,17.58926956519938,-9999,38849.290934875,-0.489898681640625,0.707977294921875,-0.506591796875,38849.280858875,-2.816518724522188,-0.7700704186523319,-0.7863682309643456,0.0001277935807593167,0.003068867372348905,0.004403803963214159,-0.001348823308944702,-0.001386880874633789,0.001664578914642334,XArbitraryZVertical,-0.3998191659306589,0.294259367092262,-0.821496252508629,0.2805348944980541,-0.4917998611927032,0.7077924013137817,-0.5071121454238892,0,0,0,-1,-1,38843.99246366667,unknown,2,2025-04-22T17:02:28.952+03:00,2025-04-21T17:08:51.449+03:00,8997,1.055654,0,0,7505.379,7,22,2025-04-22T17:01:47.683+03:00,767023354.2014439,0,-13.27,100.3636,1,0.4,2025-04-22T17:01:55.525+03:00,120,2,2025-04-22T14:20:19.516+03:00,0.02197104130929222,0
2025-04-22T17:02:34.266+03:00,1745330552.933554,40.95222141235789,29.14026153500561,76.7301,-1,-1,-1,-1,30,17.58926956519938,-9999,38849.301009875,-0.489410400390625,0.7083587646484375,-0.5042266845703125,38849.290934875,-2.816444184349958,-0.7699927914256429,-0.7863747246588909,0.005274285562336445,0.002815267769619823,0.003178716637194157,-0.001818597316741943,0.0002412796020507812,0.0005245208740234375,XArbitraryZVertical,-0.3997982295771266,0.2942581615730057,-0.8215000322798306,0.2805550174255617,-0.4917573034763336,0.7077969908714294,-0.5071470141410828,0,0,0,-1,-1,38843.99246366667,unknown,2,2025-04-22T17:02:28.952+03:00,2025-04-21T17:08:51.449+03:00,8997,1.055654,0,0,7505.379,7,22,2025-04-22T17:01:47.683+03:00,767023354.2014439,0,-13.27,100.3636,1,0.4,2025-04-22T17:01:55.525+03:00,120,2,2025-04-22T14:20:19.516+03:00,0.02197104130929222,0
2025-04-22T17:02:34.276+03:00,1745330552.933554,40.95222141235789,29.14026153500561,76.7301,-1,-1,-1,-1,30,17.58926956519938,-9999,38849.311085875,-0.492340087890625,0.7051239013671875,-0.50225830078125,38849.301009875,-2.816377273681027,-0.7699442264666138,-0.7863680336108473,0.003186101093888283,-0.0006316616199910641,0.002809335943311453,0.001211762428283691,0.0006121397018432617,0.0002009272575378418,XArbitraryZVertical,-0.399788145174392,0.2942487089071656,-0.8215016705823818,0.280574400660005,-0.4917359352111816,0.7077922224998474,-0.5071742534637451,0,0,0,-1,-1,38843.99246366667,unknown,2,2025-04-22T17:02:28.952+03:00,2025-04-21T17:08:51.449+03:00,8997,1.055654,0,0,7505.379,7,22,2025-04-22T17:01:47.683+03:00,767023354.2014439,0,-13.27,100.3636,1,0.4,2025-04-22T17:01:55.525+03:00,120,2,2025-04-22T14:20:19.516+03:00,0.02197104130929222,0
2025-04-22T17:02:34.286+03:00,1745330552.933554,40.95222141235789,29.14026153500561,76.7301,-1,-1,-1,-1,30,17.58926956519938,-9999,38849.321161875,-0.4913330078125,0.70379638671875,-0.5023651123046875,38849.311085875,-2.816348278818643,-0.7699369104348398,-0.7863840944186301,0.00043066157377325,-0.002092805225402117,0.0009487851057201624,0.00200885534286499,0.0006008148193359375,0.003827929496765137,XArbitraryZVertical,-0.399789379478533,0.294250911595246,-0.8214957968605093,0.2805875208669698,-0.4917243123054504,0.7078036069869995,-0.5071697235107422,0,0,0,-1,-1,38843.99246366667,unknown,2,2025-04-22T17:02:28.952+03:00,2025-04-21T17:08:51.449+03:00,8997,1.055654,0,0,7505.379,7,22,2025-04-22T17:01:47.683+03:00,767023354.2014439,0,-13.27,100.3636,1,0.4,2025-04-22T17:01:55.525+03:00,120,2,2025-04-22T14:20:19.516+03:00,0.02197104130929222,0
2025-04-22T17:02:34.296+03:00,1745330552.933554,40.95222141235789,29.14026153500561,76.7301,-1,-1,-1,-1,30,17.58926956519938,-9999,38849.331236875,-0.4912261962890625,0.705230712890625,-0.5030364990234375,38849.321161875,-2.816335900540585,-0.7699530753284189,-0.7863858164158044,-0.001281218370422721,-0.002542346715927124,0.001922703115269542,-0.000257343053817749,-0.00353550910949707,0.004368424415588379,XArbitraryZVertical,-0.3997978294242667,0.2942469027714082,-0.8214905225126685,0.280595230913809,-0.4917317032814026,0.707804799079895,-0.5071609020233154,0,0,0,-1,-1,38843.99246366667,unknown,2,2025-04-22T17:02:28.952+03:00,2025-04-21T17:08:51.449+03:00,8997,1.055654,0,0,7505.379,7,22,2025-04-22T17:01:47.683+03:00,767023354.2014439,0,-13.27,100.3636,1,0.4,2025-04-22T17:01:55.525+03:00,120,2,2025-04-22T14:20:19.516+03:00,0.02197104130929222,0
2025-04-22T17:02:34.306+03:00,1745330552.933554,40.95222141235789,29.14026153500561,76.7301,-1,-1,-1,-1,30,17.58926956519938,-9999,38849.341312875,-0.4922637939453125,0.705413818359375,-0.503082275390625,38849.331236875,-2.816291115031016,-0.7699501754923587,-0.7863931148754116,0.003201614134013653,-0.001843067351728678,0.001278451178222895,0.0006226301193237305,-0.003784835338592529,0.004778146743774414,XArbitraryZVertical,-0.3998032151676374,0.2942415251326108,-0.8214833340217018,0.2806142388996861,-0.4917266368865967,0.7078099846839905,-0.507158637046814,0,0,0,-1,-1,38843.99246366667,unknown,2,2025-04-22T17:02:28.952+03:00,2025-04-21T17:08:51.449+03:00,8997,1.055654,0,0,7505.379,7,22,2025-04-22T17:01:47.683+03:00,767023354.2014439,0,-13.27,100.3636,1,0.4,2025-04-22T17:01:55.525+03:00,120,2,2025-04-22T14:20:19.516+03:00,0.02197104130929222,0
2025-04-22T17:02:34.316+03:00,1745330552.933554,40.95222141235789,29.14026153500561,76.7301,-1,-1,-1,-1,30,17.58926956519938,-9999,38849.351387875,-0.4907989501953125,0.70635986328125,-0.5014190673828125,38849.341312875,-2.816245543055676,-0.7699078986253913,-0.7863882954412525,0.00180132407695055,0.002460601041093469,0.0005452830228023231,0.0001305937767028809,-0.002316534519195557,0.004465699195861816,XArbitraryZVertical,-0.3997925488484664,0.2942362307977893,-0.821486447266261,0.2806260551886487,-0.4917076230049133,0.7078065872192383,-0.5071819424629211,0,0,0,-1,-1,38843.99246366667,unknown,2,2025-04-22T17:02:28.952+03:00,2025-04-21T17:08:51.449+03:00,8997,1.055654,0,0,7505.379,7,22,2025-04-22T17:01:47.683+03:00,767023354.2014439,0,-13.27,100.3636,1,0.4,2025-04-22T17:01:55.525+03:00,120,2,2025-04-22T14:20:19.516+03:00,0.02197104130929222,0
2025-04-22T17:02:34.326+03:00,1745330552.933554,40.95222141235789,29.14026153500561,76.7301,-1,-1,-1,-1,30,17.58926956519938,-9999,38849.361463875,-0.491241455078125,0.70574951171875,-0.5005645751953125,38849.351387875,-2.816195055770613,-0.7698406293030043,-0.7863736207469425,0.002025229390710592,0.006208933424204588,0.002735699759796262,-0.0007050931453704834,-0.002672493457794189,0.004857122898101807,XArbitraryZVertical,-0.3997724037272245,0.2942292674020626,-0.8214956085466436,0.2806347973576211,-0.4916805922985077,0.7077962160110474,-0.5072223544120789,0,0,0,-1,-1,38843.99246366667,unknown,2,2025-04-22T17:02:28.952+03:00,2025-04-21T17:08:51.449+03:00,8997,1.055654,0,0,7505.379,7,22,2025-04-22T17:01:47.683+03:00,767023354.2014439,0,-13.27,100.3636,1,0.4,2025-04-22T17:01:55.525+03:00,120,2,2025-04-22T14:20:19.516+03:00,0.02197104130929222,0
2025-04-22T17:02:34.336+03:00,1745330552.933554,40.95222141235789,29.14026153500561,76.7301,-1,-1,-1,-1,30,17.58926956519938,-9999,38849.371539875,-0.491119384765625,0.7044830322265625,-0.4997100830078125,38849.361463875,-2.816152547406683,-0.7697665430008759,-0.7863532464893602,0.004830869380384684,0.006806280463933945,0.0001995713682845235,0.0008695423603057861,-0.0006591677665710449,0.004995405673980713,XArbitraryZVertical,-0.3997482620507861,0.2942223274029924,-0.8215085803672195,0.2806384575179139,-0.4916530549526215,0.7077817916870117,-0.5072690844535828,0,0,0,-1,-1,38843.99246366667,unknown,2,2025-04-22T17:02:28.952+03:00,2025-04-21T17:08:51.449+03:00,8997,1.055654,0,0,7505.379,7,22,2025-04-22T17:01:47.683+03:00,767023354.2014439,0,-13.27,100.3636,1,0.4,2025-04-22T17:01:55.525+03:00,120,2,2025-04-22T14:20:19.516+03:00,0.02197104130929222,0
2025-04-22T17:02:34.347+03:00,1745330552.933554,40.95222141235789,29.14026153500561,76.7301,-1,-1,-1,-1,30,17.58926956519938,-9999,38849.381614875,-0.4887542724609375,0.704681396484375,-0.5011138916015625,38849.371539875,-2.816142259500647,-0.7697055980161491,-0.7863326527723444,-0.001525430241599679,0.00331367808394134,-0.001807852881029248,0.0008792281150817871,-0.002033114433288574,0.007477283477783203,XArbitraryZVertical,-0.3997247688929365,0.2942198727749529,-0.821523538964565,0.280630788162577,-0.4916323125362396,0.7077672481536865,-0.5073095560073853,0,0,0,-1,-1,38843.99246366667,unknown,2,2025-04-22T17:02:28.952+03:00,2025-04-21T17:08:51.449+03:00,8997,1.055654,0,0,7505.379,7,22,2025-04-22T17:01:47.683+03:00,767023354.2014439,0,-13.27,100.3636,1,0.4,2025-04-22T17:01:55.525+03:00,120,2,2025-04-22T14:20:19.516+03:00,0.02197104130929222,0
2025-04-22T17:02:34.357+03:00,1745330552.933554,40.95222141235789,29.14026153500561,76.7301,-1,-1,-1,-1,30,17.58926956519938,-9999,38849.391690875,-0.488525390625,0.701873779296875,-0.50164794921875,38849.381614875,-2.816207891450864,-0.7697417135006734,-0.7863757506159407,-0.008538865484297276,0.00157543271780014,0.0007943217642605305,0.0005102753639221191,-0.003482639789581299,0.007163047790527344,XArbitraryZVertical,-0.3997298410115465,0.2942465647377513,-0.8215169711847836,0.2806152874246588,-0.4916295409202576,0.7077977061271667,-0.5072700381278992,0,0,0,-1,-1,38843.99246366667,unknown,2,2025-04-22T17:02:28.952+03:00,2025-04-21T17:08:51.449+03:00,8997,1.055654,0,0,7505.379,7,22,2025-04-22T17:01:47.683+03:00,767023354.2014439,0,-13.27,100.3636,1,0.4,2025-04-22T17:01:55.525+03:00,120,2,2025-04-22T14:20:19.516+03:00,0.02197104130929222,0
2025-04-22T17:02:34.367+03:00,1745330552.933554,40.95222141235789,29.14026153500561,76.7301,-1,-1,-1,-1,30,17.58926956519938,-9999,38849.40176725,-0.4917449951171875,0.7035064697265625,-0.5030670166015625,38849.391690875,-2.816319792427198,-0.769810114698696,-0.7864368955074109,-0.01196868345141411,0.000979218166321516,-0.005643703974783421,0.003764927387237549,-0.003266394138336182,0.00604546070098877,XArbitraryZVertical,-0.3997413839581583,0.2942858951606961,-0.8215065017536183,0.2805880884570351,-0.4916340708732605,0.7078409194946289,-0.5072052478790283,0,0,0,-1,-1,38843.99246366667,unknown,2,2025-04-22T17:02:28.952+03:00,2025-04-21T17:08:51.449+03:00,8997,1.055654,0,0,7505.379,7,22,2025-04-22T17:01:47.683+03:00,767023354.2014439,0,-13.27,100.3636,1,0.4,2025-04-22T17:01:55.525+03:00,120,2,2025-04-22T14:20:19.516+03:00,0.02197104130929222,0
