loggingTime(txt),locationTimestamp_since1970(s),locationLatitude(WGS84),locationLongitude(WGS84),locationAltitude(m),locationSpeed(m/s),locationSpeedAccuracy(m/s),locationCourse(°),locationCourseAccuracy(°),locationVerticalAccuracy(m),locationHorizontalAccuracy(m),locationFloor(Z),accelerometerTimestamp_sinceReboot(s),accelerometerAccelerationX(G),accelerometerAccelerationY(G),accelerometerAccelerationZ(G),motionTimestamp_sinceReboot(s),motionYaw(rad),motionRoll(rad),motionPitch(rad),motionRotationRateX(rad/s),motionRotationRateY(rad/s),motionRotationRateZ(rad/s),motionUserAccelerationX(G),motionUserAccelerationY(G),motionUserAccelerationZ(G),motionAttitudeReferenceFrame(txt),motionQuaternionX(R),motionQuaternionY(R),motionQuaternionZ(R),motionQuaternionW(R),motionGravityX(G),motionGravityY(G),motionGravityZ(G),motionMagneticFieldX(µT),motionMagneticFieldY(µT),motionMagneticFieldZ(µT),motionHeading(°),motionMagneticFieldCalibrationAccuracy(Z),activityTimestamp_sinceReboot(s),activity(txt),activityActivityConfidence(Z),activityActivityStartDate(txt),pedometerStartDate(txt),pedometerNumberofSteps(N),pedometerAverageActivePace(s/m),pedometerCurrentPace(s/m),pedometerCurrentCadence(steps/s),pedometerDistance(m),pedometerFloorAscended(N),pedometerFloorDescended(N),pedometerEndDate(txt),altimeterTimestamp_sinceReboot(s),altimeterReset(bool),altimeterRelativeAltitude(m),altimeterPressure(kPa),batteryState(N),batteryLevel(R),heartRateBPMTimestamp(txt),heartRateBPM(N),heartRateBPS(R),heartRateVariabilityTimestamp(txt),heartRateVariability(ms),label
2025-04-22T11:29:47.782+03:00,1745310587.030363,40.95228072708613,29.14030476268771,76.52575,-1,-1,-1,-1,30,32.49985521160348,-9999,28631.328,-0.705352783203125,0.638671875,-0.30712890625,28631.317923,-1.186823228604699,-1.148240482091232,-0.6879485541788366,0.002151780296117067,0.02870716899633408,-0.02583172731101513,0.0001165270805358887,-0.01152551174163818,0.001845300197601318,XArbitraryZVertical,-0.5206584379239196,-0.2655299513316593,-0.2901953954610322,0.7577566745290419,-0.7045995593070984,0.6349536776542664,-0.3168172836303711,0,0,0,-1,-1,28619.49941625,unknown,2,2025-04-22T11:29:35.925+03:00,2025-04-21T17:08:51.449+03:00,7169,0.952456,0,0,5985.539,5,20,2025-04-22T11:27:03.726+03:00,767003386.3442003,0,-21.23,100.4574,1,0.9,2025-04-22T11:28:21.440+03:00,82,1.366666666666667,2025-04-22T09:54:17.825+03:00,0.02225348692287972,0
2025-04-22T11:29:47.783+03:00,1745310587.030363,40.95228072708613,29.14030476268771,76.52575,-1,-1,-1,-1,30,32.49985521160348,-9999,28631.338077,-0.68939208984375,0.635040283203125,-0.3061370849609375,28631.328,-1.186921112053135,-1.148101134220187,-0.6877271621816307,-0.001796888536773622,0.01930540986359119,-0.0205119289457798,0.02968055009841919,-0.01979255676269531,0.02295142412185669,XArbitraryZVertical,-0.5205899852230137,-0.2655174254052016,-0.290333210951662,0.7577553336312297,-0.7046836018562317,0.634782612323761,-0.3169731199741364,0,0,0,-1,-1,28619.49941625,unknown,2,2025-04-22T11:29:35.925+03:00,2025-04-21T17:08:51.449+03:00,7169,0.952456,0,0,5985.539,5,20,2025-04-22T11:27:03.726+03:00,767003386.3442003,0,-21.23,100.4574,1,0.9,2025-04-22T11:28:21.440+03:00,82,1.366666666666667,2025-04-22T09:54:17.825+03:00,0.02225348692287972,0
2025-04-22T11:29:47.784+03:00,1745310587.030363,40.95228072708613,29.14030476268771,76.52575,-1,-1,-1,-1,30,32.49985521160348,-9999,28631.348153,-0.686981201171875,0.6325531005859375,-0.3064117431640625,28631.338077,-1.187105938493257,-1.147995788134965,-0.6875830034289955,-0.01278429199010134,0.02284448593854904,-0.01761867105960846,-0.002343356609344482,0.004916012287139893,0.008521616458892822,XArbitraryZVertical,-0.5205593590761827,-0.2654722157707105,-0.2904726194921727,0.7577387975641555,-0.704733669757843,0.6346712112426758,-0.3170849084854126,0,0,0,-1,-1,28619.49941625,unknown,2,2025-04-22T11:29:35.925+03:00,2025-04-21T17:08:51.449+03:00,7169,0.952456,0,0,5985.539,5,20,2025-04-22T11:27:03.726+03:00,767003386.3442003,0,-21.23,100.4574,1,0.9,2025-04-22T11:28:21.440+03:00,82,1.366666666666667,2025-04-22T09:54:17.825+03:00,0.02225348692287972,0
2025-04-22T11:29:47.789+03:00,1745310587.030363,40.95228072708613,29.14030476268771,76.52575,-1,-1,-1,-1,30,32.49985521160348,-9999,28631.35823,-0.6893768310546875,0.630523681640625,-0.3135986328125,28631.348153,-1.187409666776809,-1.14801543120911,-0.6874852500645484,-0.01865389943122864,0.01688406430184841,-0.01952110230922699,0.01741856336593628,-0.0008983612060546875,0.01106616854667664,XArbitraryZVertical,-0.5205755085061727,-0.2654296232208923,-0.2906110177872942,0.7576895317786118,-0.7047964334487915,0.6345956921577454,-0.3170965015888214,0,0,0,-1,-1,28619.49941625,unknown,2,2025-04-22T11:29:35.925+03:00,2025-04-21T17:08:51.449+03:00,7169,0.952456,0,0,5985.539,5,20,2025-04-22T11:27:03.726+03:00,767003386.3442003,0,-21.23,100.4574,1,0.9,2025-04-22T11:28:21.440+03:00,82,1.366666666666667,2025-04-22T09:54:17.825+03:00,0.02225348692287972,0
2025-04-22T11:29:47.798+03:00,1745310587.030363,40.95228072708613,29.14030476268771,76.52575,-1,-1,-1,-1,30,32.49985521160348,-9999,28631.368307,-0.690338134765625,0.63885498046875,-0.3167572021484375,28631.35823,-1.187759149010558,-1.148127702652698,-0.6873567041828195,-0.01837692968547344,0.01154788862913847,-0.02040180936455727,0.0171164870262146,-0.001943349838256836,0.009189426898956299,XArbitraryZVertical,-0.5206026818336853,-0.2654193567586127,-0.2907515905811749,0.7576205014962692,-0.7049064040184021,0.6344963312149048,-0.3170508146286011,0,0,0,-1,-1,28619.49941625,unknown,2,2025-04-22T11:29:35.925+03:00,2025-04-21T17:08:51.449+03:00,7169,0.952456,0,0,5985.539,5,20,2025-04-22T11:27:03.726+03:00,767003386.3442003,0,-21.23,100.4574,1,0.9,2025-04-22T11:28:21.440+03:00,82,1.366666666666667,2025-04-22T09:54:17.825+03:00,0.02225348692287972,0
2025-04-22T11:29:47.808+03:00,1745310587.030363,40.95228072708613,29.14030476268771,76.52575,-1,-1,-1,-1,30,32.49985521160348,-9999,28631.378383,-0.6913299560546875,0.63958740234375,-0.312103271484375,28631.368307,-1.188048677235889,-1.14819486209219,-0.6872806477593747,-0.01954858936369419,0.006685888394713402,-0.01873992942273617,0.01553386449813843,-0.003074824810028076,0.002097100019454956,XArbitraryZVertical,-0.520629859135797,-0.265392011929623,-0.2908659061642623,0.7575674962814133,-0.7049716711044312,0.6344375610351562,-0.3170232474803925,0,0,0,-1,-1,28619.49941625,unknown,2,2025-04-22T11:29:35.925+03:00,2025-04-21T17:08:51.449+03:00,7169,0.952456,0,0,5985.539,5,20,2025-04-22T11:27:03.726+03:00,767003386.3442003,0,-21.23,100.4574,1,0.9,2025-04-22T11:28:21.440+03:00,82,1.366666666666667,2025-04-22T09:54:17.825+03:00,0.02225348692287972,0
2025-04-22T11:29:47.818+03:00,1745310587.030363,40.95228072708613,29.14030476268771,76.52575,-1,-1,-1,-1,30,32.49985521160348,-9999,28631.38846,-0.6890869140625,0.6368255615234375,-0.3133392333984375,28631.378383,-1.188402979488638,-1.148364073025855,-0.6872413357390885,-0.02164236642420292,0.0008714091964066029,-0.01913807168602943,0.0136723518371582,0.005393743515014648,0.0009199380874633789,XArbitraryZVertical,-0.5206905973812779,-0.265375566454516,-0.2909675138734651,0.7574925450957299,-0.705048143863678,0.6344071626663208,-0.3169142305850983,0,0,0,-1,-1,28619.49941625,unknown,2,2025-04-22T11:29:35.925+03:00,2025-04-21T17:08:51.449+03:00,7169,0.952456,0,0,5985.539,5,20,2025-04-22T11:27:03.726+03:00,767003386.3442003,0,-21.23,100.4574,1,0.9,2025-04-22T11:28:21.440+03:00,82,1.366666666666667,2025-04-22T09:54:17.825+03:00,0.02225348692287972,0
2025-04-22T11:29:47.828+03:00,1745310587.030363,40.95228072708613,29.14030476268771,76.52575,-1,-1,-1,-1,30,32.49985521160348,-9999,28631.398537,-0.693115234375,0.636962890625,-0.3170166015625,28631.38846,-1.188759349954888,-1.148563397035106,-0.6871546891838566,-0.02161453478038311,0.001951453974470496,-0.01760043017566204,0.01445704698562622,0.004499375820159912,0.004433512687683105,XArbitraryZVertical,-0.5207429600879822,-0.2653840086028888,-0.2910757967231835,0.7574119650791989,-0.7051613926887512,0.6343401670455933,-0.3167961835861206,0,0,0,-1,-1,28619.49941625,unknown,2,2025-04-22T11:29:35.925+03:00,2025-04-21T17:08:51.449+03:00,7169,0.952456,0,0,5985.539,5,20,2025-04-22T11:27:03.726+03:00,767003386.3442003,0,-21.23,100.4574,1,0.9,2025-04-22T11:28:21.440+03:00,82,1.366666666666667,2025-04-22T09:54:17.825+03:00,0.02225348692287972,0
2025-04-22T11:29:47.839+03:00,1745310587.030363,40.95228072708613,29.14030476268771,76.52575,-1,-1,-1,-1,30,32.49985521160348,-9999,28631.408613,-0.6952056884765625,0.6385955810546875,-0.315155029296875,28631.398537,-1.189125105162105,-1.148795568446877,-0.6870809509940425,-0.02378740720450878,-0.001401732210069895,-0.01640094071626663,0.01574814319610596,0.001886129379272461,0.002076387405395508,XArbitraryZVertical,-0.5208049385583151,-0.2653985909751888,-0.2911753001358038,0.7573259573333988,-0.7052775621414185,0.634283185005188,-0.3166516125202179,0,0,0,-1,-1,28619.49941625,unknown,2,2025-04-22T11:29:35.925+03:00,2025-04-21T17:08:51.449+03:00,7169,0.952456,0,0,5985.539,5,20,2025-04-22T11:27:03.726+03:00,767003386.3442003,0,-21.23,100.4574,1,0.9,2025-04-22T11:28:21.440+03:00,82,1.366666666666667,2025-04-22T09:54:17.825+03:00,0.02225348692287972,0
2025-04-22T11:29:47.849+03:00,1745310587.030363,40.95228072708613,29.14030476268771,76.52575,-1,-1,-1,-1,30,32.49985521160348,-9999,28631.41869,-0.6955413818359375,0.63983154296875,-0.3139190673828125,28631.408613,-1.189517425602062,-1.149059806674008,-0.6870408495247672,-0.02440765872597694,-0.002018253784626722,-0.01689282804727554,0.01243704557418823,0.003061532974243164,-0.0009834766387939453,XArbitraryZVertical,-0.5208843927160408,-0.2654084006834865,-0.2912667172465951,0.7572327409172473,-0.7053844332695007,0.6342521905899048,-0.3164756596088409,0,0,0,-1,-1,28619.49941625,unknown,2,2025-04-22T11:29:35.925+03:00,2025-04-21T17:08:51.449+03:00,7169,0.952456,0,0,5985.539,5,20,2025-04-22T11:27:03.726+03:00,767003386.3442003,0,-21.23,100.4574,1,0.9,2025-04-22T11:28:21.440+03:00,82,1.366666666666667,2025-04-22T09:54:17.825+03:00,0.02225348692287972,0
2025-04-22T11:29:47.859+03:00,1745310587.030363,40.95228072708613,29.14030476268771,76.52575,-1,-1,-1,-1,30,32.49985521160348,-9999,28631.428766,-0.6959991455078125,0.639068603515625,-0.3191070556640625,28631.41869,-1.189919376775998,-1.149327559323507,-0.6869991218565707,-0.02871984802186489,-0.0004049106501042843,-0.01463899482041597,0.009997725486755371,0.00518423318862915,0.0009289383888244629,XArbitraryZVertical,-0.5209652018239167,-0.2654174929454758,-0.2913613138310331,0.7571375981048607,-0.7054933309555054,0.6342198848724365,-0.3162976205348969,0,0,0,-1,-1,28619.49941625,unknown,2,2025-04-22T11:29:35.925+03:00,2025-04-21T17:08:51.449+03:00,7169,0.952456,0,0,5985.539,5,20,2025-04-22T11:27:03.726+03:00,767003386.3442003,0,-21.23,100.4574,1,0.9,2025-04-22T11:28:21.440+03:00,82,1.366666666666667,2025-04-22T09:54:17.825+03:00,0.02225348692287972,0
2025-04-22T11:29:47.869+03:00,1745310587.030363,40.95228072708613,29.14030476268771,76.52575,-1,-1,-1,-1,30,32.49985521160348,-9999,28631.438843,-0.69390869140625,0.6378631591796875,-0.3182220458984375,28631.428766,-1.190289047446085,-1.149571313486845,-0.6869913555856302,-0.02521299757063389,-0.003243308048695326,-0.01174373924732208,0.009774088859558105,0.005297064781188965,0.002132236957550049,XArbitraryZVertical,-0.5210476490670536,-0.2654157603491298,-0.2914400007855039,0.7570511449221384,-0.7055748701095581,0.634213924407959,-0.3161276578903198,0,0,0,-1,-1,28619.49941625,unknown,2,2025-04-22T11:29:35.925+03:00,2025-04-21T17:08:51.449+03:00,7169,0.952456,0,0,5985.539,5,20,2025-04-22T11:27:03.726+03:00,767003386.3442003,0,-21.23,100.4574,1,0.9,2025-04-22T11:28:21.440+03:00,82,1.366666666666667,2025-04-22T09:54:17.825+03:00,0.02225348692287972,0
2025-04-22T11:29:47.879+03:00,1745310587.030363,40.95228072708613,29.14030476268771,76.52575,-1,-1,-1,-1,30,32.49985521160348,-9999,28631.44892,-0.6974334716796875,0.6383819580078125,-0.3146514892578125,28631.438843,-1.190627571985687,-1.149820479147861,-0.6870098178740885,-0.01936762593686581,-0.005117107648402452,-0.008651542477309704,0.0102388858795166,0.004550337791442871,-0.003694117069244385,XArbitraryZVertical,-0.5211339747642381,-0.2654163830469163,-0.2914978420354086,0.7569692419951147,-0.7056429386138916,0.6342281699180603,-0.3159470558166504,0,0,0,-1,-1,28619.49941625,unknown,2,2025-04-22T11:29:35.925+03:00,2025-04-21T17:08:51.449+03:00,7169,0.952456,0,0,5985.539,5,20,2025-04-22T11:27:03.726+03:00,767003386.3442003,0,-21.23,100.4574,1,0.9,2025-04-22T11:28:21.440+03:00,82,1.366666666666667,2025-04-22T09:54:17.825+03:00,0.02225348692287972,0
2025-04-22T11:29:47.889+03:00,1745310587.030363,40.95228072708613,29.14030476268771,76.52575,-1,-1,-1,-1,30,32.49985521160348,-9999,28631.458996,-0.69610595703125,0.638824462890625,-0.3123779296875,28631.44892,-1.190912034374542,-1.150049196518831,-0.6870356072937478,-0.02260336652398109,-0.006447356659919024,-0.007046987768262625,0.01095235347747803,0.004393100738525391,-0.002015829086303711,XArbitraryZVertical,-0.5212121547244861,-0.2654211645418278,-0.2915384064406683,0.7568981577142488,-0.7057002782821655,0.6342481374740601,-0.3157790005207062,0,0,0,-1,-1,28619.49941625,unknown,2,2025-04-22T11:29:35.925+03:00,2025-04-21T17:08:51.449+03:00,7169,0.952456,0,0,5985.539,5,20,2025-04-22T11:27:03.726+03:00,767003386.3442003,0,-21.23,100.4574,1,0.9,2025-04-22T11:28:21.440+03:00,82,1.366666666666667,2025-04-22T09:54:17.825+03:00,0.02225348692287972,0
2025-04-22T11:29:47.899+03:00,1745310587.030363,40.95228072708613,29.14030476268771,76.52575,-1,-1,-1,-1,30,32.49985521160348,-9999,28631.469073,-0.69549560546875,0.63671875,-0.3130645751953125,28631.458996,-1.191214031561404,-1.150289802733772,-0.687096324397411,-0.02610036358237267,-0.004030005540698767,-0.007665373850613832,0.008414387702941895,0.003842532634735107,0.00153699517250061,XArbitraryZVertical,-0.5213040762456821,-0.2654154231581696,-0.2915722734498352,0.7568237486897699,-0.7057410478591919,0.6342950463294983,-0.315593421459198,0,0,0,-1,-1,28619.49941625,unknown,2,2025-04-22T11:29:35.925+03:00,2025-04-21T17:08:51.449+03:00,7169,0.952456,0,0,5985.539,5,20,2025-04-22T11:27:03.726+03:00,767003386.3442003,0,-21.23,100.4574,1,0.9,2025-04-22T11:28:21.440+03:00,82,1.366666666666667,2025-04-22T09:54:17.825+03:00,0.02225348692287972,0
2025-04-22T11:29:47.909+03:00,1745310587.030363,40.95228072708613,29.14030476268771,76.52575,-1,-1,-1,-1,30,32.49985521160348,-9999,28631.47915,-0.69549560546875,0.634765625,-0.3137969970703125,28631.469073,-1.191540642279296,-1.150542677795913,-0.6871746045682406,-0.02585954777896404,-0.007620945572853088,-0.0051627685315907,0.00976109504699707,0.003949880599975586,0.002970904111862183,XArbitraryZVertical,-0.5214058642665532,-0.2654026777633893,-0.2916071350735875,0.7567446518643183,-0.7057754397392273,0.6343555450439453,-0.3153946995735168,0,0,0,-1,-1,28619.49941625,unknown,2,2025-04-22T11:29:35.925+03:00,2025-04-21T17:08:51.449+03:00,7169,0.952456,0,0,5985.539,5,20,2025-04-22T11:27:03.726+03:00,767003386.3442003,0,-21.23,100.4574,1,0.9,2025-04-22T11:28:21.440+03:00,82,1.366666666666667,2025-04-22T09:54:17.825+03:00,0.02225348692287972,0
2025-04-22T11:29:47.919+03:00,1745310587.030363,40.95228072708613,29.14030476268771,76.52575,-1,-1,-1,-1,30,32.49985521160348,-9999,28631.489226,-0.6953887939453125,0.6364593505859375,-0.3123626708984375,28631.47915,-1.191869526828981,-1.150834689815904,-0.6872708326466848,-0.02716343104839325,-0.01152354199439287,-0.003628254635259509,0.01042306423187256,0.002044439315795898,0.001351386308670044,XArbitraryZVertical,-0.5215185945119518,-0.2653987791916267,-0.2916273976919063,0.756660523489786,-0.7058117985725403,0.634429931640625,-0.3151637017726898,0,0,0,-1,-1,28619.49941625,unknown,2,2025-04-22T11:29:35.925+03:00,2025-04-21T17:08:51.449+03:00,7169,0.952456,0,0,5985.539,5,20,2025-04-22T11:27:03.726+03:00,767003386.3442003,0,-21.23,100.4574,1,0.9,2025-04-22T11:28:21.440+03:00,82,1.366666666666667,2025-04-22T09:54:17.825+03:00,0.02225348692287972,0
2025-04-22T11:29:47.929+03:00,1745310587.030363,40.95228072708613,29.14030476268771,76.52575,-1,-1,-1,-1,30,32.49985521160348,-9999,28631.499303,-0.7002410888671875,0.6360626220703125,-0.308929443359375,28631.489226,-1.192160654528698,-1.151137872137955,-0.687367891322295,-0.02708613313734531,-0.0139437559992075,0.0009432276128791273,0.009684145450592041,0.0004436373710632324,0.001234441995620728,XArbitraryZVertical,-0.5216280977348707,-0.2654087256983309,-0.2916302408439145,0.7565805991830277,-0.7058512568473816,0.6345049738883972,-0.3149246573448181,0,0,0,-1,-1,28619.49941625,unknown,2,2025-04-22T11:29:35.925+03:00,2025-04-21T17:08:51.449+03:00,7169,0.952456,0,0,5985.539,5,20,2025-04-22T11:27:03.726+03:00,767003386.3442003,0,-21.23,100.4574,1,0.9,2025-04-22T11:28:21.440+03:00,82,1.366666666666667,2025-04-22T09:54:17.825+03:00,0.02225348692287972,0
2025-04-22T11:29:47.939+03:00,1745310587.030363,40.95228072708613,29.14030476268771,76.52575,-1,-1,-1,-1,30,32.49985521160348,-9999,28631.509379,-0.6996917724609375,0.63677978515625,-0.311492919921875,28631.499303,-1.192457785265062,-1.151467673321888,-0.6874778943414438,-0.02669278346002102,-0.01511687971651554,-0.003783883294090629,0.01056349277496338,0.001472532749176025,0.00332304835319519,XArbitraryZVertical,-0.5217459072394296,-0.2654232295544974,-0.2916245464189604,0.7564964504151765,-0.7058913111686707,0.6345899701118469,-0.31466343998909,0,0,0,-1,-1,28619.49941625,unknown,2,2025-04-22T11:29:35.925+03:00,2025-04-21T17:08:51.449+03:00,7169,0.952456,0,0,5985.539,5,20,2025-04-22T11:27:03.726+03:00,767003386.3442003,0,-21.23,100.4574,1,0.9,2025-04-22T11:28:21.440+03:00,82,1.366666666666667,2025-04-22T09:54:17.825+03:00,0.02225348692287972,0
2025-04-22T11:29:47.949+03:00,1745310587.030363,40.95228072708613,29.14030476268771,76.52575,-1,-1,-1,-1,30,32.49985521160348,-9999,28631.519456,-0.6989593505859375,0.636016845703125,-0.31573486328125,28631.509379,-1.192756224069288,-1.15182842336615,-0.6875706872213145,-0.02347169071435928,-0.01728096418082714,-0.003703722031787038,0.005648791790008545,0.001263439655303955,0.005623161792755127,XArbitraryZVertical,-0.5218636644747575,-0.2654541785672221,-0.2916162451052971,0.7564075287573434,-0.705950915813446,0.6346617341041565,-0.314384788274765,0,0,0,-1,-1,28619.49941625,unknown,2,2025-04-22T11:29:35.925+03:00,2025-04-21T17:08:51.449+03:00,7169,0.952456,0,0,5985.539,5,20,2025-04-22T11:27:03.726+03:00,767003386.3442003,0,-21.23,100.4574,1,0.9,2025-04-22T11:28:21.440+03:00,82,1.366666666666667,2025-04-22T09:54:17.825+03:00,0.02225348692287972,0
2025-04-22T11:29:47.959+03:00,1745310587.030363,40.95228072708613,29.14030476268771,76.52575,-1,-1,-1,-1,30,32.49985521160348,-9999,28631.529533,-0.701904296875,0.6390838623046875,-0.3169097900390625,28631.519456,-1.193045970232974,-1.152200102731032,-0.6876375402140076,-0.02175341919064522,-0.02147384360432625,-0.006543983705341816,0.006535470485687256,0.001593172550201416,0.002200156450271606,XArbitraryZVertical,-0.5219747456201637,-0.2654991942595722,-0.2916093076087073,0.7563176656905273,-0.7060288786888123,0.634713351726532,-0.3141050934791565,0,0,0,-1,-1,28619.49941625,unknown,2,2025-04-22T11:29:35.925+03:00,2025-04-21T17:08:51.449+03:00,7169,0.952456,0,0,5985.539,5,20,2025-04-22T11:27:03.726+03:00,767003386.3442003,0,-21.23,100.4574,1,0.9,2025-04-22T11:28:21.440+03:00,82,1.366666666666667,2025-04-22T09:54:17.825+03:00,0.02225348692287972,0
2025-04-22T11:29:47.970+03:00,1745310587.030363,40.95228072708613,29.14030476268771,76.52575,-1,-1,-1,-1,30,32.49985521160348,-9999,28631.539609,-0.7027130126953125,0.638458251953125,-0.313812255859375,28631.529533,-1.193358787276425,-1.15259935407099,-0.6876678622176527,-0.02347934804856777,-0.02263651415705681,-0.01155348867177963,0.006673753261566162,0.001737594604492188,-0.002835065126419067,XArbitraryZVertical,-0.5220828327344453,-0.2655594822597189,-0.2916145382536687,0.756219859138183,-0.7061365842819214,0.6347367763519287,-0.3138153553009033,0,0,0,-1,-1,28619.49941625,unknown,2,2025-04-22T11:29:35.925+03:00,2025-04-21T17:08:51.449+03:00,7169,0.952456,0,0,5985.539,5,20,2025-04-22T11:27:03.726+03:00,767003386.3442003,0,-21.23,100.4574,1,0.9,2025-04-22T11:28:21.440+03:00,82,1.366666666666667,2025-04-22T09:54:17.825+03:00,0.02225348692287972,0
2025-04-22T11:29:47.980+03:00,1745310587.030363,40.95228072708613,29.14030476268771,76.52575,-1,-1,-1,-1,30,32.49985521160348,-9999,28631.549686,-0.702911376953125,0.635955810546875,-0.312164306640625,28631.539609,-1.193711813675218,-1.153025569998128,-0.6876608060140543,-0.0229302030056715,-0.01927453838288784,-0.01190662384033203,0.004553258419036865,0.003848791122436523,-0.003210514783859253,XArbitraryZVertical,-0.5221899152306551,-0.2656305703805855,-0.2916388036682608,0.7561116069190562,-0.7062743902206421,0.6347313523292542,-0.3135161995887756,0,0,0,-1,-1,28619.49941625,unknown,2,2025-04-22T11:29:35.925+03:00,2025-04-21T17:08:51.449+03:00,7169,0.952456,0,0,5985.539,5,20,2025-04-22T11:27:03.726+03:00,767003386.3442003,0,-21.23,100.4574,1,0.9,2025-04-22T11:28:21.440+03:00,82,1.366666666666667,2025-04-22T09:54:17.825+03:00,0.02225348692287972,0
2025-04-22T11:29:47.990+03:00,1745310587.030363,40.95228072708613,29.14030476268771,76.52575,-1,-1,-1,-1,30,32.49985521160348,-9999,28631.559763,-0.7009429931640625,0.6309967041015625,-0.310699462890625,28631.549686,-1.194108411526345,-1.153456582463136,-0.6876726706036717,-0.0312582403421402,-0.01774701662361622,-0.01335861254483461,0.00324714183807373,0.003961741924285889,-0.0007714033126831055,XArbitraryZVertical,-0.5223086706425886,-0.2656864405559243,-0.2916727499423014,0.7559969327504317,-0.7064026594161987,0.6347405314445496,-0.3132087290287018,0,0,0,-1,-1,28619.49941625,unknown,2,2025-04-22T11:29:35.925+03:00,2025-04-21T17:08:51.449+03:00,7169,0.952456,0,0,5985.539,5,20,2025-04-22T11:27:03.726+03:00,767003386.3442003,0,-21.23,100.4574,1,0.9,2025-04-22T11:28:21.440+03:00,82,1.366666666666667,2025-04-22T09:54:17.825+03:00,0.02225348692287972,0
2025-04-22T11:29:48.000+03:00,1745310587.030363,40.95228072708613,29.14030476268771,76.52575,-1,-1,-1,-1,30,32.49985521160348,-9999,28631.569839,-0.700286865234375,0.628753662109375,-0.3099517822265625,28631.559763,-1.194565641191923,-1.153925205862396,-0.6877058189652293,-0.03493287041783333,-0.01887060515582561,-0.01410962454974651,0.004015445709228516,0.0003197789192199707,0.0008726119995117188,XArbitraryZVertical,-0.5224468900217687,-0.2657342463908824,-0.29171347739003,0.755868843224732,-0.7065300941467285,0.6347661018371582,-0.3128691017627716,0,0,0,-1,-1,28619.49941625,unknown,2,2025-04-22T11:29:35.925+03:00,2025-04-21T17:08:51.449+03:00,7169,0.952456,0,0,5985.539,5,20,2025-04-22T11:27:03.726+03:00,767003386.3442003,0,-21.23,100.4574,1,0.9,2025-04-22T11:29:46.812+03:00,76,1.266666666666667,2025-04-22T09:54:17.825+03:00,0.02225348692287972,0
2025-04-22T11:29:48.010+03:00,1745310587.030363,40.95228072708613,29.14030476268771,76.52575,-1,-1,-1,-1,30,32.49985521160348,-9999,28631.579916,-0.70037841796875,0.628021240234375,-0.3119049072265625,28631.569839,-1.195082209912844,-1.15441243264888,-0.6877288982057018,-0.04003149271011353,-0.01675978302955627,-0.01508607249706984,0.006565272808074951,-0.004062056541442871,0.001956701278686523,XArbitraryZVertical,-0.5225929381912562,-0.2657765332669015,-0.2917746602117525,0.7557293847363635,-0.7066690325737,0.6347839832305908,-0.3125189244747162,0,0,0,-1,-1,28619.49941625,unknown,2,2025-04-22T11:29:35.925+03:00,2025-04-21T17:08:51.449+03:00,7169,0.952456,0,0,5985.539,5,20,2025-04-22T11:27:03.726+03:00,767003386.3442003,0,-21.23,100.4574,1,0.9,2025-04-22T11:29:46.812+03:00,76,1.266666666666667,2025-04-22T09:54:17.825+03:00,0.02225348692287972,0
2025-04-22T11:29:48.020+03:00,1745310587.030363,40.95228072708613,29.14030476268771,76.52575,-1,-1,-1,-1,30,32.49985521160348,-9999,28631.589993,-0.7046051025390625,0.628509521484375,-0.3119049072265625,28631.579916,-1.195665011342771,-1.154926458563933,-0.6877665786874821,-0.04338600859045982,-0.01283667981624603,-0.01832953654229641,0.006475090980529785,-0.006135821342468262,0.001736372709274292,XArbitraryZVertical,-0.5227556947746598,-0.2658072336763211,-0.2918495506378407,0.755577155921239,-0.7068077921867371,0.6348130702972412,-0.312146008014679,0,0,0,-1,-1,28619.49941625,unknown,2,2025-04-22T11:29:35.925+03:00,2025-04-21T17:08:51.449+03:00,7169,0.952456,0,0,5985.539,5,20,2025-04-22T11:27:03.726+03:00,767003386.3442003,0,-21.23,100.4574,1,0.9,2025-04-22T11:29:46.812+03:00,76,1.266666666666667,2025-04-22T09:54:17.825+03:00,0.02225348692287972,0
2025-04-22T11:29:48.035+03:00,1745310587.030363,40.95228072708613,29.14030476268771,76.52575,-1,-1,-1,-1,30,32.49985521160348,-9999,28631.600069,-0.7052154541015625,0.6290740966796875,-0.3108978271484375,28631.589993,-1.196304641227095,-1.15546930898647,-0.6877954890549198,-0.04796458408236504,-0.01251237373799086,-0.01789813674986362,0.006536126136779785,-0.007378876209259033,-0.000165402889251709,XArbitraryZVertical,-0.5229278690331395,-0.2658364566779727,-0.2919408102706736,0.7554124425990942,-0.7069603204727173,0.634835422039032,-0.3117548525333405,0,0,0,-1,-1,28619.49941625,unknown,2,2025-04-22T11:29:35.925+03:00,2025-04-21T17:08:51.449+03:00,7169,0.952456,0,0,5985.539,5,20,2025-04-22T11:27:03.726+03:00,767003386.3442003,0,-21.23,100.4574,1,0.9,2025-04-22T11:29:46.812+03:00,76,1.266666666666667,2025-04-22T09:54:17.825+03:00,0.02225348692287972,0
2025-04-22T11:29:48.046+03:00,1745310587.030363,40.95228072708613,29.14030476268771,76.52575,-1,-1,-1,-1,30,32.49985521160348,-9999,28631.610146,-0.7039031982421875,0.6287078857421875,-0.3082122802734375,28631.600069,-1.19698761613754,-1.156012752244185,-0.6878300864757108,-0.04992786422371864,-0.01050381828099489,-0.01990163326263428,0.002504408359527588,-0.006749510765075684,-0.0003906488418579102,XArbitraryZVertical,-0.5231074766575995,-0.2658527695041145,-0.2920465217633259,0.75524145259798,-0.7071095108985901,0.6348621249198914,-0.3113617599010468,0,0,0,-1,-1,28619.49941625,unknown,2,2025-04-22T11:29:35.925+03:00,2025-04-21T17:08:51.449+03:00,7169,0.952456,0,0,5985.539,5,20,2025-04-22T11:27:03.726+03:00,767003386.3442003,0,-21.23,100.4574,1,0.9,2025-04-22T11:29:46.812+03:00,76,1.266666666666667,2025-04-22T09:54:17.825+03:00,0.02225348692287972,0
2025-04-22T11:29:48.051+03:00,1745310587.030363,40.95228072708613,29.14030476268771,76.52575,-1,-1,-1,-1,30,32.49985521160348,-9999,28631.620222,-0.70745849609375,0.631011962890625,-0.3054046630859375,28631.610146,-1.197721129397736,-1.156532930636558,-0.6878596054375655,-0.0552503913640976,-0.001786159351468086,-0.02181960828602314,0.002420246601104736,-0.006451904773712158,0.0004088878631591797,XArbitraryZVertical,-0.5232890195593748,-0.2658484986062439,-0.292178792313858,0.7550660453506761,-0.7072542309761047,0.6348849534988403,-0.3109863698482513,0,0,0,-1,-1,28619.49941625,unknown,2,2025-04-22T11:29:35.925+03:00,2025-04-21T17:08:51.449+03:00,7169,0.952456,0,0,5985.539,5,20,2025-04-22T11:27:03.726+03:00,767003386.3442003,0,-21.23,100.4574,1,0.9,2025-04-22T11:29:46.812+03:00,76,1.266666666666667,2025-04-22T09:54:17.825+03:00,0.02225348692287972,0
2025-04-22T11:29:48.061+03:00,1745310587.030363,40.95228072708613,29.14030476268771,76.52575,-1,-1,-1,-1,30,32.49985521160348,-9999,28631.630299,-0.7099456787109375,0.6288909912109375,-0.303619384765625,28631.620222,-1.198547860802327,-1.157064346070494,-0.6879070234901961,-0.06414002925157547,-0.001149397343397141,-0.02356797456741333,0.003397047519683838,-0.005481481552124023,0.002706438302993774,XArbitraryZVertical,-0.5234895689403924,-0.2658185702671021,-0.2923379207661325,0.7548758681879729,-0.7073917388916016,0.6349216103553772,-0.3105983138084412,0,0,0,-1,-1,28619.49941625,unknown,2,2025-04-22T11:29:35.925+03:00,2025-04-21T17:08:51.449+03:00,7169,0.952456,0,0,5985.539,5,20,2025-04-22T11:27:03.726+03:00,767003386.3442003,0,-21.23,100.4574,1,0.9,2025-04-22T11:29:46.812+03:00,76,1.266666666666667,2025-04-22T09:54:17.825+03:00,0.02225348692287972,0
2025-04-22T11:29:48.071+03:00,1745310587.030363,40.95228072708613,29.14030476268771,76.52575,-1,-1,-1,-1,30,32.49985521160348,-9999,28631.640376,-0.708709716796875,0.6240386962890625,-0.303680419921875,28631.630299,-1.199506575928255,-1.157657170342588,-0.6879856922822438,-0.07569221407175064,0.002712785266339779,-0.02359563671052456,-0.0005235671997070312,-0.004016339778900146,0.005059301853179932,XArbitraryZVertical,-0.5237251655400686,-0.2657678111281147,-0.2925215296464789,0.7546591517969224,-0.7075300216674805,0.6349823474884033,-0.3101588487625122,0,0,0,-1,-1,28619.49941625,unknown,2,2025-04-22T11:29:35.925+03:00,2025-04-21T17:08:51.449+03:00,7169,0.952456,0,0,5985.539,5,20,2025-04-22T11:27:03.726+03:00,767003386.3442003,0,-21.23,100.4574,1,0.9,2025-04-22T11:29:46.812+03:00,76,1.266666666666667,2025-04-22T09:54:17.825+03:00,0.02225348692287972,0
2025-04-22T11:29:48.081+03:00,1745310587.030363,40.95228072708613,29.14030476268771,76.52575,-1,-1,-1,-1,30,32.49985521160348,-9999,28631.650452,-0.707855224609375,0.6215362548828125,-0.3039703369140625,28631.640376,-1.200621341676727,-1.158336130389542,-0.6881024674623438,-0.09059126675128937,0.003879782278090715,-0.02497808448970318,-0.002639293670654297,-0.006334304809570312,0.006578564643859863,XArbitraryZVertical,-0.5240044663592309,-0.2656971288100713,-0.292730155317636,0.7544093104649487,-0.7076725959777832,0.6350725889205933,-0.309648722410202,0,0,0,-1,-1,28619.49941625,unknown,2,2025-04-22T11:29:35.925+03:00,2025-04-21T17:08:51.449+03:00,7169,0.952456,0,0,5985.539,5,20,2025-04-22T11:27:03.726+03:00,767003386.3442003,0,-21.23,100.4574,1,0.9,2025-04-22T11:29:46.812+03:00,76,1.266666666666667,2025-04-22T09:54:17.825+03:00,0.02225348692287972,0
2025-04-22T11:29:48.091+03:00,1745310587.030363,40.95228072708613,29.14030476268771,76.52575,-1,-1,-1,-1,30,32.49985521160348,-9999,28631.660529,-0.7061309814453125,0.6188507080078125,-0.3038787841796875,28631.650452,-1.201901403457031,-1.159107383613598,-0.6882581056248843,-0.1028450727462769,0.002655460732057691,-0.02549050934612751,-0.001285910606384277,-0.01152044534683228,0.005321741104125977,XArbitraryZVertical,-0.5243298937813614,-0.2656059899043171,-0.292965255550421,0.7541239312427813,-0.7078205347061157,0.6351928114891052,-0.3090632557868958,0,0,0,-1,-1,28619.49941625,unknown,2,2025-04-22T11:29:35.925+03:00,2025-04-21T17:08:51.449+03:00,7169,0.952456,0,0,5985.539,5,20,2025-04-22T11:27:03.726+03:00,767003386.3442003,0,-21.23,100.4574,1,0.9,2025-04-22T11:29:46.812+03:00,76,1.266666666666667,2025-04-22T09:54:17.825+03:00,0.02225348692287972,0
2025-04-22T11:29:48.101+03:00,1745310587.030363,40.95228072708613,29.14030476268771,76.52575,-1,-1,-1,-1,30,32.49985521160348,-9999,28631.670606,-0.702850341796875,0.618377685546875,-0.303924560546875,28631.660529,-1.203370578588203,-1.16002642792235,-0.6884660389369135,-0.1199209988117218,6.606942042708397e-05,-0.02698640711605549,0.0005552172660827637,-0.01395457983016968,0.004114806652069092,XArbitraryZVertical,-0.524716274709671,-0.2655049885262221,-0.2932172719376623,0.7537927708761099,-0.7079832553863525,0.6353533864021301,-0.3083598613739014,0,0,0,-1,-1,28619.49941625,unknown,2,2025-04-22T11:29:35.925+03:00,2025-04-21T17:08:51.449+03:00,7169,0.952456,0,0,5985.539,5,20,2025-04-22T11:27:03.726+03:00,767003386.3442003,0,-21.23,100.4574,1,0.9,2025-04-22T11:29:46.812+03:00,76,1.266666666666667,2025-04-22T09:54:17.825+03:00,0.02225348692287972,0
2025-04-22T11:29:48.114+03:00,1745310587.030363,40.95228072708613,29.14030476268771,76.52575,-1,-1,-1,-1,30,32.49985521160348,-9999,28631.680682,-0.7039794921875,0.6199188232421875,-0.304901123046875,28631.670606,-1.205008062696256,-1.161049962358573,-0.6887157132634847,-0.1307067275047302,0.0002048863098025322,-0.02918587811291218,0.002449095249176025,-0.01655834913253784,0.003540366888046265,XArbitraryZVertical,-0.525151709474482,-0.2653861220783472,-0.2934925319117944,0.7534240411354687,-0.7081527709960938,0.6355461478233337,-0.3075717687606812,0,0,0,-1,-1,28619.49941625,unknown,2,2025-04-22T11:29:35.925+03:00,2025-04-21T17:08:51.449+03:00,7169,0.952456,0,0,5985.539,5,20,2025-04-22T11:27:03.726+03:00,767003386.3442003,0,-21.23,100.4574,1,0.9,2025-04-22T11:29:46.812+03:00,76,1.266666666666667,2025-04-22T09:54:17.825+03:00,0.02225348692287972,0
2025-04-22T11:29:48.123+03:00,1745310587.030363,40.95228072708613,29.14030476268771,76.52575,-1,-1,-1,-1,30,32.49985521160348,-9999,28631.690759,-0.7040252685546875,0.6231842041015625,-0.3066864013671875,28631.680682,-1.206804241768357,-1.162179681926296,-0.6889718273801472,-0.1444539725780487,5.175452679395676e-05,-0.03112386167049408,0.005072951316833496,-0.01754951477050781,0.002080410718917847,XArbitraryZVertical,-0.5256253911055521,-0.2652630703685596,-0.2937972623550811,0.7530182265007893,-0.7083504796028137,0.6357438564300537,-0.3067069053649902,0,0,0,-1,-1,28619.49941625,unknown,2,2025-04-22T11:29:35.925+03:00,2025-04-21T17:08:51.449+03:00,7169,0.952456,0,0,5985.539,5,20,2025-04-22T11:27:03.726+03:00,767003386.3442003,0,-21.23,100.4574,1,0.9,2025-04-22T11:29:46.812+03:00,76,1.266666666666667,2025-04-22T09:54:17.825+03:00,0.02225348692287972,0
2025-04-22T11:29:48.133+03:00,1745310587.030363,40.95228072708613,29.14030476268771,76.52575,-1,-1,-1,-1,30,32.49985521160348,-9999,28631.700836,-0.7043914794921875,0.6261444091796875,-0.306427001953125,28631.690759,-1.208746200309794,-1.163376085831363,-0.689276559537821,-0.1540805697441101,0.005028869956731796,-0.03386721760034561,0.004330635070800781,-0.0155874490737915,0.0007896721363067627,XArbitraryZVertical,-0.526141344850499,-0.2651114430053844,-0.2941243681698923,0.7525834494989809,-0.7085389494895935,0.6359790563583374,-0.3057824075222015,0,0,0,-1,-1,28619.49941625,unknown,2,2025-04-22T11:29:35.925+03:00,2025-04-21T17:08:51.449+03:00,7169,0.952456,0,0,5985.539,5,20,2025-04-22T11:27:03.726+03:00,767003386.3442003,0,-21.23,100.4574,1,0.9,2025-04-22T11:29:46.812+03:00,76,1.266666666666667,2025-04-22T09:54:17.825+03:00,0.02225348692287972,0
2025-04-22T11:29:48.150+03:00,1745310587.030363,40.95228072708613,29.14030476268771,76.52575,-1,-1,-1,-1,30,32.49985521160348,-9999,28631.710912,-0.70782470703125,0.626373291015625,-0.3049774169921875,28631.700836,-1.210865542463781,-1.164637517398127,-0.6896041649780401,-0.1709008365869522,0.01012642681598663,-0.0325031466782093,0.004295408725738525,-0.01223915815353394,-0.001453131437301636,XArbitraryZVertical,-0.5266964470798799,-0.264929852728723,-0.2944935749919884,0.7521145523911569,-0.7087326049804688,0.6362318396568298,-0.3048060536384583,0,0,0,-1,-1,28619.49941625,unknown,2,2025-04-22T11:29:35.925+03:00,2025-04-21T17:08:51.449+03:00,7169,0.952456,0,0,5985.539,5,20,2025-04-22T11:27:03.726+03:00,767003386.3442003,0,-21.23,100.4574,1,0.9,2025-04-22T11:29:46.812+03:00,76,1.266666666666667,2025-04-22T09:54:17.825+03:00,0.02225348692287972,0
2025-04-22T11:29:48.152+03:00,1745310587.030363,40.95228072708613,29.14030476268771,76.52575,-1,-1,-1,-1,30,32.49985521160348,-9999,28631.720989,-0.7111358642578125,0.6290283203125,-0.30157470703125,28631.710912,-1.213142971850763,-1.165934483526612,-0.6899828012434402,-0.1790373921394348,0.01912438124418259,-0.03359267860651016,0.004041492938995361,-0.01015084981918335,-0.003016799688339233,XArbitraryZVertical,-0.5272912990604168,-0.2647036639301686,-0.2948969902616923,0.7516192156747911,-0.7089059352874756,0.6365239024162292,-0.3037917017936707,0,0,0,-1,-1,28619.49941625,unknown,2,2025-04-22T11:29:35.925+03:00,2025-04-21T17:08:51.449+03:00,7169,0.952456,0,0,5985.539,5,20,2025-04-22T11:27:03.726+03:00,767003386.3442003,0,-21.23,100.4574,1,0.9,2025-04-22T11:29:46.812+03:00,76,1.266666666666667,2025-04-22T09:54:17.825+03:00,0.02225348692287972,0
2025-04-22T11:29:48.161+03:00,1745310587.030363,40.95228072708613,29.14030476268771,76.52575,-1,-1,-1,-1,30,32.49985521160348,-9999,28631.731065,-0.7108917236328125,0.63214111328125,-0.2998199462890625,28631.720989,-1.215533216927602,-1.167226208491943,-0.6903830653688693,-0.1889605969190598,0.02529466152191162,-0.03466033935546875,0.0008267760276794434,-0.01015424728393555,-0.00162196159362793,XArbitraryZVertical,-0.5279059027322085,-0.2644381038700441,-0.2953367931721932,0.7511084572328006,-0.7090634703636169,0.636832594871521,-0.3027756810188293,0,0,0,-1,-1,28619.49941625,unknown,2,2025-04-22T11:29:35.925+03:00,2025-04-21T17:08:51.449+03:00,7169,0.952456,0,0,5985.539,5,20,2025-04-22T11:27:03.726+03:00,767003386.3442003,0,-21.23,100.4574,1,0.9,2025-04-22T11:29:46.812+03:00,76,1.266666666666667,2025-04-22T09:54:17.825+03:00,0.02225348692287972,0
2025-04-22T11:29:48.171+03:00,1745310587.030363,40.95228072708613,29.14030476268771,76.52575,-1,-1,-1,-1,30,32.49985521160348,-9999,28631.741142,-0.7131195068359375,0.63336181640625,-0.3010406494140625,28631.731065,-1.21806299347457,-1.168539695456341,-0.6907968543302967,-0.2013311684131622,0.03277022019028664,-0.03907156735658646,-0.001398980617523193,-0.007772386074066162,0.0006544291973114014,XArbitraryZVertical,-0.5285454701771395,-0.2641386042834697,-0.2958181990218338,0.7505745560047798,-0.7092181444168091,0.6371515393257141,-0.301740974187851,0,0,0,-1,-1,28619.49941625,unknown,2,2025-04-22T11:29:35.925+03:00,2025-04-21T17:08:51.449+03:00,7169,0.952456,0,0,5985.539,5,20,2025-04-22T11:27:03.726+03:00,767003386.3442003,0,-21.23,100.4574,1,0.9,2025-04-22T11:29:46.812+03:00,76,1.266666666666667,2025-04-22T09:54:17.825+03:00,0.02225348692287972,0
2025-04-22T11:29:48.181+03:00,1745310587.030363,40.95228072708613,29.14030476268771,76.52575,-1,-1,-1,-1,30,32.49985521160348,-9999,28631.751219,-0.711181640625,0.6265106201171875,-0.29864501953125,28631.741142,-1.220842437413898,-1.169969943606311,-0.6912899852135397,-0.2243315726518631,0.03573325276374817,-0.03515938296914101,-0.002005219459533691,-0.005375266075134277,0.0007226169109344482,XArbitraryZVertical,-0.5292562617547564,-0.2637915471230203,-0.2963378029110937,0.749990525055525,-0.7093595862388611,0.6375315189361572,-0.3006036579608917,0,0,0,-1,-1,28619.49941625,unknown,2,2025-04-22T11:29:35.925+03:00,2025-04-21T17:08:51.449+03:00,7169,0.952456,0,0,5985.539,5,20,2025-04-22T11:27:03.726+03:00,767003386.3442003,0,-21.23,100.4574,1,0.9,2025-04-22T11:29:46.812+03:00,76,1.266666666666667,2025-04-22T09:54:17.825+03:00,0.02225348692287972,0
2025-04-22T11:29:48.191+03:00,1745310587.030363,40.95228072708613,29.14030476268771,76.52575,-1,-1,-1,-1,30,32.49985521160348,-9999,28631.761295,-0.713714599609375,0.6228790283203125,-0.292724609375,28631.751219,-1.223814623567268,-1.171457813619448,-0.691890859902577,-0.2415990978479385,0.04605872556567192,-0.02984417788684368,-0.003224074840545654,-0.005258321762084961,-0.001336634159088135,XArbitraryZVertical,-0.5300293220162513,-0.2633808754166972,-0.296881258999233,0.7493736859258225,-0.7094529271125793,0.6379943490028381,-0.2993988692760468,0,0,0,-1,-1,28619.49941625,unknown,2,2025-04-22T11:29:35.925+03:00,2025-04-21T17:08:51.449+03:00,7169,0.952456,0,0,5985.539,5,20,2025-04-22T11:27:03.726+03:00,767003386.3442003,0,-21.23,100.4574,1,0.9,2025-04-22T11:29:46.812+03:00,76,1.266666666666667,2025-04-22T09:54:17.825+03:00,0.02225348692287972,0
2025-04-22T11:29:48.201+03:00,1745310587.030363,40.95228072708613,29.14030476268771,76.52575,-1,-1,-1,-1,30,32.49985521160348,-9999,28631.771372,-0.7154998779296875,0.6302032470703125,-0.2886810302734375,28631.761295,-1.226960125389908,-1.172930312082757,-0.692577905331785,-0.2556670010089874,0.05616089701652527,-0.02742975763976574,-0.0008842349052429199,-0.01276051998138428,-0.0002932846546173096,XArbitraryZVertical,-0.5308451864427931,-0.2628905275631186,-0.2974667038340721,0.7487358290694558,-0.7094886302947998,0.638523280620575,-0.2981839179992676,0,0,0,-1,-1,28619.49941625,unknown,2,2025-04-22T11:29:35.925+03:00,2025-04-21T17:08:51.449+03:00,7169,0.952456,0,0,5985.539,5,20,2025-04-22T11:27:03.726+03:00,767003386.3442003,0,-21.23,100.4574,1,0.9,2025-04-22T11:29:46.812+03:00,76,1.266666666666667,2025-04-22T09:54:17.825+03:00,0.02225348692287972,0
2025-04-22T11:29:48.211+03:00,1745310587.030363,40.95228072708613,29.14030476268771,76.52575,-1,-1,-1,-1,30,32.49985521160348,-9999,28631.781449,-0.7176971435546875,0.633270263671875,-0.2882537841796875,28631.771372,-1.230239566434338,-1.174395924429282,-0.6933524556209465,-0.2739633619785309,0.06972790509462357,-0.02074998244643211,-0.004154562950134277,-0.01576733589172363,0.004823178052902222,XArbitraryZVertical,-0.5316999028067845,-0.2623334838976165,-0.2980766141862655,0.7480818762135075,-0.7094684839248657,0.6391191482543945,-0.2969527244567871,0,0,0,-1,-1,28619.49941625,unknown,2,2025-04-22T11:29:35.925+03:00,2025-04-21T17:08:51.449+03:00,7169,0.952456,0,0,5985.539,5,20,2025-04-22T11:27:03.726+03:00,767003386.3442003,0,-21.23,100.4574,1,0.9,2025-04-22T11:29:46.812+03:00,76,1.266666666666667,2025-04-22T09:54:17.825+03:00,0.02225348692287972,0
2025-04-22T11:29:48.222+03:00,1745310587.030363,40.95228072708613,29.14030476268771,76.52575,-1,-1,-1,-1,30,32.49985521160348,-9999,28631.791525,-0.7194366455078125,0.630950927734375,-0.290618896484375,28631.781449,-1.233843855637866,-1.175947353277893,-0.6942680636682711,-0.3081599473953247,0.07649286091327667,-0.02247091755270958,-0.00634080171585083,-0.008750319480895996,0.007464200258255005,XArbitraryZVertical,-0.5326461415495648,-0.2616770089335945,-0.2987416828494054,0.7473730677393298,-0.7093878984451294,0.6398230791091919,-0.2956264615058899,0,0,0,-1,-1,28619.49941625,unknown,2,2025-04-22T11:29:35.925+03:00,2025-04-21T17:08:51.449+03:00,7169,0.952456,0,0,5985.539,5,20,2025-04-22T11:27:03.726+03:00,767003386.3442003,0,-21.23,100.4574,1,0.9,2025-04-22T11:29:46.812+03:00,76,1.266666666666667,2025-04-22T09:54:17.825+03:00,0.02225348692287972,0
2025-04-22T11:29:48.232+03:00,1745310587.030363,40.95228072708613,29.14030476268771,76.52575,-1,-1,-1,-1,30,32.49985521160348,-9999,28631.801602,-0.7158966064453125,0.63336181640625,-0.2967376708984375,28631.791525,-1.237893819391529,-1.177753718724385,-0.6953100701522793,-0.3469347655773163,0.07920396327972412,-0.0196548905223608,-0.008713066577911377,-0.007643401622772217,0.005606323480606079,XArbitraryZVertical,-0.5337205632675105,-0.2609556305205689,-0.2994656013456337,0.7465686013941985,-0.7093044519424438,0.6406235694885254,-0.2940890491008759,0,0,0,-1,-1,28619.49941625,unknown,2,2025-04-22T11:29:35.925+03:00,2025-04-21T17:08:51.449+03:00,7169,0.952456,0,0,5985.539,5,20,2025-04-22T11:27:03.726+03:00,767003386.3442003,0,-21.23,100.4574,1,0.9,2025-04-22T11:29:46.812+03:00,76,1.266666666666667,2025-04-22T09:54:17.825+03:00,0.02225348692287972,0
2025-04-22T11:29:48.242+03:00,1745310587.030363,40.95228072708613,29.14030476268771,76.52575,-1,-1,-1,-1,30,32.49985521160348,-9999,28631.811678,-0.71624755859375,0.641326904296875,-0.3044891357421875,28631.801602,-1.242270051093121,-1.179695966344494,-0.6965171346242716,-0.3603411316871643,0.09143585711717606,-0.008029927499592304,-0.009819865226745605,-0.01099598407745361,0.0005151927471160889,XArbitraryZVertical,-0.5348992369455737,-0.260143948334376,-0.3002233025120393,0.7457035255014829,-0.7091589570045471,0.6415499448776245,-0.2924158573150635,0,0,0,-1,-1,28619.49941625,unknown,2,2025-04-22T11:29:35.925+03:00,2025-04-21T17:08:51.449+03:00,7169,0.952456,0,0,5985.539,5,20,2025-04-22T11:27:03.726+03:00,767003386.3442003,0,-21.23,100.4574,1,0.9,2025-04-22T11:29:46.812+03:00,76,1.266666666666667,2025-04-22T09:54:17.825+03:00,0.02225348692287972,0
2025-04-22T11:29:48.252+03:00,1745310587.030363,40.95228072708613,29.14030476268771,76.52575,-1,-1,-1,-1,30,32.49985521160348,-9999,28631.821755,-0.71539306640625,0.6439666748046875,-0.301544189453125,28631.811678,-1.246765071615947,-1.181666786886645,-0.6977890267368073,-0.3567944467067719,0.09400221705436707,-0.0152238579466939,-0.006719827651977539,-0.008263111114501953,-0.006960570812225342,XArbitraryZVertical,-0.5361121328524899,-0.2592871481265978,-0.3009951003031078,0.7448193593920711,-0.7089784145355225,0.6425250768661499,-0.290707916021347,0,0,0,-1,-1,28619.49941625,unknown,2,2025-04-22T11:29:35.925+03:00,2025-04-21T17:08:51.449+03:00,7169,0.952456,0,0,5985.539,5,20,2025-04-22T11:27:03.726+03:00,767003386.3442003,0,-21.23,100.4574,1,0.9,2025-04-22T11:29:46.812+03:00,76,1.266666666666667,2025-04-22T09:54:17.825+03:00,0.02225348692287972,0
2025-04-22T11:29:48.262+03:00,1745310587.030363,40.95228072708613,29.14030476268771,76.52575,-1,-1,-1,-1,30,32.49985521160348,-9999,28631.831832,-0.71746826171875,0.654052734375,-0.2958221435546875,28631.821755,-1.251107542265283,-1.183395974605253,-0.6989508807010274,-0.346837967634201,0.1138781830668449,-0.01740418747067451,-0.00803905725479126,-0.001737236976623535,-0.01542723178863525,XArbitraryZVertical,-0.537237658274947,-0.2584106388101973,-0.3018040231542873,0.7439851345868546,-0.7087883353233337,0.6434149146080017,-0.2891992926597595,0,0,0,-1,-1,28619.49941625,unknown,2,2025-04-22T11:29:35.925+03:00,2025-04-21T17:08:51.449+03:00,7169,0.952456,0,0,5985.539,5,20,2025-04-22T11:27:03.726+03:00,767003386.3442003,0,-21.23,100.4574,1,0.9,2025-04-22T11:29:46.812+03:00,76,1.266666666666667,2025-04-22T09:54:17.825+03:00,0.02225348692287972,0
2025-04-22T11:29:48.272+03:00,1745310587.030363,40.95228072708613,29.14030476268771,76.52575,-1,-1,-1,-1,30,32.49985521160348,-9999,28631.841908,-0.7171783447265625,0.6610260009765625,-0.29534912109375,28631.831832,-1.255339931116955,-1.184890026034592,-0.7000680955654295,-0.3297587931156158,0.1292529553174973,-0.01420876104384661,-0.006809353828430176,-0.0003337860107421875,-0.0133698582649231,XArbitraryZVertical,-0.5382993882651744,-0.2574862081963107,-0.3026455021233859,0.7431959529275211,-0.7085531949996948,0.6442697644233704,-0.2878692448139191,0,0,0,-1,-1,28619.49941625,unknown,2,2025-04-22T11:29:35.925+03:00,2025-04-21T17:08:51.449+03:00,7169,0.952456,0,0,5985.539,5,20,2025-04-22T11:27:03.726+03:00,767003386.3442003,0,-21.23,100.4574,1,0.9,2025-04-22T11:29:46.812+03:00,76,1.266666666666667,2025-04-22T09:54:17.825+03:00,0.02225348692287972,0
2025-04-22T11:29:48.282+03:00,1745310587.030363,40.95228072708613,29.14030476268771,76.52575,-1,-1,-1,-1,30,32.49985521160348,-9999,28631.851985,-0.7158203125,0.6477508544921875,-0.300140380859375,28631.841908,-1.259388084780408,-1.186078494531634,-0.7011011549568792,-0.3196832537651062,0.1476130485534668,-0.01864984817802906,-0.01024359464645386,0.01167863607406616,-0.008755266666412354,XArbitraryZVertical,-0.539266907759874,-0.2565203595348701,-0.30352322680309,0.7424702584872001,-0.7082775235176086,0.6450595259666443,-0.2867770195007324,0,0,0,-1,-1,28619.49941625,unknown,2,2025-04-22T11:29:35.925+03:00,2025-04-21T17:08:51.449+03:00,7169,0.952456,0,0,5985.539,5,20,2025-04-22T11:27:03.726+03:00,767003386.3442003,0,-21.23,100.4574,1,0.9,2025-04-22T11:29:46.812+03:00,76,1.266666666666667,2025-04-22T09:54:17.825+03:00,0.02225348692287972,0
2025-04-22T11:29:48.292+03:00,1745310587.030363,40.95228072708613,29.14030476268771,76.52575,-1,-1,-1,-1,30,32.49985521160348,-9999,28631.862062,-0.7131805419921875,0.649169921875,-0.3037261962890625,28631.851985,-1.26329736389352,-1.187052108428775,-0.7021039199389316,-0.3052184283733368,0.1608749181032181,-0.01842807419598103,-0.008901655673980713,0.01379662752151489,-0.009763598442077637,XArbitraryZVertical,-0.5401737839322585,-0.2555186763317923,-0.3044142464459776,0.7417913469938865,-0.7079562544822693,0.6458254456520081,-0.2858449816703796,0,0,0,-1,-1,28619.49941625,unknown,2,2025-04-22T11:29:35.925+03:00,2025-04-21T17:08:51.449+03:00,7169,0.952456,0,0,5985.539,5,20,2025-04-22T11:27:03.726+03:00,767003386.3442003,0,-21.23,100.4574,1,0.9,2025-04-22T11:29:46.812+03:00,76,1.266666666666667,2025-04-22T09:54:17.825+03:00,0.02225348692287972,0
2025-04-22T11:29:48.302+03:00,1745310587.030363,40.95228072708613,29.14030476268771,76.52575,-1,-1,-1,-1,30,32.49985521160348,-9999,28631.872138,-0.7111053466796875,0.651214599609375,-0.303314208984375,28631.862062,-1.267008257921302,-1.187735161988599,-0.7030022562122953,-0.2808132171630859,0.1782693564891815,-0.02902345918118954,-0.008070051670074463,0.001178622245788574,-0.01554536819458008,XArbitraryZVertical,-0.5409818676338576,-0.2544924915290399,-0.3053393852342772,0.7411747439749579,-0.707612931728363,0.6465110182762146,-0.2851443886756897,0,0,0,-1,-1,28619.49941625,unknown,2,2025-04-22T11:29:35.925+03:00,2025-04-21T17:08:51.449+03:00,7169,0.952456,0,0,5985.539,5,20,2025-04-22T11:27:03.726+03:00,767003386.3442003,0,-21.23,100.4574,1,0.9,2025-04-22T11:29:46.812+03:00,76,1.266666666666667,2025-04-22T09:54:17.825+03:00,0.02225348692287972,0
2025-04-22T11:29:48.313+03:00,1745310587.030363,40.95228072708613,29.14030476268771,76.52575,-1,-1,-1,-1,30,32.49985521160348,-9999,28631.882215,-0.7106170654296875,0.657928466796875,-0.29693603515625,28631.872138,-1.270478106901664,-1.188100597094416,-0.7037400367661626,-0.2584083676338196,0.1937241554260254,-0.02904612943530083,-0.005677282810211182,0.001851916313171387,-0.01961380243301392,XArbitraryZVertical,-0.5416674232690083,-0.2534613011694187,-0.3063073335559402,0.7406277256402669,-0.707274317741394,0.6470736861228943,-0.2847075462341309,0,0,0,-1,-1,28619.49941625,unknown,2,2025-04-22T11:29:35.925+03:00,2025-04-21T17:08:51.449+03:00,7169,0.952456,0,0,5985.539,5,20,2025-04-22T11:27:03.726+03:00,767003386.3442003,0,-21.23,100.4574,1,0.9,2025-04-22T11:29:46.812+03:00,76,1.266666666666667,2025-04-22T09:54:17.825+03:00,0.02225348692287972,0
2025-04-22T11:29:48.323+03:00,1745310587.030363,40.95228072708613,29.14030476268771,76.52575,-1,-1,-1,-1,30,32.49985521160348,-9999,28631.892292,-0.708648681640625,0.6507568359375,-0.2974700927734375,28631.882215,-1.273690932187777,-1.188166203810437,-0.7043910819221499,-0.2470683604478836,0.20343217253685,-0.03332449495792389,-0.004508435726165771,0.004636228084564209,-0.01820012927055359,XArbitraryZVertical,-0.5422501889309239,-0.2524140236646667,-0.3072860857661907,0.74015334749269,-0.706902027130127,0.6475699543952942,-0.2845037877559662,0,0,0,-1,-1,28619.49941625,unknown,2,2025-04-22T11:29:35.925+03:00,2025-04-21T17:08:51.449+03:00,7169,0.952456,0,0,5985.539,5,20,2025-04-22T11:27:03.726+03:00,767003386.3442003,0,-21.23,100.4574,1,0.9,2025-04-22T11:29:46.812+03:00,76,1.266666666666667,2025-04-22T09:54:17.825+03:00,0.02225348692287972,0
2025-04-22T11:29:48.332+03:00,1745310587.030363,40.95228072708613,29.14030476268771,76.52575,-1,-1,-1,-1,30,32.49985521160348,-9999,28631.902368,-0.706573486328125,0.63873291015625,-0.2930145263671875,28631.892292,-1.276927659285046,-1.188199400432672,-0.70498168128859,-0.2496916353702545,0.2052137553691864,-0.03901863470673561,-0.00418245792388916,0.009740531444549561,-0.01276645064353943,XArbitraryZVertical,-0.542813500062065,-0.2513657575495108,-0.3082996295507873,0.7396756136881002,-0.7065566182136536,0.6480198502540588,-0.2843375205993652,0,0,0,-1,-1,28619.49941625,unknown,2,2025-04-22T11:29:35.925+03:00,2025-04-21T17:08:51.449+03:00,7169,0.952456,0,0,5985.539,5,20,2025-04-22T11:27:03.726+03:00,767003386.3442003,0,-21.23,100.4574,1,0.9,2025-04-22T11:29:46.812+03:00,76,1.266666666666667,2025-04-22T09:54:17.825+03:00,0.02225348692287972,0
2025-04-22T11:29:48.343+03:00,1745310587.030363,40.95228072708613,29.14030476268771,76.52575,-1,-1,-1,-1,30,32.49985521160348,-9999,28631.912445,-0.7037811279296875,0.6360321044921875,-0.2929534912109375,28631.902368,-1.280227206319604,-1.188244971999074,-0.7055572476293542,-0.2524853050708771,0.207020178437233,-0.04185783118009567,-0.001616477966308594,0.0004369616508483887,-0.01295316219329834,XArbitraryZVertical,-0.5433807558714947,-0.2503084579654157,-0.3093366946099452,0.7391845483021421,-0.7062234878540039,0.6484581232070923,-0.2841660678386688,0,0,0,-1,-1,28619.49941625,unknown,2,2025-04-22T11:29:35.925+03:00,2025-04-21T17:08:51.449+03:00,7169,0.952456,0,0,5985.539,5,20,2025-04-22T11:27:03.726+03:00,767003386.3442003,0,-21.23,100.4574,1,0.9,2025-04-22T11:29:46.812+03:00,76,1.266666666666667,2025-04-22T09:54:17.825+03:00,0.02225348692287972,0
2025-04-22T11:29:48.353+03:00,1745310587.030363,40.95228072708613,29.14030476268771,76.52575,-1,-1,-1,-1,30,32.49985521160348,-9999,28631.922522,-0.697296142578125,0.6384124755859375,-0.2977752685546875,28631.912445,-1.28352350923381,-1.18835455597227,-0.7060402218774999,-0.247296929359436,0.1975241452455521,-0.05278358608484268,-0.0001212954521179199,-0.01181727647781372,-0.008447736501693726,XArbitraryZVertical,-0.5439320529705683,-0.2493031570708659,-0.3103817152435168,0.7386805046795571,-0.7059639096260071,0.6488257050514221,-0.2839717268943787,0,0,0,-1,-1,28619.49941625,unknown,2,2025-04-22T11:29:35.925+03:00,2025-04-21T17:08:51.449+03:00,7169,0.952456,0,0,5985.539,5,20,2025-04-22T11:27:03.726+03:00,767003386.3442003,0,-21.23,100.4574,1,0.9,2025-04-22T11:29:46.812+03:00,76,1.266666666666667,2025-04-22T09:54:17.825+03:00,0.02225348692287972,0
2025-04-22T11:29:48.363+03:00,1745310587.030363,40.95228072708613,29.14030476268771,76.52575,-1,-1,-1,-1,30,32.49985521160348,-9999,28631.932598,-0.6923370361328125,0.6429443359375,-0.2991943359375,28631.922522,-1.286790918769497,-1.188548546157018,-0.706438491811832,-0.2386198192834854,0.1789752244949341,-0.05993656814098358,0.002593159675598145,-0.01308155059814453,-0.009062618017196655,XArbitraryZVertical,-0.5444695626301883,-0.2483620745550185,-0.3114173561289411,0.7381654614651847,-0.7057791352272034,0.6491287350654602,-0.2837383449077606,0,0,0,-1,-1,28619.49941625,unknown,2,2025-04-22T11:29:35.925+03:00,2025-04-21T17:08:51.449+03:00,7169,0.952456,0,0,5985.539,5,20,2025-04-22T11:27:03.726+03:00,767003386.3442003,0,-21.23,100.4574,1,0.9,2025-04-22T11:29:46.812+03:00,76,1.266666666666667,2025-04-22T09:54:17.825+03:00,0.02225348692287972,0
2025-04-22T11:29:48.373+03:00,1745310587.030363,40.95228072708613,29.14030476268771,76.52575,-1,-1,-1,-1,30,32.49985521160348,-9999,28631.942675,-0.689849853515625,0.6412353515625,-0.2969818115234375,28631.932598,-1.289997648290437,-1.188882160492165,-0.7067288896249413,-0.2333227246999741,0.1677636504173279,-0.06932590901851654,0.009287714958190918,-0.01057106256484985,-0.01522767543792725,XArbitraryZVertical,-0.5449924728387923,-0.2475214959113524,-0.3124236363797057,0.7376365495157353,-0.7056988477706909,0.6493496298789978,-0.2834326326847076,0,0,0,-1,-1,28619.49941625,unknown,2,2025-04-22T11:29:35.925+03:00,2025-04-21T17:08:51.449+03:00,7169,0.952456,0,0,5985.539,5,20,2025-04-22T11:27:03.726+03:00,767003386.3442003,0,-21.23,100.4574,1,0.9,2025-04-22T11:29:46.812+03:00,76,1.266666666666667,2025-04-22T09:54:17.825+03:00,0.02225348692287972,0
2025-04-22T11:29:48.383+03:00,1745310587.030363,40.95228072708613,29.14030476268771,76.52575,-1,-1,-1,-1,30,32.49985521160348,-9999,28631.952751,-0.68963623046875,0.64678955078125,-0.29278564453125,28631.942675,-1.293257456669332,-1.189386621958496,-0.7069366948692494,-0.2352561801671982,0.1522360891103745,-0.07418644428253174,0.01431024074554443,-0.006670296192169189,-0.0156797468662262,XArbitraryZVertical,-0.5455265893518135,-0.2467540611719981,-0.3134263774084894,0.7370732253799037,-0.7057164907455444,0.6495076417922974,-0.2830263376235962,0,0,0,-1,-1,28619.49941625,unknown,2,2025-04-22T11:29:35.925+03:00,2025-04-21T17:08:51.449+03:00,7169,0.952456,0,0,5985.539,5,20,2025-04-22T11:27:03.726+03:00,767003386.3442003,0,-21.23,100.4574,1,0.9,2025-04-22T11:29:46.812+03:00,76,1.266666666666667,2025-04-22T09:54:17.825+03:00,0.02225348692287972,0
2025-04-22T11:29:48.393+03:00,1745310587.030363,40.95228072708613,29.14030476268771,76.52575,-1,-1,-1,-1,30,32.49985521160348,-9999,28631.962828,-0.692474365234375,0.650115966796875,-0.2877044677734375,28631.952751,-1.296403239634765,-1.189932143508897,-0.7070819488137957,-0.223573625087738,0.1431092321872711,-0.07914548367261887,0.01626914739608765,-0.008153975009918213,-0.01408571004867554,XArbitraryZVertical,-0.5460362486208887,-0.2460513441626374,-0.3143934375175937,0.7365187915896279,-0.7057833075523376,0.6496180891990662,-0.282606303691864,0,0,0,-1,-1,28619.49941625,unknown,2,2025-04-22T11:29:35.925+03:00,2025-04-21T17:08:51.449+03:00,7169,0.952456,0,0,5985.539,5,20,2025-04-22T11:27:03.726+03:00,767003386.3442003,0,-21.23,100.4574,1,0.9,2025-04-22T11:29:46.812+03:00,76,1.266666666666667,2025-04-22T09:54:17.825+03:00,0.02225348692287972,0
2025-04-22T11:29:48.403+03:00,1745310587.030363,40.95228072708613,29.14030476268771,76.52575,-1,-1,-1,-1,30,32.49985521160348,-9999,28631.972905,-0.69683837890625,0.6535797119140625,-0.2829437255859375,28631.962828,-1.299615005093959,-1.19061142517834,-0.7071197827857169,-0.2238753736019135,0.136077955365181,-0.08914964646100998,0.01591932773590088,-0.002155542373657227,-0.01027131080627441,XArbitraryZVertical,-0.5465473090183998,-0.2454123015184832,-0.3153789747349265,0.7359313368004068,-0.7059522867202759,0.6496468186378479,-0.2821176946163177,0,0,0,-1,-1,28619.49941625,unknown,2,2025-04-22T11:29:35.925+03:00,2025-04-21T17:08:51.449+03:00,7169,0.952456,0,0,5985.539,5,20,2025-04-22T11:27:03.726+03:00,767003386.3442003,0,-21.23,100.4574,1,0.9,2025-04-22T11:29:46.812+03:00,76,1.266666666666667,2025-04-22T09:54:17.825+03:00,0.02225348692287972,0
2025-04-22T11:29:48.414+03:00,1745310587.030363,40.95228072708613,29.14030476268771,76.52575,-1,-1,-1,-1,30,32.49985521160348,-9999,28631.982981,-0.694793701171875,0.65972900390625,-0.2827606201171875,28631.972905,-1.302708303952219,-1.191291262895553,-0.7070238383313157,-0.2014891654253006,0.1301678121089935,-0.1011368334293365,0.01281189918518066,0.001091241836547852,-0.005372405052185059,XArbitraryZVertical,-0.5470098096401266,-0.2448466573847042,-0.3163593045727697,0.7353551091082245,-0.7062017917633057,0.6495738625526428,-0.2816607654094696,0,0,0,-1,-1,28619.49941625,unknown,2,2025-04-22T11:29:35.925+03:00,2025-04-21T17:08:51.449+03:00,7169,0.952456,0,0,5985.539,5,20,2025-04-22T11:27:03.726+03:00,767003386.3442003,0,-21.23,100.4574,1,0.9,2025-04-22T11:29:46.812+03:00,76,1.266666666666667,2025-04-22T09:54:17.825+03:00,0.02225348692287972,0
2025-04-22T11:29:48.423+03:00,1745310587.030363,40.95228072708613,29.14030476268771,76.52575,-1,-1,-1,-1,30,32.49985521160348,-9999,28631.993058,-0.6959075927734375,0.659820556640625,-0.285369873046875,28631.982981,-1.30550499184028,-1.1918600844218,-0.7067162441723164,-0.1703352332115173,0.1166796982288361,-0.1116246283054352,0.009358108043670654,0.004621028900146484,-0.001137852668762207,XArbitraryZVertical,-0.5473651938790413,-0.2443867714350098,-0.3173226718409061,0.7348283389553366,-0.7065474390983582,0.6493399739265442,-0.2813329100608826,0,0,0,-1,-1,28619.49941625,unknown,2,2025-04-22T11:29:35.925+03:00,2025-04-21T17:08:51.449+03:00,7169,0.952456,0,0,5985.539,5,20,2025-04-22T11:27:03.726+03:00,767003386.3442003,0,-21.23,100.4574,1,0.9,2025-04-22T11:29:46.812+03:00,76,1.266666666666667,2025-04-22T09:54:17.825+03:00,0.02225348692287972,0
2025-04-22T11:29:48.433+03:00,1745310587.030363,40.95228072708613,29.14030476268771,76.52575,-1,-1,-1,-1,30,32.49985521160348,-9999,28632.003135,-0.6962432861328125,0.6474151611328125,-0.2825927734375,28631.993058,-1.308072541514006,-1.192350825113181,-0.7062425637794495,-0.153868705034256,0.1202898174524307,-0.1143345609307289,0.01237583160400391,0.01137477159500122,-0.002332329750061035,XArbitraryZVertical,-0.5476386045390416,-0.2440124624879973,-0.3182716462750611,0.7343384574961237,-0.7069711685180664,0.648979663848877,-0.2810997664928436,0,0,0,-1,-1,28619.49941625,unknown,2,2025-04-22T11:29:35.925+03:00,2025-04-21T17:08:51.449+03:00,7169,0.952456,0,0,5985.539,5,20,2025-04-22T11:27:03.726+03:00,767003386.3442003,0,-21.23,100.4574,1,0.9,2025-04-22T11:29:46.812+03:00,76,1.266666666666667,2025-04-22T09:54:17.825+03:00,0.02225348692287972,0
