loggingTime(txt),locationTimestamp_since1970(s),locationLatitude(WGS84),locationLongitude(WGS84),locationAltitude(m),locationSpeed(m/s),locationSpeedAccuracy(m/s),locationCourse(°),locationCourseAccuracy(°),locationVerticalAccuracy(m),locationHorizontalAccuracy(m),locationFloor(Z),accelerometerTimestamp_sinceReboot(s),accelerometerAccelerationX(G),accelerometerAccelerationY(G),accelerometerAccelerationZ(G),motionTimestamp_sinceReboot(s),motionYaw(rad),motionRoll(rad),motionPitch(rad),motionRotationRateX(rad/s),motionRotationRateY(rad/s),motionRotationRateZ(rad/s),motionUserAccelerationX(G),motionUserAccelerationY(G),motionUserAccelerationZ(G),motionAttitudeReferenceFrame(txt),motionQuaternionX(R),motionQuaternionY(R),motionQuaternionZ(R),motionQuaternionW(R),motionGravityX(G),motionGravityY(G),motionGravityZ(G),motionMagneticFieldX(µT),motionMagneticFieldY(µT),motionMagneticFieldZ(µT),motionHeading(°),motionMagneticFieldCalibrationAccuracy(Z),activityTimestamp_sinceReboot(s),activity(txt),activityActivityConfidence(Z),activityActivityStartDate(txt),pedometerStartDate(txt),pedometerNumberofSteps(N),pedometerAverageActivePace(s/m),pedometerCurrentPace(s/m),pedometerCurrentCadence(steps/s),pedometerDistance(m),pedometerFloorAscended(N),pedometerFloorDescended(N),pedometerEndDate(txt),altimeterTimestamp_sinceReboot(s),altimeterReset(bool),altimeterRelativeAltitude(m),altimeterPressure(kPa),batteryState(N),batteryLevel(R),heartRateBPMTimestamp(txt),heartRateBPM(N),heartRateBPS(R),heartRateVariabilityTimestamp(txt),heartRateVariability(ms),label
2025-04-22T11:10:41.242+03:00,1745309436.128314,40.9522478792225,29.14028919083181,76.44633,-1,-1,-1,-1,30,23.16803173710119,-9999,27635.83114729167,-0.6953887939453125,0.623565673828125,-0.374420166015625,27635.82107129167,-1.246519315745711,-1.080334154552762,-0.6612603714987266,-0.00740201398730278,0.0235919002443552,0.01744817197322845,0.02163660526275635,-0.024314284324646,0.006681948900222778,XArbitraryZVertical,-0.5099888090646347,-0.2324589142229629,-0.3379047016233566,0.7561047956506686,-0.6961818337440491,0.6141120195388794,-0.3717485368251801,0,0,0,-1,-1,27627.78192266667,unknown,2,2025-04-22T11:10:33.160+03:00,2025-04-21T17:08:51.449+03:00,7097,0.9423593,0,0,5930.618,5,20,2025-04-22T11:09:49.311+03:00,767002240.9890206,0,-21.39,100.4594,1,0.95,2025-04-22T11:05:10.827+03:00,109,1.816666666666667,2025-04-22T09:54:17.825+03:00,0.02225348692287972,0
2025-04-22T11:10:41.244+03:00,1745309436.128314,40.9522478792225,29.14028919083181,76.44633,-1,-1,-1,-1,30,23.16803173710119,-9999,27635.84122329167,-0.69964599609375,0.622894287109375,-0.378997802734375,27635.83114729167,-1.24648004313506,-1.079968789293141,-0.6613749703005678,0.01612328551709652,0.07519064843654633,0.01419751811772585,0.01847851276397705,-0.02756327390670776,0.002600163221359253,XArbitraryZVertical,-0.509954645075988,-0.2322959201445459,-0.3379510960738934,0.7561572553800724,-0.6959839463233948,0.6142024993896484,-0.3719697296619415,0,0,0,-1,-1,27627.78192266667,unknown,2,2025-04-22T11:10:33.160+03:00,2025-04-21T17:08:51.449+03:00,7097,0.9423593,0,0,5930.618,5,20,2025-04-22T11:09:49.311+03:00,767002240.9890206,0,-21.39,100.4594,1,0.95,2025-04-22T11:05:10.827+03:00,109,1.816666666666667,2025-04-22T09:54:17.825+03:00,0.02225348692287972,0
2025-04-22T11:10:41.247+03:00,1745309436.128314,40.9522478792225,29.14028919083181,76.44633,-1,-1,-1,-1,30,23.16803173710119,-9999,27635.85129829167,-0.6982574462890625,0.608642578125,-0.373626708984375,27635.84122329167,-1.24622017612492,-1.078967634249572,-0.6613702345890042,0.02039899118244648,0.10633285343647,0.01498554740101099,-0.0024452805519104,0.01315093040466309,-0.002805352210998535,XArbitraryZVertical,-0.5097539238431671,-0.2319850690399041,-0.3381093903991466,0.7563172888156742,-0.6956138014793396,0.6141987442970276,-0.3726677298545837,0,0,0,-1,-1,27627.78192266667,unknown,2,2025-04-22T11:10:33.160+03:00,2025-04-21T17:08:51.449+03:00,7097,0.9423593,0,0,5930.618,5,20,2025-04-22T11:09:49.311+03:00,767002240.9890206,0,-21.39,100.4594,1,0.95,2025-04-22T11:05:10.827+03:00,109,1.816666666666667,2025-04-22T09:54:17.825+03:00,0.02225348692287972,0
2025-04-22T11:10:41.250+03:00,1745309436.128314,40.9522478792225,29.14028919083181,76.44633,-1,-1,-1,-1,30,23.16803173710119,-9999,27635.86137429167,-0.696533203125,0.61865234375,-0.3754730224609375,27635.85129829167,-1.245856372950123,-1.077607731663758,-0.6615161218646095,0.02061896771192551,0.1021588742733002,0.008981717750430107,-0.004130303859710693,0.005650579929351807,-0.004862368106842041,XArbitraryZVertical,-0.509522813310571,-0.2315190046576718,-0.3382776870107777,0.7565405100576849,-0.6950274109840393,0.6143139004707336,-0.3735709190368652,0,0,0,-1,-1,27627.78192266667,unknown,2,2025-04-22T11:10:33.160+03:00,2025-04-21T17:08:51.449+03:00,7097,0.9423593,0,0,5930.618,5,20,2025-04-22T11:09:49.311+03:00,767002240.9890206,0,-21.39,100.4594,1,0.95,2025-04-22T11:05:10.827+03:00,109,1.816666666666667,2025-04-22T09:54:17.825+03:00,0.02225348692287972,0
2025-04-22T11:10:41.255+03:00,1745309436.128314,40.9522478792225,29.14028919083181,76.44633,-1,-1,-1,-1,30,23.16803173710119,-9999,27635.87145029167,-0.671112060546875,0.6113433837890625,-0.371307373046875,27635.86137429167,-1.245582523405073,-1.076819668555159,-0.6615372410662215,0.01363575924187899,0.02842726930975914,0.008865669369697571,-0.003886997699737549,-0.004116415977478027,0.0003330409526824951,XArbitraryZVertical,-0.5093637021232045,-0.2312842453948716,-0.3383689866094966,0.7566787384113398,-0.694721519947052,0.614330530166626,-0.3741124272346497,0,0,0,-1,-1,27627.78192266667,unknown,2,2025-04-22T11:10:33.160+03:00,2025-04-21T17:08:51.449+03:00,7097,0.9423593,0,0,5930.618,5,20,2025-04-22T11:09:49.311+03:00,767002240.9890206,0,-21.39,100.4594,1,0.95,2025-04-22T11:05:10.827+03:00,109,1.816666666666667,2025-04-22T09:54:17.825+03:00,0.02225348692287972,0
2025-04-22T11:10:41.265+03:00,1745309436.128314,40.9522478792225,29.14028919083181,76.44633,-1,-1,-1,-1,30,23.16803173710119,-9999,27635.88152629167,-0.68084716796875,0.6034698486328125,-0.3732452392578125,27635.87145029167,-1.245473954867552,-1.076492982668625,-0.6615424036930233,0.001926372991874814,0.03036312013864517,0.001540912082418799,0.000962376594543457,0.005187332630157471,-0.00183713436126709,XArbitraryZVertical,-0.509297336053803,-0.231186713089079,-0.3384096624201369,0.7567350048970509,-0.6945964097976685,0.6143345832824707,-0.3743378520011902,0,0,0,-1,-1,27627.78192266667,unknown,2,2025-04-22T11:10:33.160+03:00,2025-04-21T17:08:51.449+03:00,7097,0.9423593,0,0,5930.618,5,20,2025-04-22T11:09:49.311+03:00,767002240.9890206,0,-21.39,100.4594,1,0.95,2025-04-22T11:05:10.827+03:00,109,1.816666666666667,2025-04-22T09:54:17.825+03:00,0.02225348692287972,0
2025-04-22T11:10:41.275+03:00,1745309436.128314,40.9522478792225,29.14028919083181,76.44633,-1,-1,-1,-1,30,23.16803173710119,-9999,27635.89160229167,-0.69921875,0.6084747314453125,-0.37744140625,27635.88152629167,-1.245465770550624,-1.076160212473718,-0.6615802366084391,-0.003503745887428522,0.03843709081411362,0.01045174896717072,0.02550601959228516,-0.0037841796875,0.003494620323181152,XArbitraryZVertical,-0.5092507277120786,-0.2310513598752811,-0.3384807697141858,0.756775889460209,-0.6944513320922852,0.6143644452095032,-0.3745579421520233,0,0,0,-1,-1,27627.78192266667,unknown,2,2025-04-22T11:10:33.160+03:00,2025-04-21T17:08:51.449+03:00,7097,0.9423593,0,0,5930.618,5,20,2025-04-22T11:09:49.311+03:00,767002240.9890206,0,-21.39,100.4594,1,0.95,2025-04-22T11:05:10.827+03:00,109,1.816666666666667,2025-04-22T09:54:17.825+03:00,0.02225348692287972,0
2025-04-22T11:10:41.286+03:00,1745309436.128314,40.9522478792225,29.14028919083181,76.44633,-1,-1,-1,-1,30,23.16803173710119,-9999,27635.90167729167,-0.6937408447265625,0.6085052490234375,-0.3735198974609375,27635.89160229167,-1.245455746413001,-1.075717290712878,-0.6616824315668158,-0.003674720879644156,0.0472140721976757,0.009401131421327591,0.008927345275878906,-0.0111280083656311,-0.0002254843711853027,XArbitraryZVertical,-0.5092033749608453,-0.2308551772045528,-0.3385613058044277,0.7568315430243842,-0.6942300796508789,0.6144450902938843,-0.3748356103897095,0,0,0,-1,-1,27627.78192266667,unknown,2,2025-04-22T11:10:33.160+03:00,2025-04-21T17:08:51.449+03:00,7097,0.9423593,0,0,5930.618,5,20,2025-04-22T11:09:49.311+03:00,767002240.9890206,0,-21.39,100.4594,1,0.95,2025-04-22T11:05:10.827+03:00,109,1.816666666666667,2025-04-22T09:54:17.825+03:00,0.02225348692287972,0
2025-04-22T11:10:41.296+03:00,1745309436.128314,40.9522478792225,29.14028919083181,76.44633,-1,-1,-1,-1,30,23.16803173710119,-9999,27635.91175329167,-0.68829345703125,0.6103057861328125,-0.3727874755859375,27635.90167729167,-1.245451307722621,-1.075293353552834,-0.6618004884724816,-0.00867826770991087,0.03722988069057465,0.0128689669072628,-0.005486071109771729,-0.005926311016082764,-0.001628875732421875,XArbitraryZVertical,-0.5091642886864581,-0.2306599496495258,-0.3386347386920219,0.7568845557333492,-0.6940073370933533,0.6145382523536682,-0.3750954270362854,0,0,0,-1,-1,27627.78192266667,unknown,2,2025-04-22T11:10:33.160+03:00,2025-04-21T17:08:51.449+03:00,7097,0.9423593,0,0,5930.618,5,20,2025-04-22T11:09:49.311+03:00,767002240.9890206,0,-21.39,100.4594,1,0.95,2025-04-22T11:05:10.827+03:00,109,1.816666666666667,2025-04-22T09:54:17.825+03:00,0.02225348692287972,0
2025-04-22T11:10:41.305+03:00,1745309436.128314,40.9522478792225,29.14028919083181,76.44633,-1,-1,-1,-1,30,23.16803173710119,-9999,27635.92182929167,-0.689483642578125,0.612701416015625,-0.3748779296875,27635.91175329167,-1.245484618664687,-1.074893994216818,-0.6619458674140319,-0.007316859904676676,0.04711926355957985,0.01170596480369568,0.0002822279930114746,-0.006651341915130615,0.002145767211914062,XArbitraryZVertical,-0.5091414140853529,-0.2304560662351498,-0.3387085879568893,0.7569290050165716,-0.6937788724899292,0.6146529316902161,-0.3753300309181213,0,0,0,-1,-1,27627.78192266667,unknown,2,2025-04-22T11:10:33.160+03:00,2025-04-21T17:08:51.449+03:00,7097,0.9423593,0,0,5930.618,5,20,2025-04-22T11:09:49.311+03:00,767002240.9890206,0,-21.39,100.4594,1,0.95,2025-04-22T11:05:10.827+03:00,109,1.816666666666667,2025-04-22T09:54:17.825+03:00,0.02225348692287972,0
2025-04-22T11:10:41.315+03:00,1745309436.128314,40.9522478792225,29.14028919083181,76.44633,-1,-1,-1,-1,30,23.16803173710119,-9999,27635.93190529167,-0.6906585693359375,0.6140594482421875,-0.374969482421875,27635.92182929167,-1.245536538995136,-1.074495927070207,-0.6621359541768977,-0.01678712852299213,0.03954143822193146,0.01334777101874352,0.006133437156677246,-0.003184974193572998,0.002366185188293457,XArbitraryZVertical,-0.5091335092209195,-0.23023427823017,-0.3387766968927611,0.7569712481172186,-0.693526566028595,0.6148028373718262,-0.3755505084991455,0,0,0,-1,-1,27627.78192266667,unknown,2,2025-04-22T11:10:33.160+03:00,2025-04-21T17:08:51.449+03:00,7097,0.9423593,0,0,5930.618,5,20,2025-04-22T11:09:49.311+03:00,767002240.9890206,0,-21.39,100.4594,1,0.95,2025-04-22T11:05:10.827+03:00,109,1.816666666666667,2025-04-22T09:54:17.825+03:00,0.02225348692287972,0
2025-04-22T11:10:41.325+03:00,1745309436.128314,40.9522478792225,29.14028919083181,76.44633,-1,-1,-1,-1,30,23.16803173710119,-9999,27635.94198129167,-0.688812255859375,0.6071929931640625,-0.3772430419921875,27635.93190529167,-1.2456628821263,-1.074180224236947,-0.6623165180120192,-0.01894588582217693,0.03722155839204788,0.01046090386807919,0.003277480602264404,-0.002518653869628906,0.0004723668098449707,XArbitraryZVertical,-0.5091453518629526,-0.2300276645386748,-0.3388547144105221,0.7569912509534049,-0.6933104395866394,0.6149452328681946,-0.3757165670394897,0,0,0,-1,-1,27627.78192266667,unknown,2,2025-04-22T11:10:33.160+03:00,2025-04-21T17:08:51.449+03:00,7097,0.9423593,0,0,5930.618,5,20,2025-04-22T11:09:49.311+03:00,767002240.9890206,0,-21.39,100.4594,1,0.95,2025-04-22T11:05:10.827+03:00,109,1.816666666666667,2025-04-22T09:54:17.825+03:00,0.02225348692287972,0
2025-04-22T11:10:41.335+03:00,1745309436.128314,40.9522478792225,29.14028919083181,76.44633,-1,-1,-1,-1,30,23.16803173710119,-9999,27635.95205729167,-0.690948486328125,0.6082000732421875,-0.3761444091796875,27635.94198129167,-1.245879460919492,-1.073945707801454,-0.6625232479240813,-0.02762066759169102,0.0389871671795845,0.01365413423627615,0.00298607349395752,-0.001552462577819824,5.555152893066406e-05,XArbitraryZVertical,-0.5091886760536427,-0.2298208155613602,-0.3389389420384366,0.7569872708792301,-0.6931105852127075,0.6151082515716553,-0.3758185803890228,0,0,0,-1,-1,27627.78192266667,unknown,2,2025-04-22T11:10:33.160+03:00,2025-04-21T17:08:51.449+03:00,7097,0.9423593,0,0,5930.618,5,20,2025-04-22T11:09:49.311+03:00,767002240.9890206,0,-21.39,100.4594,1,0.95,2025-04-22T11:05:10.827+03:00,109,1.816666666666667,2025-04-22T09:54:17.825+03:00,0.02225348692287972,0
2025-04-22T11:10:41.345+03:00,1745309436.128314,40.9522478792225,29.14028919083181,76.44633,-1,-1,-1,-1,30,23.16803173710119,-9999,27635.96213229167,-0.689605712890625,0.6125640869140625,-0.377166748046875,27635.95205729167,-1.24610426774346,-1.073693997093751,-0.6627661389594935,-0.02708670310676098,0.03751683607697487,0.01132306922227144,0.003416180610656738,-0.008656203746795654,-0.0008330941200256348,XArbitraryZVertical,-0.5092402127779538,-0.2295942978848634,-0.3390205869224138,0.756984719331437,-0.6928845643997192,0.6152997612953186,-0.3759217262268066,0,0,0,-1,-1,27627.78192266667,unknown,2,2025-04-22T11:10:33.160+03:00,2025-04-21T17:08:51.449+03:00,7097,0.9423593,0,0,5930.618,5,20,2025-04-22T11:09:49.311+03:00,767002240.9890206,0,-21.39,100.4594,1,0.95,2025-04-22T11:05:10.827+03:00,109,1.816666666666667,2025-04-22T09:54:17.825+03:00,0.02225348692287972,0
2025-04-22T11:10:41.355+03:00,1745309436.128314,40.9522478792225,29.14028919083181,76.44633,-1,-1,-1,-1,30,23.16803173710119,-9999,27635.97220829167,-0.6883544921875,0.613433837890625,-0.3813934326171875,27635.96213229167,-1.246334801412053,-1.073419942884323,-0.6630242492085157,-0.02846362255513668,0.04046915099024773,0.01188416313380003,0.001724004745483398,-0.007089614868164062,0.0006085038185119629,XArbitraryZVertical,-0.5092928209067977,-0.2293532398020495,-0.3391058965086894,0.7569842124745446,-0.6926419734954834,0.615503191947937,-0.3760358393192291,0,0,0,-1,-1,27627.78192266667,unknown,2,2025-04-22T11:10:33.160+03:00,2025-04-21T17:08:51.449+03:00,7097,0.9423593,0,0,5930.618,5,20,2025-04-22T11:09:49.311+03:00,767002240.9890206,0,-21.39,100.4594,1,0.95,2025-04-22T11:05:10.827+03:00,109,1.816666666666667,2025-04-22T09:54:17.825+03:00,0.02225348692287972,0
2025-04-22T11:10:41.365+03:00,1745309436.128314,40.9522478792225,29.14028919083181,76.44633,-1,-1,-1,-1,30,23.16803173710119,-9999,27635.98228429167,-0.687652587890625,0.614410400390625,-0.382843017578125,27635.97220829167,-1.246603406175613,-1.073208702605061,-0.6632661135009327,-0.02962263114750385,0.03503257408738136,0.01154594216495752,0.00307011604309082,-0.001954913139343262,-0.001757621765136719,XArbitraryZVertical,-0.5093558179152349,-0.2291311983767807,-0.3391941512625303,0.7569695673146857,-0.6924316883087158,0.6156938076019287,-0.3761110901832581,0,0,0,-1,-1,27627.78192266667,unknown,2,2025-04-22T11:10:33.160+03:00,2025-04-21T17:08:51.449+03:00,7097,0.9423593,0,0,5930.618,5,20,2025-04-22T11:09:49.311+03:00,767002240.9890206,0,-21.39,100.4594,1,0.95,2025-04-22T11:05:10.827+03:00,109,1.816666666666667,2025-04-22T09:54:17.825+03:00,0.02225348692287972,0
2025-04-22T11:10:41.375+03:00,1745309436.128314,40.9522478792225,29.14028919083181,76.44633,-1,-1,-1,-1,30,23.16803173710119,-9999,27635.99236029167,-0.6870880126953125,0.614471435546875,-0.382843017578125,27635.98228429167,-1.246910280735864,-1.073037011832554,-0.6635167221389727,-0.03614477813243866,0.03872205317020416,0.01329800207167864,0.003922760486602783,-0.002182841300964355,-0.005481421947479248,XArbitraryZVertical,-0.5094323397062075,-0.2289116718331155,-0.3392843756256222,0.75694403878814,-0.6922315359115601,0.6158912181854248,-0.3761562705039978,0,0,0,-1,-1,27627.78192266667,unknown,2,2025-04-22T11:10:33.160+03:00,2025-04-21T17:08:51.449+03:00,7097,0.9423593,0,0,5930.618,5,20,2025-04-22T11:09:49.311+03:00,767002240.9890206,0,-21.39,100.4594,1,0.95,2025-04-22T11:05:10.827+03:00,109,1.816666666666667,2025-04-22T09:54:17.825+03:00,0.02225348692287972,0
2025-04-22T11:10:41.386+03:00,1745309436.128314,40.9522478792225,29.14028919083181,76.44633,-1,-1,-1,-1,30,23.16803173710119,-9999,27636.00243629167,-0.687835693359375,0.6125946044921875,-0.37969970703125,27635.99236029167,-1.247241652547697,-1.072869405318453,-0.6637738709723993,-0.02696353197097778,0.03640030696988106,0.007663819473236799,0.004407167434692383,-0.001729249954223633,-0.007027924060821533,XArbitraryZVertical,-0.5095141277321371,-0.2286854414791571,-0.3393810264765215,0.7569140533829462,-0.6920292973518372,0.6160938143730164,-0.3761966526508331,0,0,0,-1,-1,27627.78192266667,unknown,2,2025-04-22T11:10:33.160+03:00,2025-04-21T17:08:51.449+03:00,7097,0.9423593,0,0,5930.618,5,20,2025-04-22T11:09:49.311+03:00,767002240.9890206,0,-21.39,100.4594,1,0.95,2025-04-22T11:05:10.827+03:00,109,1.816666666666667,2025-04-22T09:54:17.825+03:00,0.02225348692287972,0
2025-04-22T11:10:41.396+03:00,1745309436.128314,40.9522478792225,29.14028919083181,76.44633,-1,-1,-1,-1,30,23.16803173710119,-9999,27636.01251129167,-0.684356689453125,0.6214599609375,-0.370269775390625,27636.00243629167,-1.247423968598316,-1.072726434885031,-0.6639595021413216,-0.0173878688365221,0.01672700233757496,0.01164471171796322,0.005046367645263672,-0.001616179943084717,-0.006602197885513306,XArbitraryZVertical,-0.5095629473437502,-0.2285282526345225,-0.3394348318806167,0.7569044370943929,-0.6918749213218689,0.6162400245666504,-0.3762408792972565,0,0,0,-1,-1,27627.78192266667,unknown,2,2025-04-22T11:10:33.160+03:00,2025-04-21T17:08:51.449+03:00,7097,0.9423593,0,0,5930.618,5,20,2025-04-22T11:09:49.311+03:00,767002240.9890206,0,-21.39,100.4594,1,0.95,2025-04-22T11:05:10.827+03:00,109,1.816666666666667,2025-04-22T09:54:17.825+03:00,0.02225348692287972,0
2025-04-22T11:10:41.406+03:00,1745309436.128314,40.9522478792225,29.14028919083181,76.44633,-1,-1,-1,-1,30,23.16803173710119,-9999,27636.02258729167,-0.6942596435546875,0.620697021484375,-0.3742218017578125,27636.01251129167,-1.247569176269592,-1.072629072399891,-0.6641186083676376,-0.01595748588442802,0.02554339729249477,0.006128773093223572,0.004923582077026367,-0.003587782382965088,-0.002660155296325684,XArbitraryZVertical,-0.5096077222704671,-0.2284059116045469,-0.3394703967762605,0.7568953220591178,-0.6917521953582764,0.6163653135299683,-0.3762614130973816,0,0,0,-1,-1,27627.78192266667,unknown,2,2025-04-22T11:10:33.160+03:00,2025-04-21T17:08:51.449+03:00,7097,0.9423593,0,0,5930.618,5,20,2025-04-22T11:09:49.311+03:00,767002240.9890206,0,-21.39,100.4594,1,0.95,2025-04-22T11:05:10.827+03:00,109,1.816666666666667,2025-04-22T09:54:17.825+03:00,0.02225348692287972,0
2025-04-22T11:10:41.416+03:00,1745309436.128314,40.9522478792225,29.14028919083181,76.44633,-1,-1,-1,-1,30,23.16803173710119,-9999,27636.03266329167,-0.696014404296875,0.60626220703125,-0.3813629150390625,27636.02258729167,-1.247728127488437,-1.072431167829435,-0.664199342304178,-0.01752748526632786,0.02696492522954941,-0.001758344937115908,0.006621241569519043,0.006297409534454346,0.006623446941375732,XArbitraryZVertical,-0.5096149649812642,-0.2282658991090979,-0.3395585500200364,0.7568931570730808,-0.6916340589523315,0.6164289116859436,-0.3763745427131653,0,0,0,-1,-1,27627.78192266667,unknown,2,2025-04-22T11:10:33.160+03:00,2025-04-21T17:08:51.449+03:00,7097,0.9423593,0,0,5930.618,5,20,2025-04-22T11:09:49.311+03:00,767002240.9890206,0,-21.39,100.4594,1,0.95,2025-04-22T11:05:10.827+03:00,109,1.816666666666667,2025-04-22T09:54:17.825+03:00,0.02225348692287972,0
2025-04-22T11:10:41.426+03:00,1745309436.128314,40.9522478792225,29.14028919083181,76.44633,-1,-1,-1,-1,30,23.16803173710119,-9999,27636.04273929167,-0.6808319091796875,0.606964111328125,-0.371673583984375,27636.03266329167,-1.248027640498439,-1.072420690307097,-0.6643185301997069,-0.03384813666343689,0.01177105959504843,0.004206869285553694,-0.004235327243804932,0.002648234367370605,-0.000286102294921875,XArbitraryZVertical,-0.5096808872692306,-0.228149243109643,-0.3396414332922427,0.7568467060496128,-0.6915655136108398,0.6165227293968201,-0.376346617937088,0,0,0,-1,-1,27627.78192266667,unknown,2,2025-04-22T11:10:33.160+03:00,2025-04-21T17:08:51.449+03:00,7097,0.9423593,0,0,5930.618,5,20,2025-04-22T11:09:49.311+03:00,767002240.9890206,0,-21.39,100.4594,1,0.95,2025-04-22T11:05:10.827+03:00,109,1.816666666666667,2025-04-22T09:54:17.825+03:00,0.02225348692287972,0
2025-04-22T11:10:41.436+03:00,1745309436.128314,40.9522478792225,29.14028919083181,76.44633,-1,-1,-1,-1,30,23.16803173710119,-9999,27636.05281529167,-0.6815338134765625,0.6015625,-0.373199462890625,27636.04273929167,-1.248408538898692,-1.072509975701291,-0.6645230682914692,-0.03952819108963013,0.01637426763772964,0.007600102573633194,-0.002786576747894287,-0.0115966796875,-0.003902405500411987,XArbitraryZVertical,-0.5097969925152265,-0.2280235398635886,-0.3397059604264791,0.7567773834910907,-0.6914882659912109,0.6166837811470032,-0.3762245774269104,0,0,0,-1,-1,27627.78192266667,unknown,2,2025-04-22T11:10:33.160+03:00,2025-04-21T17:08:51.449+03:00,7097,0.9423593,0,0,5930.618,5,20,2025-04-22T11:09:49.311+03:00,767002240.9890206,0,-21.39,100.4594,1,0.95,2025-04-22T11:05:10.827+03:00,109,1.816666666666667,2025-04-22T09:54:17.825+03:00,0.02225348692287972,0
2025-04-22T11:10:41.446+03:00,1745309436.128314,40.9522478792225,29.14028919083181,76.44633,-1,-1,-1,-1,30,23.16803173710119,-9999,27636.06289029167,-0.6798858642578125,0.610626220703125,-0.3692626953125,27636.05281529167,-1.248844779476201,-1.072649884384966,-0.6648433156236648,-0.05153904855251312,0.007639897987246513,0.01646949350833893,0.01125264167785645,-0.01041436195373535,0.005336403846740723,XArbitraryZVertical,-0.5099604127374486,-0.2278675730470322,-0.3397463742933716,0.7566961786005812,-0.6913674473762512,0.6169358491897583,-0.3760334849357605,0,0,0,-1,-1,27627.78192266667,unknown,2,2025-04-22T11:10:33.160+03:00,2025-04-21T17:08:51.449+03:00,7097,0.9423593,0,0,5930.618,5,20,2025-04-22T11:09:49.311+03:00,767002240.9890206,0,-21.39,100.4594,1,0.95,2025-04-22T11:05:10.827+03:00,109,1.816666666666667,2025-04-22T09:54:17.825+03:00,0.02225348692287972,0
2025-04-22T11:10:41.456+03:00,1745309436.128314,40.9522478792225,29.14028919083181,76.44633,-1,-1,-1,-1,30,23.16803173710119,-9999,27636.07296629167,-0.6798095703125,0.6099853515625,-0.3758697509765625,27636.06289029167,-1.249419817708298,-1.072957918913197,-0.6652507503635273,-0.06443327665328979,-0.002081439364701509,0.01023902930319309,0.009728550910949707,-0.01580089330673218,0.002378880977630615,XArbitraryZVertical,-0.5101926077017379,-0.2277131182465208,-0.3397721256032895,0.756574636491981,-0.6912623643875122,0.6172564625740051,-0.3757004737854004,0,0,0,-1,-1,27627.78192266667,unknown,2,2025-04-22T11:10:33.160+03:00,2025-04-21T17:08:51.449+03:00,7097,0.9423593,0,0,5930.618,5,20,2025-04-22T11:09:49.311+03:00,767002240.9890206,0,-21.39,100.4594,1,0.95,2025-04-22T11:05:10.827+03:00,109,1.816666666666667,2025-04-22T09:54:17.825+03:00,0.02225348692287972,0
2025-04-22T11:10:41.466+03:00,1745309436.128314,40.9522478792225,29.14028919083181,76.44633,-1,-1,-1,-1,30,23.16803173710119,-9999,27636.08304229167,-0.6812896728515625,0.6192169189453125,-0.3871307373046875,27636.07296629167,-1.250037928821349,-1.073407697982714,-0.6656218147750236,-0.05556148663163185,-0.01612482219934464,0.007395305670797825,0.01169502735137939,-0.006815433502197266,0.006658315658569336,XArbitraryZVertical,-0.5104435029015999,-0.2276122340065636,-0.3397879823250629,0.7564286047208623,-0.6912299394607544,0.6175483465194702,-0.3752802014350891,0,0,0,-1,-1,27627.78192266667,unknown,2,2025-04-22T11:10:33.160+03:00,2025-04-21T17:08:51.449+03:00,7097,0.9423593,0,0,5930.618,5,20,2025-04-22T11:09:49.311+03:00,767002240.9890206,0,-21.39,100.4594,1,0.95,2025-04-22T11:05:10.827+03:00,109,1.816666666666667,2025-04-22T09:54:17.825+03:00,0.02225348692287972,0
2025-04-22T11:10:41.476+03:00,1745309436.128314,40.9522478792225,29.14028919083181,76.44633,-1,-1,-1,-1,30,23.16803173710119,-9999,27636.09311829167,-0.682403564453125,0.626953125,-0.382965087890625,27636.08304229167,-1.250500316986128,-1.073912340734338,-0.6658690920500093,-0.03539356961846352,-0.02553636580705643,0.001179654151201248,0.01152116060256958,-0.007742345333099365,-0.002903401851654053,XArbitraryZVertical,-0.5106512007584395,-0.2276095207573379,-0.3397652456012032,0.7562994182922574,-0.6912849545478821,0.6177427768707275,-0.3748585283756256,0,0,0,-1,-1,27627.78192266667,unknown,2,2025-04-22T11:10:33.160+03:00,2025-04-21T17:08:51.449+03:00,7097,0.9423593,0,0,5930.618,5,20,2025-04-22T11:09:49.311+03:00,767002240.9890206,0,-21.39,100.4594,1,0.95,2025-04-22T11:05:10.827+03:00,109,1.816666666666667,2025-04-22T09:54:17.825+03:00,0.02225348692287972,0
2025-04-22T11:10:41.486+03:00,1745309436.128314,40.9522478792225,29.14028919083181,76.44633,-1,-1,-1,-1,30,23.16803173710119,-9999,27636.10319325,-0.6856536865234375,0.6276397705078125,-0.377349853515625,27636.09311829167,-1.250794543353372,-1.074393260436207,-0.6659869557238144,-0.01977838948369026,-0.03500496596097946,-0.002788455691188574,0.01020294427871704,0.002830803394317627,-0.01309725642204285,XArbitraryZVertical,-0.5107994550953053,-0.227680199196989,-0.3397208702195926,0.7561978651250728,-0.6914010047912598,0.6178354620933533,-0.374491274356842,0,0,0,-1,-1,27627.78192266667,unknown,2,2025-04-22T11:10:33.160+03:00,2025-04-21T17:08:51.449+03:00,7097,0.9423593,0,0,5930.618,5,20,2025-04-22T11:09:49.311+03:00,767002240.9890206,0,-21.39,100.4594,1,0.95,2025-04-22T11:05:10.827+03:00,109,1.816666666666667,2025-04-22T09:54:17.825+03:00,0.02225348692287972,0
2025-04-22T11:10:41.496+03:00,1745309436.128314,40.9522478792225,29.14028919083181,76.44633,-1,-1,-1,-1,30,23.16803173710119,-9999,27636.11326825,-0.689697265625,0.62811279296875,-0.3767547607421875,27636.10319325,-1.250978046178748,-1.074837056982579,-0.6660482418800147,-0.01065779570490122,-0.03131402283906937,-0.004843450617045164,0.009130358695983887,0.008962452411651611,-0.007959455251693726,XArbitraryZVertical,-0.5109128780320669,-0.2277824090288497,-0.3396598482948486,0.7561179047370518,-0.6915339231491089,0.6178836822509766,-0.3741663992404938,0,0,0,-1,-1,27627.78192266667,unknown,2,2025-04-22T11:10:33.160+03:00,2025-04-21T17:08:51.449+03:00,7097,0.9423593,0,0,5930.618,5,20,2025-04-22T11:09:49.311+03:00,767002240.9890206,0,-21.39,100.4594,1,0.95,2025-04-22T11:05:10.827+03:00,109,1.816666666666667,2025-04-22T09:54:17.825+03:00,0.02225348692287972,0
2025-04-22T11:10:41.506+03:00,1745309436.128314,40.9522478792225,29.14028919083181,76.44633,-1,-1,-1,-1,30,23.16803173710119,-9999,27636.12334425,-0.6914825439453125,0.6179962158203125,-0.37774658203125,27636.11326825,-1.251084507966842,-1.075213002361487,-0.6660436789955776,-0.003075242973864079,-0.02814752794802189,-0.005190460477024317,0.005443453788757324,0.01082760095596313,-0.004037231206893921,XArbitraryZVertical,-0.5109875822574697,-0.2278987184178787,-0.339605311701641,0.7560568421487559,-0.6916769742965698,0.61788010597229,-0.3739077150821686,0,0,0,-1,-1,27627.78192266667,unknown,2,2025-04-22T11:10:33.160+03:00,2025-04-21T17:08:51.449+03:00,7097,0.9423593,0,0,5930.618,5,20,2025-04-22T11:09:49.311+03:00,767002240.9890206,0,-21.39,100.4594,1,0.95,2025-04-22T11:05:10.827+03:00,109,1.816666666666667,2025-04-22T09:54:17.825+03:00,0.02225348692287972,0
2025-04-22T11:10:41.517+03:00,1745309436.128314,40.9522478792225,29.14028919083181,76.44633,-1,-1,-1,-1,30,23.16803173710119,-9999,27636.13342025,-0.68878173828125,0.6165618896484375,-0.3797607421875,27636.12334425,-1.25116389931401,-1.075531208659892,-0.6659549286833403,-0.005581211298704147,-0.02763533405959606,-0.009659345261752605,0.002467334270477295,0.01011925935745239,-0.002934277057647705,XArbitraryZVertical,-0.5110258047037095,-0.2280258406988932,-0.3395787321194938,0.7560046335397752,-0.6918441653251648,0.6178103089332581,-0.3737136721611023,0,0,0,-1,-1,27627.78192266667,unknown,2,2025-04-22T11:10:33.160+03:00,2025-04-21T17:08:51.449+03:00,7097,0.9423593,0,0,5930.618,5,20,2025-04-22T11:09:49.311+03:00,767002240.9890206,0,-21.39,100.4594,1,0.95,2025-04-22T11:05:10.827+03:00,109,1.816666666666667,2025-04-22T09:54:17.825+03:00,0.02225348692287972,0
2025-04-22T11:10:41.527+03:00,1745309436.128314,40.9522478792225,29.14028919083181,76.44633,-1,-1,-1,-1,30,23.16803173710119,-9999,27636.14349625,-0.6878204345703125,0.61456298828125,-0.3779296875,27636.13342025,-1.251290976528525,-1.075913599402768,-0.6658881173933056,-0.005693863146007061,-0.03151822090148926,-0.01026015356183052,0.0008307099342346191,-0.0001432299613952637,-0.004506856203079224,XArbitraryZVertical,-0.5110865355014148,-0.228158303957351,-0.3395476420859926,0.7559375353830804,-0.6920233368873596,0.6177577376365662,-0.3734686970710754,0,0,0,-1,-1,27627.78192266667,unknown,2,2025-04-22T11:10:33.160+03:00,2025-04-21T17:08:51.449+03:00,7097,0.9423593,0,0,5930.618,5,20,2025-04-22T11:09:49.311+03:00,767002240.9890206,0,-21.39,100.4594,1,0.95,2025-04-22T11:10:40.189+03:00,77.00000000000001,1.283333333333333,2025-04-22T09:54:17.825+03:00,0.02225348692287972,0
2025-04-22T11:10:41.537+03:00,1745309436.128314,40.9522478792225,29.14028919083181,76.44633,-1,-1,-1,-1,30,23.16803173710119,-9999,27636.15357225,-0.6910858154296875,0.6156463623046875,-0.37738037109375,27636.14349625,-1.251387617216744,-1.076242840015228,-0.6657876705069785,-0.0009670849540270865,-0.02486065402626991,-0.01213265582919121,0.004395723342895508,-0.0009797215461730957,-0.007070362567901611,XArbitraryZVertical,-0.511125324299769,-0.228288750648148,-0.3395280157277213,0.7558807876398291,-0.6922008991241455,0.6176787614822388,-0.3732703030109406,0,0,0,-1,-1,27627.78192266667,unknown,2,2025-04-22T11:10:33.160+03:00,2025-04-21T17:08:51.449+03:00,7097,0.9423593,0,0,5930.618,5,20,2025-04-22T11:09:49.311+03:00,767002240.9890206,0,-21.39,100.4594,1,0.95,2025-04-22T11:10:40.189+03:00,77.00000000000001,1.283333333333333,2025-04-22T09:54:17.825+03:00,0.02225348692287972,0
2025-04-22T11:10:41.547+03:00,1745309436.128314,40.9522478792225,29.14028919083181,76.44633,-1,-1,-1,-1,30,23.16803173710119,-9999,27636.16364825,-0.690521240234375,0.6138916015625,-0.3748931884765625,27636.15357225,-1.251491393358311,-1.076544885046942,-0.6657037530169791,-0.007679848466068506,-0.02993370965123177,-0.01240083668380976,0.004767715930938721,-0.003217756748199463,-0.005179643630981445,XArbitraryZVertical,-0.5111649616978768,-0.2284020207984857,-0.3395134144925528,0.75582633078869,-0.6923592686653137,0.6176127791404724,-0.3730857968330383,0,0,0,-1,-1,27627.78192266667,unknown,2,2025-04-22T11:10:33.160+03:00,2025-04-21T17:08:51.449+03:00,7097,0.9423593,0,0,5930.618,5,20,2025-04-22T11:09:49.311+03:00,767002240.9890206,0,-21.39,100.4594,1,0.95,2025-04-22T11:10:40.189+03:00,77.00000000000001,1.283333333333333,2025-04-22T09:54:17.825+03:00,0.02225348692287972,0
2025-04-22T11:10:41.557+03:00,1745309436.128314,40.9522478792225,29.14028919083181,76.44633,-1,-1,-1,-1,30,23.16803173710119,-9999,27636.17372325,-0.6898040771484375,0.6022491455078125,-0.36907958984375,27636.16364825,-1.251663335807121,-1.076843887141827,-0.6656639479202906,-0.01558437757194042,-0.01723442599177361,-0.006489550694823265,0.0009794235229492188,-0.001614809036254883,-0.005313992500305176,XArbitraryZVertical,-0.5112242057048554,-0.2284832401805003,-0.3395130662736174,0.7557619052004191,-0.6924924254417419,0.6175814867019653,-0.372890442609787,0,0,0,-1,-1,27627.78192266667,unknown,2,2025-04-22T11:10:33.160+03:00,2025-04-21T17:08:51.449+03:00,7097,0.9423593,0,0,5930.618,5,20,2025-04-22T11:09:49.311+03:00,767002240.9890206,0,-21.39,100.4594,1,0.95,2025-04-22T11:10:40.189+03:00,77.00000000000001,1.283333333333333,2025-04-22T09:54:17.825+03:00,0.02225348692287972,0
2025-04-22T11:10:41.567+03:00,1745309436.128314,40.9522478792225,29.14028919083181,76.44633,-1,-1,-1,-1,30,23.16803173710119,-9999,27636.18379925,-0.689971923828125,0.60418701171875,-0.3699951171875,27636.17372325,-1.251901809802574,-1.077183597004149,-0.6656845358636062,-0.02021161839365959,-0.02258098870515823,-0.01019400823861361,0.002651214599609375,-0.004621744155883789,-0.001313328742980957,XArbitraryZVertical,-0.511314891655626,-0.2285443401474316,-0.3395105901796121,0.7556831622706314,-0.6926078796386719,0.6175976395606995,-0.3726491332054138,0,0,0,-1,-1,27627.78192266667,unknown,2,2025-04-22T11:10:33.160+03:00,2025-04-21T17:08:51.449+03:00,7097,0.9423593,0,0,5930.618,5,20,2025-04-22T11:09:49.311+03:00,767002240.9890206,0,-21.39,100.4594,1,0.95,2025-04-22T11:10:40.189+03:00,77.00000000000001,1.283333333333333,2025-04-22T09:54:17.825+03:00,0.02225348692287972,0
2025-04-22T11:10:41.577+03:00,1745309436.128314,40.9522478792225,29.14028919083181,76.44633,-1,-1,-1,-1,30,23.16803173710119,-9999,27636.19387525,-0.6952056884765625,0.615386962890625,-0.378173828125,27636.18379925,-1.252128531877916,-1.077486802706141,-0.6657030580153235,-0.01296149659901857,-0.01398304011672735,-0.009884714148938656,0.002952516078948975,-0.01627874374389648,0.004071235656738281,XArbitraryZVertical,-0.5113974282930064,-0.2285952904486781,-0.3395135857617818,0.755610606421169,-0.692710816860199,0.6176122426986694,-0.3724337220191956,0,0,0,-1,-1,27627.78192266667,unknown,2,2025-04-22T11:10:33.160+03:00,2025-04-21T17:08:51.449+03:00,7097,0.9423593,0,0,5930.618,5,20,2025-04-22T11:09:49.311+03:00,767002240.9890206,0,-21.39,100.4594,1,0.95,2025-04-22T11:10:40.189+03:00,77.00000000000001,1.283333333333333,2025-04-22T09:54:17.825+03:00,0.02225348692287972,0
2025-04-22T11:10:41.590+03:00,1745309436.128314,40.9522478792225,29.14028919083181,76.44633,-1,-1,-1,-1,30,23.16803173710119,-9999,27636.20395125,-0.6972808837890625,0.6174774169921875,-0.3802337646484375,27636.19387525,-1.252291018888628,-1.077710870650638,-0.6656650951923948,-0.01057210844010115,-0.01412205677479506,-0.01171403937041759,0.002492010593414307,-0.01170170307159424,0.001394122838973999,XArbitraryZVertical,-0.5114434173147732,-0.2286500021537394,-0.3395282615937816,0.7555563529672402,-0.6928148865699768,0.617582380771637,-0.372289627790451,0,0,0,-1,-1,27627.78192266667,unknown,2,2025-04-22T11:10:33.160+03:00,2025-04-21T17:08:51.449+03:00,7097,0.9423593,0,0,5930.618,5,20,2025-04-22T11:09:49.311+03:00,767002240.9890206,0,-21.39,100.4594,1,0.95,2025-04-22T11:10:40.189+03:00,77.00000000000001,1.283333333333333,2025-04-22T09:54:17.825+03:00,0.02225348692287972,0
2025-04-22T11:10:41.605+03:00,1745309436.128314,40.9522478792225,29.14028919083181,76.44633,-1,-1,-1,-1,30,23.16803173710119,-9999,27636.21402725,-0.69024658203125,0.612030029296875,-0.3781585693359375,27636.20395125,-1.252560034267734,-1.078056934281113,-0.6655795563093685,-0.01588085293769836,-0.01738496124744415,-0.01820576190948486,-0.00310051441192627,-0.000846564769744873,-0.006907820701599121,XArbitraryZVertical,-0.5115090544069895,-0.2287380504920312,-0.3395651971509284,0.7554685957399211,-0.6929901838302612,0.6175150871276855,-0.3720747828483582,0,0,0,-1,-1,27627.78192266667,unknown,2,2025-04-22T11:10:33.160+03:00,2025-04-21T17:08:51.449+03:00,7097,0.9423593,0,0,5930.618,5,20,2025-04-22T11:09:49.311+03:00,767002240.9890206,0,-21.39,100.4594,1,0.95,2025-04-22T11:10:40.189+03:00,77.00000000000001,1.283333333333333,2025-04-22T09:54:17.825+03:00,0.02225348692287972,0
2025-04-22T11:10:41.607+03:00,1745309436.128314,40.9522478792225,29.14028919083181,76.44633,-1,-1,-1,-1,30,23.16803173710119,-9999,27636.22410225,-0.6878662109375,0.607452392578125,-0.3701934814453125,27636.21402725,-1.252893488702155,-1.078455454061646,-0.6655400990457571,-0.02805363014340401,-0.02028114721179008,-0.01495537348091602,-0.003174960613250732,-0.0008612871170043945,-0.008271157741546631,XArbitraryZVertical,-0.5116038331160687,-0.2288153496409466,-0.339600214811302,0.7553652743224899,-0.6931598782539368,0.6174840331077576,-0.371810108423233,0,0,0,-1,-1,27627.78192266667,unknown,2,2025-04-22T11:10:33.160+03:00,2025-04-21T17:08:51.449+03:00,7097,0.9423593,0,0,5930.618,5,20,2025-04-22T11:09:49.311+03:00,767002240.9890206,0,-21.39,100.4594,1,0.95,2025-04-22T11:10:40.189+03:00,77.00000000000001,1.283333333333333,2025-04-22T09:54:17.825+03:00,0.02225348692287972,0
2025-04-22T11:10:41.617+03:00,1745309436.128314,40.9522478792225,29.14028919083181,76.44633,-1,-1,-1,-1,30,23.16803173710119,-9999,27636.23417825,-0.690216064453125,0.61090087890625,-0.367095947265625,27636.22410225,-1.253293372922504,-1.078892505334681,-0.665542368447115,-0.0296529233455658,-0.02192278951406479,-0.01574889570474625,0.003547489643096924,-0.005684852600097656,-0.006072282791137695,XArbitraryZVertical,-0.5117244292707833,-0.2288774140860755,-0.3396387949330498,0.7552474484171379,-0.6933211088180542,0.6174858212471008,-0.3715064823627472,0,0,0,-1,-1,27627.78192266667,unknown,2,2025-04-22T11:10:33.160+03:00,2025-04-21T17:08:51.449+03:00,7097,0.9423593,0,0,5930.618,5,20,2025-04-22T11:09:49.311+03:00,767002240.9890206,0,-21.39,100.4594,1,0.95,2025-04-22T11:10:40.189+03:00,77.00000000000001,1.283333333333333,2025-04-22T09:54:17.825+03:00,0.02225348692287972,0
2025-04-22T11:10:41.627+03:00,1745309436.128314,40.9522478792225,29.14028919083181,76.44633,-1,-1,-1,-1,30,23.16803173710119,-9999,27636.24425425,-0.691497802734375,0.6109466552734375,-0.3700103759765625,27636.23417825,-1.253748772318932,-1.079377843253484,-0.6655614703975169,-0.03684026375412941,-0.02166233211755753,-0.01631614752113819,0.005701065063476562,-0.009773969650268555,0.002420425415039062,XArbitraryZVertical,-0.5118642916736165,-0.2289383112382367,-0.3396812395590337,0.7551151517932222,-0.6934909820556641,0.6175008416175842,-0.3711643815040588,0,0,0,-1,-1,27627.78192266667,unknown,2,2025-04-22T11:10:33.160+03:00,2025-04-21T17:08:51.449+03:00,7097,0.9423593,0,0,5930.618,5,20,2025-04-22T11:09:49.311+03:00,767002240.9890206,0,-21.39,100.4594,1,0.95,2025-04-22T11:10:40.189+03:00,77.00000000000001,1.283333333333333,2025-04-22T09:54:17.825+03:00,0.02225348692287972,0
2025-04-22T11:10:41.637+03:00,1745309436.128314,40.9522478792225,29.14028919083181,76.44633,-1,-1,-1,-1,30,23.16803173710119,-9999,27636.25433025,-0.692626953125,0.6126708984375,-0.3723907470703125,27636.24425425,-1.254259148701452,-1.079902482091416,-0.6655828442501515,-0.03660058230161667,-0.020972840487957,-0.01736117154359818,0.004083454608917236,-0.006403267383575439,0.004018694162368774,XArbitraryZVertical,-0.5120177967721325,-0.2289991958055529,-0.3397336644514921,0.754969021179253,-0.6936739683151245,0.6175176501274109,-0.3707942962646484,0,0,0,-1,-1,27627.78192266667,unknown,2,2025-04-22T11:10:33.160+03:00,2025-04-21T17:08:51.449+03:00,7097,0.9423593,0,0,5930.618,5,20,2025-04-22T11:09:49.311+03:00,767002240.9890206,0,-21.39,100.4594,1,0.95,2025-04-22T11:10:40.189+03:00,77.00000000000001,1.283333333333333,2025-04-22T09:54:17.825+03:00,0.02225348692287972,0
2025-04-22T11:10:41.648+03:00,1745309436.128314,40.9522478792225,29.14028919083181,76.44633,-1,-1,-1,-1,30,23.16803173710119,-9999,27636.26440625,-0.691070556640625,0.62115478515625,-0.3729400634765625,27636.25433025,-1.254717550771757,-1.080424770898511,-0.6655841975288853,-0.02760761603713036,-0.02765630558133125,-0.01828129403293133,0.002475738525390625,-0.006663799285888672,0.0001769661903381348,XArbitraryZVertical,-0.5121594095424543,-0.2290785363457513,-0.3397725705904943,0.7548313417296623,-0.6938667297363281,0.6175187230110168,-0.370431512594223,0,0,0,-1,-1,27627.78192266667,unknown,2,2025-04-22T11:10:33.160+03:00,2025-04-21T17:08:51.449+03:00,7097,0.9423593,0,0,5930.618,5,20,2025-04-22T11:09:49.311+03:00,767002240.9890206,0,-21.39,100.4594,1,0.95,2025-04-22T11:10:40.189+03:00,77.00000000000001,1.283333333333333,2025-04-22T09:54:17.825+03:00,0.02225348692287972,0
2025-04-22T11:10:41.658+03:00,1745309436.128314,40.9522478792225,29.14028919083181,76.44633,-1,-1,-1,-1,30,23.16803173710119,-9999,27636.27448225,-0.6911163330078125,0.6201324462890625,-0.3762054443359375,27636.26440625,-1.255109786219828,-1.08094842593904,-0.6655206736315297,-0.02462014928460121,-0.0286172442138195,-0.0162326917052269,0.001239359378814697,-0.003607869148254395,-0.002685725688934326,XArbitraryZVertical,-0.5122756325431489,-0.2291951136776378,-0.3398041873105921,0.7547027863945533,-0.6940951943397522,0.6174687743186951,-0.3700865507125854,0,0,0,-1,-1,27627.78192266667,unknown,2,2025-04-22T11:10:33.160+03:00,2025-04-21T17:08:51.449+03:00,7097,0.9423593,0,0,5930.618,5,20,2025-04-22T11:09:49.311+03:00,767002240.9890206,0,-21.39,100.4594,1,0.95,2025-04-22T11:10:40.189+03:00,77.00000000000001,1.283333333333333,2025-04-22T09:54:17.825+03:00,0.02225348692287972,0
2025-04-22T11:10:41.668+03:00,1745309436.128314,40.9522478792225,29.14028919083181,76.44633,-1,-1,-1,-1,30,23.16803173710119,-9999,27636.28455725,-0.6949462890625,0.606201171875,-0.37274169921875,27636.27448225,-1.255467929599393,-1.081402208218863,-0.6654420032584584,-0.02412719838321209,-0.01846767030656338,-0.01789423823356628,0.003372728824615479,0.004129230976104736,-0.003222048282623291,XArbitraryZVertical,-0.5123718580614933,-0.2292986735880115,-0.3398450452994913,0.7545876264304151,-0.694305956363678,0.6174069046974182,-0.3697943985462189,0,0,0,-1,-1,27627.78192266667,unknown,2,2025-04-22T11:10:33.160+03:00,2025-04-21T17:08:51.449+03:00,7097,0.9423593,0,0,5930.618,5,20,2025-04-22T11:09:49.311+03:00,767002240.9890206,0,-21.39,100.4594,1,0.95,2025-04-22T11:10:40.189+03:00,77.00000000000001,1.283333333333333,2025-04-22T09:54:17.825+03:00,0.02225348692287972,0
2025-04-22T11:10:41.689+03:00,1745309436.128314,40.9522478792225,29.14028919083181,76.44633,-1,-1,-1,-1,30,23.16803173710119,-9999,27636.29463325,-0.687744140625,0.5990142822265625,-0.3661041259765625,27636.28455725,-1.255964893612686,-1.081915743675462,-0.6654342754504179,-0.04688876867294312,-0.0261490922421217,-0.01585668697953224,0.003108978271484375,0.001892268657684326,-0.006307721138000488,XArbitraryZVertical,-0.5125139670111547,-0.2293674350439435,-0.3399031018532706,0.754444042717925,-0.6944999694824219,0.6174008250236511,-0.3694400191307068,0,0,0,-1,-1,27627.78192266667,unknown,2,2025-04-22T11:10:33.160+03:00,2025-04-21T17:08:51.449+03:00,7097,0.9423593,0,0,5930.618,5,20,2025-04-22T11:09:49.311+03:00,767002240.9890206,0,-21.39,100.4594,1,0.95,2025-04-22T11:10:40.189+03:00,77.00000000000001,1.283333333333333,2025-04-22T09:54:17.825+03:00,0.02225348692287972,0
2025-04-22T11:10:41.690+03:00,1745309436.128314,40.9522478792225,29.14028919083181,76.44633,-1,-1,-1,-1,30,23.16803173710119,-9999,27636.30470925,-0.6844482421875,0.598236083984375,-0.3685302734375,27636.29463325,-1.256670762248733,-1.082640879766344,-0.6655551496628717,-0.06589016318321228,-0.03277450054883957,-0.01461032778024673,-9.191036224365234e-05,-0.01268339157104492,-0.003321647644042969,XArbitraryZVertical,-0.5127518097245733,-0.2294230138613672,-0.3399497234422906,0.7542445094927659,-0.6947017908096313,0.6174958944320679,-0.3689013123512268,0,0,0,-1,-1,27627.78192266667,unknown,2,2025-04-22T11:10:33.160+03:00,2025-04-21T17:08:51.449+03:00,7097,0.9423593,0,0,5930.618,5,20,2025-04-22T11:09:49.311+03:00,767002240.9890206,0,-21.39,100.4594,1,0.95,2025-04-22T11:10:40.189+03:00,77.00000000000001,1.283333333333333,2025-04-22T09:54:17.825+03:00,0.02225348692287972,0
2025-04-22T11:10:41.698+03:00,1745309436.128314,40.9522478792225,29.14028919083181,76.44633,-1,-1,-1,-1,30,23.16803173710119,-9999,27636.31478525,-0.6898040771484375,0.60394287109375,-0.3708343505859375,27636.30470925,-1.257583333369908,-1.083576252156697,-0.6657618853530628,-0.07960830628871918,-0.04589236900210381,-0.01517834700644016,0.008379697799682617,-0.01910215616226196,0.00223994255065918,XArbitraryZVertical,-0.5130730003434464,-0.2294783516710298,-0.3399961722617121,0.7539882392983728,-0.6949336528778076,0.6176584959030151,-0.3681915700435638,0,0,0,-1,-1,27627.78192266667,unknown,2,2025-04-22T11:10:33.160+03:00,2025-04-21T17:08:51.449+03:00,7097,0.9423593,0,0,5930.618,5,20,2025-04-22T11:09:49.311+03:00,767002240.9890206,0,-21.39,100.4594,1,0.95,2025-04-22T11:10:40.189+03:00,77.00000000000001,1.283333333333333,2025-04-22T09:54:17.825+03:00,0.02225348692287972,0
2025-04-22T11:10:41.708+03:00,1745309436.128314,40.9522478792225,29.14028919083181,76.44633,-1,-1,-1,-1,30,23.16803173710119,-9999,27636.32486125,-0.6909027099609375,0.61688232421875,-0.3762054443359375,27636.31478525,-1.258579236358234,-1.084657810324522,-0.6660221889958408,-0.08086477965116501,-0.04577785357832909,-0.01313783321529627,0.01043587923049927,-0.01982563734054565,-0.00182187557220459,XArbitraryZVertical,-0.5134434464551291,-0.2295506970846627,-0.3400212409301443,0.7537026901354121,-0.6951892971992493,0.6178631782531738,-0.3673646152019501,0,0,0,-1,-1,27627.78192266667,unknown,2,2025-04-22T11:10:33.160+03:00,2025-04-21T17:08:51.449+03:00,7097,0.9423593,0,0,5930.618,5,20,2025-04-22T11:09:49.311+03:00,767002240.9890206,0,-21.39,100.4594,1,0.95,2025-04-22T11:10:40.189+03:00,77.00000000000001,1.283333333333333,2025-04-22T09:54:17.825+03:00,0.02225348692287972,0
2025-04-22T11:10:41.718+03:00,1745309436.128314,40.9522478792225,29.14028919083181,76.44633,-1,-1,-1,-1,30,23.16803173710119,-9999,27636.33493625,-0.693572998046875,0.62896728515625,-0.3830718994140625,27636.32486125,-1.259467472189752,-1.085687332426152,-0.6662506973708752,-0.05616256222128868,-0.04908996075391769,-0.01151366997510195,0.005882382392883301,-0.01245218515396118,-0.004312574863433838,XArbitraryZVertical,-0.5137838014253516,-0.2296404958783195,-0.3400276506276078,0.7534405318612774,-0.6954423189163208,0.6180428266525269,-0.3665829002857208,0,0,0,-1,-1,27627.78192266667,unknown,2,2025-04-22T11:10:33.160+03:00,2025-04-21T17:08:51.449+03:00,7097,0.9423593,0,0,5930.618,5,20,2025-04-22T11:09:49.311+03:00,767002240.9890206,0,-21.39,100.4594,1,0.95,2025-04-22T11:10:40.189+03:00,77.00000000000001,1.283333333333333,2025-04-22T09:54:17.825+03:00,0.02225348692287972,0
2025-04-22T11:10:41.728+03:00,1745309436.128314,40.9522478792225,29.14028919083181,76.44633,-1,-1,-1,-1,30,23.16803173710119,-9999,27636.34501225,-0.698394775390625,0.635772705078125,-0.389556884765625,27636.33493625,-1.26008619745828,-1.086559938229831,-0.6663052217516766,-0.03991541638970375,-0.05002259835600853,-0.02807453833520412,0.004432618618011475,0.0001392364501953125,-0.01134395599365234,XArbitraryZVertical,-0.5140183636729584,-0.2297934553004636,-0.3400212095753167,0.7532367126374525,-0.6957319974899292,0.6180856823921204,-0.3659601807594299,0,0,0,-1,-1,27627.78192266667,unknown,2,2025-04-22T11:10:33.160+03:00,2025-04-21T17:08:51.449+03:00,7097,0.9423593,0,0,5930.618,5,20,2025-04-22T11:09:49.311+03:00,767002240.9890206,0,-21.39,100.4594,1,0.95,2025-04-22T11:10:40.189+03:00,77.00000000000001,1.283333333333333,2025-04-22T09:54:17.825+03:00,0.02225348692287972,0
2025-04-22T11:10:41.738+03:00,1745309436.128314,40.9522478792225,29.14028919083181,76.44633,-1,-1,-1,-1,30,23.16803173710119,-9999,27636.35508825,-0.69696044921875,0.6245574951171875,-0.3912200927734375,27636.34501225,-1.260863829681875,-1.087497306106127,-0.6663391811142013,-0.07385148108005524,-0.04456278681755066,-0.02325830981135368,0.002574801445007324,0.01294523477554321,-0.0191929042339325,XArbitraryZVertical,-0.5142764728476744,-0.2299361412559854,-0.3400635878702091,0.7529979130252418,-0.6960562467575073,0.6181123852729797,-0.3652981519699097,0,0,0,-1,-1,27627.78192266667,unknown,2,2025-04-22T11:10:33.160+03:00,2025-04-21T17:08:51.449+03:00,7097,0.9423593,0,0,5930.618,5,20,2025-04-22T11:09:49.311+03:00,767002240.9890206,0,-21.39,100.4594,1,0.95,2025-04-22T11:10:40.189+03:00,77.00000000000001,1.283333333333333,2025-04-22T09:54:17.825+03:00,0.02225348692287972,0
2025-04-22T11:10:41.749+03:00,1745309436.128314,40.9522478792225,29.14028919083181,76.44633,-1,-1,-1,-1,30,23.16803173710119,-9999,27636.36516425,-0.688873291015625,0.6075592041015625,-0.3957977294921875,27636.35508825,-1.261922245678711,-1.088684085405792,-0.6664760730329037,-0.08750417828559875,-0.06609444320201874,-0.02838090062141418,-0.002163589000701904,0.01816290616989136,-0.02506333589553833,XArbitraryZVertical,-0.5146378802592463,-0.2300686045915107,-0.340118375462274,0.7526856810630284,-0.6964142918586731,0.6182200312614441,-0.3644325733184814,0,0,0,-1,-1,27627.78192266667,unknown,2,2025-04-22T11:10:33.160+03:00,2025-04-21T17:08:51.449+03:00,7097,0.9423593,0,0,5930.618,5,20,2025-04-22T11:09:49.311+03:00,767002240.9890206,0,-21.39,100.4594,1,0.95,2025-04-22T11:10:40.189+03:00,77.00000000000001,1.283333333333333,2025-04-22T09:54:17.825+03:00,0.02225348692287972,0
2025-04-22T11:10:41.759+03:00,1745309436.128314,40.9522478792225,29.14028919083181,76.44633,-1,-1,-1,-1,30,23.16803173710119,-9999,27636.37524025,-0.6895751953125,0.618194580078125,-0.3960418701171875,27636.36516425,-1.263024788313178,-1.089998148674021,-0.6665481510071801,-0.06724051386117935,-0.0644577294588089,-0.03943238407373428,0.0007012486457824707,0.003030538558959961,-0.02776944637298584,XArbitraryZVertical,-0.5150082044190102,-0.2302570667010276,-0.3401747313942016,0.7523491118822609,-0.69685298204422,0.6182766556739807,-0.3634964525699615,0,0,0,-1,-1,27627.78192266667,unknown,2,2025-04-22T11:10:33.160+03:00,2025-04-21T17:08:51.449+03:00,7097,0.9423593,0,0,5930.618,5,20,2025-04-22T11:09:49.311+03:00,767002240.9890206,0,-21.39,100.4594,1,0.95,2025-04-22T11:10:40.189+03:00,77.00000000000001,1.283333333333333,2025-04-22T09:54:17.825+03:00,0.02225348692287972,0
2025-04-22T11:10:41.769+03:00,1745309436.128314,40.9522478792225,29.14028919083181,76.44633,-1,-1,-1,-1,30,23.16803173710119,-9999,27636.38531525,-0.694183349609375,0.628631591796875,-0.3923492431640625,27636.37524025,-1.263663995019361,-1.091034602979725,-0.6663733997292766,-0.005749722942709923,-0.06013355404138565,-0.03278167545795441,0.009474337100982666,-0.009847819805145264,-0.03297382593154907,XArbitraryZVertical,-0.5152098599022575,-0.2305359568466532,-0.3401972342544658,0.7521155473511723,-0.6973252892494202,0.6181393265724182,-0.3628239333629608,0,0,0,-1,-1,27627.78192266667,unknown,2,2025-04-22T11:10:33.160+03:00,2025-04-21T17:08:51.449+03:00,7097,0.9423593,0,0,5930.618,5,20,2025-04-22T11:09:49.311+03:00,767002240.9890206,0,-21.39,100.4594,1,0.95,2025-04-22T11:10:40.189+03:00,77.00000000000001,1.283333333333333,2025-04-22T09:54:17.825+03:00,0.02225348692287972,0
2025-04-22T11:10:41.779+03:00,1745309436.128314,40.9522478792225,29.14028919083181,76.44633,-1,-1,-1,-1,30,23.16803173710119,-9999,27636.39539125,-0.702880859375,0.62274169921875,-0.380279541015625,27636.38531525,-1.263860306881701,-1.09169018323128,-0.6660177722462207,-0.001931149163283408,-0.04262234270572662,-0.03998732194304466,0.008091270923614502,0.001387655735015869,-0.03354337811470032,XArbitraryZVertical,-0.5152459207620613,-0.2308411041611145,-0.3402019072336959,0.7519951654554038,-0.6977580785751343,0.6178597211837769,-0.3624680638313293,0,0,0,-1,-1,27627.78192266667,unknown,2,2025-04-22T11:10:33.160+03:00,2025-04-21T17:08:51.449+03:00,7097,0.9423593,0,0,5930.618,5,20,2025-04-22T11:09:49.311+03:00,767002240.9890206,0,-21.39,100.4594,1,0.95,2025-04-22T11:10:40.189+03:00,77.00000000000001,1.283333333333333,2025-04-22T09:54:17.825+03:00,0.02225348692287972,0
2025-04-22T11:10:41.796+03:00,1745309436.128314,40.9522478792225,29.14028919083181,76.44633,-1,-1,-1,-1,30,23.16803173710119,-9999,27636.40546725,-0.706451416015625,0.6004791259765625,-0.376922607421875,27636.39539125,-1.264411318489993,-1.092262374236882,-0.6657437774826606,-0.04900278896093369,-0.01386179961264133,-0.04819012805819511,0.00319969654083252,0.01146018505096436,-0.02841740846633911,XArbitraryZVertical,-0.5153314073845943,-0.2309983431960939,-0.3403384486396418,0.751826375609037,-0.6981154680252075,0.6176442503929138,-0.3621466159820557,0,0,0,-1,-1,27627.78192266667,unknown,2,2025-04-22T11:10:33.160+03:00,2025-04-21T17:08:51.449+03:00,7097,0.9423593,0,0,5930.618,5,20,2025-04-22T11:09:49.311+03:00,767002240.9890206,0,-21.39,100.4594,1,0.95,2025-04-22T11:10:40.189+03:00,77.00000000000001,1.283333333333333,2025-04-22T09:54:17.825+03:00,0.02225348692287972,0
2025-04-22T11:10:41.800+03:00,1745309436.128314,40.9522478792225,29.14028919083181,76.44633,-1,-1,-1,-1,30,23.16803173710119,-9999,27636.41554325,-0.6952362060546875,0.5781097412109375,-0.393157958984375,27636.40546725,-1.265655044043618,-1.09321077084085,-0.6658298537279694,-0.154339388012886,-0.01340699661523104,-0.02773162163794041,-0.006102025508880615,0.003427445888519287,-0.01747679710388184,XArbitraryZVertical,-0.5156601562753692,-0.2310078166285961,-0.3405373235116266,0.7515080462856494,-0.6984115242958069,0.6177119612693787,-0.3614599704742432,0,0,0,-1,-1,27627.78192266667,unknown,2,2025-04-22T11:10:33.160+03:00,2025-04-21T17:08:51.449+03:00,7097,0.9423593,0,0,5930.618,5,20,2025-04-22T11:09:49.311+03:00,767002240.9890206,0,-21.39,100.4594,1,0.95,2025-04-22T11:10:40.189+03:00,77.00000000000001,1.283333333333333,2025-04-22T09:54:17.825+03:00,0.02225348692287972,0
2025-04-22T11:10:41.809+03:00,1745309436.128314,40.9522478792225,29.14028919083181,76.44633,-1,-1,-1,-1,30,23.16803173710119,-9999,27636.42561925,-0.6838226318359375,0.546875,-0.4091339111328125,27636.41554325,-1.268106669175242,-1.094729322113575,-0.6665559291609154,-0.2407882660627365,0.005458835512399673,-0.01528587099164724,-0.006822645664215088,-0.0209776759147644,-0.01785847544670105,XArbitraryZVertical,-0.5164015307893142,-0.2307223858661943,-0.3408624922759815,0.7509388922979697,-0.6985606551170349,0.6182827949523926,-0.360193282365799,0,0,0,-1,-1,27627.78192266667,unknown,2,2025-04-22T11:10:33.160+03:00,2025-04-21T17:08:51.449+03:00,7097,0.9423593,0,0,5930.618,5,20,2025-04-22T11:09:49.311+03:00,767002240.9890206,0,-21.39,100.4594,1,0.95,2025-04-22T11:10:40.189+03:00,77.00000000000001,1.283333333333333,2025-04-22T09:54:17.825+03:00,0.02225348692287972,0
2025-04-22T11:10:41.819+03:00,1745309436.128314,40.9522478792225,29.14028919083181,76.44633,-1,-1,-1,-1,30,23.16803173710119,-9999,27636.43569525,-0.6634368896484375,0.551239013671875,-0.439605712890625,27636.42561925,-1.270951366542248,-1.096562840104191,-0.6677767830514031,-0.2540998756885529,-0.03461967781186104,0.02039406262338161,0.004669725894927979,-0.04477918148040771,-0.03665104508399963,XArbitraryZVertical,-0.5173767414079948,-0.2302995207439449,-0.3411131899948746,0.7502832988070249,-0.6985478401184082,0.6192418336868286,-0.3585668802261353,0,0,0,-1,-1,27627.78192266667,unknown,2,2025-04-22T11:10:33.160+03:00,2025-04-21T17:08:51.449+03:00,7097,0.9423593,0,0,5930.618,5,20,2025-04-22T11:09:49.311+03:00,767002240.9890206,0,-21.39,100.4594,1,0.95,2025-04-22T11:10:40.189+03:00,77.00000000000001,1.283333333333333,2025-04-22T09:54:17.825+03:00,0.02225348692287972,0
2025-04-22T11:10:41.829+03:00,1745309436.128314,40.9522478792225,29.14028919083181,76.44633,-1,-1,-1,-1,30,23.16803173710119,-9999,27636.44577025,-0.656005859375,0.5880889892578125,-0.4731292724609375,27636.43569525,-1.273570162541665,-1.098581326468888,-0.669085337863092,-0.2326412051916122,-0.05614201352000237,0.01139204483479261,0.0171363353729248,-0.07553017139434814,-0.05500173568725586,XArbitraryZVertical,-0.5183800169034234,-0.2299750126656226,-0.3412044235728356,0.7496486682533248,-0.6985480189323425,0.6202688217163086,-0.3567872941493988,0,0,0,-1,-1,27627.78192266667,unknown,2,2025-04-22T11:10:33.160+03:00,2025-04-21T17:08:51.449+03:00,7097,0.9423593,0,0,5930.618,5,20,2025-04-22T11:09:49.311+03:00,767002240.9890206,0,-21.39,100.4594,1,0.95,2025-04-22T11:10:40.189+03:00,77.00000000000001,1.283333333333333,2025-04-22T09:54:17.825+03:00,0.02225348692287972,0
2025-04-22T11:10:41.839+03:00,1745309436.128314,40.9522478792225,29.14028919083181,76.44633,-1,-1,-1,-1,30,23.16803173710119,-9999,27636.45584625,-0.6670379638671875,0.5979766845703125,-0.4986114501953125,27636.44577025,-1.275358583397861,-1.100289830848554,-0.6700165144039995,-0.1076911389827728,-0.08655384182929993,0.0212149154394865,0.03727972507476807,-0.06551814079284668,-0.08801281452178955,XArbitraryZVertical,-0.5191308901223527,-0.229864002090955,-0.3411691510826841,0.7491790211442478,-0.6986414790153503,0.6209989190101624,-0.3553313314914703,0,0,0,-1,-1,27627.78192266667,unknown,2,2025-04-22T11:10:33.160+03:00,2025-04-21T17:08:51.449+03:00,7097,0.9423593,0,0,5930.618,5,20,2025-04-22T11:09:49.311+03:00,767002240.9890206,0,-21.39,100.4594,1,0.95,2025-04-22T11:10:40.189+03:00,77.00000000000001,1.283333333333333,2025-04-22T09:54:17.825+03:00,0.02225348692287972,0
2025-04-22T11:10:41.849+03:00,1745309436.128314,40.9522478792225,29.14028919083181,76.44633,-1,-1,-1,-1,30,23.16803173710119,-9999,27636.46592225,-0.6804962158203125,0.5677490234375,-0.502197265625,27636.45584625,-1.276048132298163,-1.101690327033182,-0.6708967115249194,-0.002624103799462318,-0.04943018034100533,0.1710464805364609,0.04174447059631348,-0.03022760152816772,-0.1226709187030792,XArbitraryZVertical,-0.5196884183827328,-0.2299376596125078,-0.3408155320029064,0.748930727759901,-0.6986505389213562,0.6216886043548584,-0.3541052341461182,0,0,0,-1,-1,27627.78192266667,unknown,2,2025-04-22T11:10:33.160+03:00,2025-04-21T17:08:51.449+03:00,7097,0.9423593,0,0,5930.618,5,20,2025-04-22T11:09:49.311+03:00,767002240.9890206,0,-21.39,100.4594,1,0.95,2025-04-22T11:10:40.189+03:00,77.00000000000001,1.283333333333333,2025-04-22T09:54:17.825+03:00,0.02225348692287972,0
2025-04-22T11:10:41.860+03:00,1745309436.128314,40.9522478792225,29.14028919083181,76.44633,-1,-1,-1,-1,30,23.16803173710119,-9999,27636.47599825,-0.679931640625,0.572052001953125,-0.5546417236328125,27636.46592225,-1.272913836443011,-1.100052158863847,-0.6725030314536772,0.2262404263019562,0.01110633462667465,0.2906161248683929,0.02849274873733521,-0.02722769975662231,-0.1452651917934418,XArbitraryZVertical,-0.5194866643105147,-0.2296424052413256,-0.3396138439535761,0.7497068774361618,-0.6971787214279175,0.6229459643363953,-0.3547959327697754,0,0,0,-1,-1,27627.78192266667,unknown,2,2025-04-22T11:10:33.160+03:00,2025-04-21T17:08:51.449+03:00,7097,0.9423593,0,0,5930.618,5,20,2025-04-22T11:09:49.311+03:00,767002240.9890206,0,-21.39,100.4594,1,0.95,2025-04-22T11:10:40.189+03:00,77.00000000000001,1.283333333333333,2025-04-22T09:54:17.825+03:00,0.02225348692287972,0
2025-04-22T11:10:41.870+03:00,1745309436.128314,40.9522478792225,29.14028919083181,76.44633,-1,-1,-1,-1,30,23.16803173710119,-9999,27636.48607425,-0.686676025390625,0.60125732421875,-0.5799560546875,27636.47599825,-1.266751834241622,-1.095632718377931,-0.674208864276167,0.4012245237827301,0.1727671325206757,0.4848247468471527,0.01521456241607666,-0.05999433994293213,-0.1485488414764404,XArbitraryZVertical,-0.5184971652046737,-0.2290572808022318,-0.3379675719627596,0.7513130200351906,-0.6946578621864319,0.6242794990539551,-0.3573869168758392,0,0,0,-1,-1,27627.78192266667,unknown,2,2025-04-22T11:10:33.160+03:00,2025-04-21T17:08:51.449+03:00,7097,0.9423593,0,0,5930.618,5,20,2025-04-22T11:09:49.311+03:00,767002240.9890206,0,-21.39,100.4594,1,0.95,2025-04-22T11:10:40.189+03:00,77.00000000000001,1.283333333333333,2025-04-22T09:54:17.825+03:00,0.02225348692287972,0
