loggingTime(txt),locationTimestamp_since1970(s),locationLatitude(WGS84),locationLongitude(WGS84),locationAltitude(m),locationSpeed(m/s),locationSpeedAccuracy(m/s),locationCourse(°),locationCourseAccuracy(°),locationVerticalAccuracy(m),locationHorizontalAccuracy(m),locationFloor(Z),accelerometerTimestamp_sinceReboot(s),accelerometerAccelerationX(G),accelerometerAccelerationY(G),accelerometerAccelerationZ(G),motionTimestamp_sinceReboot(s),motionYaw(rad),motionRoll(rad),motionPitch(rad),motionRotationRateX(rad/s),motionRotationRateY(rad/s),motionRotationRateZ(rad/s),motionUserAccelerationX(G),motionUserAccelerationY(G),motionUserAccelerationZ(G),motionAttitudeReferenceFrame(txt),motionQuaternionX(R),motionQuaternionY(R),motionQuaternionZ(R),motionQuaternionW(R),motionGravityX(G),motionGravityY(G),motionGravityZ(G),motionMagneticFieldX(µT),motionMagneticFieldY(µT),motionMagneticFieldZ(µT),motionHeading(°),motionMagneticFieldCalibrationAccuracy(Z),activityTimestamp_sinceReboot(s),activity(txt),activityActivityConfidence(Z),activityActivityStartDate(txt),pedometerStartDate(txt),pedometerNumberofSteps(N),pedometerAverageActivePace(s/m),pedometerCurrentPace(s/m),pedometerCurrentCadence(steps/s),pedometerDistance(m),pedometerFloorAscended(N),pedometerFloorDescended(N),pedometerEndDate(txt),altimeterTimestamp_sinceReboot(s),altimeterReset(bool),altimeterRelativeAltitude(m),altimeterPressure(kPa),batteryState(N),batteryLevel(R),heartRateBPMTimestamp(txt),heartRateBPM(N),heartRateBPS(R),heartRateVariabilityTimestamp(txt),heartRateVariability(ms),label
2025-04-21T16:43:19.394+03:00,1745242998.53616,40.95237388445845,29.14013565701957,78.28703,-1,-1,-1,-1,30,34.22672640375541,-9999,20311.572564,-0.638397216796875,0.681396484375,-0.3837127685546875,20311.565025,1.974394645817678,-1.026310919106573,-0.7356962560317892,-0.0621054545044899,-0.06658581644296646,-0.07124808430671692,0.002688229084014893,0.002419233322143555,-0.004921406507492065,XArbitraryZVertical,-0.2096341122765218,0.5138565433480951,-0.7756490116863719,-0.3006217390686027,-0.6341578960418701,0.6711034774780273,-0.38400998711586,0,0,0,-1,-1,20309.90125491667,unknown,2,2025-04-21T16:43:17.691+03:00,2025-04-20T21:57:49.637+03:00,6805,0.9845527,0,0,5579.851,5,6,2025-04-21T16:43:17.691+03:00,766935790.0548265,0,-38.69,100.1966,1,0.3,2025-04-21T16:43:07.230+03:00,101,1.683333333333333,2025-04-21T12:30:07.995+03:00,0.02023345852159405,0
2025-04-21T16:43:19.396+03:00,1745242998.53616,40.95237388445845,29.14013565701957,78.28703,-1,-1,-1,-1,30,34.22672640375541,-9999,20311.58264,-0.6297149658203125,0.676605224609375,-0.388641357421875,20311.5751,1.973313186926889,-1.027571794689138,-0.7355019321033111,-0.06055149808526039,-0.05812042951583862,-0.05260209739208221,-0.003460824489593506,0.01054370403289795,2.241134643554688e-05,XArbitraryZVertical,-0.2099028760970907,0.514103103520245,-0.7753550677867245,-0.3007711849551954,-0.6347533464431763,0.6709594130516052,-0.38327756524086,0,0,0,-1,-1,20309.90125491667,unknown,2,2025-04-21T16:43:17.691+03:00,2025-04-20T21:57:49.637+03:00,6805,0.9845527,0,0,5579.851,5,6,2025-04-21T16:43:17.691+03:00,766935790.0548265,0,-38.69,100.1966,1,0.3,2025-04-21T16:43:07.230+03:00,101,1.683333333333333,2025-04-21T12:30:07.995+03:00,0.02023345852159405,0
2025-04-21T16:43:19.398+03:00,1745242998.53616,40.95237388445845,29.14013565701957,78.28703,-1,-1,-1,-1,30,34.22672640375541,-9999,20311.592716,-0.63037109375,0.671173095703125,-0.387847900390625,20311.585176,1.972510726731225,-1.028590789028682,-0.7354166150482049,-0.04683302342891693,-0.05121671408414841,-0.02817611582577229,0.005904793739318848,0.004213571548461914,-0.006591796875,XArbitraryZVertical,-0.2101169898739778,0.5143158796966464,-0.7751276860069518,-0.3008438303818853,-0.6351925134658813,0.6708961725234985,-0.3826600611209869,0,0,0,-1,-1,20309.90125491667,unknown,2,2025-04-21T16:43:17.691+03:00,2025-04-20T21:57:49.637+03:00,6805,0.9845527,0,0,5579.851,5,6,2025-04-21T16:43:17.691+03:00,766935790.0548265,0,-38.69,100.1966,1,0.3,2025-04-21T16:43:07.230+03:00,101,1.683333333333333,2025-04-21T12:30:07.995+03:00,0.02023345852159405,0
2025-04-21T16:43:19.398+03:00,1745242998.53616,40.95237388445845,29.14013565701957,78.28703,-1,-1,-1,-1,30,34.22672640375541,-9999,20311.602792,-0.6360931396484375,0.6756439208984375,-0.3848419189453125,20311.595252,1.971814611309972,-1.029400629229756,-0.7354786836071968,-0.05739692226052284,-0.02480767667293549,-0.01698188483715057,0.003874778747558594,-0.0004406571388244629,-0.005510330200195312,XArbitraryZVertical,-0.2102332605976656,0.5145288496669629,-0.7749376417143213,-0.3008880833920449,-0.6354665160179138,0.6709421873092651,-0.3821240663528442,0,0,0,-1,-1,20309.90125491667,unknown,2,2025-04-21T16:43:17.691+03:00,2025-04-20T21:57:49.637+03:00,6805,0.9845527,0,0,5579.851,5,6,2025-04-21T16:43:17.691+03:00,766935790.0548265,0,-38.69,100.1966,1,0.3,2025-04-21T16:43:07.230+03:00,101,1.683333333333333,2025-04-21T12:30:07.995+03:00,0.02023345852159405,0
2025-04-21T16:43:19.408+03:00,1745242998.53616,40.95237388445845,29.14013565701957,78.28703,-1,-1,-1,-1,30,34.22672640375541,-9999,20311.612868,-0.635589599609375,0.681365966796875,-0.3886871337890625,20311.605328,1.971152586803541,-1.029959639791592,-0.7357124978276182,-0.05589276552200317,-0.01358591578900814,-0.001426627160981297,-0.0005323290824890137,0.005871057510375977,-0.00388646125793457,XArbitraryZVertical,-0.2102097734541464,0.5147502650195733,-0.7747784588957465,-0.3009358076851608,-0.6355456113815308,0.671115517616272,-0.3816880285739899,0,0,0,-1,-1,20309.90125491667,unknown,2,2025-04-21T16:43:17.691+03:00,2025-04-20T21:57:49.637+03:00,6805,0.9845527,0,0,5579.851,5,6,2025-04-21T16:43:17.691+03:00,766935790.0548265,0,-38.69,100.1966,1,0.3,2025-04-21T16:43:07.230+03:00,101,1.683333333333333,2025-04-21T12:30:07.995+03:00,0.02023345852159405,0
2025-04-21T16:43:19.418+03:00,1745242998.53616,40.95237388445845,29.14013565701957,78.28703,-1,-1,-1,-1,30,34.22672640375541,-9999,20311.622943,-0.614898681640625,0.6745452880859375,-0.3828125,20311.615404,1.971774771800606,-1.030706483279494,-0.7354259390801354,0.08214166760444641,-0.1225596740841866,-0.007638250477612019,0.001946926116943359,0.01044744253158569,-0.007832914590835571,XArbitraryZVertical,-0.2107446842058518,0.5147141253191411,-0.7747943827798233,-0.3005820930669717,-0.6359952688217163,0.6709030866622925,-0.3813121020793915,0,0,0,-1,-1,20309.90125491667,unknown,2,2025-04-21T16:43:17.691+03:00,2025-04-20T21:57:49.637+03:00,6805,0.9845527,0,0,5579.851,5,6,2025-04-21T16:43:17.691+03:00,766935790.0548265,0,-38.69,100.1966,1,0.3,2025-04-21T16:43:07.230+03:00,101,1.683333333333333,2025-04-21T12:30:07.995+03:00,0.02023345852159405,0
2025-04-21T16:43:19.427+03:00,1745242998.53616,40.95237388445845,29.14013565701957,78.28703,-1,-1,-1,-1,30,34.22672640375541,-9999,20311.633019,-0.6027679443359375,0.664886474609375,-0.3789520263671875,20311.625479,1.971691423537794,-1.03172085605133,-0.7354059766596941,-0.03780870139598846,-0.1094111055135727,-0.009497936815023422,0.02569079399108887,0.001032352447509766,0.000500798225402832,XArbitraryZVertical,-0.2111220691986508,0.5148695256847162,-0.7746749830918959,-0.3003589732499458,-0.6363933086395264,0.6708882451057434,-0.3806736767292023,0,0,0,-1,-1,20309.90125491667,unknown,2,2025-04-21T16:43:17.691+03:00,2025-04-20T21:57:49.637+03:00,6805,0.9845527,0,0,5579.851,5,6,2025-04-21T16:43:17.691+03:00,766935790.0548265,0,-38.69,100.1966,1,0.3,2025-04-21T16:43:07.230+03:00,101,1.683333333333333,2025-04-21T12:30:07.995+03:00,0.02023345852159405,0
2025-04-21T16:43:19.437+03:00,1745242998.53616,40.95237388445845,29.14013565701957,78.28703,-1,-1,-1,-1,30,34.22672640375541,-9999,20311.643095,-0.642913818359375,0.6795501708984375,-0.3906097412109375,20311.635555,1.97155735446338,-1.032467633156707,-0.7355143684124027,0.001873861299827695,-0.04070994257926941,0.0005222740583121777,0.02984923124313354,-0.004464924335479736,-0.001217246055603027,XArbitraryZVertical,-0.2113444902904047,0.515027169498154,-0.7745756266129279,-0.3001884356704828,-0.636614978313446,0.6709686517715454,-0.3801610469818115,0,0,0,-1,-1,20309.90125491667,unknown,2,2025-04-21T16:43:17.691+03:00,2025-04-20T21:57:49.637+03:00,6805,0.9845527,0,0,5579.851,5,6,2025-04-21T16:43:17.691+03:00,766935790.0548265,0,-38.69,100.1966,1,0.3,2025-04-21T16:43:07.230+03:00,101,1.683333333333333,2025-04-21T12:30:07.995+03:00,0.02023345852159405,0
2025-04-21T16:43:19.447+03:00,1745242998.53616,40.95237388445845,29.14013565701957,78.28703,-1,-1,-1,-1,30,34.22672640375541,-9999,20311.653171,-0.648529052734375,0.6606597900390625,-0.383148193359375,20311.645631,1.971647057408373,-1.032604713625821,-0.735630088268306,-0.003684688592329621,-0.016041349619627,0.01598431915044785,-0.009166836738586426,0.007076501846313477,-0.00943148136138916,XArbitraryZVertical,-0.2113862012862818,0.5150717375333995,-0.7745742260006209,-0.300086152149507,-0.6366003751754761,0.6710544228553772,-0.3800339698791504,0,0,0,-1,-1,20309.90125491667,unknown,2,2025-04-21T16:43:17.691+03:00,2025-04-20T21:57:49.637+03:00,6805,0.9845527,0,0,5579.851,5,6,2025-04-21T16:43:17.691+03:00,766935790.0548265,0,-38.69,100.1966,1,0.3,2025-04-21T16:43:07.230+03:00,101,1.683333333333333,2025-04-21T12:30:07.995+03:00,0.02023345852159405,0
2025-04-21T16:43:19.457+03:00,1745242998.53616,40.95237388445845,29.14013565701957,78.28703,-1,-1,-1,-1,30,34.22672640375541,-9999,20311.663247,-0.6304473876953125,0.6617431640625,-0.386810302734375,20311.655707,1.971756145552304,-1.032711893575438,-0.7357888919460442,-0.002524216193705797,-0.01876935921609402,0.01473509799689054,-0.01019418239593506,-0.0124046802520752,-0.003572970628738403,XArbitraryZVertical,-0.2114085296952563,0.5151222273760444,-0.7745787115841528,-0.2999719343104263,-0.6365495324134827,0.6711721420288086,-0.3799110352993011,0,0,0,-1,-1,20309.90125491667,unknown,2,2025-04-21T16:43:17.691+03:00,2025-04-20T21:57:49.637+03:00,6805,0.9845527,0,0,5579.851,5,6,2025-04-21T16:43:17.691+03:00,766935790.0548265,0,-38.69,100.1966,1,0.3,2025-04-21T16:43:07.230+03:00,101,1.683333333333333,2025-04-21T12:30:07.995+03:00,0.02023345852159405,0
2025-04-21T16:43:19.467+03:00,1745242998.53616,40.95237388445845,29.14013565701957,78.28703,-1,-1,-1,-1,30,34.22672640375541,-9999,20311.673322,-0.623748779296875,0.6672210693359375,-0.384552001953125,20311.665783,1.971796007823237,-1.03284893280908,-0.7359720331464162,-0.009353626519441605,-0.01976538263261318,0.00853765569627285,0.008596897125244141,-0.008237481117248535,-0.006652861833572388,XArbitraryZVertical,-0.2114172970856246,0.5151915354348536,-0.7745696072341193,-0.29987018434159,-0.6364960074424744,0.6713079214096069,-0.3797608017921448,0,0,0,-1,-1,20309.90125491667,unknown,2,2025-04-21T16:43:17.691+03:00,2025-04-20T21:57:49.637+03:00,6805,0.9845527,0,0,5579.851,5,6,2025-04-21T16:43:17.691+03:00,766935790.0548265,0,-38.69,100.1966,1,0.3,2025-04-21T16:43:07.230+03:00,101,1.683333333333333,2025-04-21T12:30:07.995+03:00,0.02023345852159405,0
2025-04-21T16:43:19.479+03:00,1745242998.53616,40.95237388445845,29.14013565701957,78.28703,-1,-1,-1,-1,30,34.22672640375541,-9999,20311.683398,-0.6240234375,0.674530029296875,-0.38372802734375,20311.675858,1.971686108417815,-1.033175794087231,-0.7360473755671494,-0.01780909672379494,-0.03143981471657753,-0.004601281601935625,0.01295012235641479,-0.003547728061676025,-0.004872620105743408,XArbitraryZVertical,-0.2114929933233529,0.5152739307391309,-0.774518431778681,-0.2998079238132182,-0.6365768313407898,0.6713637709617615,-0.3795269727706909,0,0,0,-1,-1,20309.90125491667,unknown,2,2025-04-21T16:43:17.691+03:00,2025-04-20T21:57:49.637+03:00,6805,0.9845527,0,0,5579.851,5,6,2025-04-21T16:43:17.691+03:00,766935790.0548265,0,-38.69,100.1966,1,0.3,2025-04-21T16:43:07.230+03:00,101,1.683333333333333,2025-04-21T12:30:07.995+03:00,0.02023345852159405,0
2025-04-21T16:43:19.487+03:00,1745242998.53616,40.95237388445845,29.14013565701957,78.28703,-1,-1,-1,-1,30,34.22672640375541,-9999,20311.693474,-0.625457763671875,0.6707611083984375,-0.3836212158203125,20311.685934,1.971410428062953,-1.033617380453633,-0.736090486086768,-0.02046666480600834,-0.0213277917355299,-0.0008664645720273256,0.01271116733551025,0.00394284725189209,-0.004802346229553223,XArbitraryZVertical,-0.211580221963986,0.5153817585189565,-0.7744301728183834,-0.2997885496615386,-0.636719286441803,0.6713957190513611,-0.3792309165000916,0,0,0,-1,-1,20309.90125491667,unknown,2,2025-04-21T16:43:17.691+03:00,2025-04-20T21:57:49.637+03:00,6805,0.9845527,0,0,5579.851,5,6,2025-04-21T16:43:17.691+03:00,766935790.0548265,0,-38.69,100.1966,1,0.3,2025-04-21T16:43:07.230+03:00,101,1.683333333333333,2025-04-21T12:30:07.995+03:00,0.02023345852159405,0
2025-04-21T16:43:19.497+03:00,1745242998.53616,40.95237388445845,29.14013565701957,78.28703,-1,-1,-1,-1,30,34.22672640375541,-9999,20311.70355,-0.6339569091796875,0.664581298828125,-0.3759307861328125,20311.69601,1.971149782955681,-1.033940013744685,-0.73621300393644,-0.02617368474602699,-0.01550146099179983,-0.01316673960536718,0.01003152132034302,-0.00243455171585083,-0.003234148025512695,XArbitraryZVertical,-0.2116014117481638,0.5154930947759633,-0.7743566262677757,-0.2997722952895976,-0.636771023273468,0.671486496925354,-0.3789834380149841,0,0,0,-1,-1,20309.90125491667,unknown,2,2025-04-21T16:43:17.691+03:00,2025-04-20T21:57:49.637+03:00,6805,0.9845527,0,0,5579.851,5,6,2025-04-21T16:43:17.691+03:00,766935790.0548265,0,-38.69,100.1966,1,0.3,2025-04-21T16:43:07.230+03:00,101,1.683333333333333,2025-04-21T12:30:07.995+03:00,0.02023345852159405,0
2025-04-21T16:43:19.508+03:00,1745242998.53616,40.95237388445845,29.14013565701957,78.28703,-1,-1,-1,-1,30,34.22672640375541,-9999,20311.713625,-0.629302978515625,0.672821044921875,-0.372222900390625,20311.706086,1.970840487822481,-1.034314479319326,-0.7363047778237579,-0.02142367139458656,-0.02503051608800888,-0.006554110907018185,0.0026589035987854,-0.005172908306121826,0.004201561212539673,XArbitraryZVertical,-0.2116393195287936,0.5156084626795714,-0.7742703519442553,-0.299769870624157,-0.6368598937988281,0.6715545058250427,-0.3787134289741516,0,0,0,-1,-1,20309.90125491667,unknown,2,2025-04-21T16:43:17.691+03:00,2025-04-20T21:57:49.637+03:00,6805,0.9845527,0,0,5579.851,5,6,2025-04-21T16:43:17.691+03:00,766935790.0548265,0,-38.69,100.1966,1,0.3,2025-04-21T16:43:07.230+03:00,101,1.683333333333333,2025-04-21T12:30:07.995+03:00,0.02023345852159405,0
2025-04-21T16:43:19.518+03:00,1745242998.53616,40.95237388445845,29.14013565701957,78.28703,-1,-1,-1,-1,30,34.22672640375541,-9999,20311.723701,-0.624481201171875,0.6696319580078125,-0.3804473876953125,20311.716161,1.970528289858927,-1.034697417209969,-0.7364394246626013,-0.03404832258820534,-0.01759623736143112,-0.006594158709049225,0.009516298770904541,0.001029253005981445,0.004964381456375122,XArbitraryZVertical,-0.2116668965489399,0.5157377765097566,-0.7741826541865183,-0.2997545043466648,-0.6369271278381348,0.6716542840003967,-0.3784233331680298,0,0,0,-1,-1,20309.90125491667,unknown,2,2025-04-21T16:43:17.691+03:00,2025-04-20T21:57:49.637+03:00,6805,0.9845527,0,0,5579.851,5,6,2025-04-21T16:43:17.691+03:00,766935790.0548265,0,-38.69,100.1966,1,0.3,2025-04-21T16:43:07.230+03:00,101,1.683333333333333,2025-04-21T12:30:07.995+03:00,0.02023345852159405,0
2025-04-21T16:43:19.528+03:00,1745242998.53616,40.95237388445845,29.14013565701957,78.28703,-1,-1,-1,-1,30,34.22672640375541,-9999,20311.733777,-0.6282196044921875,0.6698150634765625,-0.382659912109375,20311.726237,1.970108042605693,-1.035156519197951,-0.7365150870965134,-0.02988526597619057,-0.02443310432136059,-0.01145975291728973,0.01230126619338989,-0.002460062503814697,-0.002724021673202515,XArbitraryZVertical,-0.2117136534581151,0.5158729091330687,-0.7740708543881634,-0.2997776506987436,-0.6370570659637451,0.6717103123664856,-0.378104954957962,0,0,0,-1,-1,20309.90125491667,unknown,2,2025-04-21T16:43:17.691+03:00,2025-04-20T21:57:49.637+03:00,6805,0.9845527,0,0,5579.851,5,6,2025-04-21T16:43:17.691+03:00,766935790.0548265,0,-38.69,100.1966,1,0.3,2025-04-21T16:43:07.230+03:00,101,1.683333333333333,2025-04-21T12:30:07.995+03:00,0.02023345852159405,0
2025-04-21T16:43:19.538+03:00,1745242998.53616,40.95237388445845,29.14013565701957,78.28703,-1,-1,-1,-1,30,34.22672640375541,-9999,20311.743853,-0.6259918212890625,0.6744232177734375,-0.3775177001953125,20311.736313,1.969779348985077,-1.035702776804696,-0.7365044417116933,-0.01631772704422474,-0.03950652852654457,-0.005883327219635248,0.009492695331573486,-0.0008498430252075195,-0.004090726375579834,XArbitraryZVertical,-0.2118433600830599,0.5159865096162068,-0.7739638433506275,-0.2997671644959403,-0.6372698545455933,0.6717024445533752,-0.3777606189250946,0,0,0,-1,-1,20309.90125491667,unknown,2,2025-04-21T16:43:17.691+03:00,2025-04-20T21:57:49.637+03:00,6805,0.9845527,0,0,5579.851,5,6,2025-04-21T16:43:17.691+03:00,766935790.0548265,0,-38.69,100.1966,1,0.3,2025-04-21T16:43:07.230+03:00,101,1.683333333333333,2025-04-21T12:30:07.995+03:00,0.02023345852159405,0
2025-04-21T16:43:19.548+03:00,1745242998.53616,40.95237388445845,29.14013565701957,78.28703,-1,-1,-1,-1,30,34.22672640375541,-9999,20311.753929,-0.6293182373046875,0.68231201171875,-0.3818359375,20311.746389,1.969623985057323,-1.03618066954711,-0.736491701987106,-0.009701368398964405,-0.04295585304498672,-0.008010660298168659,0.01088589429855347,0.002913177013397217,0.0004460811614990234,XArbitraryZVertical,-0.2119920744186219,0.5160709271522181,-0.7738898952040221,-0.2997073175071804,-0.6374574899673462,0.6716930270195007,-0.3774603307247162,0,0,0,-1,-1,20309.90125491667,unknown,2,2025-04-21T16:43:17.691+03:00,2025-04-20T21:57:49.637+03:00,6805,0.9845527,0,0,5579.851,5,6,2025-04-21T16:43:17.691+03:00,766935790.0548265,0,-38.69,100.1966,1,0.3,2025-04-21T16:43:07.230+03:00,101,1.683333333333333,2025-04-21T12:30:07.995+03:00,0.02023345852159405,0
2025-04-21T16:43:19.558+03:00,1745242998.53616,40.95237388445845,29.14013565701957,78.28703,-1,-1,-1,-1,30,34.22672640375541,-9999,20311.764004,-0.6302490234375,0.67938232421875,-0.3854522705078125,20311.756465,1.969566805267432,-1.036700395891369,-0.7363792526253421,0.006206557620316744,-0.06261017918586731,-0.01963785476982594,0.007759511470794678,0.01126670837402344,-0.004775434732437134,XArbitraryZVertical,-0.2122120080820533,0.5161224460123148,-0.7738264566270943,-0.2996265829394614,-0.6377185583114624,0.6716096997261047,-0.3771673738956451,0,0,0,-1,-1,20309.90125491667,unknown,2,2025-04-21T16:43:17.691+03:00,2025-04-20T21:57:49.637+03:00,6805,0.9845527,0,0,5579.851,5,6,2025-04-21T16:43:17.691+03:00,766935790.0548265,0,-38.69,100.1966,1,0.3,2025-04-21T16:43:07.230+03:00,101,1.683333333333333,2025-04-21T12:30:07.995+03:00,0.02023345852159405,0
2025-04-21T16:43:19.568+03:00,1745242998.53616,40.95237388445845,29.14013565701957,78.28703,-1,-1,-1,-1,30,34.22672640375541,-9999,20311.77408,-0.6246490478515625,0.6664886474609375,-0.381561279296875,20311.76654,1.969553191089369,-1.037373718214188,-0.7361696864000805,0.008958668448030949,-0.07262526452541351,-0.02819059602916241,0.008638083934783936,0.007164835929870605,-0.008322477340698242,XArbitraryZVertical,-0.212531483320674,0.5161643314067151,-0.7737534513029291,-0.2995167061733382,-0.6380935907363892,0.6714544296264648,-0.3768095076084137,0,0,0,-1,-1,20309.90125491667,unknown,2,2025-04-21T16:43:17.691+03:00,2025-04-20T21:57:49.637+03:00,6805,0.9845527,0,0,5579.851,5,6,2025-04-21T16:43:17.691+03:00,766935790.0548265,0,-38.69,100.1966,1,0.3,2025-04-21T16:43:07.230+03:00,101,1.683333333333333,2025-04-21T12:30:07.995+03:00,0.02023345852159405,0
2025-04-21T16:43:19.578+03:00,1745242998.53616,40.95237388445845,29.14013565701957,78.28703,-1,-1,-1,-1,30,34.22672640375541,-9999,20311.784156,-0.6283416748046875,0.6591339111328125,-0.3823394775390625,20311.776616,1.969374135838193,-1.038186062844528,-0.7359621824934053,-0.008918732404708862,-0.06981044262647629,-0.02427941188216209,0.0133364200592041,-0.006444871425628662,-0.004894465208053589,XArbitraryZVertical,-0.2128614551079514,0.5162452184649126,-0.7736406886039074,-0.2994341809325527,-0.6385194659233093,0.6713006496429443,-0.376361757516861,0,0,0,-1,-1,20309.90125491667,unknown,2,2025-04-21T16:43:17.691+03:00,2025-04-20T21:57:49.637+03:00,6805,0.9845527,0,0,5579.851,5,6,2025-04-21T16:43:17.691+03:00,766935790.0548265,0,-38.69,100.1966,1,0.3,2025-04-21T16:43:07.230+03:00,101,1.683333333333333,2025-04-21T12:30:07.995+03:00,0.02023345852159405,0
2025-04-21T16:43:19.588+03:00,1745242998.53616,40.95237388445845,29.14013565701957,78.28703,-1,-1,-1,-1,30,34.22672640375541,-9999,20311.794232,-0.6356658935546875,0.6660308837890625,-0.3830108642578125,20311.786692,1.968975219109551,-1.038993681651403,-0.7358347799476087,-0.02356292121112347,-0.03998570144176483,-0.02523096092045307,0.00951772928237915,-0.01108062267303467,-0.006465494632720947,XArbitraryZVertical,-0.2131088430353056,0.5163719121525034,-0.7734952333567766,-0.2994156324283554,-0.6388970017433167,0.6712061762809753,-0.3758893311023712,0,0,0,-1,-1,20309.90125491667,unknown,2,2025-04-21T16:43:17.691+03:00,2025-04-20T21:57:49.637+03:00,6805,0.9845527,0,0,5579.851,5,6,2025-04-21T16:43:17.691+03:00,766935790.0548265,0,-38.69,100.1966,1,0.3,2025-04-21T16:43:07.230+03:00,101,1.683333333333333,2025-04-21T12:30:07.995+03:00,0.02023345852159405,0
2025-04-21T16:43:19.599+03:00,1745242998.53616,40.95237388445845,29.14013565701957,78.28703,-1,-1,-1,-1,30,34.22672640375541,-9999,20311.804308,-0.6388702392578125,0.6684722900390625,-0.3798370361328125,20311.796768,1.968553240895161,-1.039608021660786,-0.7358256851333264,-0.02399488538503647,-0.0295983050018549,-0.01679300144314766,0.003024697303771973,-0.004405736923217773,-0.007297515869140625,XArbitraryZVertical,-0.2132401172131112,0.5165062382247483,-0.7733666380232208,-0.299422880676127,-0.6391331553459167,0.6711994409561157,-0.3754999041557312,0,0,0,-1,-1,20309.90125491667,unknown,2,2025-04-21T16:43:17.691+03:00,2025-04-20T21:57:49.637+03:00,6805,0.9845527,0,0,5579.851,5,6,2025-04-21T16:43:17.691+03:00,766935790.0548265,0,-38.69,100.1966,1,0.3,2025-04-21T16:43:07.230+03:00,101,1.683333333333333,2025-04-21T12:30:07.995+03:00,0.02023345852159405,0
2025-04-21T16:43:19.609+03:00,1745242998.53616,40.95237388445845,29.14013565701957,78.28703,-1,-1,-1,-1,30,34.22672640375541,-9999,20311.814384,-0.6361236572265625,0.6678314208984375,-0.373779296875,20311.806844,1.968141199768218,-1.040123871178754,-0.7358304250685476,-0.02815607562661171,-0.02331191301345825,-0.01582786999642849,0.0005300045013427734,-0.002807080745697021,-0.003997266292572021,XArbitraryZVertical,-0.213331753278778,0.5166287772804445,-0.7732499126071152,-0.2994475801193225,-0.6393240094184875,0.6712029576301575,-0.3751685321331024,0,0,0,-1,-1,20309.90125491667,unknown,2,2025-04-21T16:43:17.691+03:00,2025-04-20T21:57:49.637+03:00,6805,0.9845527,0,0,5579.851,5,6,2025-04-21T16:43:17.691+03:00,766935790.0548265,0,-38.69,100.1966,1,0.3,2025-04-21T16:43:07.230+03:00,101,1.683333333333333,2025-04-21T12:30:07.995+03:00,0.02023345852159405,0
2025-04-21T16:43:19.619+03:00,1745242998.53616,40.95237388445845,29.14013565701957,78.28703,-1,-1,-1,-1,30,34.22672640375541,-9999,20311.824459,-0.6345062255859375,0.6677703857421875,-0.37164306640625,20311.81692,1.967750449084312,-1.040560031646255,-0.7359092045177923,-0.02983673103153706,-0.01700761169195175,-0.00694979028776288,0.003730297088623047,-0.003002822399139404,0.001464962959289551,XArbitraryZVertical,-0.2133758822799488,0.516758422318658,-0.7731447704139252,-0.2994639974173347,-0.639441967010498,0.6712613701820374,-0.374862939119339,0,0,0,-1,-1,20309.90125491667,unknown,2,2025-04-21T16:43:17.691+03:00,2025-04-20T21:57:49.637+03:00,6805,0.9845527,0,0,5579.851,5,6,2025-04-21T16:43:17.691+03:00,766935790.0548265,0,-38.69,100.1966,1,0.3,2025-04-21T16:43:07.230+03:00,101,1.683333333333333,2025-04-21T12:30:07.995+03:00,0.02023345852159405,0
2025-04-21T16:43:19.629+03:00,1745242998.53616,40.95237388445845,29.14013565701957,78.28703,-1,-1,-1,-1,30,34.22672640375541,-9999,20311.834535,-0.63818359375,0.670166015625,-0.3726043701171875,20311.826995,1.967406254119342,-1.040861099170314,-0.7360006556033063,-0.02040461264550686,-0.00281216436997056,-0.00892212800681591,0.004354715347290039,-0.003040075302124023,0.002935111522674561,XArbitraryZVertical,-0.2133760277237443,0.5168665190908583,-0.7730609589849439,-0.2994936177082304,-0.6395018100738525,0.671329140663147,-0.3746393322944641,0,0,0,-1,-1,20309.90125491667,unknown,2,2025-04-21T16:43:17.691+03:00,2025-04-20T21:57:49.637+03:00,6805,0.9845527,0,0,5579.851,5,6,2025-04-21T16:43:17.691+03:00,766935790.0548265,0,-38.69,100.1966,1,0.3,2025-04-21T16:43:07.230+03:00,101,1.683333333333333,2025-04-21T12:30:07.995+03:00,0.02023345852159405,0
2025-04-21T16:43:19.639+03:00,1745242998.53616,40.95237388445845,29.14013565701957,78.28703,-1,-1,-1,-1,30,34.22672640375541,-9999,20311.844611,-0.637359619140625,0.6661224365234375,-0.3687744140625,20311.837071,1.967233174316608,-1.041006990063261,-0.7360325283492291,-0.00479516014456749,-0.006335393059998751,-0.008502346463501453,0.001125454902648926,-0.001385271549224854,0.002312183380126953,XArbitraryZVertical,-0.2133781982393337,0.5169159963630909,-0.7730194033435301,-0.2995138020325499,-0.6395379304885864,0.671352744102478,-0.3745352029800415,0,0,0,-1,-1,20309.90125491667,unknown,2,2025-04-21T16:43:17.691+03:00,2025-04-20T21:57:49.637+03:00,6805,0.9845527,0,0,5579.851,5,6,2025-04-21T16:43:17.691+03:00,766935790.0548265,0,-38.69,100.1966,1,0.3,2025-04-21T16:43:07.230+03:00,101,1.683333333333333,2025-04-21T12:30:07.995+03:00,0.02023345852159405,0
2025-04-21T16:43:19.649+03:00,1745242998.53616,40.95237388445845,29.14013565701957,78.28703,-1,-1,-1,-1,30,34.22672640375541,-9999,20311.854687,-0.6374359130859375,0.6627960205078125,-0.3687744140625,20311.847147,1.96720019000838,-1.0410794757627,-0.7359929581804064,-0.0007346385391429067,-0.007631553802639246,-0.006792863830924034,0.002609848976135254,-0.006070971488952637,0.005910784006118774,XArbitraryZVertical,-0.2134095327683692,0.5169190018511055,-0.7730067646312515,-0.299518809896674,-0.639587938785553,0.6713234186172485,-0.3745022416114807,0,0,0,-1,-1,20309.90125491667,unknown,2,2025-04-21T16:43:17.691+03:00,2025-04-20T21:57:49.637+03:00,6805,0.9845527,0,0,5579.851,5,6,2025-04-21T16:43:17.691+03:00,766935790.0548265,0,-38.69,100.1966,1,0.3,2025-04-21T16:43:07.230+03:00,101,1.683333333333333,2025-04-21T12:30:07.995+03:00,0.02023345852159405,0
2025-04-21T16:43:19.659+03:00,1745242998.53616,40.95237388445845,29.14013565701957,78.28703,-1,-1,-1,-1,30,34.22672640375541,-9999,20311.864762,-0.6381683349609375,0.6630706787109375,-0.372314453125,20311.857223,1.967262113383167,-1.041080433859324,-0.7359731169852602,0.004372172523289919,-0.00299186073243618,0.004082654137164354,0.002606570720672607,-0.00790250301361084,0.005413413047790527,XArbitraryZVertical,-0.2134317608587346,0.516906827380438,-0.7730160233491484,-0.2995003968741293,-0.6395999193191528,0.6713087558746338,-0.3745084404945374,0,0,0,-1,-1,20309.90125491667,unknown,2,2025-04-21T16:43:17.691+03:00,2025-04-20T21:57:49.637+03:00,6805,0.9845527,0,0,5579.851,5,6,2025-04-21T16:43:17.691+03:00,766935790.0548265,0,-38.69,100.1966,1,0.3,2025-04-21T16:43:07.230+03:00,101,1.683333333333333,2025-04-21T12:30:07.995+03:00,0.02023345852159405,0
2025-04-21T16:43:19.670+03:00,1745242998.53616,40.95237388445845,29.14013565701957,78.28703,-1,-1,-1,-1,30,34.22672640375541,-9999,20311.874838,-0.6389617919921875,0.664520263671875,-0.3776702880859375,20311.867298,1.967334875850622,-1.040995389465277,-0.735996041372513,0.002498638816177845,0.000140815507620573,0.008078726939857006,0.0005472302436828613,-0.007919490337371826,0.001324892044067383,XArbitraryZVertical,-0.2134108789948446,0.5168929195291421,-0.7730359373546998,-0.2994877504117406,-0.6395547389984131,0.6713257431983948,-0.3745550215244293,0,0,0,-1,-1,20309.90125491667,unknown,2,2025-04-21T16:43:17.691+03:00,2025-04-20T21:57:49.637+03:00,6805,0.9845527,0,0,5579.851,5,6,2025-04-21T16:43:17.691+03:00,766935790.0548265,0,-38.69,100.1966,1,0.3,2025-04-21T16:43:07.230+03:00,101,1.683333333333333,2025-04-21T12:30:07.995+03:00,0.02023345852159405,0
2025-04-21T16:43:19.702+03:00,1745242998.53616,40.95237388445845,29.14013565701957,78.28703,-1,-1,-1,-1,30,34.22672640375541,-9999,20311.884914,-0.6356201171875,0.6634368896484375,-0.37957763671875,20311.877374,1.967445679762316,-1.040924640941977,-0.7359979669153354,0.007717235945165157,-0.009110872633755207,-0.0008099057013168931,0.00120621919631958,-0.007341086864471436,-0.003772735595703125,XArbitraryZVertical,-0.2134115890308272,0.5168710552942928,-0.7730600796411194,-0.2994626833255327,-0.6395271420478821,0.6713271737098694,-0.3745996057987213,0,0,0,-1,-1,20309.90125491667,unknown,2,2025-04-21T16:43:17.691+03:00,2025-04-20T21:57:49.637+03:00,6805,0.9845527,0,0,5579.851,5,6,2025-04-21T16:43:17.691+03:00,766935790.0548265,0,-38.69,100.1966,1,0.3,2025-04-21T16:43:07.230+03:00,101,1.683333333333333,2025-04-21T12:30:07.995+03:00,0.02023345852159405,0
2025-04-21T16:43:19.704+03:00,1745242998.53616,40.95237388445845,29.14013565701957,78.28703,-1,-1,-1,-1,30,34.22672640375541,-9999,20311.89499,-0.6304779052734375,0.660552978515625,-0.3750762939453125,20311.88745,1.967503770350649,-1.041030576619068,-0.7359591043440081,-0.003285613842308521,-0.02001731656491756,-0.001514045521616936,0.004961013793945312,-0.007556498050689697,-0.00550571084022522,XArbitraryZVertical,-0.2134792052318102,0.5168695515646198,-0.7730574855352446,-0.2994235701529255,-0.639589250087738,0.6712983250617981,-0.3745449781417847,0,0,0,-1,-1,20309.90125491667,unknown,2,2025-04-21T16:43:17.691+03:00,2025-04-20T21:57:49.637+03:00,6805,0.9845527,0,0,5579.851,5,6,2025-04-21T16:43:17.691+03:00,766935790.0548265,0,-38.69,100.1966,1,0.3,2025-04-21T16:43:07.230+03:00,101,1.683333333333333,2025-04-21T12:30:07.995+03:00,0.02023345852159405,0
2025-04-21T16:43:19.705+03:00,1745242998.53616,40.95237388445845,29.14013565701957,78.28703,-1,-1,-1,-1,30,34.22672640375541,-9999,20311.905066,-0.634002685546875,0.658843994140625,-0.3712615966796875,20311.897526,1.967321313395448,-1.041334151220068,-0.7359645448211697,-0.0209391750395298,-0.01312665268778801,-0.01151834335178137,0.009496629238128662,-0.01140570640563965,0.0008442997932434082,XArbitraryZVertical,-0.213547720134632,0.5169360372873126,-0.7729977866936105,-0.2994142309054265,-0.6396998167037964,0.6713023781776428,-0.3743489980697632,0,0,0,-1,-1,20309.90125491667,unknown,2,2025-04-21T16:43:17.691+03:00,2025-04-20T21:57:49.637+03:00,6805,0.9845527,0,0,5579.851,5,6,2025-04-21T16:43:17.691+03:00,766935790.0548265,0,-38.69,100.1966,1,0.3,2025-04-21T16:43:07.230+03:00,101,1.683333333333333,2025-04-21T12:30:07.995+03:00,0.02023345852159405,0
2025-04-21T16:43:19.709+03:00,1745242998.53616,40.95237388445845,29.14013565701957,78.28703,-1,-1,-1,-1,30,34.22672640375541,-9999,20311.915142,-0.6394500732421875,0.66131591796875,-0.374267578125,20311.907602,1.966796959022435,-1.041756159096284,-0.7360326266072968,-0.04777957871556282,-0.005653024651110172,-0.01877173036336899,0.004472851753234863,-0.01217323541641235,0.002336472272872925,XArbitraryZVertical,-0.2135548930368084,0.5170747664547298,-0.7728741589428542,-0.2994888492208565,-0.6398183703422546,0.6713528037071228,-0.3740559816360474,0,0,0,-1,-1,20309.90125491667,unknown,2,2025-04-21T16:43:17.691+03:00,2025-04-20T21:57:49.637+03:00,6805,0.9845527,0,0,5579.851,5,6,2025-04-21T16:43:17.691+03:00,766935790.0548265,0,-38.69,100.1966,1,0.3,2025-04-21T16:43:07.230+03:00,101,1.683333333333333,2025-04-21T12:30:07.995+03:00,0.02023345852159405,0
2025-04-21T16:43:19.719+03:00,1745242998.53616,40.95237388445845,29.14013565701957,78.28703,-1,-1,-1,-1,30,34.22672640375541,-9999,20311.925217,-0.636962890625,0.6664581298828125,-0.37420654296875,20311.917678,1.96607411213891,-1.042332494421133,-0.7361191004761169,-0.050227090716362,-0.01423725858330727,-0.02317183651030064,0.001021802425384521,-0.009658694267272949,-0.0002894699573516846,XArbitraryZVertical,-0.2135649189022732,0.5172631082506727,-0.7727041844527855,-0.2995946580959827,-0.6399835348129272,0.6714169383049011,-0.3736577928066254,0,0,0,-1,-1,20309.90125491667,unknown,2,2025-04-21T16:43:17.691+03:00,2025-04-20T21:57:49.637+03:00,6805,0.9845527,0,0,5579.851,5,6,2025-04-21T16:43:17.691+03:00,766935790.0548265,0,-38.69,100.1966,1,0.3,2025-04-21T16:43:07.230+03:00,101,1.683333333333333,2025-04-21T12:30:07.995+03:00,0.02023345852159405,0
2025-04-21T16:43:19.729+03:00,1745242998.53616,40.95237388445845,29.14013565701957,78.28703,-1,-1,-1,-1,30,34.22672640375541,-9999,20311.935293,-0.6351470947265625,0.6682891845703125,-0.37274169921875,20311.927753,1.96527223968548,-1.043088222358775,-0.7361797511791577,-0.0540495254099369,-0.0215740017592907,-0.02515189535915852,0.004000186920166016,-0.004607200622558594,-0.001449793577194214,XArbitraryZVertical,-0.2136312833992869,0.5174793714124473,-0.7725032879190643,-0.2996919860711322,-0.6402305960655212,0.6714618802070618,-0.3731535375118256,0,0,0,-1,-1,20309.90125491667,unknown,2,2025-04-21T16:43:17.691+03:00,2025-04-20T21:57:49.637+03:00,6805,0.9845527,0,0,5579.851,5,6,2025-04-21T16:43:17.691+03:00,766935790.0548265,0,-38.69,100.1966,1,0.3,2025-04-21T16:43:07.230+03:00,101,1.683333333333333,2025-04-21T12:30:07.995+03:00,0.02023345852159405,0
2025-04-21T16:43:19.739+03:00,1745242998.53616,40.95237388445845,29.14013565701957,78.28703,-1,-1,-1,-1,30,34.22672640375541,-9999,20311.945369,-0.63946533203125,0.6697998046875,-0.3714599609375,20311.937829,1.964359198506429,-1.043850162565043,-0.7362135603806959,-0.06715553998947144,-0.01217151153832674,-0.03422984853386879,0.005210697650909424,-0.002816438674926758,0.0002633929252624512,XArbitraryZVertical,-0.2136791327265372,0.5177008017848345,-0.7722850254722886,-0.2998379722900787,-0.6404951214790344,0.6714869141578674,-0.3726542294025421,0,0,0,-1,-1,20309.90125491667,unknown,2,2025-04-21T16:43:17.691+03:00,2025-04-20T21:57:49.637+03:00,6805,0.9845527,0,0,5579.851,5,6,2025-04-21T16:43:17.691+03:00,766935790.0548265,0,-38.69,100.1966,1,0.3,2025-04-21T16:43:07.230+03:00,101,1.683333333333333,2025-04-21T12:30:07.995+03:00,0.02023345852159405,0
2025-04-21T16:43:19.750+03:00,1745242998.53616,40.95237388445845,29.14013565701957,78.28703,-1,-1,-1,-1,30,34.22672640375541,-9999,20311.955445,-0.64208984375,0.6672821044921875,-0.3725738525390625,20311.947905,1.963296349269307,-1.044670508412848,-0.7363132174296446,-0.08054991066455841,-0.007251320406794548,-0.02746781520545483,-0.0002179145812988281,-0.002218842506408691,0.001413196325302124,XArbitraryZVertical,-0.2136907889725564,0.5179659146333283,-0.7720379904628063,-0.3000081709978384,-0.6407428383827209,0.6715607643127441,-0.3720951080322266,0,0,0,-1,-1,20309.90125491667,unknown,2,2025-04-21T16:43:17.691+03:00,2025-04-20T21:57:49.637+03:00,6805,0.9845527,0,0,5579.851,5,6,2025-04-21T16:43:17.691+03:00,766935790.0548265,0,-38.69,100.1966,1,0.3,2025-04-21T16:43:07.230+03:00,101,1.683333333333333,2025-04-21T12:30:07.995+03:00,0.02023345852159405,0
2025-04-21T16:43:19.760+03:00,1745242998.53616,40.95237388445845,29.14013565701957,78.28703,-1,-1,-1,-1,30,34.22672640375541,-9999,20311.965521,-0.6429901123046875,0.6649932861328125,-0.375030517578125,20311.957981,1.962071883614132,-1.045471997888463,-0.7364902693986857,-0.09666016697883606,0.008583568967878819,-0.03198706358671188,-0.001487612724304199,-0.004974603652954102,-0.001418381929397583,XArbitraryZVertical,-0.2136299603839121,0.5182676524145537,-0.7717685486905059,-0.3002233614581871,-0.640937864780426,0.6716919541358948,-0.3715217709541321,0,0,0,-1,-1,20309.90125491667,unknown,2,2025-04-21T16:43:17.691+03:00,2025-04-20T21:57:49.637+03:00,6805,0.9845527,0,0,5579.851,5,6,2025-04-21T16:43:17.691+03:00,766935790.0548265,0,-38.69,100.1966,1,0.3,2025-04-21T16:43:07.230+03:00,101,1.683333333333333,2025-04-21T12:30:07.995+03:00,0.02023345852159405,0
2025-04-21T16:43:19.770+03:00,1745242998.53616,40.95237388445845,29.14013565701957,78.28703,-1,-1,-1,-1,30,34.22672640375541,-9999,20311.975596,-0.6451416015625,0.66790771484375,-0.374755859375,20311.968057,1.960765985345128,-1.046215072843766,-0.7366655036713707,-0.08948002010583878,0.008952150121331215,-0.03133885189890862,-0.002229213714599609,-0.006584525108337402,-0.004746168851852417,XArbitraryZVertical,-0.2135256971652664,0.5185687819512329,-0.771493053796774,-0.3004853309168301,-0.6411117911338806,0.6718217730522156,-0.3709864020347595,0,0,0,-1,-1,20309.90125491667,unknown,2,2025-04-21T16:43:17.691+03:00,2025-04-20T21:57:49.637+03:00,6805,0.9845527,0,0,5579.851,5,6,2025-04-21T16:43:17.691+03:00,766935790.0548265,0,-38.69,100.1966,1,0.3,2025-04-21T16:43:07.230+03:00,101,1.683333333333333,2025-04-21T12:30:07.995+03:00,0.02023345852159405,0
2025-04-21T16:43:19.780+03:00,1745242998.53616,40.95237388445845,29.14013565701957,78.28703,-1,-1,-1,-1,30,34.22672640375541,-9999,20311.985672,-0.641143798828125,0.6731719970703125,-0.3697052001953125,20311.978132,1.959682183082488,-1.046876151524728,-0.7368162900097266,-0.06894751638174057,0.001001349650323391,-0.02547413855791092,-0.004024863243103027,-0.003461301326751709,-0.004442453384399414,XArbitraryZVertical,-0.2134543179068511,0.5188268663321081,-0.7712596973910318,-0.3006898069092345,-0.641269326210022,0.6719334125518799,-0.3705118596553802,0,0,0,-1,-1,20309.90125491667,unknown,2,2025-04-21T16:43:17.691+03:00,2025-04-20T21:57:49.637+03:00,6805,0.9845527,0,0,5579.851,5,6,2025-04-21T16:43:17.691+03:00,766935790.0548265,0,-38.69,100.1966,1,0.3,2025-04-21T16:43:07.230+03:00,101,1.683333333333333,2025-04-21T12:30:07.995+03:00,0.02023345852159405,0
2025-04-21T16:43:19.790+03:00,1745242998.53616,40.95237388445845,29.14013565701957,78.28703,-1,-1,-1,-1,30,34.22672640375541,-9999,20311.995748,-0.64093017578125,0.6759033203125,-0.36639404296875,20311.988208,1.95877178074802,-1.047505930566661,-0.7368824691351511,-0.05169076099991798,-0.008280565962195396,-0.02180137299001217,-3.069639205932617e-05,0.00125044584274292,0.001219630241394043,XArbitraryZVertical,-0.2134410692348211,0.5190376127443318,-0.7710556157132493,-0.3008589032853537,-0.6414640545845032,0.67198246717453,-0.370085746049881,0,0,0,-1,-1,20309.90125491667,unknown,2,2025-04-21T16:43:17.691+03:00,2025-04-20T21:57:49.637+03:00,6805,0.9845527,0,0,5579.851,5,6,2025-04-21T16:43:17.691+03:00,766935790.0548265,0,-38.69,100.1966,1,0.3,2025-04-21T16:43:07.230+03:00,101,1.683333333333333,2025-04-21T12:30:07.995+03:00,0.02023345852159405,0
2025-04-21T16:43:19.800+03:00,1745242998.53616,40.95237388445845,29.14013565701957,78.28703,-1,-1,-1,-1,30,34.22672640375541,-9999,20312.005824,-0.6393280029296875,0.67694091796875,-0.3682403564453125,20311.998284,1.958111425840664,-1.048070311592311,-0.736904502151717,-0.03602025657892227,-0.01861049979925156,-0.01904849708080292,0.001263916492462158,0.004377424716949463,0.003367841243743896,XArbitraryZVertical,-0.2134806113204636,0.5191992853294309,-0.7708960477375324,-0.3009608142046728,-0.6416599750518799,0.6719987392425537,-0.3697162568569183,0,0,0,-1,-1,20309.90125491667,unknown,2,2025-04-21T16:43:17.691+03:00,2025-04-20T21:57:49.637+03:00,6805,0.9845527,0,0,5579.851,5,6,2025-04-21T16:43:17.691+03:00,766935790.0548265,0,-38.69,100.1966,1,0.3,2025-04-21T16:43:07.230+03:00,101,1.683333333333333,2025-04-21T12:30:07.995+03:00,0.02023345852159405,0
2025-04-21T16:43:19.810+03:00,1745242998.53616,40.95237388445845,29.14013565701957,78.28703,-1,-1,-1,-1,30,34.22672640375541,-9999,20312.0159,-0.636688232421875,0.6777191162109375,-0.3696441650390625,20312.00836,1.957652610090933,-1.048612983931242,-0.7369266224174615,-0.0264736246317625,-0.02682129293680191,-0.0104560749605298,0.003694534301757812,0.00474250316619873,0.001120030879974365,XArbitraryZVertical,-0.2135640221506159,0.5193362373761974,-0.7707690692434377,-0.300990488409458,-0.6418476104736328,0.6720151305198669,-0.3693605661392212,0,0,0,-1,-1,20309.90125491667,unknown,2,2025-04-21T16:43:17.691+03:00,2025-04-20T21:57:49.637+03:00,6805,0.9845527,0,0,5579.851,5,6,2025-04-21T16:43:17.691+03:00,766935790.0548265,0,-38.69,100.1966,1,0.3,2025-04-21T16:43:07.230+03:00,101,1.683333333333333,2025-04-21T12:30:07.995+03:00,0.02023345852159405,0
2025-04-21T16:43:19.820+03:00,1745242998.53616,40.95237388445845,29.14013565701957,78.28703,-1,-1,-1,-1,30,34.22672640375541,-9999,20312.025975,-0.6387939453125,0.6770477294921875,-0.3701934814453125,20312.018436,1.95733051059318,-1.049134609335401,-0.7369398668596764,-0.0182393305003643,-0.03254169598221779,-0.008034296333789825,0.005435824394226074,0.005404114723205566,-0.001034975051879883,XArbitraryZVertical,-0.2136773945333566,0.5194529102033648,-0.7706649075961407,-0.3009754786501445,-0.6420325040817261,0.6720249652862549,-0.3690212965011597,0,0,0,-1,-1,20309.90125491667,unknown,2,2025-04-21T16:43:17.691+03:00,2025-04-20T21:57:49.637+03:00,6805,0.9845527,0,0,5579.851,5,6,2025-04-21T16:43:17.691+03:00,766935790.0548265,0,-38.69,100.1966,1,0.3,2025-04-21T16:43:07.230+03:00,101,1.683333333333333,2025-04-21T12:30:07.995+03:00,0.02023345852159405,0
2025-04-21T16:43:19.830+03:00,1745242998.53616,40.95237388445845,29.14013565701957,78.28703,-1,-1,-1,-1,30,34.22672640375541,-9999,20312.036051,-0.639404296875,0.67529296875,-0.3676910400390625,20312.028511,1.957102363421953,-1.049625083101408,-0.7370021111318584,-0.01385123934596777,-0.0352485328912735,0.0009008757187984884,0.002391338348388672,0.004976511001586914,-0.001492857933044434,XArbitraryZVertical,-0.2137884747664184,0.5195688134540171,-0.7705781954441574,-0.3009183709581281,-0.6421771049499512,0.6720710396766663,-0.3686854839324951,0,0,0,-1,-1,20309.90125491667,unknown,2,2025-04-21T16:43:17.691+03:00,2025-04-20T21:57:49.637+03:00,6805,0.9845527,0,0,5579.851,5,6,2025-04-21T16:43:17.691+03:00,766935790.0548265,0,-38.69,100.1966,1,0.3,2025-04-21T16:43:07.230+03:00,101,1.683333333333333,2025-04-21T12:30:07.995+03:00,0.02023345852159405,0
2025-04-21T16:43:19.840+03:00,1745242998.53616,40.95237388445845,29.14013565701957,78.28703,-1,-1,-1,-1,30,34.22672640375541,-9999,20312.046127,-0.6405487060546875,0.674163818359375,-0.3667144775390625,20312.038587,1.957010657541384,-1.050010266084436,-0.7370861545438822,-0.009447303600609303,-0.02705678157508373,0.009422258473932743,0.002728462219238281,0.003525733947753906,0.0008409023284912109,XArbitraryZVertical,-0.213887785897552,0.5196604710648307,-0.770523340995366,-0.3008301181261551,-0.6422700881958008,0.6721332669258118,-0.3684100210666656,0,0,0,-1,-1,20309.90125491667,unknown,2,2025-04-21T16:43:17.691+03:00,2025-04-20T21:57:49.637+03:00,6805,0.9845527,0,0,5579.851,5,6,2025-04-21T16:43:17.691+03:00,766935790.0548265,0,-38.69,100.1966,1,0.3,2025-04-21T16:43:07.230+03:00,101,1.683333333333333,2025-04-21T12:30:07.995+03:00,0.02023345852159405,0
2025-04-21T16:43:19.851+03:00,1745242998.53616,40.95237388445845,29.14013565701957,78.28703,-1,-1,-1,-1,30,34.22672640375541,-9999,20312.0562035,-0.64739990234375,0.6740570068359375,-0.368011474609375,20312.048663,1.956984519187058,-1.050180466030854,-0.7372123565521973,-0.01018420048058033,-0.007237539160996675,0.01753318309783936,0.00145113468170166,0.001936972141265869,0.001391291618347168,XArbitraryZVertical,-0.2139086557045379,0.5197247585965703,-0.7705013734533812,-0.3007605580123209,-0.6422592401504517,0.6722267270088196,-0.368258535861969,0,0,0,-1,-1,20309.90125491667,unknown,2,2025-04-21T16:43:17.691+03:00,2025-04-20T21:57:49.637+03:00,6805,0.9845527,0,0,5579.851,5,6,2025-04-21T16:43:17.691+03:00,766935790.0548265,0,-38.69,100.1966,1,0.3,2025-04-21T16:43:07.230+03:00,101,1.683333333333333,2025-04-21T12:30:07.995+03:00,0.02023345852159405,0
2025-04-21T16:43:19.861+03:00,1745242998.53616,40.95237388445845,29.14013565701957,78.28703,-1,-1,-1,-1,30,34.22672640375541,-9999,20312.0662795,-0.6477508544921875,0.67205810546875,-0.3707275390625,20312.0587395,1.957030815579847,-1.050137525126029,-0.7373885547175719,-0.00707016559317708,0.004316851962357759,0.01973841153085232,-0.006281614303588867,0.001119792461395264,-0.0004253685474395752,XArbitraryZVertical,-0.213851310123468,0.5197634700220196,-0.7705130791385555,-0.3007041644067905,-0.6421405673027039,0.6723571419715881,-0.36822709441185,0,0,0,-1,-1,20309.90125491667,unknown,2,2025-04-21T16:43:17.691+03:00,2025-04-20T21:57:49.637+03:00,6805,0.9845527,0,0,5579.851,5,6,2025-04-21T16:43:17.691+03:00,766935790.0548265,0,-38.69,100.1966,1,0.3,2025-04-21T16:43:07.230+03:00,101,1.683333333333333,2025-04-21T12:30:07.995+03:00,0.02023345852159405,0
2025-04-21T16:43:19.871+03:00,1745242998.53616,40.95237388445845,29.14013565701957,78.28703,-1,-1,-1,-1,30,34.22672640375541,-9999,20312.0763555,-0.642333984375,0.6688690185546875,-0.369384765625,20312.0688155,1.957087440643253,-1.050024711793124,-0.7375850396182785,-0.006833410821855068,0.008110525086522102,0.01801907457411289,-0.005598604679107666,-0.0009329319000244141,-0.002371788024902344,XArbitraryZVertical,-0.2137635615756268,0.5197963361349531,-0.7705338800592533,-0.3006564815880644,-0.6419844031333923,0.6725025773048401,-0.3682338297367096,0,0,0,-1,-1,20309.90125491667,unknown,2,2025-04-21T16:43:17.691+03:00,2025-04-20T21:57:49.637+03:00,6805,0.9845527,0,0,5579.851,5,6,2025-04-21T16:43:17.691+03:00,766935790.0548265,0,-38.69,100.1966,1,0.3,2025-04-21T16:43:07.230+03:00,101,1.683333333333333,2025-04-21T12:30:07.995+03:00,0.02023345852159405,0
2025-04-21T16:43:19.881+03:00,1745242998.53616,40.95237388445845,29.14013565701957,78.28703,-1,-1,-1,-1,30,34.22672640375541,-9999,20312.0864305,-0.6399078369140625,0.669921875,-0.36810302734375,20312.0788915,1.957071257395864,-1.049947897057561,-0.7378639101984849,-0.01809318736195564,0.01104725897312164,0.02393691800534725,8.51750373840332e-05,-0.003412842750549316,-0.000493168830871582,XArbitraryZVertical,-0.2136459724549624,0.5198658205502688,-0.7705399967169001,-0.3006044872274351,-0.6417935490608215,0.6727089285850525,-0.3681898415088654,0,0,0,-1,-1,20309.90125491667,unknown,2,2025-04-21T16:43:17.691+03:00,2025-04-20T21:57:49.637+03:00,6805,0.9845527,0,0,5579.851,5,6,2025-04-21T16:43:17.691+03:00,766935790.0548265,0,-38.69,100.1966,1,0.3,2025-04-21T16:43:07.230+03:00,101,1.683333333333333,2025-04-21T12:30:07.995+03:00,0.02023345852159405,0
2025-04-21T16:43:19.891+03:00,1745242998.53616,40.95237388445845,29.14013565701957,78.28703,-1,-1,-1,-1,30,34.22672640375541,-9999,20312.0965065,-0.6399078369140625,0.6715240478515625,-0.3690643310546875,20312.0889665,1.957071484187122,-1.049842111761569,-0.73817974947989,-0.01192291080951691,0.00916440412402153,0.02969733625650406,0.002181172370910645,-0.003844797611236572,-0.001004070043563843,XArbitraryZVertical,-0.2135104376483122,0.519939710548749,-0.7705516404251535,-0.300543143593051,-0.6415702700614929,0.672942578792572,-0.368151992559433,0,0,0,-1,-1,20309.90125491667,unknown,2,2025-04-21T16:43:17.691+03:00,2025-04-20T21:57:49.637+03:00,6805,0.9845527,0,0,5579.851,5,6,2025-04-21T16:43:17.691+03:00,766935790.0548265,0,-38.69,100.1966,1,0.3,2025-04-21T16:43:07.230+03:00,101,1.683333333333333,2025-04-21T12:30:07.995+03:00,0.02023345852159405,0
2025-04-21T16:43:19.901+03:00,1745242998.53616,40.95237388445845,29.14013565701957,78.28703,-1,-1,-1,-1,30,34.22672640375541,-9999,20312.1065825,-0.6410064697265625,0.6763153076171875,-0.3680877685546875,20312.0990425,1.957147187244039,-1.049692848626202,-0.7384939076582373,-0.007305588573217392,0.005762682296335697,0.0241432823240757,0.001454591751098633,-0.001147568225860596,-0.0008304417133331299,XArbitraryZVertical,-0.2133783141103694,0.5199985372964784,-0.7705791970136935,-0.3004643787528583,-0.6413318514823914,0.6731749176979065,-0.3681424260139465,0,0,0,-1,-1,20309.90125491667,unknown,2,2025-04-21T16:43:17.691+03:00,2025-04-20T21:57:49.637+03:00,6805,0.9845527,0,0,5579.851,5,6,2025-04-21T16:43:17.691+03:00,766935790.0548265,0,-38.69,100.1966,1,0.3,2025-04-21T16:43:07.230+03:00,101,1.683333333333333,2025-04-21T12:30:07.995+03:00,0.02023345852159405,0
2025-04-21T16:43:19.911+03:00,1745242998.53616,40.95237388445845,29.14013565701957,78.28703,-1,-1,-1,-1,30,34.22672640375541,-9999,20312.1166585,-0.63671875,0.6790618896484375,-0.3694000244140625,20312.1091185,1.957229349255159,-1.049607759234975,-0.7387402071555081,-0.009716548025608063,-0.0009812405332922935,0.02125108987092972,0.0007148981094360352,0.003156483173370361,-0.0004769563674926758,XArbitraryZVertical,-0.21329289469258,0.5200470195547313,-0.7706008480526526,-0.300385742766025,-0.641156792640686,0.6733570694923401,-0.3681144714355469,0,0,0,-1,-1,20309.90125491667,unknown,2,2025-04-21T16:43:17.691+03:00,2025-04-20T21:57:49.637+03:00,6805,0.9845527,0,0,5579.851,5,6,2025-04-21T16:43:17.691+03:00,766935790.0548265,0,-38.69,100.1966,1,0.3,2025-04-21T16:43:07.230+03:00,101,1.683333333333333,2025-04-21T12:30:07.995+03:00,0.02023345852159405,0
2025-04-21T16:43:19.921+03:00,1745242998.53616,40.95237388445845,29.14013565701957,78.28703,-1,-1,-1,-1,30,34.22672640375541,-9999,20312.1267345,-0.63629150390625,0.677642822265625,-0.3650665283203125,20312.1191945,1.957194215881916,-1.04963639426934,-0.7389897758158179,-0.01793632842600346,-0.001756686717271805,0.01740005798637867,0.004531681537628174,0.005901634693145752,-0.001738667488098145,XArbitraryZVertical,-0.2132198563888039,0.5201260221364188,-0.7705927024093501,-0.3003216662546365,-0.6410215497016907,0.6735415458679199,-0.3680124282836914,0,0,0,-1,-1,20309.90125491667,unknown,2,2025-04-21T16:43:17.691+03:00,2025-04-20T21:57:49.637+03:00,6805,0.9845527,0,0,5579.851,5,6,2025-04-21T16:43:17.691+03:00,766935790.0548265,0,-38.69,100.1966,1,0.3,2025-04-21T16:43:07.230+03:00,101,1.683333333333333,2025-04-21T12:30:07.995+03:00,0.02023345852159405,0
2025-04-21T16:43:19.931+03:00,1745242998.53616,40.95237388445845,29.14013565701957,78.28703,-1,-1,-1,-1,30,34.22672640375541,-9999,20312.1368095,-0.6416473388671875,0.675628662109375,-0.360107421875,20312.1292705,1.957065926481487,-1.049732506092587,-0.7392234688572864,-0.02228899858891964,-0.0007958179339766502,0.01368281710892916,0.003942191600799561,0.00426405668258667,0.003538191318511963,XArbitraryZVertical,-0.2131533821832969,0.5202205619951019,-0.7705633323920026,-0.3002802812565417,-0.6409203410148621,0.673714280128479,-0.367872416973114,0,0,0,-1,-1,20309.90125491667,unknown,2,2025-04-21T16:43:17.691+03:00,2025-04-20T21:57:49.637+03:00,6805,0.9845527,0,0,5579.851,5,6,2025-04-21T16:43:17.691+03:00,766935790.0548265,0,-38.69,100.1966,1,0.3,2025-04-21T16:43:07.230+03:00,101,1.683333333333333,2025-04-21T12:30:07.995+03:00,0.02023345852159405,0
2025-04-21T16:43:19.941+03:00,1745242998.53616,40.95237388445845,29.14013565701957,78.28703,-1,-1,-1,-1,30,34.22672640375541,-9999,20312.1468855,-0.638397216796875,0.6740875244140625,-0.3627166748046875,20312.1393455,1.956802654659953,-1.049948663638782,-0.7394060546337861,-0.0301900003105402,-0.00799853727221489,0.00152006046846509,-0.001135647296905518,0.001107931137084961,0.008312821388244629,XArbitraryZVertical,-0.2131133010665918,0.5203329555974442,-0.7705009321881662,-0.3002742468227643,-0.6408931612968445,0.6738491654396057,-0.3676726818084717,0,0,0,-1,-1,20309.90125491667,unknown,2,2025-04-21T16:43:17.691+03:00,2025-04-20T21:57:49.637+03:00,6805,0.9845527,0,0,5579.851,5,6,2025-04-21T16:43:17.691+03:00,766935790.0548265,0,-38.69,100.1966,1,0.3,2025-04-21T16:43:07.230+03:00,101,1.683333333333333,2025-04-21T12:30:07.995+03:00,0.02023345852159405,0
2025-04-21T16:43:19.951+03:00,1745242998.53616,40.95237388445845,29.14013565701957,78.28703,-1,-1,-1,-1,30,34.22672640375541,-9999,20312.1569615,-0.6317901611328125,0.6709747314453125,-0.367767333984375,20312.1494215,1.956142042551977,-1.050621260042194,-0.7392988586045034,-0.04634499922394753,-0.05483688041567802,-0.09073769301176071,0.003568768501281738,0.0008361935615539551,0.003950297832489014,XArbitraryZVertical,-0.2132326731827704,0.5204739166968068,-0.7703299717110443,-0.3003839376105232,-0.6412030458450317,0.6737699508666992,-0.3672774434089661,0,0,0,-1,-1,20309.90125491667,unknown,2,2025-04-21T16:43:17.691+03:00,2025-04-20T21:57:49.637+03:00,6805,0.9845527,0,0,5579.851,5,6,2025-04-21T16:43:17.691+03:00,766935790.0548265,0,-38.69,100.1966,1,0.3,2025-04-21T16:43:07.230+03:00,101,1.683333333333333,2025-04-21T12:30:07.995+03:00,0.02023345852159405,0
2025-04-21T16:43:19.961+03:00,1745242998.53616,40.95237388445845,29.14013565701957,78.28703,-1,-1,-1,-1,30,34.22672640375541,-9999,20312.1670375,-0.6138763427734375,0.6425933837890625,-0.3651885986328125,20312.1594975,1.955240575115475,-1.052239956578539,-0.7389873787893815,-0.0505446083843708,-0.1300832331180573,-0.05974359810352325,0.01189780235290527,-0.006349384784698486,-0.001943230628967285,XArbitraryZVertical,-0.2137149862001695,0.5207248634287515,-0.7700214140371943,-0.3003973106527185,-0.641978919506073,0.6735397577285767,-0.3663430511951447,0,0,0,-1,-1,20309.90125491667,unknown,2,2025-04-21T16:43:17.691+03:00,2025-04-20T21:57:49.637+03:00,6805,0.9845527,0,0,5579.851,5,6,2025-04-21T16:43:17.691+03:00,766935790.0548265,0,-38.69,100.1966,1,0.3,2025-04-21T16:43:07.230+03:00,101,1.683333333333333,2025-04-21T12:30:07.995+03:00,0.02023345852159405,0
2025-04-21T16:43:19.971+03:00,1745242998.53616,40.95237388445845,29.14013565701957,78.28703,-1,-1,-1,-1,30,34.22672640375541,-9999,20312.1771135,-0.6275482177734375,0.654998779296875,-0.362274169921875,20312.1695735,1.954116743169687,-1.05433607729803,-0.7386107673507115,-0.06171363964676857,-0.1448067873716354,-0.06747661530971527,0.03075271844863892,-0.03211778402328491,0.0004823505878448486,XArbitraryZVertical,-0.2143424078211915,0.5210532264899339,-0.7696276140863346,-0.3003898008114621,-0.6429657936096191,0.6732613444328308,-0.3651217222213745,0,0,0,-1,-1,20309.90125491667,unknown,2,2025-04-21T16:43:17.691+03:00,2025-04-20T21:57:49.637+03:00,6805,0.9845527,0,0,5579.851,5,6,2025-04-21T16:43:17.691+03:00,766935790.0548265,0,-38.69,100.1966,1,0.3,2025-04-21T16:43:07.230+03:00,101,1.683333333333333,2025-04-21T12:30:07.995+03:00,0.02023345852159405,0
2025-04-21T16:43:19.981+03:00,1745242998.53616,40.95237388445845,29.14013565701957,78.28703,-1,-1,-1,-1,30,34.22672640375541,-9999,20312.1871885,-0.647369384765625,0.6728668212890625,-0.362030029296875,20312.1796495,1.95310696108877,-1.056388433253071,-0.7383773825606027,-0.04860762134194374,-0.1199413239955902,-0.0492580309510231,0.01245719194412231,-0.01485526561737061,0.001436591148376465,XArbitraryZVertical,-0.2149390035365223,0.5214037562457914,-0.7692552137356269,-0.3003092534451126,-0.6438506245613098,0.6730887889862061,-0.3638786971569061,0,0,0,-1,-1,20309.90125491667,unknown,2,2025-04-21T16:43:17.691+03:00,2025-04-20T21:57:49.637+03:00,6805,0.9845527,0,0,5579.851,5,6,2025-04-21T16:43:17.691+03:00,766935790.0548265,0,-38.69,100.1966,1,0.3,2025-04-21T16:43:07.230+03:00,101,1.683333333333333,2025-04-21T12:30:07.995+03:00,0.02023345852159405,0
2025-04-21T16:43:19.992+03:00,1745242998.53616,40.95237388445845,29.14013565701957,78.28703,-1,-1,-1,-1,30,34.22672640375541,-9999,20312.1972645,-0.663665771484375,0.670166015625,-0.3611297607421875,20312.1897245,1.952355042265104,-1.057740204560453,-0.7382764746300252,-0.0403297170996666,-0.05021896213293076,-0.02713248878717422,-0.004768729209899902,0.0004934072494506836,0.001468956470489502,XArbitraryZVertical,-0.2152931023036533,0.5216590685815178,-0.7689966825562452,-0.3002744711339008,-0.6444011926651001,0.6730141639709473,-0.3630414009094238,0,0,0,-1,-1,20309.90125491667,unknown,2,2025-04-21T16:43:17.691+03:00,2025-04-20T21:57:49.637+03:00,6805,0.9845527,0,0,5579.851,5,6,2025-04-21T16:43:17.691+03:00,766935790.0548265,0,-38.69,100.1966,1,0.3,2025-04-21T16:43:07.230+03:00,101,1.683333333333333,2025-04-21T12:30:07.995+03:00,0.02023345852159405,0
2025-04-21T16:43:20.002+03:00,1745242998.53616,40.95237388445845,29.14013565701957,78.28703,-1,-1,-1,-1,30,34.22672640375541,-9999,20312.2073405,-0.6734771728515625,0.6656646728515625,-0.3586578369140625,20312.1998005,1.951834472727776,-1.058286695633162,-0.7383285904649903,-0.0296363290399313,0.002527341013774276,-0.007326294668018818,-0.02149254083633423,-0.00484001636505127,0.0008401572704315186,XArbitraryZVertical,-0.2153517681896368,0.521811891809655,-0.7688597966274968,-0.3003172069412643,-0.6445688009262085,0.6730526685714722,-0.3626719415187836,0,0,0,-1,-1,20309.90125491667,unknown,2,2025-04-21T16:43:17.691+03:00,2025-04-20T21:57:49.637+03:00,6805,0.9845527,0,0,5579.851,5,6,2025-04-21T16:43:17.691+03:00,766935790.0548265,0,-38.69,100.1966,1,0.3,2025-04-21T16:43:07.230+03:00,101,1.683333333333333,2025-04-21T12:30:07.995+03:00,0.02023345852159405,0
2025-04-21T16:43:20.012+03:00,1745242998.53616,40.95237388445845,29.14013565701957,78.28703,-1,-1,-1,-1,30,34.22672640375541,-9999,20312.2174165,-0.6557464599609375,0.6708831787109375,-0.3548583984375,20312.2098765,1.951497136626663,-1.058451103488694,-0.7384107706659164,-0.02170570194721222,-0.001674062106758356,-0.01079053431749344,-0.02784407138824463,-0.006975948810577393,0.004018187522888184,XArbitraryZVertical,-0.2153021871981773,0.5218960987260374,-0.7687916968280746,-0.3003808544153573,-0.6445802450180054,0.6731134653091431,-0.3625388741493225,0,0,0,-1,-1,20309.90125491667,unknown,2,2025-04-21T16:43:17.691+03:00,2025-04-20T21:57:49.637+03:00,6805,0.9845527,0,0,5579.851,5,6,2025-04-21T16:43:17.691+03:00,766935790.0548265,0,-38.69,100.1966,1,0.3,2025-04-21T16:43:07.230+03:00,101,1.683333333333333,2025-04-21T12:30:07.995+03:00,0.02023345852159405,0
2025-04-21T16:43:20.022+03:00,1745242998.53616,40.95237388445845,29.14013565701957,78.28703,-1,-1,-1,-1,30,34.22672640375541,-9999,20312.2274925,-0.6351776123046875,0.6729736328125,-0.35516357421875,20312.2199525,1.951169353443374,-1.058841249948271,-0.7384263747837705,-0.02685625478625298,-0.0314633809030056,-0.01271187234669924,-0.008165299892425537,-0.001906335353851318,0.006904870271682739,XArbitraryZVertical,-0.2153619319434765,0.5219943939791469,-0.7687004881736104,-0.3004005519673257,-0.6447124481201172,0.6731250286102295,-0.3622821867465973,0,0,0,-1,-1,20309.90125491667,unknown,2,2025-04-21T16:43:17.691+03:00,2025-04-20T21:57:49.637+03:00,6805,0.9845527,0,0,5579.851,5,6,2025-04-21T16:43:17.691+03:00,766935790.0548265,0,-38.69,100.1966,1,0.3,2025-04-21T16:43:07.230+03:00,101,1.683333333333333,2025-04-21T12:30:07.995+03:00,0.02023345852159405,0
2025-04-21T16:43:20.032+03:00,1745242998.53616,40.95237388445845,29.14013565701957,78.28703,-1,-1,-1,-1,30,34.22672640375541,-9999,20312.2375685,-0.6361236572265625,0.6715087890625,-0.3586578369140625,20312.2300285,1.950773589057802,-1.059459380984691,-0.7384735931991421,-0.02665758319199085,-0.03584082052111626,-0.01312892325222492,0.010875403881073,0.0006527304649353027,0.007116347551345825,XArbitraryZVertical,-0.2154819539810515,0.522143180814074,-0.7685746237463346,-0.3003779944493523,-0.6449085474014282,0.6731598973274231,-0.3618680536746979,0,0,0,-1,-1,20309.90125491667,unknown,2,2025-04-21T16:43:17.691+03:00,2025-04-20T21:57:49.637+03:00,6805,0.9845527,0,0,5579.851,5,6,2025-04-21T16:43:17.691+03:00,766935790.0548265,0,-38.69,100.1966,1,0.3,2025-04-21T16:43:07.230+03:00,101,1.683333333333333,2025-04-21T12:30:07.995+03:00,0.02023345852159405,0
