loggingTime(txt),locationTimestamp_since1970(s),locationLatitude(WGS84),locationLongitude(WGS84),locationAltitude(m),locationSpeed(m/s),locationSpeedAccuracy(m/s),locationCourse(°),locationCourseAccuracy(°),locationVerticalAccuracy(m),locationHorizontalAccuracy(m),locationFloor(Z),accelerometerTimestamp_sinceReboot(s),accelerometerAccelerationX(G),accelerometerAccelerationY(G),accelerometerAccelerationZ(G),motionTimestamp_sinceReboot(s),motionYaw(rad),motionRoll(rad),motionPitch(rad),motionRotationRateX(rad/s),motionRotationRateY(rad/s),motionRotationRateZ(rad/s),motionUserAccelerationX(G),motionUserAccelerationY(G),motionUserAccelerationZ(G),motionAttitudeReferenceFrame(txt),motionQuaternionX(R),motionQuaternionY(R),motionQuaternionZ(R),motionQuaternionW(R),motionGravityX(G),motionGravityY(G),motionGravityZ(G),motionMagneticFieldX(µT),motionMagneticFieldY(µT),motionMagneticFieldZ(µT),motionHeading(°),motionMagneticFieldCalibrationAccuracy(Z),activityTimestamp_sinceReboot(s),activity(txt),activityActivityConfidence(Z),activityActivityStartDate(txt),pedometerStartDate(txt),pedometerNumberofSteps(N),pedometerAverageActivePace(s/m),pedometerCurrentPace(s/m),pedometerCurrentCadence(steps/s),pedometerDistance(m),pedometerFloorAscended(N),pedometerFloorDescended(N),pedometerEndDate(txt),altimeterTimestamp_sinceReboot(s),altimeterReset(bool),altimeterRelativeAltitude(m),altimeterPressure(kPa),batteryState(N),batteryLevel(R),heartRateBPMTimestamp(txt),heartRateBPM(N),heartRateBPS(R),heartRateVariabilityTimestamp(txt),heartRateVariability(ms),label
2025-04-21T16:22:46.629+03:00,1745241764.490131,40.95217467493313,29.1402139776233,75.61637,-1,-1,-1,-1,30,14.84804685185824,-9999,19755.33098004167,-0.6647491455078125,0.6601409912109375,-0.349456787109375,19755.32594204167,1.871807112941027,-1.07733437265013,-0.7230865969993094,-0.06084651872515678,0.0142368795350194,-0.008756023831665516,0.009134292602539062,-0.001500189304351807,0.01345759630203247,XArbitraryZVertical,-0.2062470068688373,0.5290446745756028,-0.754062160212859,-0.330097134002058,-0.6603183746337891,0.661702036857605,-0.3551478087902069,0,0,0,-1,-1,19753.483416,unknown,2,2025-04-21T16:22:44.754+03:00,2025-04-20T21:57:49.637+03:00,6753,0.9838091,0,0,5541.095,5,6,2025-04-21T16:22:11.224+03:00,766934564.8435568,0,-38.71,100.2005,1,0.35,2025-04-21T16:06:01.980+03:00,83,1.383333333333333,2025-04-21T12:30:07.995+03:00,0.02023345852159405,0
2025-04-21T16:22:46.631+03:00,1745241764.490131,40.95217467493313,29.1402139776233,75.61637,-1,-1,-1,-1,30,14.84804685185824,-9999,19755.34105504167,-0.650604248046875,0.6664886474609375,-0.3470306396484375,19755.33601704167,1.870992621729566,-1.077932282749816,-0.7232639415353441,-0.0621347576379776,-0.02253957837820053,-0.0149200763553381,-0.004245579242706299,-0.003983020782470703,0.006934225559234619,XArbitraryZVertical,-0.2062017088352209,0.5292751143226749,-0.753869638864848,-0.330195792534815,-0.6604272723197937,0.6618350148200989,-0.3546974062919617,0,0,0,-1,-1,19753.483416,unknown,2,2025-04-21T16:22:44.754+03:00,2025-04-20T21:57:49.637+03:00,6753,0.9838091,0,0,5541.095,5,6,2025-04-21T16:22:11.224+03:00,766934564.8435568,0,-38.71,100.2005,1,0.35,2025-04-21T16:06:01.980+03:00,83,1.383333333333333,2025-04-21T12:30:07.995+03:00,0.02023345852159405,0
2025-04-21T16:22:46.631+03:00,1745241764.490131,40.95217467493313,29.1402139776233,75.61637,-1,-1,-1,-1,30,14.84804685185824,-9999,19755.35113004167,-0.6490936279296875,0.66510009765625,-0.3456268310546875,19755.34609304167,1.870280423431998,-1.078628830171318,-0.7234282453926641,-0.04489637911319733,-0.02035551890730858,-0.006764945108443499,0.003702700138092041,0.00334012508392334,0.005247831344604492,XArbitraryZVertical,-0.2062245654435959,0.52950775957251,-0.7536835700180201,-0.3302332829673806,-0.6605783104896545,0.6619581580162048,-0.3541859090328217,0,0,0,-1,-1,19753.483416,unknown,2,2025-04-21T16:22:44.754+03:00,2025-04-20T21:57:49.637+03:00,6753,0.9838091,0,0,5541.095,5,6,2025-04-21T16:22:11.224+03:00,766934564.8435568,0,-38.71,100.2005,1,0.35,2025-04-21T16:06:01.980+03:00,83,1.383333333333333,2025-04-21T12:30:07.995+03:00,0.02023345852159405,0
2025-04-21T16:22:46.640+03:00,1745241764.490131,40.95217467493313,29.1402139776233,75.61637,-1,-1,-1,-1,30,14.84804685185824,-9999,19755.36120604167,-0.65850830078125,0.66778564453125,-0.349151611328125,19755.35616804167,1.86982833583694,-1.079089243234703,-0.7236165379888233,-0.0313287042081356,-0.01300313137471676,-0.001036918140016496,0.01413178443908691,0.003244757652282715,0.0081501305103302,XArbitraryZVertical,-0.2062197438989932,0.5296810243405751,-0.7535652809545487,-0.330228254102894,-0.6606313586235046,0.662099301815033,-0.3538228571414948,0,0,0,-1,-1,19753.483416,unknown,2,2025-04-21T16:22:44.754+03:00,2025-04-20T21:57:49.637+03:00,6753,0.9838091,0,0,5541.095,5,6,2025-04-21T16:22:11.224+03:00,766934564.8435568,0,-38.71,100.2005,1,0.35,2025-04-21T16:06:01.980+03:00,83,1.383333333333333,2025-04-21T12:30:07.995+03:00,0.02023345852159405,0
2025-04-21T16:22:46.647+03:00,1745241764.490131,40.95217467493313,29.1402139776233,75.61637,-1,-1,-1,-1,30,14.84804685185824,-9999,19755.37128104167,-0.6565093994140625,0.66986083984375,-0.3466644287109375,19755.36624404167,1.869524496772197,-1.079463530914441,-0.7237489122811107,-0.01986459828913212,-0.02133829332888126,0.002256080508232117,0.004375457763671875,0.004412055015563965,0.005206406116485596,XArbitraryZVertical,-0.2062390629290052,0.5298097258321743,-0.753479235407697,-0.3302060405825302,-0.6606864333152771,0.6621984839439392,-0.3535341918468475,0,0,0,-1,-1,19753.483416,unknown,2,2025-04-21T16:22:44.754+03:00,2025-04-20T21:57:49.637+03:00,6753,0.9838091,0,0,5541.095,5,6,2025-04-21T16:22:11.224+03:00,766934564.8435568,0,-38.71,100.2005,1,0.35,2025-04-21T16:06:01.980+03:00,83,1.383333333333333,2025-04-21T12:30:07.995+03:00,0.02023345852159405,0
2025-04-21T16:22:46.657+03:00,1745241764.490131,40.95217467493313,29.1402139776233,75.61637,-1,-1,-1,-1,30,14.84804685185824,-9999,19755.38135704167,-0.6539764404296875,0.66650390625,-0.3453369140625,19755.37631904167,1.86931627441037,-1.079785208904296,-0.7239077531907731,-0.02061507664620876,-0.01497972942888737,0.006652959622442722,0.001954913139343262,0.00804668664932251,0.00488319993019104,XArbitraryZVertical,-0.2062556415045159,0.5299269749562274,-0.7534149377902308,-0.3301541126034206,-0.6607072949409485,0.6623175144195557,-0.353272020816803,0,0,0,-1,-1,19753.483416,unknown,2,2025-04-21T16:22:44.754+03:00,2025-04-20T21:57:49.637+03:00,6753,0.9838091,0,0,5541.095,5,6,2025-04-21T16:22:11.224+03:00,766934564.8435568,0,-38.71,100.2005,1,0.35,2025-04-21T16:06:01.980+03:00,83,1.383333333333333,2025-04-21T12:30:07.995+03:00,0.02023345852159405,0
2025-04-21T16:22:46.668+03:00,1745241764.490131,40.95217467493313,29.1402139776233,75.61637,-1,-1,-1,-1,30,14.84804685185824,-9999,19755.39143204167,-0.661468505859375,0.6621856689453125,-0.351837158203125,19755.38639504167,1.868948876514121,-1.080130285452651,-0.7241269267626694,-0.04520350694656372,-0.007229131180793047,0.003611629363149405,0.006678998470306396,0.005288481712341309,0.008294671773910522,XArbitraryZVertical,-0.2062199808596469,0.5300806712251834,-0.7533232413069217,-0.330138920201298,-0.6607011556625366,0.6624816656112671,-0.352975606918335,0,0,0,-1,-1,19753.483416,unknown,2,2025-04-21T16:22:44.754+03:00,2025-04-20T21:57:49.637+03:00,6753,0.9838091,0,0,5541.095,5,6,2025-04-21T16:22:11.224+03:00,766934564.8435568,0,-38.71,100.2005,1,0.35,2025-04-21T16:06:01.980+03:00,83,1.383333333333333,2025-04-21T12:30:07.995+03:00,0.02023345852159405,0
2025-04-21T16:22:46.677+03:00,1745241764.490131,40.95217467493313,29.1402139776233,75.61637,-1,-1,-1,-1,30,14.84804685185824,-9999,19755.40150804167,-0.66046142578125,0.6563568115234375,-0.349578857421875,19755.39647004167,1.868392347927693,-1.080583091932622,-0.724379097018648,-0.04621930420398712,-0.009843889623880386,0.001303434604778886,0.001976370811462402,0.001727402210235596,0.002896696329116821,XArbitraryZVertical,-0.2061644213121908,0.5302804618358884,-0.7531899201036397,-0.3301569377356957,-0.6607134938240051,0.6626705527305603,-0.352597713470459,0,0,0,-1,-1,19753.483416,unknown,2,2025-04-21T16:22:44.754+03:00,2025-04-20T21:57:49.637+03:00,6753,0.9838091,0,0,5541.095,5,6,2025-04-21T16:22:11.224+03:00,766934564.8435568,0,-38.71,100.2005,1,0.35,2025-04-21T16:06:01.980+03:00,83,1.383333333333333,2025-04-21T12:30:07.995+03:00,0.02023345852159405,0
2025-04-21T16:22:46.687+03:00,1745241764.490131,40.95217467493313,29.1402139776233,75.61637,-1,-1,-1,-1,30,14.84804685185824,-9999,19755.41158304167,-0.6561279296875,0.6619873046875,-0.3458709716796875,19755.40654504167,1.867832357516377,-1.081091599978606,-0.7245980833399458,-0.04283176362514496,-0.01531828287988901,-0.002328318310901523,-0.001420974731445312,-0.006020128726959229,0.001775264739990234,XArbitraryZVertical,-0.2061391055051726,0.5304808473286059,-0.7530496582631057,-0.3301709458159506,-0.6607646942138672,0.6628345251083374,-0.3521934747695923,0,0,0,-1,-1,19753.483416,unknown,2,2025-04-21T16:22:44.754+03:00,2025-04-20T21:57:49.637+03:00,6753,0.9838091,0,0,5541.095,5,6,2025-04-21T16:22:11.224+03:00,766934564.8435568,0,-38.71,100.2005,1,0.35,2025-04-21T16:06:01.980+03:00,83,1.383333333333333,2025-04-21T12:30:07.995+03:00,0.02023345852159405,0
2025-04-21T16:22:46.697+03:00,1745241764.490131,40.95217467493313,29.1402139776233,75.61637,-1,-1,-1,-1,30,14.84804685185824,-9999,19755.42165904167,-0.6581268310546875,0.666778564453125,-0.34326171875,19755.41662104167,1.867358607109266,-1.081585828908399,-0.7247098918738781,-0.02458245493471622,-0.01866321265697479,-0.006268464960157871,0.004302859306335449,-0.003235280513763428,0.004145175218582153,XArbitraryZVertical,-0.2061646669201903,0.5306412358610465,-0.7529228365806703,-0.3301864040529418,-0.6608732342720032,0.6629182696342468,-0.3518320322036743,0,0,0,-1,-1,19753.483416,unknown,2,2025-04-21T16:22:44.754+03:00,2025-04-20T21:57:49.637+03:00,6753,0.9838091,0,0,5541.095,5,6,2025-04-21T16:22:11.224+03:00,766934564.8435568,0,-38.71,100.2005,1,0.35,2025-04-21T16:06:01.980+03:00,83,1.383333333333333,2025-04-21T12:30:07.995+03:00,0.02023345852159405,0
2025-04-21T16:22:46.707+03:00,1745241764.490131,40.95217467493313,29.1402139776233,75.61637,-1,-1,-1,-1,30,14.84804685185824,-9999,19755.43173404167,-0.6586151123046875,0.6724853515625,-0.3482666015625,19755.42669604167,1.867105548841854,-1.08197611689438,-0.7247301027895091,-0.009375271387398243,-0.02407315745949745,-0.01259720139205456,0.003573834896087646,0.001479864120483398,0.007680326700210571,XArbitraryZVertical,-0.206238135539207,0.53073717221112,-0.7528412482464963,-0.3301723744581347,-0.6609986424446106,0.6629334092140198,-0.3515677750110626,0,0,0,-1,-1,19753.483416,unknown,2,2025-04-21T16:22:44.754+03:00,2025-04-20T21:57:49.637+03:00,6753,0.9838091,0,0,5541.095,5,6,2025-04-21T16:22:11.224+03:00,766934564.8435568,0,-38.71,100.2005,1,0.35,2025-04-21T16:06:01.980+03:00,83,1.383333333333333,2025-04-21T12:30:07.995+03:00,0.02023345852159405,0
2025-04-21T16:22:46.718+03:00,1745241764.490131,40.95217467493313,29.1402139776233,75.61637,-1,-1,-1,-1,30,14.84804685185824,-9999,19755.44181004167,-0.659210205078125,0.67376708984375,-0.3485870361328125,19755.43677204167,1.866926466855163,-1.082387319613419,-0.7246577331201979,-0.007658464834094048,-0.03464231267571449,-0.0181271880865097,0.002188920974731445,0.007088184356689453,0.006423860788345337,XArbitraryZVertical,-0.2063680039366419,0.530804152691541,-0.7527677021084246,-0.3301510522911579,-0.6611854434013367,0.6628792285919189,-0.3513183891773224,0,0,0,-1,-1,19753.483416,unknown,2,2025-04-21T16:22:44.754+03:00,2025-04-20T21:57:49.637+03:00,6753,0.9838091,0,0,5541.095,5,6,2025-04-21T16:22:11.224+03:00,766934564.8435568,0,-38.71,100.2005,1,0.35,2025-04-21T16:06:01.980+03:00,83,1.383333333333333,2025-04-21T12:30:07.995+03:00,0.02023345852159405,0
2025-04-21T16:22:46.727+03:00,1745241764.490131,40.95217467493313,29.1402139776233,75.61637,-1,-1,-1,-1,30,14.84804685185824,-9999,19755.45188504167,-0.657867431640625,0.6647796630859375,-0.34417724609375,19755.44684704167,1.866638217009011,-1.082941752036313,-0.7245587435332989,-0.02299081534147263,-0.03068245947360992,-0.02501438930630684,0.002380669116973877,0.01103818416595459,0.001800328493118286,XArbitraryZVertical,-0.2065309021948919,0.530898921512162,-0.7526608627975239,-0.3301408682498166,-0.6614382863044739,0.6628050804138184,-0.3509826362133026,0,0,0,-1,-1,19753.483416,unknown,2,2025-04-21T16:22:44.754+03:00,2025-04-20T21:57:49.637+03:00,6753,0.9838091,0,0,5541.095,5,6,2025-04-21T16:22:11.224+03:00,766934564.8435568,0,-38.71,100.2005,1,0.35,2025-04-21T16:06:01.980+03:00,83,1.383333333333333,2025-04-21T12:30:07.995+03:00,0.02023345852159405,0
2025-04-21T16:22:46.737+03:00,1745241764.490131,40.95217467493313,29.1402139776233,75.61637,-1,-1,-1,-1,30,14.84804685185824,-9999,19755.46196004167,-0.661285400390625,0.6590423583984375,-0.3485565185546875,19755.45692304167,1.866299265188542,-1.083486228678925,-0.7244450227353753,-0.01432322524487972,-0.03440655767917633,-0.0214045736938715,0.00334012508392334,0.006209909915924072,0.005213767290115356,XArbitraryZVertical,-0.2066813763469665,0.5309933969701787,-0.7525461550644693,-0.330155867260707,-0.6616957187652588,0.6627199649810791,-0.3506576418876648,0,0,0,-1,-1,19753.483416,unknown,2,2025-04-21T16:22:44.754+03:00,2025-04-20T21:57:49.637+03:00,6753,0.9838091,0,0,5541.095,5,6,2025-04-21T16:22:11.224+03:00,766934564.8435568,0,-38.71,100.2005,1,0.35,2025-04-21T16:06:01.980+03:00,83,1.383333333333333,2025-04-21T12:30:07.995+03:00,0.02023345852159405,0
2025-04-21T16:22:46.747+03:00,1745241764.490131,40.95217467493313,29.1402139776233,75.61637,-1,-1,-1,-1,30,14.84804685185824,-9999,19755.47203604167,-0.655181884765625,0.6667938232421875,-0.34942626953125,19755.46699804167,1.866027034068682,-1.084078747030557,-0.7243563347894332,-0.007302066776901484,-0.04529009759426117,-0.01773447170853615,0.002302765846252441,-0.003000974655151367,0.00382685661315918,XArbitraryZVertical,-0.2068596000601912,0.5310956225903547,-0.7524381010488885,-0.3301264266834744,-0.6619554758071899,0.6626535058021545,-0.3502930998802185,0,0,0,-1,-1,19753.483416,unknown,2,2025-04-21T16:22:44.754+03:00,2025-04-20T21:57:49.637+03:00,6753,0.9838091,0,0,5541.095,5,6,2025-04-21T16:22:11.224+03:00,766934564.8435568,0,-38.71,100.2005,1,0.35,2025-04-21T16:06:01.980+03:00,83,1.383333333333333,2025-04-21T12:30:07.995+03:00,0.02023345852159405,0
2025-04-21T16:22:46.758+03:00,1745241766.564504,40.95219089591637,29.14024283873915,75.61634,-1,-1,-1,-1,30.00193829710236,18.60218947907108,-9999,19755.48211104167,-0.656219482421875,0.66912841796875,-0.3436431884765625,19755.47707404167,1.865856159107643,-1.084632871924715,-0.7242313100250918,-0.005681200418621302,-0.04235576093196869,-0.01863432116806507,0.004034817218780518,0.0006479024887084961,-0.0004228055477142334,XArbitraryZVertical,-0.2070617465814831,0.5311713450330403,-0.7523497918373385,-0.3300788803048278,-0.6622226238250732,0.6625598669052124,-0.3499648571014404,0,0,0,-1,-1,19753.483416,unknown,2,2025-04-21T16:22:44.754+03:00,2025-04-20T21:57:49.637+03:00,6753,0.9838091,0,0,5541.095,5,6,2025-04-21T16:22:11.224+03:00,766934564.8435568,0,-38.71,100.2005,1,0.35,2025-04-21T16:06:01.980+03:00,83,1.383333333333333,2025-04-21T12:30:07.995+03:00,0.02023345852159405,0
2025-04-21T16:22:46.768+03:00,1745241766.564504,40.95219089591637,29.14024283873915,75.61634,-1,-1,-1,-1,30.00193829710236,18.60218947907108,-9999,19755.49218691667,-0.6590728759765625,0.66766357421875,-0.344573974609375,19755.48714891667,1.865637912891457,-1.085148185526312,-0.7241134784066132,-0.01544514764100313,-0.02809000387787819,-0.01716958358883858,0.007824122905731201,0.00664132833480835,0.004734963178634644,XArbitraryZVertical,-0.2072343702921989,0.5312475031771451,-0.7522578217392026,-0.3300576000780683,-0.6624718904495239,0.6624715924263,-0.3496600091457367,0,0,0,-1,-1,19753.483416,unknown,2,2025-04-21T16:22:44.754+03:00,2025-04-20T21:57:49.637+03:00,6753,0.9838091,0,0,5541.095,5,6,2025-04-21T16:22:11.224+03:00,766934564.8435568,0,-38.71,100.2005,1,0.35,2025-04-21T16:06:01.980+03:00,83,1.383333333333333,2025-04-21T12:30:07.995+03:00,0.02023345852159405,0
2025-04-21T16:22:46.778+03:00,1745241766.564504,40.95219089591637,29.14024283873915,75.61634,-1,-1,-1,-1,30.00193829710236,18.60218947907108,-9999,19755.50226191667,-0.660003662109375,0.664764404296875,-0.34710693359375,19755.49722391667,1.865408368770465,-1.085572612659855,-0.7240503312085635,-0.01106597855687141,-0.02950374409556389,-0.01096408441662788,0.003157198429107666,0.005681514739990234,0.005236238241195679,XArbitraryZVertical,-0.2073527345447299,0.5313244668739986,-0.7521745525577139,-0.3300491053827597,-0.6626572012901306,0.6624243259429932,-0.3493983149528503,0,0,0,-1,-1,19753.483416,unknown,2,2025-04-21T16:22:44.754+03:00,2025-04-20T21:57:49.637+03:00,6753,0.9838091,0,0,5541.095,5,6,2025-04-21T16:22:11.224+03:00,766934564.8435568,0,-38.71,100.2005,1,0.35,2025-04-21T16:06:01.980+03:00,83,1.383333333333333,2025-04-21T12:30:07.995+03:00,0.02023345852159405,0
2025-04-21T16:22:46.788+03:00,1745241766.564504,40.95219089591637,29.14024283873915,75.61634,-1,-1,-1,-1,30.00193829710236,18.60218947907108,-9999,19755.51233791667,-0.6571197509765625,0.671295166015625,-0.3485870361328125,19755.50729991667,1.86522287938448,-1.086000486985754,-0.7240232635758304,-0.009218011051416397,-0.02328259870409966,-0.004293398465961218,0.0025443434715271,0.002406060695648193,0.0032062828540802,XArbitraryZVertical,-0.2074727243867047,0.531407073353856,-0.7520990272049246,-0.3300131292748005,-0.6628226637840271,0.6624040603637695,-0.3491231799125671,0,0,0,-1,-1,19753.483416,unknown,2,2025-04-21T16:22:44.754+03:00,2025-04-20T21:57:49.637+03:00,6753,0.9838091,0,0,5541.095,5,6,2025-04-21T16:22:11.224+03:00,766934564.8435568,0,-38.71,100.2005,1,0.35,2025-04-21T16:06:01.980+03:00,83,1.383333333333333,2025-04-21T12:30:07.995+03:00,0.02023345852159405,0
2025-04-21T16:22:46.798+03:00,1745241766.564504,40.95219089591637,29.14024283873915,75.61634,-1,-1,-1,-1,30.00193829710236,18.60218947907108,-9999,19755.52241291667,-0.6601409912109375,0.669097900390625,-0.3464508056640625,19755.51737491667,1.865071832681808,-1.086242360320346,-0.7240812623424563,-0.01055059116333723,-0.005813261028379202,0.00127077754586935,0.00412064790725708,0.006512939929962158,0.0004951357841491699,XArbitraryZVertical,-0.2075054627121233,0.5314781398441009,-0.7520502874911595,-0.3299891136717893,-0.6628730893135071,0.6624475121498108,-0.3489449322223663,0,0,0,-1,-1,19753.483416,unknown,2,2025-04-21T16:22:44.754+03:00,2025-04-20T21:57:49.637+03:00,6753,0.9838091,0,0,5541.095,5,6,2025-04-21T16:22:11.224+03:00,766934564.8435568,0,-38.71,100.2005,1,0.35,2025-04-21T16:06:01.980+03:00,83,1.383333333333333,2025-04-21T12:30:07.995+03:00,0.02023345852159405,0
2025-04-21T16:22:46.813+03:00,1745241766.564504,40.95219089591637,29.14024283873915,75.61634,-1,-1,-1,-1,30.00193829710236,18.60218947907108,-9999,19755.53248891667,-0.661163330078125,0.6716156005859375,-0.3414459228515625,19755.52745091667,1.865008440540158,-1.086360002062836,-0.7241803589226883,-0.006639206316322088,-0.009394681081175804,0.004629289731383324,0.004393517971038818,0.007018506526947021,0.001088410615921021,XArbitraryZVertical,-0.2075019885852986,0.5315305841406931,-0.7520297879275305,-0.3299533338493617,-0.6628559231758118,0.6625217199325562,-0.3488363325595856,0,0,0,-1,-1,19753.483416,unknown,2,2025-04-21T16:22:44.754+03:00,2025-04-20T21:57:49.637+03:00,6753,0.9838091,0,0,5541.095,5,6,2025-04-21T16:22:11.224+03:00,766934564.8435568,0,-38.71,100.2005,1,0.35,2025-04-21T16:06:01.980+03:00,83,1.383333333333333,2025-04-21T12:30:07.995+03:00,0.02023345852159405,0
2025-04-21T16:22:46.818+03:00,1745241766.564504,40.95219089591637,29.14024283873915,75.61634,-1,-1,-1,-1,30.00193829710236,18.60218947907108,-9999,19755.54256391667,-0.6573028564453125,0.67156982421875,-0.3441314697265625,19755.53752591667,1.864977485608579,-1.086530550973399,-0.7242784860906043,-0.004057871177792549,-0.01735307089984417,0.004727527499198914,7.718801498413086e-05,0.007601141929626465,0.005904197692871094,XArbitraryZVertical,-0.2075272509485398,0.5315881189459165,-0.7520091811345694,-0.3298917951139952,-0.6628578901290894,0.6625952124595642,-0.3486930131912231,0,0,0,-1,-1,19753.483416,unknown,2,2025-04-21T16:22:44.754+03:00,2025-04-20T21:57:49.637+03:00,6753,0.9838091,0,0,5541.095,5,6,2025-04-21T16:22:11.224+03:00,766934564.8435568,0,-38.71,100.2005,1,0.35,2025-04-21T16:06:01.980+03:00,83,1.383333333333333,2025-04-21T12:30:07.995+03:00,0.02023345852159405,0
2025-04-21T16:22:46.828+03:00,1745241766.564504,40.95219089591637,29.14024283873915,75.61634,-1,-1,-1,-1,30.00193829710236,18.60218947907108,-9999,19755.55263991667,-0.657958984375,0.6644287109375,-0.3466339111328125,19755.54760191667,1.864971528548863,-1.086740571417967,-0.7243598669559769,-0.003137215971946716,-0.02121092565357685,0.009646118618547916,0.005214393138885498,0.00895923376083374,0.006518155336380005,XArbitraryZVertical,-0.207579236891207,0.5316450923317934,-0.7519882173678809,-0.3298150743411384,-0.6628834009170532,0.6626561880111694,-0.3485287129878998,0,0,0,-1,-1,19753.483416,unknown,2,2025-04-21T16:22:44.754+03:00,2025-04-20T21:57:49.637+03:00,6753,0.9838091,0,0,5541.095,5,6,2025-04-21T16:22:11.224+03:00,766934564.8435568,0,-38.71,100.2005,1,0.35,2025-04-21T16:06:01.980+03:00,83,1.383333333333333,2025-04-21T12:30:07.995+03:00,0.02023345852159405,0
2025-04-21T16:22:46.838+03:00,1745241766.564504,40.95219089591637,29.14024283873915,75.61634,-1,-1,-1,-1,30.00193829710236,18.60218947907108,-9999,19755.56271491667,-0.66143798828125,0.666107177734375,-0.345947265625,19755.55767691667,1.865012678026498,-1.086917079788642,-0.7244903624783261,0.0001939990470418707,-0.02266514673829079,0.01238564681261778,0.0056723952293396,0.004375457763671875,0.002988696098327637,XArbitraryZVertical,-0.2076158071594094,0.5317047424029587,-0.7519795958419665,-0.3297156013811772,-0.6628683805465698,0.6627538800239563,-0.3483714759349823,0,0,0,-1,-1,19753.483416,unknown,2,2025-04-21T16:22:44.754+03:00,2025-04-20T21:57:49.637+03:00,6753,0.9838091,0,0,5541.095,5,6,2025-04-21T16:22:11.224+03:00,766934564.8435568,0,-38.71,100.2005,1,0.35,2025-04-21T16:06:01.980+03:00,83,1.383333333333333,2025-04-21T12:30:07.995+03:00,0.02023345852159405,0
2025-04-21T16:22:46.848+03:00,1745241766.564504,40.95219089591637,29.14024283873915,75.61634,-1,-1,-1,-1,30.00193829710236,18.60218947907108,-9999,19755.57278991667,-0.6615447998046875,0.6659698486328125,-0.343414306640625,19755.56775291667,1.86513002929135,-1.087054322944173,-0.7245966367379493,0.007893198169767857,-0.02158603072166443,0.01150334160774946,0.002773880958557129,0.001717150211334229,0.00153738260269165,XArbitraryZVertical,-0.2076654648893629,0.5317435359533617,-0.7519870437312757,-0.3296047028478126,-0.6628538370132446,0.6628334522247314,-0.3482477366924286,0,0,0,-1,-1,19753.483416,unknown,2,2025-04-21T16:22:44.754+03:00,2025-04-20T21:57:49.637+03:00,6753,0.9838091,0,0,5541.095,5,6,2025-04-21T16:22:11.224+03:00,766934564.8435568,0,-38.71,100.2005,1,0.35,2025-04-21T16:06:01.980+03:00,83,1.383333333333333,2025-04-21T12:30:07.995+03:00,0.02023345852159405,0
2025-04-21T16:22:46.858+03:00,1745241766.564504,40.95219089591637,29.14024283873915,75.61634,-1,-1,-1,-1,30.00193829710236,18.60218947907108,-9999,19755.58286591667,-0.659698486328125,0.666015625,-0.341766357421875,19755.57782791667,1.865313019197521,-1.087208204508439,-0.7246228769106103,0.01472820062190294,-0.03142481669783592,0.003875515423715115,0.001331925392150879,0.00349801778793335,0.003990769386291504,XArbitraryZVertical,-0.2077637929978332,0.5317568876430773,-0.7520017948416521,-0.3294875078546071,-0.6628919839859009,0.6628531217575073,-0.3481376469135284,0,0,0,-1,-1,19753.483416,unknown,2,2025-04-21T16:22:44.754+03:00,2025-04-20T21:57:49.637+03:00,6753,0.9838091,0,0,5541.095,5,6,2025-04-21T16:22:11.224+03:00,766934564.8435568,0,-38.71,100.2005,1,0.35,2025-04-21T16:06:01.980+03:00,83,1.383333333333333,2025-04-21T12:30:07.995+03:00,0.02023345852159405,0
2025-04-21T16:22:46.869+03:00,1745241766.564504,40.95219089591637,29.14024283873915,75.61634,-1,-1,-1,-1,30.00193829710236,18.60218947907108,-9999,19755.59294091667,-0.6597442626953125,0.6661224365234375,-0.3422088623046875,19755.58790391667,1.865537874075823,-1.087418821237194,-0.7245648322572698,0.02021005190908909,-0.03707630932331085,0.000244028982706368,0.003682374954223633,0.002397060394287109,0.005501717329025269,XArbitraryZVertical,-0.2079209038127797,0.53175272738966,-0.75201563587342,-0.3293634051187272,-0.6629993319511414,0.6628096699714661,-0.3480158746242523,0,0,0,-1,-1,19753.483416,unknown,2,2025-04-21T16:22:44.754+03:00,2025-04-20T21:57:49.637+03:00,6753,0.9838091,0,0,5541.095,5,6,2025-04-21T16:22:11.224+03:00,766934564.8435568,0,-38.71,100.2005,1,0.35,2025-04-21T16:06:01.980+03:00,83,1.383333333333333,2025-04-21T12:30:07.995+03:00,0.02023345852159405,0
2025-04-21T16:22:46.878+03:00,1745241766.564504,40.95219089591637,29.14024283873915,75.61634,-1,-1,-1,-1,30.00193829710236,18.60218947907108,-9999,19755.60301691667,-0.6584625244140625,0.6624908447265625,-0.3430023193359375,19755.59797891667,1.865776806825195,-1.087654249169811,-0.7244558695727517,0.02049673907458782,-0.04280676692724228,-0.007151369471102953,0.003172159194946289,0.003607809543609619,0.005760669708251953,XArbitraryZVertical,-0.2081068926572489,0.5317375632465624,-0.7520280984300852,-0.3292421316547086,-0.6631453037261963,0.6627280712127686,-0.3478933572769165,0,0,0,-1,-1,19753.483416,unknown,2,2025-04-21T16:22:44.754+03:00,2025-04-20T21:57:49.637+03:00,6753,0.9838091,0,0,5541.095,5,6,2025-04-21T16:22:11.224+03:00,766934564.8435568,0,-38.71,100.2005,1,0.35,2025-04-21T16:06:01.980+03:00,83,1.383333333333333,2025-04-21T12:30:07.995+03:00,0.02023345852159405,0
2025-04-21T16:22:46.889+03:00,1745241766.564504,40.95219089591637,29.14024283873915,75.61634,-1,-1,-1,-1,30.00193829710236,18.60218947907108,-9999,19755.61309191667,-0.65777587890625,0.66314697265625,-0.338897705078125,19755.60805391667,1.865841821139613,-1.087981703903949,-0.7243639143908471,-0.01548176724463701,-0.02075179666280746,-0.01039616577327251,0.004240334033966064,0.001433670520782471,0.00505298376083374,XArbitraryZVertical,-0.2082759518311624,0.5317601569582776,-0.7520026851779469,-0.329156899225043,-0.6633132100105286,0.662659227848053,-0.3477045297622681,0,0,0,-1,-1,19753.483416,unknown,2,2025-04-21T16:22:44.754+03:00,2025-04-20T21:57:49.637+03:00,6753,0.9838091,0,0,5541.095,5,6,2025-04-21T16:22:11.224+03:00,766934564.8435568,0,-38.71,100.2005,1,0.35,2025-04-21T16:06:01.980+03:00,83,1.383333333333333,2025-04-21T12:30:07.995+03:00,0.02023345852159405,0
2025-04-21T16:22:46.899+03:00,1745241766.564504,40.95219089591637,29.14024283873915,75.61634,-1,-1,-1,-1,30.00193829710236,18.60218947907108,-9999,19755.62316791667,-0.6635284423828125,0.6580047607421875,-0.3364105224609375,19755.61812991667,1.86575586607259,-1.088246547299847,-0.7243310915178499,0.002301424974575639,-0.02185441367328167,-0.002258776454254985,0.006197810173034668,0.0009851455688476562,0.006413251161575317,XArbitraryZVertical,-0.2083630231384154,0.5318039477934317,-0.7519601465530876,-0.3291278131848145,-0.6634243130683899,0.6626346111297607,-0.3475388288497925,0,0,0,-1,-1,19753.483416,unknown,2,2025-04-21T16:22:44.754+03:00,2025-04-20T21:57:49.637+03:00,6753,0.9838091,0,0,5541.095,5,6,2025-04-21T16:22:11.224+03:00,766934564.8435568,0,-38.71,100.2005,1,0.35,2025-04-21T16:06:01.980+03:00,83,1.383333333333333,2025-04-21T12:30:07.995+03:00,0.02023345852159405,0
2025-04-21T16:22:46.909+03:00,1745241766.564504,40.95219089591637,29.14024283873915,75.61634,-1,-1,-1,-1,30.00193829710236,18.60218947907108,-9999,19755.63324291667,-0.6596832275390625,0.6671905517578125,-0.3474273681640625,19755.62820491667,1.865851226616471,-1.088458303043993,-0.7242884374115147,0.01435649022459984,-0.03194912523031235,-0.003152000717818737,0.002741158008575439,-0.002797544002532959,0.01231306791305542,XArbitraryZVertical,-0.2084812457853407,0.5318174711314941,-0.7519528504594187,-0.3290479571045867,-0.6635230183601379,0.6626026630401611,-0.3474114835262299,0,0,0,-1,-1,19753.483416,unknown,2,2025-04-21T16:22:44.754+03:00,2025-04-20T21:57:49.637+03:00,6753,0.9838091,0,0,5541.095,5,6,2025-04-21T16:22:11.224+03:00,766934564.8435568,0,-38.71,100.2005,1,0.35,2025-04-21T16:06:01.980+03:00,83,1.383333333333333,2025-04-21T12:30:07.995+03:00,0.02023345852159405,0
2025-04-21T16:22:46.919+03:00,1745241766.564504,40.95219089591637,29.14024283873915,75.61634,-1,-1,-1,-1,30.00193829710236,18.60218947907108,-9999,19755.64331891667,-0.6572113037109375,0.66796875,-0.346466064453125,19755.63828091667,1.865965325676933,-1.088680310566842,-0.7241964479947289,0.01289734430611134,-0.02894294820725918,-0.006144328508526087,0.0001714825630187988,-5.835294723510742e-05,0.003252387046813965,XArbitraryZVertical,-0.2086237385716846,0.53181755654791,-0.7519464106888271,-0.3289722351109935,-0.6636541485786438,0.6625337600708008,-0.3472924530506134,0,0,0,-1,-1,19753.483416,unknown,2,2025-04-21T16:22:44.754+03:00,2025-04-20T21:57:49.637+03:00,6753,0.9838091,0,0,5541.095,5,6,2025-04-21T16:22:11.224+03:00,766934564.8435568,0,-38.71,100.2005,1,0.35,2025-04-21T16:06:01.980+03:00,83,1.383333333333333,2025-04-21T12:30:07.995+03:00,0.02023345852159405,0
2025-04-21T16:22:46.929+03:00,1745241766.564504,40.95219089591637,29.14024283873915,75.61634,-1,-1,-1,-1,30.00193829710236,18.60218947907108,-9999,19755.65339391667,-0.6635894775390625,0.6648101806640625,-0.3464202880859375,19755.64835591667,1.866077246194203,-1.088869154615497,-0.7240926565278208,0.01000701542943716,-0.02051910385489464,-0.002859585685655475,0.007515430450439453,0.007328331470489502,-0.00134238600730896,XArbitraryZVertical,-0.2087568900328291,0.5318092532814563,-0.7519427662854365,-0.3289094275022032,-0.6637806296348572,0.6624560356140137,-0.3471989631652832,0,0,0,-1,-1,19753.483416,unknown,2,2025-04-21T16:22:44.754+03:00,2025-04-20T21:57:49.637+03:00,6753,0.9838091,0,0,5541.095,5,6,2025-04-21T16:22:11.224+03:00,766934564.8435568,0,-38.71,100.2005,1,0.35,2025-04-21T16:06:01.980+03:00,83,1.383333333333333,2025-04-21T12:30:07.995+03:00,0.02023345852159405,0
2025-04-21T16:22:46.940+03:00,1745241766.564504,40.95219089591637,29.14024283873915,75.61634,-1,-1,-1,-1,30.00193829710236,18.60218947907108,-9999,19755.66346991667,-0.665313720703125,0.66632080078125,-0.3475189208984375,19755.65843191667,1.866166486595793,-1.08897658085024,-0.7240181354142322,0.01167142391204834,-0.01359415333718061,-0.003237121971324086,0.002011775970458984,0.002074122428894043,0.00172191858291626,XArbitraryZVertical,-0.2088442242575797,0.5317977217984835,-0.7519445650183703,-0.3288685996065512,-0.6638616919517517,0.6624001860618591,-0.3471505343914032,0,0,0,-1,-1,19753.483416,unknown,2,2025-04-21T16:22:44.754+03:00,2025-04-20T21:57:49.637+03:00,6753,0.9838091,0,0,5541.095,5,6,2025-04-21T16:22:11.224+03:00,766934564.8435568,0,-38.71,100.2005,1,0.35,2025-04-21T16:06:01.980+03:00,83,1.383333333333333,2025-04-21T12:30:07.995+03:00,0.02023345852159405,0
2025-04-21T16:22:46.949+03:00,1745241766.564504,40.95219089591637,29.14024283873915,75.61634,-1,-1,-1,-1,30.00193829710236,18.60218947907108,-9999,19755.67354491667,-0.6608734130859375,0.6652069091796875,-0.345855712890625,19755.66850691667,1.866268332329256,-1.089038133370885,-0.7239467059318563,0.01076035667210817,-0.01010700967162848,-0.004580154083669186,-0.0008546113967895508,0.003851950168609619,-0.0007536709308624268,XArbitraryZVertical,-0.2089166791114597,0.531778147836888,-0.7519533020670762,-0.3288344044456829,-0.6639250516891479,0.6623466610908508,-0.3471316397190094,0,0,0,-1,-1,19753.483416,unknown,2,2025-04-21T16:22:44.754+03:00,2025-04-20T21:57:49.637+03:00,6753,0.9838091,0,0,5541.095,5,6,2025-04-21T16:22:11.224+03:00,766934564.8435568,0,-38.71,100.2005,1,0.35,2025-04-21T16:06:01.980+03:00,83,1.383333333333333,2025-04-21T12:30:07.995+03:00,0.02023345852159405,0
2025-04-21T16:22:46.959+03:00,1745241766.564504,40.95219089591637,29.14024283873915,75.61634,-1,-1,-1,-1,30.00193829710236,18.60218947907108,-9999,19755.68361991667,-0.662506103515625,0.6661376953125,-0.34490966796875,19755.67858291667,1.866395646890029,-1.089034373462931,-0.7238891262960115,0.01257064007222652,-0.002844968810677528,0.001478071208111942,0.001146197319030762,0.003818750381469727,0.000700831413269043,XArbitraryZVertical,-0.208967139206128,0.5317488728546419,-0.7519732841607289,-0.3288037241631936,-0.663957417011261,0.6623035669326782,-0.3471517562866211,0,0,0,-1,-1,19753.483416,unknown,2,2025-04-21T16:22:44.754+03:00,2025-04-20T21:57:49.637+03:00,6753,0.9838091,0,0,5541.095,5,6,2025-04-21T16:22:11.224+03:00,766934564.8435568,0,-38.71,100.2005,1,0.35,2025-04-21T16:06:01.980+03:00,83,1.383333333333333,2025-04-21T12:30:07.995+03:00,0.02023345852159405,0
2025-04-21T16:22:46.979+03:00,1745241766.564504,40.95219089591637,29.14024283873915,75.61634,-1,-1,-1,-1,30.00193829710236,18.60218947907108,-9999,19755.69369591667,-0.6650238037109375,0.6670684814453125,-0.344451904296875,19755.68865791667,1.866625116802761,-1.088892642437223,-0.7238752053992399,0.01884478330612183,0.003693091683089733,0.009656905196607113,0.003271937370300293,0.003371357917785645,0.00163838267326355,XArbitraryZVertical,-0.2089792091581187,0.5316978835744083,-0.7520254940880696,-0.3287590485904344,-0.6639163494110107,0.6622931361198425,-0.3472501039505005,0,0,0,-1,-1,19753.483416,unknown,2,2025-04-21T16:22:44.754+03:00,2025-04-20T21:57:49.637+03:00,6753,0.9838091,0,0,5541.095,5,6,2025-04-21T16:22:11.224+03:00,766934564.8435568,0,-38.71,100.2005,1,0.35,2025-04-21T16:06:01.980+03:00,83,1.383333333333333,2025-04-21T12:30:07.995+03:00,0.02023345852159405,0
2025-04-21T16:22:46.980+03:00,1745241766.564504,40.95219089591637,29.14024283873915,75.61634,-1,-1,-1,-1,30.00193829710236,18.60218947907108,-9999,19755.70377091667,-0.6641845703125,0.666656494140625,-0.34271240234375,19755.69873391667,1.866886276131074,-1.088620300634304,-0.7239013837096876,0.0126869548112154,0.01425192691385746,0.007879079319536686,-0.001064717769622803,0.004358828067779541,0.002497822046279907,XArbitraryZVertical,-0.2089380566674401,0.5316328190190061,-0.7520974667067813,-0.3287258099683769,-0.6638064384460449,0.6623127460479736,-0.347422868013382,0,0,0,-1,-1,19753.483416,unknown,2,2025-04-21T16:22:44.754+03:00,2025-04-20T21:57:49.637+03:00,6753,0.9838091,0,0,5541.095,5,6,2025-04-21T16:22:11.224+03:00,766934564.8435568,0,-38.71,100.2005,1,0.35,2025-04-21T16:06:01.980+03:00,83,1.383333333333333,2025-04-21T12:30:07.995+03:00,0.02023345852159405,0
2025-04-21T16:22:46.989+03:00,1745241766.564504,40.95219089591637,29.14024283873915,75.61634,-1,-1,-1,-1,30.00193829710236,18.60218947907108,-9999,19755.71384691667,-0.66278076171875,0.6629791259765625,-0.345550537109375,19755.70880891667,1.866994789528959,-1.088455521603825,-0.7239114442454403,0.005501745734363794,0.005289856810122728,0.0006185026722960174,-0.0008990168571472168,0.005602538585662842,0.004465699195861816,XArbitraryZVertical,-0.2089017713227424,0.5315970838029908,-0.7521327575963176,-0.3287260172408015,-0.6637433171272278,0.6623202562332153,-0.3475291728973389,0,0,0,-1,-1,19753.483416,unknown,2,2025-04-21T16:22:44.754+03:00,2025-04-20T21:57:49.637+03:00,6753,0.9838091,0,0,5541.095,5,6,2025-04-21T16:22:11.224+03:00,766934564.8435568,0,-38.71,100.2005,1,0.35,2025-04-21T16:06:01.980+03:00,83,1.383333333333333,2025-04-21T12:30:07.995+03:00,0.02023345852159405,0
2025-04-21T16:22:46.999+03:00,1745241766.564504,40.95219089591637,29.14024283873915,75.61634,-1,-1,-1,-1,30.00193829710236,18.60218947907108,-9999,19755.72392191667,-0.658172607421875,0.66387939453125,-0.3420867919921875,19755.71888491667,1.86697921348598,-1.088406175158589,-0.7238942322791686,-0.002381477272138,0.00481687905266881,-0.005313954781740904,-0.0001430511474609375,0.001785516738891602,0.002901613712310791,XArbitraryZVertical,-0.2088844000160769,0.5315860014205779,-0.7521349933197944,-0.328750007964209,-0.6637363433837891,0.6623073816299438,-0.3475672602653503,0,0,0,-1,-1,19753.483416,unknown,2,2025-04-21T16:22:44.754+03:00,2025-04-20T21:57:49.637+03:00,6753,0.9838091,0,0,5541.095,5,6,2025-04-21T16:22:11.224+03:00,766934564.8435568,0,-38.71,100.2005,1,0.35,2025-04-21T16:06:01.980+03:00,83,1.383333333333333,2025-04-21T12:30:07.995+03:00,0.02023345852159405,0
2025-04-21T16:22:47.009+03:00,1745241766.564504,40.95219089591637,29.14024283873915,75.61634,-1,-1,-1,-1,30.00193829710236,18.60218947907108,-9999,19755.73399791667,-0.66259765625,0.6658782958984375,-0.3408355712890625,19755.72895991667,1.866984823706999,-1.088316124799698,-0.723887555124516,0.003604243509471416,0.009089121595025063,-0.001581800868734717,0.005231142044067383,0.0007071495056152344,0.002887099981307983,XArbitraryZVertical,-0.2088541154106339,0.5315688308635,-0.7521451655081471,-0.3287737091148988,-0.6637089252471924,0.6623023748397827,-0.3476290702819824,0,0,0,-1,-1,19753.483416,unknown,2,2025-04-21T16:22:44.754+03:00,2025-04-20T21:57:49.637+03:00,6753,0.9838091,0,0,5541.095,5,6,2025-04-21T16:22:11.224+03:00,766934564.8435568,0,-38.71,100.2005,1,0.35,2025-04-21T16:06:01.980+03:00,83,1.383333333333333,2025-04-21T12:30:07.995+03:00,0.02023345852159405,0
2025-04-21T16:22:47.019+03:00,1745241766.564504,40.95219089591637,29.14024283873915,75.61634,-1,-1,-1,-1,30.00193829710236,18.60218947907108,-9999,19755.74407291667,-0.661163330078125,0.667022705078125,-0.3445892333984375,19755.73903591667,1.8670045997536,-1.088247406331847,-0.7238462521799052,0.003580940654501319,0.0003594136796891689,-0.00644906098023057,0.002866387367248535,0.002828478813171387,0.007065266370773315,XArbitraryZVertical,-0.2088464337138361,0.5315444432497914,-0.7521546507788743,-0.3287962016212838,-0.6637092232704163,0.6622714400291443,-0.3476873338222504,0,0,0,-1,-1,19753.483416,unknown,2,2025-04-21T16:22:44.754+03:00,2025-04-20T21:57:49.637+03:00,6753,0.9838091,0,0,5541.095,5,6,2025-04-21T16:22:11.224+03:00,766934564.8435568,0,-38.71,100.2005,1,0.35,2025-04-21T16:06:01.980+03:00,83,1.383333333333333,2025-04-21T12:30:07.995+03:00,0.02023345852159405,0
2025-04-21T16:22:47.030+03:00,1745241766.564504,40.95219089591637,29.14024283873915,75.61634,-1,-1,-1,-1,30.00193829710236,18.60218947907108,-9999,19755.75414891667,-0.66009521484375,0.6651611328125,-0.3411712646484375,19755.74911091667,1.866999043832392,-1.088292985741887,-0.72376993628606,0.004207049962133169,-0.007489987183362246,-0.006916179321706295,0.001477360725402832,0.004487872123718262,0.003487944602966309,XArbitraryZVertical,-0.2088858805097705,0.5315321387600556,-0.7521472791019747,-0.3288079220004583,-0.6637698411941528,0.6622142195701599,-0.347680538892746,0,0,0,-1,-1,19753.483416,unknown,2,2025-04-21T16:22:44.754+03:00,2025-04-20T21:57:49.637+03:00,6753,0.9838091,0,0,5541.095,5,6,2025-04-21T16:22:11.224+03:00,766934564.8435568,0,-38.71,100.2005,1,0.35,2025-04-21T16:06:01.980+03:00,83,1.383333333333333,2025-04-21T12:30:07.995+03:00,0.02023345852159405,0
2025-04-21T16:22:47.040+03:00,1745241766.564504,40.95219089591637,29.14024283873915,75.61634,-1,-1,-1,-1,30.00193829710236,18.60218947907108,-9999,19755.76422391667,-0.6612548828125,0.6652069091796875,-0.344818115234375,19755.75918691667,1.8669555408714,-1.088345905014677,-0.723686089588664,0.0006291595636866987,-0.0005811485461890697,-0.01179958414286375,0.004062652587890625,0.003146827220916748,0.005095988512039185,XArbitraryZVertical,-0.2089203785975656,0.5315229965885757,-0.7521327114912225,-0.3288340200534462,-0.6638373732566833,0.6621513962745667,-0.3476711511611938,0,0,0,-1,-1,19753.483416,unknown,2,2025-04-21T16:22:44.754+03:00,2025-04-20T21:57:49.637+03:00,6753,0.9838091,0,0,5541.095,5,6,2025-04-21T16:22:11.224+03:00,766934564.8435568,0,-38.71,100.2005,1,0.35,2025-04-21T16:06:01.980+03:00,83,1.383333333333333,2025-04-21T12:30:07.995+03:00,0.02023345852159405,0
2025-04-21T16:22:47.050+03:00,1745241766.564504,40.95219089591637,29.14024283873915,75.61634,-1,-1,-1,-1,30.00193829710236,18.60218947907108,-9999,19755.77429991667,-0.662322998046875,0.660675048828125,-0.347869873046875,19755.76926191667,1.866886317182261,-1.088431032579065,-0.723574683761078,0.004941616207361221,-0.009656934998929501,-0.01432532630860806,0.003531992435455322,0.00350499153137207,0.004539579153060913,XArbitraryZVertical,-0.208968723867168,0.531514479486943,-0.752109941700334,-0.3288691359186944,-0.6639323234558105,0.6620679497718811,-0.3476488590240479,0,0,0,-1,-1,19753.483416,unknown,2,2025-04-21T16:22:44.754+03:00,2025-04-20T21:57:49.637+03:00,6753,0.9838091,0,0,5541.095,5,6,2025-04-21T16:22:11.224+03:00,766934564.8435568,0,-38.71,100.2005,1,0.35,2025-04-21T16:06:01.980+03:00,83,1.383333333333333,2025-04-21T12:30:07.995+03:00,0.02023345852159405,0
2025-04-21T16:22:47.060+03:00,1745241766.564504,40.95219089591637,29.14024283873915,75.61634,-1,-1,-1,-1,30.00193829710236,18.60218947907108,-9999,19755.78437491667,-0.6576385498046875,0.6586761474609375,-0.3437347412109375,19755.77933691667,1.866806666471997,-1.08862071502269,-0.7234132359366329,-0.002369626425206661,-0.01191855873912573,-0.0203799232840538,0.001449525356292725,0.001291394233703613,0.0005111992359161377,XArbitraryZVertical,-0.2090692257095183,0.5315108904404352,-0.7520733889163197,-0.3288945956116482,-0.6640928983688354,0.6619468927383423,-0.3475724756717682,0,0,0,-1,-1,19753.483416,unknown,2,2025-04-21T16:22:44.754+03:00,2025-04-20T21:57:49.637+03:00,6753,0.9838091,0,0,5541.095,5,6,2025-04-21T16:22:11.224+03:00,766934564.8435568,0,-38.71,100.2005,1,0.35,2025-04-21T16:06:01.980+03:00,83,1.383333333333333,2025-04-21T12:30:07.995+03:00,0.02023345852159405,0
2025-04-21T16:22:47.070+03:00,1745241766.564504,40.95219089591637,29.14024283873915,75.61634,-1,-1,-1,-1,30.00193829710236,18.60218947907108,-9999,19755.79445091667,-0.6566925048828125,0.6639556884765625,-0.3423919677734375,19755.78941291667,1.866572377972703,-1.088884489903688,-0.7232613457429847,-0.00740033807232976,-0.00557623989880085,-0.0242801234126091,0.003964900970458984,-0.002836704254150391,0.00129815936088562,XArbitraryZVertical,-0.2091534959800285,0.5315382192878947,-0.7520038556874625,-0.3289558243912418,-0.6642736792564392,0.6618330478668213,-0.3474438786506653,0,0,0,-1,-1,19753.483416,unknown,2,2025-04-21T16:22:44.754+03:00,2025-04-20T21:57:49.637+03:00,6753,0.9838091,0,0,5541.095,5,6,2025-04-21T16:22:11.224+03:00,766934564.8435568,0,-38.71,100.2005,1,0.35,2025-04-21T16:06:01.980+03:00,83,1.383333333333333,2025-04-21T12:30:07.995+03:00,0.02023345852159405,0
2025-04-21T16:22:47.080+03:00,1745241766.564504,40.95219089591637,29.14024283873915,75.61634,-1,-1,-1,-1,30.00193829710236,18.60218947907108,-9999,19755.80452591667,-0.6610870361328125,0.665985107421875,-0.34210205078125,19755.79948791667,1.866342393631375,-1.089077877407614,-0.7230956253623633,-0.008282975293695927,-0.003271340392529964,-0.0240175686776638,0.007837235927581787,0.0002325773239135742,0.006088078022003174,XArbitraryZVertical,-0.2092166584489125,0.5315498463102338,-0.7519421071140948,-0.3290383429072362,-0.6644381880760193,0.6617088317871094,-0.3473663032054901,0,0,0,-1,-1,19753.483416,unknown,2,2025-04-21T16:22:44.754+03:00,2025-04-20T21:57:49.637+03:00,6753,0.9838091,0,0,5541.095,5,6,2025-04-21T16:22:11.224+03:00,766934564.8435568,0,-38.71,100.2005,1,0.35,2025-04-21T16:06:01.980+03:00,83,1.383333333333333,2025-04-21T12:30:07.995+03:00,0.02023345852159405,0
2025-04-21T16:22:47.090+03:00,1745241766.564504,40.95219089591637,29.14024283873915,75.61634,-1,-1,-1,-1,30.00193829710236,18.60218947907108,-9999,19755.81460191667,-0.660858154296875,0.6634521484375,-0.3387298583984375,19755.80956391667,1.866117267600259,-1.089314156293466,-0.7229061031363795,-0.001761959632858634,-0.01592854596674442,-0.02887783758342266,0.005222737789154053,0.005104899406433105,0.004554808139801025,XArbitraryZVertical,-0.2093048116426251,0.5315617056938698,-0.7518759909516116,-0.3291139316616582,-0.6646312475204468,0.6615667343139648,-0.3472672998905182,0,0,0,-1,-1,19753.483416,unknown,2,2025-04-21T16:22:44.754+03:00,2025-04-20T21:57:49.637+03:00,6753,0.9838091,0,0,5541.095,5,6,2025-04-21T16:22:11.224+03:00,766934564.8435568,0,-38.71,100.2005,1,0.35,2025-04-21T16:06:01.980+03:00,83,1.383333333333333,2025-04-21T12:30:07.995+03:00,0.02023345852159405,0
2025-04-21T16:22:47.100+03:00,1745241766.564504,40.95219089591637,29.14024283873915,75.61634,-1,-1,-1,-1,30.00193829710236,18.60218947907108,-9999,19755.82467691667,-0.656280517578125,0.662109375,-0.3404541015625,19755.81963891667,1.865891548480807,-1.089638665775755,-0.722687245045104,-0.003490750445052981,-0.01590391248464584,-0.02629716694355011,0.002808749675750732,0.003026008605957031,0.006923794746398926,XArbitraryZVertical,-0.2094350017865754,0.5315803409291846,-0.7517999037399654,-0.3291749758773925,-0.6648723483085632,0.6614025831222534,-0.3471186459064484,0,0,0,-1,-1,19753.483416,unknown,2,2025-04-21T16:22:44.754+03:00,2025-04-20T21:57:49.637+03:00,6753,0.9838091,0,0,5541.095,5,6,2025-04-21T16:22:11.224+03:00,766934564.8435568,0,-38.71,100.2005,1,0.35,2025-04-21T16:06:01.980+03:00,83,1.383333333333333,2025-04-21T12:30:07.995+03:00,0.02023345852159405,0
2025-04-21T16:22:47.110+03:00,1745241766.564504,40.95219089591637,29.14024283873915,75.61634,-1,-1,-1,-1,30.00193829710236,18.60218947907108,-9999,19755.83475291667,-0.6576385498046875,0.664825439453125,-0.3459930419921875,19755.82971491667,1.865692892708567,-1.089932031233704,-0.7224936414163382,-0.00350486533716321,-0.01800514757633209,-0.02302121371030807,0.007815301418304443,0.001355409622192383,0.008145987987518311,XArbitraryZVertical,-0.2095528485196473,0.5315977903895884,-0.7517320243363975,-0.3292267639287625,-0.6650876402854919,0.6612573266029358,-0.3469827771186829,0,0,0,-1,-1,19753.483416,unknown,2,2025-04-21T16:22:44.754+03:00,2025-04-20T21:57:49.637+03:00,6753,0.9838091,0,0,5541.095,5,6,2025-04-21T16:22:11.224+03:00,766934564.8435568,0,-38.71,100.2005,1,0.35,2025-04-21T16:06:01.980+03:00,83,1.383333333333333,2025-04-21T12:30:07.995+03:00,0.02023345852159405,0
2025-04-21T16:22:47.121+03:00,1745241766.564504,40.95219089591637,29.14024283873915,75.61634,-1,-1,-1,-1,30.00193829710236,18.60218947907108,-9999,19755.84482791667,-0.6571044921875,0.6650238037109375,-0.3443603515625,19755.83978991667,1.865529359120056,-1.090259074304886,-0.7222837246015004,-0.0001821724872570485,-0.0253585334867239,-0.02953497134149075,0.008356988430023193,0.002611517906188965,0.002590954303741455,XArbitraryZVertical,-0.2096977468998214,0.5316127782969301,-0.7516659880015867,-0.3292610966616417,-0.6653241515159607,0.6610998511314392,-0.3468294143676758,0,0,0,-1,-1,19753.483416,unknown,2,2025-04-21T16:22:44.754+03:00,2025-04-20T21:57:49.637+03:00,6753,0.9838091,0,0,5541.095,5,6,2025-04-21T16:22:11.224+03:00,766934564.8435568,0,-38.71,100.2005,1,0.35,2025-04-21T16:06:01.980+03:00,83,1.383333333333333,2025-04-21T12:30:07.995+03:00,0.02023345852159405,0
2025-04-21T16:22:47.131+03:00,1745241766.564504,40.95219089591637,29.14024283873915,75.61634,-1,-1,-1,-1,30.00193829710236,18.60218947907108,-9999,19755.85490291667,-0.6520843505859375,0.6635284423828125,-0.338623046875,19755.84986591667,1.865295924653382,-1.090715905485885,-0.7220111544565008,-0.001668216427788138,-0.03192828595638275,-0.03712231665849686,0.008385241031646729,0.00464707612991333,0.001225769519805908,XArbitraryZVertical,-0.209892368664909,0.5316397913564327,-0.7515733128639221,-0.3293050254391513,-0.6656423211097717,0.6608953475952148,-0.3466086387634277,0,0,0,-1,-1,19753.483416,unknown,2,2025-04-21T16:22:44.754+03:00,2025-04-20T21:57:49.637+03:00,6753,0.9838091,0,0,5541.095,5,6,2025-04-21T16:22:11.224+03:00,766934564.8435568,0,-38.71,100.2005,1,0.35,2025-04-21T16:06:01.980+03:00,83,1.383333333333333,2025-04-21T12:30:07.995+03:00,0.02023345852159405,0
2025-04-21T16:22:47.141+03:00,1745241766.564504,40.95219089591637,29.14024283873915,75.61634,-1,-1,-1,-1,30.00193829710236,18.60218947907108,-9999,19755.86497891667,-0.6540374755859375,0.6648101806640625,-0.3380279541015625,19755.85994091667,1.865093180433936,-1.091160300137841,-0.7217172454030754,0.002299893647432327,-0.03348889946937561,-0.03359003365039825,0.01260250806808472,0.003524959087371826,0.005566716194152832,XArbitraryZVertical,-0.2100971004636709,0.5316558939621181,-0.7514864116428572,-0.329346824944198,-0.6659685969352722,0.6606747508049011,-0.3464024364948273,0,0,0,-1,-1,19753.483416,unknown,2,2025-04-21T16:22:44.754+03:00,2025-04-20T21:57:49.637+03:00,6753,0.9838091,0,0,5541.095,5,6,2025-04-21T16:22:11.224+03:00,766934564.8435568,0,-38.71,100.2005,1,0.35,2025-04-21T16:06:01.980+03:00,83,1.383333333333333,2025-04-21T12:30:07.995+03:00,0.02023345852159405,0
2025-04-21T16:22:47.151+03:00,1745241766.564504,40.95219089591637,29.14024283873915,75.61634,-1,-1,-1,-1,30.00193829710236,18.60218947907108,-9999,19755.87505391667,-0.65521240234375,0.6667938232421875,-0.3394012451171875,19755.87001691667,1.864863356137353,-1.091689732410653,-0.7214012023586192,-0.002190728671848774,-0.04419800266623497,-0.03945937380194664,0.01362717151641846,0.003167092800140381,0.008362054824829102,XArbitraryZVertical,-0.2103334996477522,0.5316829991641778,-0.7513854677627716,-0.3293823903673524,-0.6663371324539185,0.6604374647140503,-0.3461460173130035,0,0,0,-1,-1,19753.483416,unknown,2,2025-04-21T16:22:44.754+03:00,2025-04-20T21:57:49.637+03:00,6753,0.9838091,0,0,5541.095,5,6,2025-04-21T16:22:11.224+03:00,766934564.8435568,0,-38.71,100.2005,1,0.35,2025-04-21T16:06:01.980+03:00,83,1.383333333333333,2025-04-21T12:30:07.995+03:00,0.02023345852159405,0
2025-04-21T16:22:47.161+03:00,1745241766.564504,40.95219089591637,29.14024283873915,75.61634,-1,-1,-1,-1,30.00193829710236,18.60218947907108,-9999,19755.88512991667,-0.6549835205078125,0.6634521484375,-0.3416900634765625,19755.88009191667,1.864563025758803,-1.092371897625187,-0.721059669842762,-0.004732449539005756,-0.04832616448402405,-0.04323747009038925,0.01156097650527954,0.006780624389648438,0.007065266370773315,XArbitraryZVertical,-0.2106163298792831,0.531735943532174,-0.7512561786885853,-0.3294114436155447,-0.6667734384536743,0.6601809859275818,-0.3457953035831451,0,0,0,-1,-1,19753.483416,unknown,2,2025-04-21T16:22:44.754+03:00,2025-04-20T21:57:49.637+03:00,6753,0.9838091,0,0,5541.095,5,6,2025-04-21T16:22:11.224+03:00,766934564.8435568,0,-38.71,100.2005,1,0.35,2025-04-21T16:06:01.980+03:00,83,1.383333333333333,2025-04-21T12:30:07.995+03:00,0.02023345852159405,0
2025-04-21T16:22:47.171+03:00,1745241766.564504,40.95219089591637,29.14024283873915,75.61634,-1,-1,-1,-1,30.00193829710236,18.60218947907108,-9999,19755.89520491667,-0.6592254638671875,0.6651763916015625,-0.345458984375,19755.89016791667,1.864240555194606,-1.093053292638822,-0.720758204251563,-0.006416898686438799,-0.04420652240514755,-0.03660406917333603,0.01154583692550659,0.005389571189880371,0.004657626152038574,XArbitraryZVertical,-0.210880624492511,0.531801865014498,-0.7511239904137745,-0.3294370299953432,-0.6671854257583618,0.6599544882774353,-0.3454322814941406,0,0,0,-1,-1,19753.483416,unknown,2,2025-04-21T16:22:44.754+03:00,2025-04-20T21:57:49.637+03:00,6753,0.9838091,0,0,5541.095,5,6,2025-04-21T16:22:11.224+03:00,766934564.8435568,0,-38.71,100.2005,1,0.35,2025-04-21T16:06:01.980+03:00,83,1.383333333333333,2025-04-21T12:30:07.995+03:00,0.02023345852159405,0
2025-04-21T16:22:47.181+03:00,1745241766.564504,40.95219089591637,29.14024283873915,75.61634,-1,-1,-1,-1,30.00193829710236,18.60218947907108,-9999,19755.90528091667,-0.6619720458984375,0.664642333984375,-0.345855712890625,19755.90024291667,1.863936245146296,-1.093717711219715,-0.7205081952350038,-0.008288435637950897,-0.05449684336781502,-0.03232043981552124,0.01091474294662476,0.004967033863067627,-7.399916648864746e-05,XArbitraryZVertical,-0.2111271765104349,0.5318768473337083,-0.7509977413076083,-0.3294459136076287,-0.6675613522529602,0.659766674041748,-0.3450646698474884,0,0,0,-1,-1,19753.483416,unknown,2,2025-04-21T16:22:44.754+03:00,2025-04-20T21:57:49.637+03:00,6753,0.9838091,0,0,5541.095,5,6,2025-04-21T16:22:11.224+03:00,766934564.8435568,0,-38.71,100.2005,1,0.35,2025-04-21T16:06:01.980+03:00,83,1.383333333333333,2025-04-21T12:30:07.995+03:00,0.02023345852159405,0
2025-04-21T16:22:47.191+03:00,1745241766.564504,40.95219089591637,29.14024283873915,75.61634,-1,-1,-1,-1,30.00193829710236,18.60218947907108,-9999,19755.91535591667,-0.655303955078125,0.66265869140625,-0.3408660888671875,19755.91031891667,1.863660892412285,-1.094527097735191,-0.7202482290865785,-0.003616718109697104,-0.0698944479227066,-0.03712638095021248,0.006173491477966309,0.006276428699493408,-0.0009477436542510986,XArbitraryZVertical,-0.2114388516087292,0.531970061312466,-0.750860604733484,-0.3294083634828857,-0.6679930090904236,0.6595712900161743,-0.3446029424667358,0,0,0,-1,-1,19753.483416,unknown,2,2025-04-21T16:22:44.754+03:00,2025-04-20T21:57:49.637+03:00,6753,0.9838091,0,0,5541.095,5,6,2025-04-21T16:22:11.224+03:00,766934564.8435568,0,-38.71,100.2005,1,0.35,2025-04-21T16:06:01.980+03:00,83,1.383333333333333,2025-04-21T12:30:07.995+03:00,0.02023345852159405,0
2025-04-21T16:22:47.201+03:00,1745241766.564504,40.95219089591637,29.14024283873915,75.61634,-1,-1,-1,-1,30.00193829710236,18.60218947907108,-9999,19755.92543191667,-0.6578521728515625,0.6619415283203125,-0.341949462890625,19755.92039391667,1.863404549025154,-1.095341014882637,-0.720005236781905,-0.007895153015851974,-0.05056209117174149,-0.03060765936970711,0.01030409336090088,0.00333094596862793,0.001038432121276855,XArbitraryZVertical,-0.2117520284049878,0.5320665899193842,-0.7507262916550786,-0.3293572863813233,-0.6684156656265259,0.6593886017799377,-0.3441324532032013,0,0,0,-1,-1,19753.483416,unknown,2,2025-04-21T16:22:44.754+03:00,2025-04-20T21:57:49.637+03:00,6753,0.9838091,0,0,5541.095,5,6,2025-04-21T16:22:11.224+03:00,766934564.8435568,0,-38.71,100.2005,1,0.35,2025-04-21T16:06:01.980+03:00,83,1.383333333333333,2025-04-21T12:30:07.995+03:00,0.02023345852159405,0
2025-04-21T16:22:47.211+03:00,1745241766.564504,40.95219089591637,29.14024283873915,75.61634,-1,-1,-1,-1,30.00193829710236,18.60218947907108,-9999,19755.93550691667,-0.665924072265625,0.6656341552734375,-0.3455352783203125,19755.93046891667,1.863130537367516,-1.095969696343321,-0.7198442861483566,-0.01217458583414555,-0.04151639714837074,-0.02194013632833958,0.01299500465393066,0.002750098705291748,0.002879202365875244,XArbitraryZVertical,-0.2119653057037569,0.532156347694851,-0.7506105870172906,-0.3293387547096003,-0.6687262058258057,0.6592676043510437,-0.3437606692314148,0,0,0,-1,-1,19753.483416,unknown,2,2025-04-21T16:22:44.754+03:00,2025-04-20T21:57:49.637+03:00,6753,0.9838091,0,0,5541.095,5,6,2025-04-21T16:22:11.224+03:00,766934564.8435568,0,-38.71,100.2005,1,0.35,2025-04-21T16:06:01.980+03:00,83,1.383333333333333,2025-04-21T12:30:07.995+03:00,0.02023345852159405,0
2025-04-21T16:22:47.221+03:00,1745241766.564504,40.95219089591637,29.14024283873915,75.61634,-1,-1,-1,-1,30.00193829710236,18.60218947907108,-9999,19755.94558291667,-0.6626739501953125,0.6663970947265625,-0.342071533203125,19755.94054491667,1.862880243092657,-1.096471932427444,-0.7197938961510411,-0.008880256675183773,-0.03044191002845764,-0.007690226659178734,0.004316568374633789,0.003734052181243896,-0.001607149839401245,XArbitraryZVertical,-0.2121028694469543,0.5322521877049732,-0.7505148947432537,-0.329313511211773,-0.6689283847808838,0.6592296957969666,-0.3434399664402008,0,0,0,-1,-1,19753.483416,unknown,2,2025-04-21T16:22:44.754+03:00,2025-04-20T21:57:49.637+03:00,6753,0.9838091,0,0,5541.095,5,6,2025-04-21T16:22:11.224+03:00,766934564.8435568,0,-38.71,100.2005,1,0.35,2025-04-21T16:06:01.980+03:00,83,1.383333333333333,2025-04-21T12:30:07.995+03:00,0.02023345852159405,0
2025-04-21T16:22:47.231+03:00,1745241766.564504,40.95219089591637,29.14024283873915,75.61634,-1,-1,-1,-1,30.00193829710236,18.60218947907108,-9999,19755.95565791667,-0.6647186279296875,0.6650238037109375,-0.3414154052734375,19755.95061991667,1.862729426524969,-1.096832295124053,-0.7198203455769447,-0.0127722006291151,-0.02240954712033272,-0.006657186429947615,0.005263984203338623,0.007971286773681641,2.053380012512207e-05,XArbitraryZVertical,-0.2121897752687451,0.5323345495866189,-0.7504524502616324,-0.3292664265014592,-0.6690364480018616,0.6592496037483215,-0.3431908488273621,0,0,0,-1,-1,19753.483416,unknown,2,2025-04-21T16:22:44.754+03:00,2025-04-20T21:57:49.637+03:00,6753,0.9838091,0,0,5541.095,5,6,2025-04-21T16:22:11.224+03:00,766934564.8435568,0,-38.71,100.2005,1,0.35,2025-04-21T16:06:01.980+03:00,83,1.383333333333333,2025-04-21T12:30:07.995+03:00,0.02023345852159405,0
2025-04-21T16:22:47.242+03:00,1745241766.564504,40.95219089591637,29.14024283873915,75.61634,-1,-1,-1,-1,30.00193829710236,18.60218947907108,-9999,19755.96573391667,-0.65264892578125,0.652435302734375,-0.33770751953125,19755.96069591667,1.862701125731782,-1.097603725311095,-0.7179899220356429,-0.01447349414229393,-0.2758059203624725,-0.1350496858358383,0.006952404975891113,0.006876766681671143,0.001549035310745239,XArbitraryZVertical,-0.2130426491102828,0.5319782392747729,-0.7503195674247322,-0.3295941271945594,-0.6703739166259766,0.6578721404075623,-0.3432239592075348,0,0,0,-1,-1,19753.483416,unknown,2,2025-04-21T16:22:44.754+03:00,2025-04-20T21:57:49.637+03:00,6753,0.9838091,0,0,5541.095,5,6,2025-04-21T16:22:11.224+03:00,766934564.8435568,0,-38.71,100.2005,1,0.35,2025-04-21T16:06:01.980+03:00,83,1.383333333333333,2025-04-21T12:30:07.995+03:00,0.02023345852159405,0
2025-04-21T16:22:47.252+03:00,1745241766.564504,40.95219089591637,29.14024283873915,75.61634,-1,-1,-1,-1,30.00193829710236,18.60218947907108,-9999,19755.97580891667,-0.611846923828125,0.6472320556640625,-0.3187408447265625,19755.97077091667,1.861742162588418,-1.100180955734762,-0.7169351437123535,-0.002129209460690618,-0.08855694532394409,-0.1077008843421936,0.009032726287841797,0.007198512554168701,0.0008976161479949951,XArbitraryZVertical,-0.2140830368417733,0.5322251925164424,-0.7498591016598558,-0.3295693330315498,-0.6718744039535522,0.657077431678772,-0.3418096005916595,0,0,0,-1,-1,19753.483416,unknown,2,2025-04-21T16:22:44.754+03:00,2025-04-20T21:57:49.637+03:00,6753,0.9838091,0,0,5541.095,5,6,2025-04-21T16:22:11.224+03:00,766934564.8435568,0,-38.71,100.2005,1,0.35,2025-04-21T16:06:01.980+03:00,83,1.383333333333333,2025-04-21T12:30:07.995+03:00,0.02023345852159405,0
2025-04-21T16:22:47.262+03:00,1745241766.564504,40.95219089591637,29.14024283873915,75.61634,-1,-1,-1,-1,30.00193829710236,18.60218947907108,-9999,19755.98588491667,-0.7145843505859375,0.686767578125,-0.358245849609375,19755.98084691667,1.861533223232375,-1.100659132307921,-0.7163960766099206,0.012591945938766,0.00146455829963088,-0.0299774557352066,0.05586802959442139,-0.02297359704971313,0.0197797417640686,XArbitraryZVertical,-0.2143747688086983,0.5321833107885658,-0.749759313617109,-0.3296746229929838,-0.6723536252975464,0.6566709280014038,-0.3416487574577332,0,0,0,-1,-1,19753.483416,unknown,2,2025-04-21T16:22:44.754+03:00,2025-04-20T21:57:49.637+03:00,6753,0.9838091,0,0,5541.095,5,6,2025-04-21T16:22:11.224+03:00,766934564.8435568,0,-38.71,100.2005,1,0.35,2025-04-21T16:06:01.980+03:00,83,1.383333333333333,2025-04-21T12:30:07.995+03:00,0.02023345852159405,0
