loggingTime(txt),locationTimestamp_since1970(s),locationLatitude(WGS84),locationLongitude(WGS84),locationAltitude(m),locationSpeed(m/s),locationSpeedAccuracy(m/s),locationCourse(°),locationCourseAccuracy(°),locationVerticalAccuracy(m),locationHorizontalAccuracy(m),locationFloor(Z),accelerometerTimestamp_sinceReboot(s),accelerometerAccelerationX(G),accelerometerAccelerationY(G),accelerometerAccelerationZ(G),motionTimestamp_sinceReboot(s),motionYaw(rad),motionRoll(rad),motionPitch(rad),motionRotationRateX(rad/s),motionRotationRateY(rad/s),motionRotationRateZ(rad/s),motionUserAccelerationX(G),motionUserAccelerationY(G),motionUserAccelerationZ(G),motionAttitudeReferenceFrame(txt),motionQuaternionX(R),motionQuaternionY(R),motionQuaternionZ(R),motionQuaternionW(R),motionGravityX(G),motionGravityY(G),motionGravityZ(G),motionMagneticFieldX(µT),motionMagneticFieldY(µT),motionMagneticFieldZ(µT),motionHeading(°),motionMagneticFieldCalibrationAccuracy(Z),activityTimestamp_sinceReboot(s),activity(txt),activityActivityConfidence(Z),activityActivityStartDate(txt),pedometerStartDate(txt),pedometerNumberofSteps(N),pedometerAverageActivePace(s/m),pedometerCurrentPace(s/m),pedometerCurrentCadence(steps/s),pedometerDistance(m),pedometerFloorAscended(N),pedometerFloorDescended(N),pedometerEndDate(txt),altimeterTimestamp_sinceReboot(s),altimeterReset(bool),altimeterRelativeAltitude(m),altimeterPressure(kPa),batteryState(N),batteryLevel(R),heartRateBPMTimestamp(txt),heartRateBPM(N),heartRateBPS(R),heartRateVariabilityTimestamp(txt),heartRateVariability(ms),label
2025-04-21T14:49:30.894+03:00,1745236169.115369,40.9522387725225,29.14028154055504,76.38563,-1,-1,-1,-1,30,22.15875696438606,-9999,17270.701487125,-0.7562713623046875,0.4399871826171875,-0.406036376953125,17270.691411125,2.603910035233123,-1.060246945201229,-0.5197972891456467,0.001378453802317381,0.1298712193965912,-0.01890726760029793,-0.04805845022201538,0.04866001009941101,-0.02305930852890015,XArbitraryZVertical,0.4122160383378732,-0.343541171589975,0.8383347477196614,0.09618838689946341,-0.7572394013404846,0.4967042207717896,-0.4241147935390472,0,0,0,-1,-1,17265.089249375,unknown,2,2025-04-21T14:49:19.766+03:00,2025-04-20T21:57:49.637+03:00,6548,0.9517458,0,0,5385.986,5,6,2025-04-21T14:49:30.084+03:00,766928970.1838291,0,-46.15,100.2854,1,0.5,2025-04-21T14:48:22.231+03:00,94,1.566666666666667,2025-04-21T12:30:07.995+03:00,0.02023345852159405,0
2025-04-21T14:49:30.896+03:00,1745236169.115369,40.9522387725225,29.14028154055504,76.38563,-1,-1,-1,-1,30,22.15875696438606,-9999,17270.711564125,-0.647796630859375,0.49029541015625,-0.392333984375,17270.701487125,2.603799642906352,-1.060207394483484,-0.5197479370198962,-0.01088027656078339,-0.08324499428272247,-0.00280736037530005,-0.0660439133644104,-0.01236280798912048,-0.003760814666748047,XArbitraryZVertical,0.4121890454504283,-0.343543038315204,0.8383396840254076,0.09625455635444467,-0.7572440505027771,0.496661365032196,-0.4241567552089691,0,0,0,-1,-1,17265.089249375,unknown,2,2025-04-21T14:49:19.766+03:00,2025-04-20T21:57:49.637+03:00,6548,0.9517458,0,0,5385.986,5,6,2025-04-21T14:49:30.084+03:00,766928970.1838291,0,-46.15,100.2854,1,0.5,2025-04-21T14:48:22.231+03:00,94,1.566666666666667,2025-04-21T12:30:07.995+03:00,0.02023345852159405,0
2025-04-21T14:49:30.896+03:00,1745236169.115369,40.9522387725225,29.14028154055504,76.38563,-1,-1,-1,-1,30,22.15875696438606,-9999,17270.721640125,-0.7605438232421875,0.4909515380859375,-0.42266845703125,17270.711564125,2.603661608420454,-1.060796948539978,-0.5197815925225179,-0.01332106348127127,0.0005239397287368774,-0.006708358880132437,0.01951855421066284,-0.05456733703613281,0.02126675844192505,XArbitraryZVertical,0.4124065956492268,-0.3436128046227817,0.8382101105908746,0.09620222732548218,-0.7574793696403503,0.4966906011104584,-0.4237020909786224,0,0,0,-1,-1,17265.089249375,unknown,2,2025-04-21T14:49:19.766+03:00,2025-04-20T21:57:49.637+03:00,6548,0.9517458,0,0,5385.986,5,6,2025-04-21T14:49:30.084+03:00,766928970.1838291,0,-46.15,100.2854,1,0.5,2025-04-21T14:48:22.231+03:00,94,1.566666666666667,2025-04-21T12:30:07.995+03:00,0.02023345852159405,0
2025-04-21T14:49:30.904+03:00,1745236169.115369,40.9522387725225,29.14028154055504,76.38563,-1,-1,-1,-1,30,22.15875696438606,-9999,17270.731716125,-0.8040618896484375,0.4853057861328125,-0.43792724609375,17270.721640125,2.603481981799427,-1.060514012974861,-0.5197792240914704,-0.01260986644774675,0.0521816723048687,-0.009564133360981941,0.1072902083396912,-0.001251012086868286,0.03066736459732056,XArbitraryZVertical,0.4122575476976444,-0.3436353099287112,0.8382599342010396,0.09632678995879339,-0.7573605179786682,0.4966885447502136,-0.4239169657230377,0,0,0,-1,-1,17265.089249375,unknown,2,2025-04-21T14:49:19.766+03:00,2025-04-20T21:57:49.637+03:00,6548,0.9517458,0,0,5385.986,5,6,2025-04-21T14:49:30.084+03:00,766928970.1838291,0,-46.15,100.2854,1,0.5,2025-04-21T14:48:22.231+03:00,94,1.566666666666667,2025-04-21T12:30:07.995+03:00,0.02023345852159405,0
2025-04-21T14:49:30.914+03:00,1745236169.115369,40.9522387725225,29.14028154055504,76.38563,-1,-1,-1,-1,30,22.15875696438606,-9999,17270.741793125,-0.7189178466796875,0.49798583984375,-0.4188995361328125,17270.731716125,2.603248942180538,-1.060525449004216,-0.519777415861328,-0.01355875097215176,-0.0206706952303648,-0.01284221839159727,-0.0209541916847229,-0.008283793926239014,-0.004039347171783447,XArbitraryZVertical,0.4122226415455699,-0.3436831962758251,0.8382463369913589,0.09642289137402586,-0.7573661208152771,0.4966869652271271,-0.4239087104797363,0,0,0,-1,-1,17265.089249375,unknown,2,2025-04-21T14:49:19.766+03:00,2025-04-20T21:57:49.637+03:00,6548,0.9517458,0,0,5385.986,5,6,2025-04-21T14:49:30.084+03:00,766928970.1838291,0,-46.15,100.2854,1,0.5,2025-04-21T14:48:22.231+03:00,94,1.566666666666667,2025-04-21T12:30:07.995+03:00,0.02023345852159405,0
2025-04-21T14:49:30.924+03:00,1745236169.115369,40.9522387725225,29.14028154055504,76.38563,-1,-1,-1,-1,30,22.15875696438606,-9999,17270.751869125,-0.7389068603515625,0.498779296875,-0.419830322265625,17270.741793125,2.603058931718023,-1.060860788736401,-0.5195180713168553,-0.007478754036128521,-0.01765093579888344,-0.02178870886564255,-0.03637045621871948,-0.008745342493057251,-0.01144787669181824,XArbitraryZVertical,0.4123755449012568,-0.3436388115619533,0.8381788497428204,0.09651362136313167,-0.7576205730438232,0.4964618384838104,-0.4237175583839417,0,0,0,-1,-1,17265.089249375,unknown,2,2025-04-21T14:49:19.766+03:00,2025-04-20T21:57:49.637+03:00,6548,0.9517458,0,0,5385.986,5,6,2025-04-21T14:49:30.084+03:00,766928970.1838291,0,-46.15,100.2854,1,0.5,2025-04-21T14:48:22.231+03:00,94,1.566666666666667,2025-04-21T12:30:07.995+03:00,0.02023345852159405,0
2025-04-21T14:49:30.934+03:00,1745236169.115369,40.9522387725225,29.14028154055504,76.38563,-1,-1,-1,-1,30,22.15875696438606,-9999,17270.761945125,-0.772186279296875,0.496063232421875,-0.4240875244140625,17270.751869125,2.602862369900133,-1.060938066155227,-0.5194240350389729,-0.00921540055423975,0.01343987137079239,-0.02218685112893581,0.0428350567817688,0.002597272396087646,0.006063938140869141,XArbitraryZVertical,0.4123904675516364,-0.3436469146792208,0.8381573712897956,0.09660767351980969,-0.7576940655708313,0.4963802099227905,-0.4236817955970764,0,0,0,-1,-1,17265.089249375,unknown,2,2025-04-21T14:49:19.766+03:00,2025-04-20T21:57:49.637+03:00,6548,0.9517458,0,0,5385.986,5,6,2025-04-21T14:49:30.084+03:00,766928970.1838291,0,-46.15,100.2854,1,0.5,2025-04-21T14:48:22.231+03:00,94,1.566666666666667,2025-04-21T12:30:07.995+03:00,0.02023345852159405,0
2025-04-21T14:49:30.944+03:00,1745236169.115369,40.9522387725225,29.14028154055504,76.38563,-1,-1,-1,-1,30,22.15875696438606,-9999,17270.772022125,-0.75042724609375,0.4906158447265625,-0.4149017333984375,17270.761945125,2.602619440817839,-1.060964557393128,-0.5194006000036789,-0.01660620607435703,0.003989377990365028,-0.02156460285186768,0.01215577125549316,0.002236157655715942,0.002143323421478271,XArbitraryZVertical,0.4123638898266233,-0.3436892740387924,0.8381411554456297,0.0967111508547419,-0.7577154636383057,0.4963598847389221,-0.4236674010753632,0,0,0,-1,-1,17265.089249375,unknown,2,2025-04-21T14:49:19.766+03:00,2025-04-20T21:57:49.637+03:00,6548,0.9517458,0,0,5385.986,5,6,2025-04-21T14:49:30.084+03:00,766928970.1838291,0,-46.15,100.2854,1,0.5,2025-04-21T14:48:22.231+03:00,94,1.566666666666667,2025-04-21T12:30:07.995+03:00,0.02023345852159405,0
2025-04-21T14:49:30.954+03:00,1745236169.115369,40.9522387725225,29.14028154055504,76.38563,-1,-1,-1,-1,30,22.15875696438606,-9999,17270.782098125,-0.7500152587890625,0.49127197265625,-0.412139892578125,17270.772022125,2.602282141606473,-1.061105842724307,-0.5193909205988658,-0.02364840172231197,0.004824278876185417,-0.01684628054499626,-0.01320135593414307,-0.001020818948745728,0.0008178949356079102,XArbitraryZVertical,0.412366824651629,-0.3437619322109841,0.8380960602722022,0.09683073712124725,-0.7577794790267944,0.4963514804840088,-0.4235626757144928,0,0,0,-1,-1,17265.089249375,unknown,2,2025-04-21T14:49:19.766+03:00,2025-04-20T21:57:49.637+03:00,6548,0.9517458,0,0,5385.986,5,6,2025-04-21T14:49:30.084+03:00,766928970.1838291,0,-46.15,100.2854,1,0.5,2025-04-21T14:48:22.231+03:00,94,1.566666666666667,2025-04-21T12:30:07.995+03:00,0.02023345852159405,0
2025-04-21T14:49:30.964+03:00,1745236169.115369,40.9522387725225,29.14028154055504,76.38563,-1,-1,-1,-1,30,22.15875696438606,-9999,17270.792174125,-0.76019287109375,0.4936981201171875,-0.4202880859375,17270.782098125,2.601934495191382,-1.06119737626415,-0.5192325227643579,-0.02097691968083382,0.02417167834937572,-0.01199183706194162,0.009153425693511963,-0.005964487791061401,0.008996129035949707,XArbitraryZVertical,0.4123729041777034,-0.343777159932579,0.8380670166026712,0.097002781564448,-0.7578869462013245,0.496213972568512,-0.423531711101532,0,0,0,-1,-1,17265.089249375,unknown,2,2025-04-21T14:49:19.766+03:00,2025-04-20T21:57:49.637+03:00,6548,0.9517458,0,0,5385.986,5,6,2025-04-21T14:49:30.084+03:00,766928970.1838291,0,-46.15,100.2854,1,0.5,2025-04-21T14:48:22.231+03:00,94,1.566666666666667,2025-04-21T12:30:07.995+03:00,0.02023345852159405,0
2025-04-21T14:49:30.974+03:00,1745236169.115369,40.9522387725225,29.14028154055504,76.38563,-1,-1,-1,-1,30,22.15875696438606,-9999,17270.802250125,-0.754669189453125,0.493896484375,-0.4267120361328125,17270.792174125,2.601676507828467,-1.061093494302435,-0.5190988054254477,-0.0197976715862751,0.02480870671570301,-0.009946262463927269,0.005566239356994629,-0.00397154688835144,0.01020586490631104,XArbitraryZVertical,0.4123082621661562,-0.3437739045613384,0.8380814493303153,0.09716419662595667,-0.7579008340835571,0.4960978627204895,-0.4236427843570709,0,0,0,-1,-1,17265.089249375,unknown,2,2025-04-21T14:49:19.766+03:00,2025-04-20T21:57:49.637+03:00,6548,0.9517458,0,0,5385.986,5,6,2025-04-21T14:49:30.084+03:00,766928970.1838291,0,-46.15,100.2854,1,0.5,2025-04-21T14:48:22.231+03:00,94,1.566666666666667,2025-04-21T12:30:07.995+03:00,0.02023345852159405,0
2025-04-21T14:49:30.984+03:00,1745236169.115369,40.9522387725225,29.14028154055504,76.38563,-1,-1,-1,-1,30,22.15875696438606,-9999,17270.812327125,-0.7445220947265625,0.4955291748046875,-0.430328369140625,17270.802250125,2.60150004323778,-1.060945204863629,-0.5193020132214947,-0.01614747568964958,0.01170548796653748,-0.004304988775402308,-0.002366542816162109,-0.002332180738449097,0.002822756767272949,XArbitraryZVertical,0.412180464739691,-0.3438811862909245,0.8380950399004394,0.0972097775165639,-0.7577500343322754,0.4962742924690247,-0.4237059950828552,0,0,0,-1,-1,17265.089249375,unknown,2,2025-04-21T14:49:19.766+03:00,2025-04-20T21:57:49.637+03:00,6548,0.9517458,0,0,5385.986,5,6,2025-04-21T14:49:30.084+03:00,766928970.1838291,0,-46.15,100.2854,1,0.5,2025-04-21T14:48:22.231+03:00,94,1.566666666666667,2025-04-21T12:30:07.995+03:00,0.02023345852159405,0
2025-04-21T14:49:30.994+03:00,1745236169.115369,40.9522387725225,29.14028154055504,76.38563,-1,-1,-1,-1,30,22.15875696438606,-9999,17270.822403125,-0.74774169921875,0.4975128173828125,-0.428436279296875,17270.812327125,2.601304197690664,-1.06096981445118,-0.5192544717855373,-0.01482734736055136,0.006436157040297985,-0.009897094219923019,0.004637718200683594,-0.002031505107879639,-0.003806710243225098,XArbitraryZVertical,0.4121653673761786,-0.3439044696312671,0.8380824111148646,0.09730021542078421,-0.7577810287475586,0.4962330162525177,-0.4236988425254822,0,0,0,-1,-1,17265.089249375,unknown,2,2025-04-21T14:49:19.766+03:00,2025-04-20T21:57:49.637+03:00,6548,0.9517458,0,0,5385.986,5,6,2025-04-21T14:49:30.084+03:00,766928970.1838291,0,-46.15,100.2854,1,0.5,2025-04-21T14:48:22.231+03:00,94,1.566666666666667,2025-04-21T12:30:07.995+03:00,0.02023345852159405,0
2025-04-21T14:49:31.004+03:00,1745236169.115369,40.9522387725225,29.14028154055504,76.38563,-1,-1,-1,-1,30,22.15875696438606,-9999,17270.832479125,-0.74920654296875,0.4966278076171875,-0.4260711669921875,17270.822403125,2.601116252279085,-1.061041302287175,-0.5191168107837325,-0.006104696076363325,0.001891472842544317,-0.01094132009893656,0.01344031095504761,-0.0005691349506378174,-0.006650447845458984,XArbitraryZVertical,0.4121869346110061,-0.3438937700825814,0.8380642395896091,0.09740319196469639,-0.7578709721565247,0.496113508939743,-0.4236780107021332,0,0,0,-1,-1,17265.089249375,unknown,2,2025-04-21T14:49:19.766+03:00,2025-04-20T21:57:49.637+03:00,6548,0.9517458,0,0,5385.986,5,6,2025-04-21T14:49:30.084+03:00,766928970.1838291,0,-46.15,100.2854,1,0.5,2025-04-21T14:48:22.231+03:00,94,1.566666666666667,2025-04-21T12:30:07.995+03:00,0.02023345852159405,0
2025-04-21T14:49:31.014+03:00,1745236169.115369,40.9522387725225,29.14028154055504,76.38563,-1,-1,-1,-1,30,22.15875696438606,-9999,17270.842556125,-0.7479248046875,0.496551513671875,-0.421051025390625,17270.832479125,2.600940726617086,-1.061128275407719,-0.5191453261528094,-0.01535092480480671,-0.00672997860237956,-0.01685913093388081,0.009695947170257568,0.001801639795303345,-0.004251331090927124,XArbitraryZVertical,0.4121882854574107,-0.3439451358786355,0.83803644679276,0.09745408574372591,-0.7578953504562378,0.4961382448673248,-0.4236051142215729,0,0,0,-1,-1,17265.089249375,unknown,2,2025-04-21T14:49:19.766+03:00,2025-04-20T21:57:49.637+03:00,6548,0.9517458,0,0,5385.986,5,6,2025-04-21T14:49:30.084+03:00,766928970.1838291,0,-46.15,100.2854,1,0.5,2025-04-21T14:48:22.231+03:00,94,1.566666666666667,2025-04-21T12:30:07.995+03:00,0.02023345852159405,0
2025-04-21T14:49:31.025+03:00,1745236169.115369,40.9522387725225,29.14028154055504,76.38563,-1,-1,-1,-1,30,22.15875696438606,-9999,17270.852632125,-0.75152587890625,0.495697021484375,-0.41961669921875,17270.842556125,2.600724317259376,-1.061294991093109,-0.5190980523330624,-0.01109739113599062,-0.005250925198197365,-0.01602119952440262,0.009161412715911865,0.0008508563041687012,-0.002077430486679077,XArbitraryZVertical,0.4122291446371392,-0.343979697232899,0.8379934884277911,0.0975286264375855,-0.7579864263534546,0.496097207069397,-0.4234901964664459,0,0,0,-1,-1,17265.089249375,unknown,2,2025-04-21T14:49:19.766+03:00,2025-04-20T21:57:49.637+03:00,6548,0.9517458,0,0,5385.986,5,6,2025-04-21T14:49:30.084+03:00,766928970.1838291,0,-46.15,100.2854,1,0.5,2025-04-21T14:48:22.231+03:00,94,1.566666666666667,2025-04-21T12:30:07.995+03:00,0.02023345852159405,0
2025-04-21T14:49:31.035+03:00,1745236169.115369,40.9522387725225,29.14028154055504,76.38563,-1,-1,-1,-1,30,22.15875696438606,-9999,17270.862708125,-0.7540435791015625,0.492462158203125,-0.4189300537109375,17270.852632125,2.600502339529914,-1.061471024145038,-0.5190136236893248,-0.01384204439818859,-0.006077304482460022,-0.01131006795912981,0.01079833507537842,0.001290470361709595,0.003028035163879395,XArbitraryZVertical,0.4122793651115954,-0.3440016014370866,0.8379499792116432,0.09761387104498043,-0.7580976486206055,0.4960238933563232,-0.4233772456645966,0,0,0,-1,-1,17265.089249375,unknown,2,2025-04-21T14:49:19.766+03:00,2025-04-20T21:57:49.637+03:00,6548,0.9517458,0,0,5385.986,5,6,2025-04-21T14:49:30.084+03:00,766928970.1838291,0,-46.15,100.2854,1,0.5,2025-04-21T14:48:22.231+03:00,94,1.566666666666667,2025-04-21T12:30:07.995+03:00,0.02023345852159405,0
2025-04-21T14:49:31.045+03:00,1745236169.115369,40.9522387725225,29.14028154055504,76.38563,-1,-1,-1,-1,30,22.15875696438606,-9999,17270.872785125,-0.7526092529296875,0.490234375,-0.420684814453125,17270.862708125,2.600240305153799,-1.061693202403743,-0.5190410333113118,-0.02321557141840458,-0.00916470680385828,-0.006824106443673372,0.005799353122711182,-0.0004423260688781738,0.003264963626861572,XArbitraryZVertical,0.4123225988257868,-0.3440769997994743,0.8378902704154009,0.09767817871775641,-0.7581798434257507,0.496047705411911,-0.4232021868228912,0,0,0,-1,-1,17265.089249375,unknown,2,2025-04-21T14:49:19.766+03:00,2025-04-20T21:57:49.637+03:00,6548,0.9517458,0,0,5385.986,5,6,2025-04-21T14:49:30.084+03:00,766928970.1838291,0,-46.15,100.2854,1,0.5,2025-04-21T14:48:22.231+03:00,94,1.566666666666667,2025-04-21T12:30:07.995+03:00,0.02023345852159405,0
2025-04-21T14:49:31.056+03:00,1745236169.115369,40.9522387725225,29.14028154055504,76.38563,-1,-1,-1,-1,30,22.15875696438606,-9999,17270.882861125,-0.75762939453125,0.4893035888671875,-0.427215576171875,17270.872785125,2.599988716062502,-1.061924630437267,-0.5191184570393989,-0.01741360872983932,-0.005840282887220383,-0.004154819995164871,0.004856646060943604,-0.00392758846282959,0.00375741720199585,XArbitraryZVertical,0.4123628253931194,-0.3441699154277212,0.8378269651532507,0.09772309908903175,-0.7582440972328186,0.4961149394512177,-0.4230079352855682,0,0,0,-1,-1,17265.089249375,unknown,2,2025-04-21T14:49:19.766+03:00,2025-04-20T21:57:49.637+03:00,6548,0.9517458,0,0,5385.986,5,6,2025-04-21T14:49:30.084+03:00,766928970.1838291,0,-46.15,100.2854,1,0.5,2025-04-21T14:48:22.231+03:00,94,1.566666666666667,2025-04-21T12:30:07.995+03:00,0.02023345852159405,0
2025-04-21T14:49:31.065+03:00,1745236169.115369,40.9522387725225,29.14028154055504,76.38563,-1,-1,-1,-1,30,22.15875696438606,-9999,17270.892937125,-0.7616424560546875,0.496246337890625,-0.42840576171875,17270.882861125,2.599803444124751,-1.062101826498697,-0.5190939238947001,-0.008546414785087109,-0.005971643608063459,-0.00814107246696949,0.005201637744903564,-0.005966216325759888,0.001340150833129883,XArbitraryZVertical,0.4124094296842755,-0.3442073550161094,0.8377824131328436,0.09777675707194766,-0.7583296895027161,0.4960936307907104,-0.4228795170783997,0,0,0,-1,-1,17265.089249375,unknown,2,2025-04-21T14:49:19.766+03:00,2025-04-20T21:57:49.637+03:00,6548,0.9517458,0,0,5385.986,5,6,2025-04-21T14:49:30.084+03:00,766928970.1838291,0,-46.15,100.2854,1,0.5,2025-04-21T14:48:22.231+03:00,94,1.566666666666667,2025-04-21T12:30:07.995+03:00,0.02023345852159405,0
2025-04-21T14:49:31.075+03:00,1745236169.115369,40.9522387725225,29.14028154055504,76.38563,-1,-1,-1,-1,30,22.15875696438606,-9999,17270.903014125,-0.760101318359375,0.500213623046875,-0.4275665283203125,17270.892937125,2.599753682833949,-1.062119000150636,-0.5190115742596193,-0.0004091265145689249,-0.004584668669849634,-0.01154885347932577,-9.596347808837891e-05,-0.006428807973861694,-0.00480225682258606,XArbitraryZVertical,0.412422405125543,-0.3441868237653204,0.8377798056631439,0.09781648523845504,-0.7583726048469543,0.4960221350193024,-0.4228863716125488,0,0,0,-1,-1,17265.089249375,unknown,2,2025-04-21T14:49:19.766+03:00,2025-04-20T21:57:49.637+03:00,6548,0.9517458,0,0,5385.986,5,6,2025-04-21T14:49:30.084+03:00,766928970.1838291,0,-46.15,100.2854,1,0.5,2025-04-21T14:48:22.231+03:00,94,1.566666666666667,2025-04-21T12:30:07.995+03:00,0.02023345852159405,0
2025-04-21T14:49:31.085+03:00,1745236169.115369,40.9522387725225,29.14028154055504,76.38563,-1,-1,-1,-1,30,22.15875696438606,-9999,17270.913090125,-0.7634429931640625,0.50067138671875,-0.4251861572265625,17270.903014125,2.599807857839278,-1.061959997632499,-0.5189436331811047,0.009598965756595135,0.002395409625023603,-0.01299418415874243,-0.003368675708770752,0.00109177827835083,-0.005245089530944824,XArbitraryZVertical,0.4123769343370265,-0.3441417794171973,0.8378180819798176,0.09783923276349803,-0.7583348155021667,0.4959631264209747,-0.4230234026908875,0,0,0,-1,-1,17265.089249375,unknown,2,2025-04-21T14:49:19.766+03:00,2025-04-20T21:57:49.637+03:00,6548,0.9517458,0,0,5385.986,5,6,2025-04-21T14:49:30.084+03:00,766928970.1838291,0,-46.15,100.2854,1,0.5,2025-04-21T14:48:22.231+03:00,94,1.566666666666667,2025-04-21T12:30:07.995+03:00,0.02023345852159405,0
2025-04-21T14:49:31.095+03:00,1745236169.115369,40.9522387725225,29.14028154055504,76.38563,-1,-1,-1,-1,30,22.15875696438606,-9999,17270.923166125,-0.762725830078125,0.5003204345703125,-0.4250030517578125,17270.913090125,2.599917626894272,-1.061775317287537,-0.5188078130741075,0.01651120185852051,0.004810630343854427,-0.01811384409666061,-0.002075731754302979,0.004642963409423828,-0.004278719425201416,XArbitraryZVertical,0.4123420979900365,-0.3440579342499044,0.8378671117529651,0.0978610641336088,-0.7583155035972595,0.4958451688289642,-0.4231962561607361,0,0,0,-1,-1,17265.089249375,unknown,2,2025-04-21T14:49:19.766+03:00,2025-04-20T21:57:49.637+03:00,6548,0.9517458,0,0,5385.986,5,6,2025-04-21T14:49:30.084+03:00,766928970.1838291,0,-46.15,100.2854,1,0.5,2025-04-21T14:48:22.231+03:00,94,1.566666666666667,2025-04-21T12:30:07.995+03:00,0.02023345852159405,0
2025-04-21T14:49:31.105+03:00,1745236169.115369,40.9522387725225,29.14028154055504,76.38563,-1,-1,-1,-1,30,22.15875696438606,-9999,17270.933243125,-0.75897216796875,0.4958343505859375,-0.4291534423828125,17270.923166125,2.600051485407683,-1.061573361708214,-0.5186372824323385,0.01889805868268013,0.007542900741100311,-0.01443502120673656,-0.005078136920928955,0.005706548690795898,-0.001688748598098755,XArbitraryZVertical,0.4123102181014104,-0.3439549310361391,0.8379222352994314,0.09788489510239996,-0.7583037614822388,0.4956970810890198,-0.4233905673027039,0,0,0,-1,-1,17265.089249375,unknown,2,2025-04-21T14:49:19.766+03:00,2025-04-20T21:57:49.637+03:00,6548,0.9517458,0,0,5385.986,5,6,2025-04-21T14:49:30.084+03:00,766928970.1838291,0,-46.15,100.2854,1,0.5,2025-04-21T14:48:22.231+03:00,94,1.566666666666667,2025-04-21T12:30:07.995+03:00,0.02023345852159405,0
2025-04-21T14:49:31.115+03:00,1745236169.115369,40.9522387725225,29.14028154055504,76.38563,-1,-1,-1,-1,30,22.15875696438606,-9999,17270.943319125,-0.7595672607421875,0.49127197265625,-0.428741455078125,17270.933243125,2.600162653282865,-1.061407844370573,-0.5185340243546714,0.01550998538732529,0.00892161950469017,-0.01319372188299894,-0.004813611507415771,0.003919392824172974,-0.001599341630935669,XArbitraryZVertical,0.4122779629354969,-0.3438842336828694,0.837966017275119,0.09789414917100489,-0.7582783699035645,0.4956074059009552,-0.4235410392284393,0,0,0,-1,-1,17265.089249375,unknown,2,2025-04-21T14:49:19.766+03:00,2025-04-20T21:57:49.637+03:00,6548,0.9517458,0,0,5385.986,5,6,2025-04-21T14:49:30.084+03:00,766928970.1838291,0,-46.15,100.2854,1,0.5,2025-04-21T14:48:22.231+03:00,94,1.566666666666667,2025-04-21T12:30:07.995+03:00,0.02023345852159405,0
2025-04-21T14:49:31.126+03:00,1745236169.115369,40.9522387725225,29.14028154055504,76.38563,-1,-1,-1,-1,30,22.15875696438606,-9999,17270.953395125,-0.7562713623046875,0.49395751953125,-0.4267730712890625,17270.943319125,2.600264907288338,-1.061263560964492,-0.5183909667879415,0.01795776374638081,0.01032037753611803,-0.009675519540905952,-0.0002351999282836914,0.0001373589038848877,-0.005086958408355713,XArbitraryZVertical,0.4122599822628611,-0.3438011144340217,0.8380066267018179,0.09791403779639322,-0.7582790851593018,0.4954831600189209,-0.4236850142478943,0,0,0,-1,-1,17265.089249375,unknown,2,2025-04-21T14:49:19.766+03:00,2025-04-20T21:57:49.637+03:00,6548,0.9517458,0,0,5385.986,5,6,2025-04-21T14:49:30.084+03:00,766928970.1838291,0,-46.15,100.2854,1,0.5,2025-04-21T14:48:22.231+03:00,94,1.566666666666667,2025-04-21T12:30:07.995+03:00,0.02023345852159405,0
2025-04-21T14:49:31.135+03:00,1745236169.115369,40.9522387725225,29.14028154055504,76.38563,-1,-1,-1,-1,30,22.15875696438606,-9999,17270.963472125,-0.751129150390625,0.496368408203125,-0.4226531982421875,17270.953395125,2.600387802670021,-1.061147381238972,-0.5182193409433874,0.02016232907772064,0.001494129188358784,-0.009261931292712688,-0.0009121298789978027,-0.003985941410064697,-0.004759013652801514,XArbitraryZVertical,0.4122622423791262,-0.3437041342050896,0.8380437363299255,0.09792812014306303,-0.7583041787147522,0.4953340590000153,-0.4238146245479584,0,0,0,-1,-1,17265.089249375,unknown,2,2025-04-21T14:49:19.766+03:00,2025-04-20T21:57:49.637+03:00,6548,0.9517458,0,0,5385.986,5,6,2025-04-21T14:49:30.084+03:00,766928970.1838291,0,-46.15,100.2854,1,0.5,2025-04-21T14:48:22.231+03:00,94,1.566666666666667,2025-04-21T12:30:07.995+03:00,0.02023345852159405,0
2025-04-21T14:49:31.158+03:00,1745236169.115369,40.9522387725225,29.14028154055504,76.38563,-1,-1,-1,-1,30,22.15875696438606,-9999,17270.973548125,-0.7516021728515625,0.501800537109375,-0.421295166015625,17270.963472125,2.60054779707648,-1.061028388918563,-0.5179800865283725,0.02437365241348743,0.00570012629032135,-0.01322081964462996,0.002177417278289795,-0.00106203556060791,-0.001742303371429443,XArbitraryZVertical,0.4122814577727058,-0.3435733615387638,0.8380859667992955,0.09794500635997477,-0.7583572268486023,0.4951262176036835,-0.4239626824855804,0,0,0,-1,-1,17265.089249375,unknown,2,2025-04-21T14:49:19.766+03:00,2025-04-20T21:57:49.637+03:00,6548,0.9517458,0,0,5385.986,5,6,2025-04-21T14:49:30.084+03:00,766928970.1838291,0,-46.15,100.2854,1,0.5,2025-04-21T14:48:22.231+03:00,94,1.566666666666667,2025-04-21T12:30:07.995+03:00,0.02023345852159405,0
2025-04-21T14:49:31.161+03:00,1745236169.115369,40.9522387725225,29.14028154055504,76.38563,-1,-1,-1,-1,30,22.15875696438606,-9999,17270.983624125,-0.7540283203125,0.4988250732421875,-0.4176483154296875,17270.973548125,2.600792299212877,-1.060802990348702,-0.5176568260780007,0.03398286923766136,0.007327051367610693,-0.01041091792285442,0.007592499256134033,0.002118021249771118,0.001451671123504639,XArbitraryZVertical,0.4122851872541152,-0.343387639953752,0.8381576503958034,0.09796693292836132,-0.7584012150764465,0.4948453307151794,-0.424211710691452,0,0,0,-1,-1,17265.089249375,unknown,2,2025-04-21T14:49:19.766+03:00,2025-04-20T21:57:49.637+03:00,6548,0.9517458,0,0,5385.986,5,6,2025-04-21T14:49:30.084+03:00,766928970.1838291,0,-46.15,100.2854,1,0.5,2025-04-21T14:48:22.231+03:00,94,1.566666666666667,2025-04-21T12:30:07.995+03:00,0.02023345852159405,0
2025-04-21T14:49:31.166+03:00,1745236169.115369,40.9522387725225,29.14028154055504,76.38563,-1,-1,-1,-1,30,22.15875696438606,-9999,17270.993701125,-0.7599639892578125,0.49090576171875,-0.417236328125,17270.983624125,2.601065143352081,-1.06050324974333,-0.5174083582614197,0.02677209489047527,0.02129479870200157,-0.008493575267493725,0.006123006343841553,0.007811844348907471,0.002868175506591797,XArbitraryZVertical,0.4122495592726508,-0.3432211708442225,0.8382430173543365,0.09796991002091819,-0.7583813071250916,0.4946293830871582,-0.4244990646839142,0,0,0,-1,-1,17265.089249375,unknown,2,2025-04-21T14:49:19.766+03:00,2025-04-20T21:57:49.637+03:00,6548,0.9517458,0,0,5385.986,5,6,2025-04-21T14:49:30.084+03:00,766928970.1838291,0,-46.15,100.2854,1,0.5,2025-04-21T14:48:22.231+03:00,94,1.566666666666667,2025-04-21T12:30:07.995+03:00,0.02023345852159405,0
2025-04-21T14:49:31.176+03:00,1745236169.115369,40.9522387725225,29.14028154055504,76.38563,-1,-1,-1,-1,30,22.15875696438606,-9999,17271.003777125,-0.75970458984375,0.482452392578125,-0.4208831787109375,17270.993701125,2.601233856281916,-1.060113314699888,-0.5173369311510321,0.008143016137182713,0.03413629531860352,-0.001439394429326057,0.00322645902633667,0.00337257981300354,0.007453560829162598,XArbitraryZVertical,0.4121274677939206,-0.3431398264079607,0.8383345959035415,0.09798504746733472,-0.7582466006278992,0.4945673048496246,-0.4248120188713074,0,0,0,-1,-1,17265.089249375,unknown,2,2025-04-21T14:49:19.766+03:00,2025-04-20T21:57:49.637+03:00,6548,0.9517458,0,0,5385.986,5,6,2025-04-21T14:49:30.084+03:00,766928970.1838291,0,-46.15,100.2854,1,0.5,2025-04-21T14:48:22.231+03:00,94,1.566666666666667,2025-04-21T12:30:07.995+03:00,0.02023345852159405,0
2025-04-21T14:49:31.198+03:00,1745236169.115369,40.9522387725225,29.14028154055504,76.38563,-1,-1,-1,-1,30,22.15875696438606,-9999,17271.013853125,-0.75146484375,0.48199462890625,-0.4271240234375,17271.003777125,2.601253809048372,-1.05981663519568,-0.5173908084251778,-0.0007115284679457545,0.02490810863673687,0.004478915128856897,-0.002385556697845459,-0.004135727882385254,0.007085621356964111,XArbitraryZVertical,0.4119971462380008,-0.3431419064520862,0.8383945614987267,0.09801338983712005,-0.7580973505973816,0.4946141541004181,-0.4250239729881287,0,0,0,-1,-1,17265.089249375,unknown,2,2025-04-21T14:49:19.766+03:00,2025-04-20T21:57:49.637+03:00,6548,0.9517458,0,0,5385.986,5,6,2025-04-21T14:49:30.084+03:00,766928970.1838291,0,-46.15,100.2854,1,0.5,2025-04-21T14:48:22.231+03:00,94,1.566666666666667,2025-04-21T12:30:07.995+03:00,0.02023345852159405,0
2025-04-21T14:49:31.199+03:00,1745236169.115369,40.9522387725225,29.14028154055504,76.38563,-1,-1,-1,-1,30,22.15875696438606,-9999,17271.023930125,-0.7500152587890625,0.488861083984375,-0.433624267578125,17271.013853125,2.601227571622457,-1.059618396176262,-0.5174702006416606,-0.003715041326358914,0.02301114052534103,0.003381692571565509,-0.001527488231658936,-0.01296335458755493,0.003218919038772583,XArbitraryZVertical,0.4118957968927903,-0.3431681315617128,0.8384307246272191,0.09803725753354099,-0.7579787373542786,0.4946831464767456,-0.425154983997345,0,0,0,-1,-1,17265.089249375,unknown,2,2025-04-21T14:49:19.766+03:00,2025-04-20T21:57:49.637+03:00,6548,0.9517458,0,0,5385.986,5,6,2025-04-21T14:49:30.084+03:00,766928970.1838291,0,-46.15,100.2854,1,0.5,2025-04-21T14:48:22.231+03:00,94,1.566666666666667,2025-04-21T12:30:07.995+03:00,0.02023345852159405,0
2025-04-21T14:49:31.206+03:00,1745236169.115369,40.9522387725225,29.14028154055504,76.38563,-1,-1,-1,-1,30,22.15875696438606,-9999,17271.034006125,-0.7481231689453125,0.4939117431640625,-0.4286041259765625,17271.023930125,2.601261947735429,-1.059404657700237,-0.5174669538463186,0.003897604532539845,0.01105913892388344,-0.00391656719148159,0.007019460201263428,-0.01164823770523071,-0.003210127353668213,XArbitraryZVertical,0.4118126519527055,-0.3431493253114332,0.8384765638783144,0.09806038485842034,-0.7578892111778259,0.4946803152561188,-0.4253177642822266,0,0,0,-1,-1,17265.089249375,unknown,2,2025-04-21T14:49:19.766+03:00,2025-04-20T21:57:49.637+03:00,6548,0.9517458,0,0,5385.986,5,6,2025-04-21T14:49:30.084+03:00,766928970.1838291,0,-46.15,100.2854,1,0.5,2025-04-21T14:48:22.231+03:00,94,1.566666666666667,2025-04-21T12:30:07.995+03:00,0.02023345852159405,0
2025-04-21T14:49:31.216+03:00,1745236169.115369,40.9522387725225,29.14028154055504,76.38563,-1,-1,-1,-1,30,22.15875696438606,-9999,17271.044082125,-0.743133544921875,0.50042724609375,-0.424041748046875,17271.034006125,2.601359600590229,-1.05924754963593,-0.5172953012724,0.01909733004868031,0.006097936071455479,-0.004512316081672907,0.007392942905426025,-0.00559389591217041,-0.00756603479385376,XArbitraryZVertical,0.4117933149612478,-0.3430554720206969,0.8385208335066431,0.09809191152721711,-0.7578964829444885,0.494531124830246,-0.4254784286022186,0,0,0,-1,-1,17265.089249375,unknown,2,2025-04-21T14:49:19.766+03:00,2025-04-20T21:57:49.637+03:00,6548,0.9517458,0,0,5385.986,5,6,2025-04-21T14:49:30.084+03:00,766928970.1838291,0,-46.15,100.2854,1,0.5,2025-04-21T14:48:22.231+03:00,94,1.566666666666667,2025-04-21T12:30:07.995+03:00,0.02023345852159405,0
2025-04-21T14:49:31.226+03:00,1745236169.115369,40.9522387725225,29.14028154055504,76.38563,-1,-1,-1,-1,30,22.15875696438606,-9999,17271.054158125,-0.752838134765625,0.4996337890625,-0.421142578125,17271.044082125,2.601522280049275,-1.059088557065262,-0.5171222573143032,0.02341990731656551,0.01001837477087975,-0.01103000342845917,0.01081782579421997,0.0004311501979827881,-0.002658188343048096,XArbitraryZVertical,0.4117845938855319,-0.3429475901065939,0.8385686543432772,0.09809676700947959,-0.7579033970832825,0.4943807125091553,-0.4256407916545868,0,0,0,-1,-1,17265.089249375,unknown,2,2025-04-21T14:49:19.766+03:00,2025-04-20T21:57:49.637+03:00,6548,0.9517458,0,0,5385.986,5,6,2025-04-21T14:49:30.084+03:00,766928970.1838291,0,-46.15,100.2854,1,0.5,2025-04-21T14:48:22.231+03:00,94,1.566666666666667,2025-04-21T12:30:07.995+03:00,0.02023345852159405,0
2025-04-21T14:49:31.236+03:00,1745236169.115369,40.9522387725225,29.14028154055504,76.38563,-1,-1,-1,-1,30,22.15875696438606,-9999,17271.064235125,-0.759735107421875,0.493011474609375,-0.4178924560546875,17271.054158125,2.601679498189696,-1.058843715045778,-0.5170104197768214,0.02035540714859962,0.01765605434775352,-0.009738903492689133,0.01431703567504883,0.00663188099861145,0.001872658729553223,XArbitraryZVertical,0.411728318721042,-0.3428601682253063,0.8386313036335931,0.09810235271023936,-0.7578473091125488,0.4942834973335266,-0.4258534014225006,0,0,0,-1,-1,17265.089249375,unknown,2,2025-04-21T14:49:19.766+03:00,2025-04-20T21:57:49.637+03:00,6548,0.9517458,0,0,5385.986,5,6,2025-04-21T14:49:30.084+03:00,766928970.1838291,0,-46.15,100.2854,1,0.5,2025-04-21T14:48:22.231+03:00,94,1.566666666666667,2025-04-21T12:30:07.995+03:00,0.02023345852159405,0
2025-04-21T14:49:31.246+03:00,1745236169.115369,40.9522387725225,29.14028154055504,76.38563,-1,-1,-1,-1,30,22.15875696438606,-9999,17271.074311125,-0.75567626953125,0.489959716796875,-0.418487548828125,17271.064235125,2.601780662895582,-1.058628910368129,-0.5169997980061016,0.01257797796279192,0.0178888812661171,-0.005989404860883951,0.003945708274841309,0.004596412181854248,0.004799872636795044,XArbitraryZVertical,0.4116574313914989,-0.3428247189699223,0.8386809148573167,0.09809955932696074,-0.7577603459358215,0.4942742586135864,-0.4260187447071075,0,0,0,-1,-1,17265.089249375,unknown,2,2025-04-21T14:49:19.766+03:00,2025-04-20T21:57:49.637+03:00,6548,0.9517458,0,0,5385.986,5,6,2025-04-21T14:49:30.084+03:00,766928970.1838291,0,-46.15,100.2854,1,0.5,2025-04-21T14:48:22.231+03:00,94,1.566666666666667,2025-04-21T12:30:07.995+03:00,0.02023345852159405,0
2025-04-21T14:49:31.256+03:00,1745236169.115369,40.9522387725225,29.14028154055504,76.38563,-1,-1,-1,-1,30,22.15875696438606,-9999,17271.084387125,-0.7554473876953125,0.4827117919921875,-0.4215240478515625,17271.074311125,2.601776614346707,-1.058497587457722,-0.5169850720301116,0.003259577555581927,0.025237075984478,-0.00807492621243,-0.002161562442779541,-0.001799464225769043,0.007786870002746582,XArbitraryZVertical,0.4116041875101556,-0.3428134453863972,0.8387084497846048,0.09812776195979753,-0.757710874080658,0.4942614734172821,-0.426121860742569,0,0,0,-1,-1,17265.089249375,unknown,2,2025-04-21T14:49:19.766+03:00,2025-04-20T21:57:49.637+03:00,6548,0.9517458,0,0,5385.986,5,6,2025-04-21T14:49:30.084+03:00,766928970.1838291,0,-46.15,100.2854,1,0.5,2025-04-21T14:48:22.231+03:00,94,1.566666666666667,2025-04-21T12:30:07.995+03:00,0.02023345852159405,0
2025-04-21T14:49:31.266+03:00,1745236169.115369,40.9522387725225,29.14028154055504,76.38563,-1,-1,-1,-1,30,22.15875696438606,-9999,17271.094464125,-0.751434326171875,0.4817047119140625,-0.4240875244140625,17271.084387125,2.60169103437791,-1.058372621242549,-0.5168994000106685,-0.004530834499746561,0.02242038398981094,-0.00430994899943471,0.003177881240844727,-0.005234509706497192,0.006925702095031738,XArbitraryZVertical,0.4115519900709269,-0.3427919416533024,0.8387334516106116,0.09820769329288086,-0.7576944828033447,0.4941869974136353,-0.4262372851371765,0,0,0,-1,-1,17265.089249375,unknown,2,2025-04-21T14:49:19.766+03:00,2025-04-20T21:57:49.637+03:00,6548,0.9517458,0,0,5385.986,5,6,2025-04-21T14:49:30.084+03:00,766928970.1838291,0,-46.15,100.2854,1,0.5,2025-04-21T14:48:22.231+03:00,94,1.566666666666667,2025-04-21T12:30:07.995+03:00,0.02023345852159405,0
2025-04-21T14:49:31.277+03:00,1745236169.115369,40.9522387725225,29.14028154055504,76.38563,-1,-1,-1,-1,30,22.15875696438606,-9999,17271.104540125,-0.746734619140625,0.484588623046875,-0.4273834228515625,17271.094464125,2.601588333449024,-1.058280132873671,-0.5167315082432169,-0.004268513061106205,0.01473849546164274,-0.004650034941732883,0.002203643321990967,-0.01113101840019226,0.004625618457794189,XArbitraryZVertical,0.4115247149435473,-0.3427438987208508,0.8387543823231847,0.0983110639878642,-0.757727324962616,0.4940410256385803,-0.4263480603694916,0,0,0,-1,-1,17265.089249375,unknown,2,2025-04-21T14:49:19.766+03:00,2025-04-20T21:57:49.637+03:00,6548,0.9517458,0,0,5385.986,5,6,2025-04-21T14:49:30.084+03:00,766928970.1838291,0,-46.15,100.2854,1,0.5,2025-04-21T14:48:22.231+03:00,94,1.566666666666667,2025-04-21T12:30:07.995+03:00,0.02023345852159405,0
2025-04-21T14:49:31.287+03:00,1745236169.115369,40.9522387725225,29.14028154055504,76.38563,-1,-1,-1,-1,30,22.15875696438606,-9999,17271.114616125,-0.74871826171875,0.4917144775390625,-0.4293060302734375,17271.104540125,2.601599603910596,-1.058083539509179,-0.5166152998512566,0.001593370805494487,0.01116852834820747,-0.001563830650411546,0.007281601428985596,-0.01150301098823547,0.001140594482421875,XArbitraryZVertical,0.4114643463316159,-0.3426871745602532,0.8388001920758414,0.09837079061339112,-0.7576935887336731,0.493939995765686,-0.4265251755714417,0,0,0,-1,-1,17265.089249375,unknown,2,2025-04-21T14:49:19.766+03:00,2025-04-20T21:57:49.637+03:00,6548,0.9517458,0,0,5385.986,5,6,2025-04-21T14:49:30.084+03:00,766928970.1838291,0,-46.15,100.2854,1,0.5,2025-04-21T14:48:22.231+03:00,94,1.566666666666667,2025-04-21T12:30:07.995+03:00,0.02023345852159405,0
2025-04-21T14:49:31.297+03:00,1745236169.115369,40.9522387725225,29.14028154055504,76.38563,-1,-1,-1,-1,30,22.15875696438606,-9999,17271.124693125,-0.7512969970703125,0.4979400634765625,-0.4284820556640625,17271.114616125,2.601702588152545,-1.057830699516343,-0.5165409824121993,0.007699999026954174,0.009672097861766815,-0.001228006090968847,0.01152390241622925,-0.008295059204101562,-0.0005266666412353516,XArbitraryZVertical,0.4113888448918975,-0.3426249358417692,0.8388603008630965,0.09839054344967586,-0.7576176524162292,0.4938753843307495,-0.4267347455024719,0,0,0,-1,-1,17265.089249375,unknown,2,2025-04-21T14:49:19.766+03:00,2025-04-20T21:57:49.637+03:00,6548,0.9517458,0,0,5385.986,5,6,2025-04-21T14:49:30.084+03:00,766928970.1838291,0,-46.15,100.2854,1,0.5,2025-04-21T14:48:22.231+03:00,94,1.566666666666667,2025-04-21T12:30:07.995+03:00,0.02023345852159405,0
2025-04-21T14:49:31.307+03:00,1745236169.115369,40.9522387725225,29.14028154055504,76.38563,-1,-1,-1,-1,30,22.15875696438606,-9999,17271.134769125,-0.7496795654296875,0.4991302490234375,-0.427398681640625,17271.124693125,2.601844982546092,-1.057624286115959,-0.5165303841378924,0.01490478217601776,0.004822348244488239,-0.001710371114313602,0.00819021463394165,-0.001251488924026489,-0.002275049686431885,XArbitraryZVertical,0.4113284625706434,-0.3425814174695059,0.8389102934197269,0.09836907525959712,-0.7575342059135437,0.4938661456108093,-0.4268937408924103,0,0,0,-1,-1,17265.089249375,unknown,2,2025-04-21T14:49:19.766+03:00,2025-04-20T21:57:49.637+03:00,6548,0.9517458,0,0,5385.986,5,6,2025-04-21T14:49:30.084+03:00,766928970.1838291,0,-46.15,100.2854,1,0.5,2025-04-21T14:48:22.231+03:00,94,1.566666666666667,2025-04-21T12:30:07.995+03:00,0.02023345852159405,0
2025-04-21T14:49:31.317+03:00,1745236169.115369,40.9522387725225,29.14028154055504,76.38563,-1,-1,-1,-1,30,22.15875696438606,-9999,17271.144845125,-0.7523345947265625,0.494964599609375,-0.4260711669921875,17271.134769125,2.601975300719865,-1.057470026676596,-0.5166258193782394,0.01396362110972404,0.005161634646356106,-0.005365026649087667,0.006389617919921875,0.003960251808166504,-0.001494705677032471,XArbitraryZVertical,0.4112695605444304,-0.3425837827981139,0.8389444092703355,0.09831552113120302,-0.7574272155761719,0.4939491450786591,-0.4269874095916748,0,0,0,-1,-1,17265.089249375,unknown,2,2025-04-21T14:49:19.766+03:00,2025-04-20T21:57:49.637+03:00,6548,0.9517458,0,0,5385.986,5,6,2025-04-21T14:49:30.084+03:00,766928970.1838291,0,-46.15,100.2854,1,0.5,2025-04-21T14:48:22.231+03:00,94,1.566666666666667,2025-04-21T12:30:07.995+03:00,0.02023345852159405,0
2025-04-21T14:49:31.327+03:00,1745236169.115369,40.9522387725225,29.14028154055504,76.38563,-1,-1,-1,-1,30,22.15875696438606,-9999,17271.154922125,-0.7567138671875,0.4930419921875,-0.4247589111328125,17271.144845125,2.602030580009449,-1.057421700527293,-0.5166106986830858,0.01005023904144764,0.006674443371593952,-0.007304673548787832,0.007550358772277832,0.00446164608001709,-0.0007677972316741943,XArbitraryZVertical,0.4112614073530606,-0.3425642133745854,0.8389576066774197,0.09830452707036433,-0.7574129700660706,0.4939360022544861,-0.4270276427268982,0,0,0,-1,-1,17265.089249375,unknown,2,2025-04-21T14:49:19.766+03:00,2025-04-20T21:57:49.637+03:00,6548,0.9517458,0,0,5385.986,5,6,2025-04-21T14:49:30.084+03:00,766928970.1838291,0,-46.15,100.2854,1,0.5,2025-04-21T14:48:22.231+03:00,94,1.566666666666667,2025-04-21T12:30:07.995+03:00,0.02023345852159405,0
2025-04-21T14:49:31.337+03:00,1745236169.115369,40.9522387725225,29.14028154055504,76.38563,-1,-1,-1,-1,30,22.15875696438606,-9999,17271.164998125,-0.75921630859375,0.4932403564453125,-0.42547607421875,17271.154922125,2.602044282306324,-1.057424441334607,-0.5164937364091484,0.01101616770029068,0.007195624057203531,-0.009767298586666584,0.00401604175567627,0.0008402168750762939,0.0009064376354217529,XArbitraryZVertical,0.4112851904830012,-0.3425164817304234,0.8389625092611533,0.098329199334712,-0.7574644684791565,0.4938342869281769,-0.4270538985729218,0,0,0,-1,-1,17265.089249375,unknown,2,2025-04-21T14:49:19.766+03:00,2025-04-20T21:57:49.637+03:00,6548,0.9517458,0,0,5385.986,5,6,2025-04-21T14:49:30.084+03:00,766928970.1838291,0,-46.15,100.2854,1,0.5,2025-04-21T14:48:22.231+03:00,94,1.566666666666667,2025-04-21T12:30:07.995+03:00,0.02023345852159405,0
2025-04-21T14:49:31.347+03:00,1745236169.115369,40.9522387725225,29.14028154055504,76.38563,-1,-1,-1,-1,30,22.15875696438606,-9999,17271.175074125,-0.761016845703125,0.493927001953125,-0.4219970703125,17271.164998125,2.602074867062661,-1.057351572280324,-0.5163341964723454,0.0129203274846077,0.01434727758169174,-0.01116106379777193,0.0002235770225524902,-0.001126676797866821,0.002007424831390381,XArbitraryZVertical,0.4112874407600016,-0.3424451682187713,0.8389857826604515,0.09837123035801418,-0.7575021386146545,0.4936955571174622,-0.4271478950977325,0,0,0,-1,-1,17265.089249375,unknown,2,2025-04-21T14:49:19.766+03:00,2025-04-20T21:57:49.637+03:00,6548,0.9517458,0,0,5385.986,5,6,2025-04-21T14:49:30.084+03:00,766928970.1838291,0,-46.15,100.2854,1,0.5,2025-04-21T14:48:22.231+03:00,94,1.566666666666667,2025-04-21T12:30:07.995+03:00,0.02023345852159405,0
2025-04-21T14:49:31.357+03:00,1745236169.115369,40.9522387725225,29.14028154055504,76.38563,-1,-1,-1,-1,30,22.15875696438606,-9999,17271.185151125,-0.75946044921875,0.4917449951171875,-0.4204559326171875,17271.175074125,2.602122613395738,-1.057199800560657,-0.5160851794452316,0.01101669948548079,0.01726104132831097,-0.009035595692694187,-0.002145051956176758,0.0001579225063323975,0.001374095678329468,XArbitraryZVertical,0.4112751490404362,-0.3423319553198744,0.8390294628981121,0.09844286821418424,-0.757544219493866,0.4934789836406708,-0.4273231625556946,0,0,0,-1,-1,17265.089249375,unknown,2,2025-04-21T14:49:19.766+03:00,2025-04-20T21:57:49.637+03:00,6548,0.9517458,0,0,5385.986,5,6,2025-04-21T14:49:30.084+03:00,766928970.1838291,0,-46.15,100.2854,1,0.5,2025-04-21T14:48:22.231+03:00,94,1.566666666666667,2025-04-21T12:30:07.995+03:00,0.02023345852159405,0
2025-04-21T14:49:31.367+03:00,1745236169.115369,40.9522387725225,29.14028154055504,76.38563,-1,-1,-1,-1,30,22.15875696438606,-9999,17271.195227125,-0.7530670166015625,0.4905853271484375,-0.4205322265625,17271.185151125,2.602194089793186,-1.056965315586499,-0.5159149759668786,0.002349974820390344,0.01800832524895668,-0.001693526515737176,-0.003438651561737061,0.0003975033760070801,0.005743354558944702,XArbitraryZVertical,0.4112185005848751,-0.3422401424596919,0.8390881999787664,0.09849798878100914,-0.7575170993804932,0.4933309257030487,-0.4275420606136322,0,0,0,-1,-1,17265.089249375,unknown,2,2025-04-21T14:49:19.766+03:00,2025-04-20T21:57:49.637+03:00,6548,0.9517458,0,0,5385.986,5,6,2025-04-21T14:49:30.084+03:00,766928970.1838291,0,-46.15,100.2854,1,0.5,2025-04-21T14:48:22.231+03:00,94,1.566666666666667,2025-04-21T12:30:07.995+03:00,0.02023345852159405,0
2025-04-21T14:49:31.377+03:00,1745236169.115369,40.9522387725225,29.14028154055504,76.38563,-1,-1,-1,-1,30,22.15875696438606,-9999,17271.205303125,-0.751251220703125,0.4917144775390625,-0.4223175048828125,17271.195227125,2.602252762587891,-1.056743373487744,-0.5158653282602188,0.006790529936552048,0.01414700783789158,-0.000363810220733285,-0.001101374626159668,-0.001100420951843262,0.00795292854309082,XArbitraryZVertical,0.4111440146828385,-0.3421980200835072,0.8391387888253976,0.0985244925176197,-0.7574435472488403,0.4932877421379089,-0.4277222156524658,0,0,0,-1,-1,17265.089249375,unknown,2,2025-04-21T14:49:19.766+03:00,2025-04-20T21:57:49.637+03:00,6548,0.9517458,0,0,5385.986,5,6,2025-04-21T14:49:30.084+03:00,766928970.1838291,0,-46.15,100.2854,1,0.5,2025-04-21T14:48:22.231+03:00,94,1.566666666666667,2025-04-21T12:30:07.995+03:00,0.02023345852159405,0
2025-04-21T14:49:31.388+03:00,1745236169.115369,40.9522387725225,29.14028154055504,76.38563,-1,-1,-1,-1,30,22.15875696438606,-9999,17271.215380125,-0.751953125,0.493896484375,-0.423492431640625,17271.205303125,2.602353108844028,-1.056461010975696,-0.5158699430256687,0.00475700618699193,0.01943611167371273,0.000749823811929673,0.005062520503997803,-0.003027051687240601,0.007341712713241577,XArbitraryZVertical,0.4110419117034876,-0.3421652619763517,0.8392015717180329,0.09852947025617076,-0.757320761680603,0.4932917654514313,-0.4279349744319916,0,0,0,-1,-1,17265.089249375,unknown,2,2025-04-21T14:49:19.766+03:00,2025-04-20T21:57:49.637+03:00,6548,0.9517458,0,0,5385.986,5,6,2025-04-21T14:49:30.084+03:00,766928970.1838291,0,-46.15,100.2854,1,0.5,2025-04-21T14:48:22.231+03:00,94,1.566666666666667,2025-04-21T12:30:07.995+03:00,0.02023345852159405,0
2025-04-21T14:49:31.398+03:00,1745236169.115369,40.9522387725225,29.14028154055504,76.38563,-1,-1,-1,-1,30,22.15875696438606,-9999,17271.225456125,-0.74920654296875,0.495819091796875,-0.4229888916015625,17271.215380125,2.602449758547243,-1.05620995795471,-0.5159815085674224,0.00348028726875782,0.0150565430521965,0.006327814888209105,0.005593836307525635,-0.001659214496612549,0.005429565906524658,XArbitraryZVertical,0.4109337429011183,-0.3421760332128956,0.8392534231840378,0.09850250118335203,-0.7571654915809631,0.4933888018131256,-0.428098052740097,0,0,0,-1,-1,17265.089249375,unknown,2,2025-04-21T14:49:19.766+03:00,2025-04-20T21:57:49.637+03:00,6548,0.9517458,0,0,5385.986,5,6,2025-04-21T14:49:30.084+03:00,766928970.1838291,0,-46.15,100.2854,1,0.5,2025-04-21T14:48:22.231+03:00,94,1.566666666666667,2025-04-21T12:30:07.995+03:00,0.02023345852159405,0
2025-04-21T14:49:31.408+03:00,1745236169.115369,40.9522387725225,29.14028154055504,76.38563,-1,-1,-1,-1,30,22.15875696438606,-9999,17271.235532125,-0.7521514892578125,0.487548828125,-0.4254150390625,17271.225456125,2.602563670682696,-1.05597543052005,-0.5160956336123388,0.006045177578926086,0.01593165844678879,0.003650805214419961,0.004635632038116455,0.0005455613136291504,0.004480689764022827,XArbitraryZVertical,0.4108350950275501,-0.3421850617596338,0.839302373790718,0.09846456037777382,-0.7570159435272217,0.493488073348999,-0.4282478094100952,0,0,0,-1,-1,17265.089249375,unknown,2,2025-04-21T14:49:19.766+03:00,2025-04-20T21:57:49.637+03:00,6548,0.9517458,0,0,5385.986,5,6,2025-04-21T14:49:30.084+03:00,766928970.1838291,0,-46.15,100.2854,1,0.5,2025-04-21T14:48:22.231+03:00,94,1.566666666666667,2025-04-21T12:30:07.995+03:00,0.02023345852159405,0
2025-04-21T14:49:31.418+03:00,1745236169.115369,40.9522387725225,29.14028154055504,76.38563,-1,-1,-1,-1,30,22.15875696438606,-9999,17271.245609125,-0.7588653564453125,0.4905853271484375,-0.42205810546875,17271.235532125,2.602665185090997,-1.055739532979504,-0.5161493807476247,0.007219631224870682,0.02089498937129974,0.00434189522638917,0.008326172828674316,0.0009260773658752441,0.005073428153991699,XArbitraryZVertical,0.4107441518693019,-0.3421733153598809,0.8393536183342631,0.09844814484118376,-0.7568918466567993,0.4935348331928253,-0.4284133315086365,0,0,0,-1,-1,17265.089249375,unknown,2,2025-04-21T14:49:19.766+03:00,2025-04-20T21:57:49.637+03:00,6548,0.9517458,0,0,5385.986,5,6,2025-04-21T14:49:30.084+03:00,766928970.1838291,0,-46.15,100.2854,1,0.5,2025-04-21T14:48:22.231+03:00,94,1.566666666666667,2025-04-21T12:30:07.995+03:00,0.02023345852159405,0
2025-04-21T14:49:31.428+03:00,1745236169.115369,40.9522387725225,29.14028154055504,76.38563,-1,-1,-1,-1,30,22.15875696438606,-9999,17271.255685125,-0.7590484619140625,0.494354248046875,-0.419525146484375,17271.245609125,2.602774836958309,-1.055495381180859,-0.5161226138675784,0.01343957707285881,0.02242377959191799,0.002238997025415301,0.003762245178222656,-0.005779772996902466,0.002716571092605591,XArbitraryZVertical,0.4106650800103487,-0.3421284613644646,0.8394102519081958,0.0984509502578093,-0.7567986845970154,0.4935115277767181,-0.4286046028137207,0,0,0,-1,-1,17265.089249375,unknown,2,2025-04-21T14:49:19.766+03:00,2025-04-20T21:57:49.637+03:00,6548,0.9517458,0,0,5385.986,5,6,2025-04-21T14:49:30.084+03:00,766928970.1838291,0,-46.15,100.2854,1,0.5,2025-04-21T14:48:22.231+03:00,94,1.566666666666667,2025-04-21T12:30:07.995+03:00,0.02023345852159405,0
2025-04-21T14:49:31.438+03:00,1745236169.115369,40.9522387725225,29.14028154055504,76.38563,-1,-1,-1,-1,30,22.15875696438606,-9999,17271.265761125,-0.7561492919921875,0.490386962890625,-0.42413330078125,17271.255685125,2.60288119458166,-1.055260009764187,-0.516072065616121,0.01220360398292542,0.02220406755805016,0.002672027098014951,-0.002130568027496338,-0.002043187618255615,0.008354336023330688,XArbitraryZVertical,0.4105932337063714,-0.3420755502474355,0.8394659054475783,0.09845991078604298,-0.7567194700241089,0.4934675693511963,-0.4287950396537781,0,0,0,-1,-1,17265.089249375,unknown,2,2025-04-21T14:49:19.766+03:00,2025-04-20T21:57:49.637+03:00,6548,0.9517458,0,0,5385.986,5,6,2025-04-21T14:49:30.084+03:00,766928970.1838291,0,-46.15,100.2854,1,0.5,2025-04-21T14:48:22.231+03:00,94,1.566666666666667,2025-04-21T12:30:07.995+03:00,0.02023345852159405,0
2025-04-21T14:49:31.448+03:00,1745236169.115369,40.9522387725225,29.14028154055504,76.38563,-1,-1,-1,-1,30,22.15875696438606,-9999,17271.275838125,-0.753143310546875,0.4880218505859375,-0.42620849609375,17271.265761125,2.602947301954733,-1.055076210143306,-0.5160474818883879,0.01098494231700897,0.02465657331049442,0.00156255392357707,-0.00114595890045166,0.0002669990062713623,0.009216517210006714,XArbitraryZVertical,0.4105316576230828,-0.3420434509674765,0.8395078778007014,0.09847005370825253,-0.7566512227058411,0.4934462010860443,-0.4289400577545166,0,0,0,-1,-1,17265.089249375,unknown,2,2025-04-21T14:49:19.766+03:00,2025-04-20T21:57:49.637+03:00,6548,0.9517458,0,0,5385.986,5,6,2025-04-21T14:49:30.084+03:00,766928970.1838291,0,-46.15,100.2854,1,0.5,2025-04-21T14:48:22.231+03:00,94,1.566666666666667,2025-04-21T12:30:07.995+03:00,0.02023345852159405,0
2025-04-21T14:49:31.458+03:00,1745236169.115369,40.9522387725225,29.14028154055504,76.38563,-1,-1,-1,-1,30,22.15875696438606,-9999,17271.285914125,-0.750335693359375,0.48626708984375,-0.4260101318359375,17271.275838125,2.602950539820438,-1.054912215838846,-0.5160448802877619,0.003227153560146689,0.02393352426588535,0.004095220007002354,0.001363515853881836,-0.003743767738342285,0.004382133483886719,XArbitraryZVertical,0.4104638001472737,-0.3420337103928187,0.8395418698691177,0.09849749213170737,-0.7565820217132568,0.4934439361095428,-0.4290648102760315,0,0,0,-1,-1,17265.089249375,unknown,2,2025-04-21T14:49:19.766+03:00,2025-04-20T21:57:49.637+03:00,6548,0.9517458,0,0,5385.986,5,6,2025-04-21T14:49:30.084+03:00,766928970.1838291,0,-46.15,100.2854,1,0.5,2025-04-21T14:48:22.231+03:00,94,1.566666666666667,2025-04-21T12:30:07.995+03:00,0.02023345852159405,0
2025-04-21T14:49:31.468+03:00,1745236169.115369,40.9522387725225,29.14028154055504,76.38563,-1,-1,-1,-1,30,22.15875696438606,-9999,17271.295990125,-0.7437591552734375,0.48870849609375,-0.428192138671875,17271.285914125,2.60298073500285,-1.054738182238327,-0.5160819517478327,0.004768191836774349,0.01614684239029884,0.003375167958438396,0.002707242965698242,-0.005576550960540771,0.003314614295959473,XArbitraryZVertical,0.4103894934152866,-0.3420332376957597,0.8395775297959009,0.09850479559501542,-0.7564914226531982,0.4934761822223663,-0.4291874468326569,0,0,0,-1,-1,17265.089249375,unknown,2,2025-04-21T14:49:19.766+03:00,2025-04-20T21:57:49.637+03:00,6548,0.9517458,0,0,5385.986,5,6,2025-04-21T14:49:30.084+03:00,766928970.1838291,0,-46.15,100.2854,1,0.5,2025-04-21T14:48:22.231+03:00,94,1.566666666666667,2025-04-21T12:30:07.995+03:00,0.02023345852159405,0
2025-04-21T14:49:31.478+03:00,1745236169.115369,40.9522387725225,29.14028154055504,76.38563,-1,-1,-1,-1,30,22.15875696438606,-9999,17271.306067125,-0.7415618896484375,0.49212646484375,-0.4271697998046875,17271.295990125,2.603015395329367,-1.054621477981615,-0.5161223606297408,0.005183645058423281,0.01046711765229702,0.002392727881669998,0.006485044956207275,-0.006481438875198364,0.002019762992858887,XArbitraryZVertical,0.4103394366920887,-0.3420359609333352,0.8396015023710443,0.09849954111561948,-0.7564240097999573,0.4935113191604614,-0.4292658865451813,0,0,0,-1,-1,17265.089249375,unknown,2,2025-04-21T14:49:19.766+03:00,2025-04-20T21:57:49.637+03:00,6548,0.9517458,0,0,5385.986,5,6,2025-04-21T14:49:30.084+03:00,766928970.1838291,0,-46.15,100.2854,1,0.5,2025-04-21T14:48:22.231+03:00,94,1.566666666666667,2025-04-21T12:30:07.995+03:00,0.02023345852159405,0
2025-04-21T14:49:31.488+03:00,1745236169.115369,40.9522387725225,29.14028154055504,76.38563,-1,-1,-1,-1,30,22.15875696438606,-9999,17271.316143125,-0.7454071044921875,0.4922332763671875,-0.4276580810546875,17271.306067125,2.603071059858554,-1.054527209858651,-0.5161540294556078,0.008842362090945244,0.01077717635780573,0.0007767550414428115,0.013572096824646,-0.004159122705459595,0.0008016228675842285,XArbitraryZVertical,0.4103039038981751,-0.3420321110491916,0.8396222613726554,0.0984839335426954,-0.756369948387146,0.4935388565063477,-0.4293294847011566,0,0,0,-1,-1,17265.089249375,unknown,2,2025-04-21T14:49:19.766+03:00,2025-04-20T21:57:49.637+03:00,6548,0.9517458,0,0,5385.986,5,6,2025-04-21T14:49:30.084+03:00,766928970.1838291,0,-46.15,100.2854,1,0.5,2025-04-21T14:48:22.231+03:00,94,1.566666666666667,2025-04-21T12:30:07.995+03:00,0.02023345852159405,0
2025-04-21T14:49:31.499+03:00,1745236169.115369,40.9522387725225,29.14028154055504,76.38563,-1,-1,-1,-1,30,22.15875696438606,-9999,17271.326219125,-0.748138427734375,0.494049072265625,-0.4273529052734375,17271.316143125,2.60314046832544,-1.054417977263783,-0.5162280069147771,0.004482767544686794,0.009069823659956455,0.005176563281565905,0.01472938060760498,-0.001232773065567017,0.001629143953323364,XArbitraryZVertical,0.4102571292691869,-0.3420410229645271,0.8396449702762728,0.09845392130984125,-0.7562912106513977,0.4936031997203827,-0.4293940663337708,0,0,0,-1,-1,17265.089249375,unknown,2,2025-04-21T14:49:19.766+03:00,2025-04-20T21:57:49.637+03:00,6548,0.9517458,0,0,5385.986,5,6,2025-04-21T14:49:30.084+03:00,766928970.1838291,0,-46.15,100.2854,1,0.5,2025-04-21T14:48:22.231+03:00,94,1.566666666666667,2025-04-21T12:30:07.995+03:00,0.02023345852159405,0
2025-04-21T14:49:31.508+03:00,1745236169.115369,40.9522387725225,29.14028154055504,76.38563,-1,-1,-1,-1,30,22.15875696438606,-9999,17271.336296125,-0.7505035400390625,0.4892425537109375,-0.425384521484375,17271.326219125,2.603225089879323,-1.054307052075755,-0.5161847155635465,0.007271363399922848,0.008503369055688381,0.002903289161622524,0.01033633947372437,-0.001485049724578857,0.001555770635604858,XArbitraryZVertical,0.4102325145763991,-0.3420015090745099,0.8396737093635216,0.09844880173553631,-0.7562621831893921,0.493565559387207,-0.4294885098934174,0,0,0,-1,-1,17265.089249375,unknown,2,2025-04-21T14:49:19.766+03:00,2025-04-20T21:57:49.637+03:00,6548,0.9517458,0,0,5385.986,5,6,2025-04-21T14:49:30.084+03:00,766928970.1838291,0,-46.15,100.2854,1,0.5,2025-04-21T14:48:22.231+03:00,94,1.566666666666667,2025-04-21T12:30:07.995+03:00,0.02023345852159405,0
2025-04-21T14:49:31.518+03:00,1745236169.115369,40.9522387725225,29.14028154055504,76.38563,-1,-1,-1,-1,30,22.15875696438606,-9999,17271.346372125,-0.7555389404296875,0.4864501953125,-0.425811767578125,17271.336296125,2.603212419583005,-1.054306008415739,-0.516187118919916,0.002622549422085285,0.0116198007017374,0.002604482462629676,0.00746619701385498,-8.32974910736084e-05,0.002288341522216797,XArbitraryZVertical,0.4102294812514709,-0.3420049849152256,0.8396732359331561,0.09845370185774042,-0.7562607526779175,0.4935676455497742,-0.4294887185096741,0,0,0,-1,-1,17265.089249375,unknown,2,2025-04-21T14:49:19.766+03:00,2025-04-20T21:57:49.637+03:00,6548,0.9517458,0,0,5385.986,5,6,2025-04-21T14:49:30.084+03:00,766928970.1838291,0,-46.15,100.2854,1,0.5,2025-04-21T14:48:22.231+03:00,94,1.566666666666667,2025-04-21T12:30:07.995+03:00,0.02023345852159405,0
2025-04-21T14:49:31.529+03:00,1745236169.115369,40.9522387725225,29.14028154055504,76.38563,-1,-1,-1,-1,30,22.15875696438606,-9999,17271.356448125,-0.7525177001953125,0.487762451171875,-0.4283599853515625,17271.346372125,2.603169364651715,-1.054311326924455,-0.516268564100745,-0.003336073830723763,0.009840741753578186,0.005674274638295174,0.004946351051330566,-0.00538790225982666,0.004385471343994141,XArbitraryZVertical,0.4102102509033306,-0.3420454906456107,0.8396666596873129,0.09844941035420915,-0.7562280893325806,0.4936384856700897,-0.4294648766517639,0,0,0,-1,-1,17265.089249375,unknown,2,2025-04-21T14:49:19.766+03:00,2025-04-20T21:57:49.637+03:00,6548,0.9517458,0,0,5385.986,5,6,2025-04-21T14:49:30.084+03:00,766928970.1838291,0,-46.15,100.2854,1,0.5,2025-04-21T14:48:22.231+03:00,94,1.566666666666667,2025-04-21T12:30:07.995+03:00,0.02023345852159405,0
2025-04-21T14:49:31.539+03:00,1745236169.115369,40.9522387725225,29.14028154055504,76.38563,-1,-1,-1,-1,30,22.15875696438606,-9999,17271.366525125,-0.749908447265625,0.4902496337890625,-0.4311676025390625,17271.356448125,2.603168266833761,-1.054242208523944,-0.5163056160961292,0.0015819858526811,0.009797865524888039,0.005087314173579216,0.001025021076202393,-0.006839185953140259,0.003558933734893799,XArbitraryZVertical,0.4101746330949387,-0.3420566036886069,0.8396792401172589,0.09845192084530478,-0.7561824917793274,0.4936707019805908,-0.4295080900192261,0,0,0,-1,-1,17265.089249375,unknown,2,2025-04-21T14:49:19.766+03:00,2025-04-20T21:57:49.637+03:00,6548,0.9517458,0,0,5385.986,5,6,2025-04-21T14:49:30.084+03:00,766928970.1838291,0,-46.15,100.2854,1,0.5,2025-04-21T14:48:22.231+03:00,94,1.566666666666667,2025-04-21T12:30:07.995+03:00,0.02023345852159405,0
