loggingTime(txt),locationTimestamp_since1970(s),locationLatitude(WGS84),locationLongitude(WGS84),locationAltitude(m),locationSpeed(m/s),locationSpeedAccuracy(m/s),locationCourse(°),locationCourseAccuracy(°),locationVerticalAccuracy(m),locationHorizontalAccuracy(m),locationFloor(Z),accelerometerTimestamp_sinceReboot(s),accelerometerAccelerationX(G),accelerometerAccelerationY(G),accelerometerAccelerationZ(G),motionTimestamp_sinceReboot(s),motionYaw(rad),motionRoll(rad),motionPitch(rad),motionRotationRateX(rad/s),motionRotationRateY(rad/s),motionRotationRateZ(rad/s),motionUserAccelerationX(G),motionUserAccelerationY(G),motionUserAccelerationZ(G),motionAttitudeReferenceFrame(txt),motionQuaternionX(R),motionQuaternionY(R),motionQuaternionZ(R),motionQuaternionW(R),motionGravityX(G),motionGravityY(G),motionGravityZ(G),motionMagneticFieldX(µT),motionMagneticFieldY(µT),motionMagneticFieldZ(µT),motionHeading(°),motionMagneticFieldCalibrationAccuracy(Z),activityTimestamp_sinceReboot(s),activity(txt),activityActivityConfidence(Z),activityActivityStartDate(txt),pedometerStartDate(txt),pedometerNumberofSteps(N),pedometerAverageActivePace(s/m),pedometerCurrentPace(s/m),pedometerCurrentCadence(steps/s),pedometerDistance(m),pedometerFloorAscended(N),pedometerFloorDescended(N),pedometerEndDate(txt),altimeterTimestamp_sinceReboot(s),altimeterReset(bool),altimeterRelativeAltitude(m),altimeterPressure(kPa),batteryState(N),batteryLevel(R),heartRateBPMTimestamp(txt),heartRateBPM(N),heartRateBPS(R),heartRateVariabilityTimestamp(txt),heartRateVariability(ms),label
2025-04-21T15:23:15.625+03:00,1745238191.97542,40.95220265019029,29.14025662348531,76.02078,-1,-1,-1,-1,30.00645109687068,58.04164234037241,-9999,18398.68634875,-0.7150115966796875,0.6582489013671875,-0.26641845703125,18398.68131075,2.369468813318355,-1.191701934399759,-0.7228110207615734,-0.005736380349844694,0.01098455302417278,0.01164334081113338,0.03408992290496826,0.004367411136627197,0.01499786972999573,XArbitraryZVertical,-0.3761244192169551,0.4687857759228189,-0.7919429153551747,-0.1076874279572621,-0.696702778339386,0.6614953875541687,-0.2775406241416931,0,0,0,-1,-1,18392.868614625,unknown,2,2025-04-21T15:23:09.773+03:00,2025-04-20T21:57:49.637+03:00,6680,0.9704633,0,0,5487.079,5,6,2025-04-21T15:22:28.502+03:00,766930995.0206352,0,-43.8,100.2578,1,0.45,2025-04-21T15:21:14.605+03:00,112,1.866666666666667,2025-04-21T12:30:07.995+03:00,0.02023345852159405,0
2025-04-21T15:23:15.628+03:00,1745238191.97542,40.95220265019029,29.14025662348531,76.02078,-1,-1,-1,-1,30.00645109687068,58.04164234037241,-9999,18398.69642475,-0.698577880859375,0.651275634765625,-0.274871826171875,18398.69138675,2.369240133945716,-1.191989363290728,-0.722942190007595,-0.02337749116122723,-0.01873932033777237,-0.000527737895026803,0.009461283683776855,0.004391133785247803,0.01639816164970398,XArbitraryZVertical,-0.3761534639582643,0.4688863869635168,-0.7918716886918856,-0.1076713997740486,-0.6967018842697144,0.6615937948226929,-0.2773082554340363,0,0,0,-1,-1,18392.868614625,unknown,2,2025-04-21T15:23:09.773+03:00,2025-04-20T21:57:49.637+03:00,6680,0.9704633,0,0,5487.079,5,6,2025-04-21T15:22:28.502+03:00,766930995.0206352,0,-43.8,100.2578,1,0.45,2025-04-21T15:21:14.605+03:00,112,1.866666666666667,2025-04-21T12:30:07.995+03:00,0.02023345852159405,0
2025-04-21T15:23:15.630+03:00,1745238191.97542,40.95220265019029,29.14025662348531,76.02078,-1,-1,-1,-1,30.00645109687068,58.04164234037241,-9999,18398.70650175,-0.6733245849609375,0.6555938720703125,-0.279052734375,18398.70146275,2.36895553387158,-1.192293468239347,-0.7230572602415993,-0.01835104078054428,0.002543597482144833,0.007481186650693417,-0.0239570140838623,-0.01008415222167969,0.003813862800598145,XArbitraryZVertical,-0.3761797078879021,0.4689932517227399,-0.7917950829709905,-0.1076786533745994,-0.6967155933380127,0.6616800427436829,-0.2770683169364929,0,0,0,-1,-1,18392.868614625,unknown,2,2025-04-21T15:23:09.773+03:00,2025-04-20T21:57:49.637+03:00,6680,0.9704633,0,0,5487.079,5,6,2025-04-21T15:22:28.502+03:00,766930995.0206352,0,-43.8,100.2578,1,0.45,2025-04-21T15:21:14.605+03:00,112,1.866666666666667,2025-04-21T12:30:07.995+03:00,0.02023345852159405,0
2025-04-21T15:23:15.632+03:00,1745238191.97542,40.95220265019029,29.14025662348531,76.02078,-1,-1,-1,-1,30.00645109687068,58.04164234037241,-9999,18398.71657775,-0.7056884765625,0.653411865234375,-0.28082275390625,18398.71153975,2.368828119514279,-1.192305390646945,-0.7231991391351732,-0.01609953865408897,0.002311170101165771,0.008266985416412354,0.02707594633102417,-0.00784069299697876,0.0002613067626953125,XArbitraryZVertical,-0.3761208149634293,0.469063406632643,-0.7917807682382698,-0.1076839421282113,-0.6966316699981689,0.6617864370346069,-0.2770253121852875,0,0,0,-1,-1,18392.868614625,unknown,2,2025-04-21T15:23:09.773+03:00,2025-04-20T21:57:49.637+03:00,6680,0.9704633,0,0,5487.079,5,6,2025-04-21T15:22:28.502+03:00,766930995.0206352,0,-43.8,100.2578,1,0.45,2025-04-21T15:21:14.605+03:00,112,1.866666666666667,2025-04-21T12:30:07.995+03:00,0.02023345852159405,0
2025-04-21T15:23:15.639+03:00,1745238191.97542,40.95220265019029,29.14025662348531,76.02078,-1,-1,-1,-1,30.00645109687068,58.04164234037241,-9999,18398.72665375,-0.689971923828125,0.651397705078125,-0.27459716796875,18398.72161575,2.368774798528152,-1.192266224419921,-0.7232483343188399,-0.004996021743863821,0.006390334106981754,0.002447179518640041,-0.0009344816207885742,-0.005954861640930176,-0.004835158586502075,XArbitraryZVertical,-0.3760810838267962,0.4690871218776613,-0.7917834983581423,-0.1076996199085539,-0.6965906023979187,0.6618233323097229,-0.27704057097435,0,0,0,-1,-1,18392.868614625,unknown,2,2025-04-21T15:23:09.773+03:00,2025-04-20T21:57:49.637+03:00,6680,0.9704633,0,0,5487.079,5,6,2025-04-21T15:22:28.502+03:00,766930995.0206352,0,-43.8,100.2578,1,0.45,2025-04-21T15:21:14.605+03:00,112,1.866666666666667,2025-04-21T12:30:07.995+03:00,0.02023345852159405,0
2025-04-21T15:23:15.646+03:00,1745238191.97542,40.95220265019029,29.14025662348531,76.02078,-1,-1,-1,-1,30.00645109687068,58.04164234037241,-9999,18398.73673075,-0.6875,0.6643524169921875,-0.276885986328125,18398.73169175,2.36888958998013,-1.192064788661119,-0.7232169824123311,0.0156352873891592,0.01462462730705738,0.006471515633165836,-0.001672983169555664,-0.01201975345611572,0.0006381571292877197,XArbitraryZVertical,-0.3760357617992569,0.4690446149458161,-0.7918286104087687,-0.1077106194952974,-0.6965539455413818,0.6617997884750366,-0.2771885097026825,0,0,0,-1,-1,18392.868614625,unknown,2,2025-04-21T15:23:09.773+03:00,2025-04-20T21:57:49.637+03:00,6680,0.9704633,0,0,5487.079,5,6,2025-04-21T15:22:28.502+03:00,766930995.0206352,0,-43.8,100.2578,1,0.45,2025-04-21T15:21:14.605+03:00,112,1.866666666666667,2025-04-21T12:30:07.995+03:00,0.02023345852159405,0
2025-04-21T15:23:15.656+03:00,1745238191.97542,40.95220265019029,29.14025662348531,76.02078,-1,-1,-1,-1,30.00645109687068,58.04164234037241,-9999,18398.74680675,-0.6956634521484375,0.67041015625,-0.280670166015625,18398.74176875,2.369188064568807,-1.191651896056074,-0.7231347875981837,0.02627727948129177,0.02394063211977482,0.007825733162462711,0.01153820753097534,-0.002802789211273193,0.002013981342315674,XArbitraryZVertical,-0.3759618005560256,0.4689398728285336,-0.7919253593893421,-0.1077138355345125,-0.6964899897575378,0.6617381572723389,-0.2774962484836578,0,0,0,-1,-1,18392.868614625,unknown,2,2025-04-21T15:23:09.773+03:00,2025-04-20T21:57:49.637+03:00,6680,0.9704633,0,0,5487.079,5,6,2025-04-21T15:22:28.502+03:00,766930995.0206352,0,-43.8,100.2578,1,0.45,2025-04-21T15:21:14.605+03:00,112,1.866666666666667,2025-04-21T12:30:07.995+03:00,0.02023345852159405,0
2025-04-21T15:23:15.666+03:00,1745238191.97542,40.95220265019029,29.14025662348531,76.02078,-1,-1,-1,-1,30.00645109687068,58.04164234037241,-9999,18398.75688275,-0.7001495361328125,0.6732330322265625,-0.2787322998046875,18398.75184475,2.369627932970353,-1.191120201948271,-0.7230399350073287,0.03792767599225044,0.02136628702282906,-0.002089548856019974,0.003148078918457031,0.007873117923736572,-0.00130036473274231,XArbitraryZVertical,-0.3758769388040175,0.4687980870106808,-0.7920524384903322,-0.107692525586069,-0.6964005827903748,0.6616670489311218,-0.277889758348465,0,0,0,-1,-1,18392.868614625,unknown,2,2025-04-21T15:23:09.773+03:00,2025-04-20T21:57:49.637+03:00,6680,0.9704633,0,0,5487.079,5,6,2025-04-21T15:22:28.502+03:00,766930995.0206352,0,-43.8,100.2578,1,0.45,2025-04-21T15:21:14.605+03:00,112,1.866666666666667,2025-04-21T12:30:07.995+03:00,0.02023345852159405,0
2025-04-21T15:23:15.676+03:00,1745238191.97542,40.95220265019029,29.14025662348531,76.02078,-1,-1,-1,-1,30.00645109687068,58.04164234037241,-9999,18398.76695975,-0.6916656494140625,0.6697845458984375,-0.2773590087890625,18398.76192075,2.369977013009111,-1.190776733256125,-0.722925982068338,0.02743162587285042,0.001858366187661886,-0.01611055806279182,-0.003728628158569336,0.01067471504211426,-0.001536786556243896,XArbitraryZVertical,-0.3758497997472255,0.4686773689845939,-0.7921399873658909,-0.1076687469943321,-0.6963751316070557,0.6615816354751587,-0.2781569063663483,0,0,0,-1,-1,18392.868614625,unknown,2,2025-04-21T15:23:09.773+03:00,2025-04-20T21:57:49.637+03:00,6680,0.9704633,0,0,5487.079,5,6,2025-04-21T15:22:28.502+03:00,766930995.0206352,0,-43.8,100.2578,1,0.45,2025-04-21T15:21:14.605+03:00,112,1.866666666666667,2025-04-21T12:30:07.995+03:00,0.02023345852159405,0
2025-04-21T15:23:15.687+03:00,1745238191.97542,40.95220265019029,29.14025662348531,76.02078,-1,-1,-1,-1,30.00645109687068,58.04164234037241,-9999,18398.77703575,-0.6878814697265625,0.6573944091796875,-0.274383544921875,18398.77199775,2.370011617704079,-1.190914095384874,-0.7226793822692593,0.004718391224741936,-0.02516572922468185,-0.02963685244321823,0.0007793307304382324,0.01096636056900024,-4.604458808898926e-05,XArbitraryZVertical,-0.3759708928621749,0.4685989943092349,-0.792125144813701,-0.1076963887077947,-0.6965648531913757,0.6613966822624207,-0.2781217396259308,0,0,0,-1,-1,18392.868614625,unknown,2,2025-04-21T15:23:09.773+03:00,2025-04-20T21:57:49.637+03:00,6680,0.9704633,0,0,5487.079,5,6,2025-04-21T15:22:28.502+03:00,766930995.0206352,0,-43.8,100.2578,1,0.45,2025-04-21T15:21:14.605+03:00,112,1.866666666666667,2025-04-21T12:30:07.995+03:00,0.02023345852159405,0
2025-04-21T15:23:15.696+03:00,1745238191.97542,40.95220265019029,29.14025662348531,76.02078,-1,-1,-1,-1,30.00645109687068,58.04164234037241,-9999,18398.78711175,-0.6922760009765625,0.6534881591796875,-0.27569580078125,18398.78207375,2.369818871966188,-1.191370667095382,-0.7223137889875415,-0.003900130977854133,-0.03534086421132088,-0.03203076869249344,0.008271992206573486,0.002161741256713867,0.002670407295227051,XArbitraryZVertical,-0.3761933660484534,0.4685423307366164,-0.7920424446676068,-0.1077748948577249,-0.696916401386261,0.6611224412918091,-0.2778932750225067,0,0,0,-1,-1,18392.868614625,unknown,2,2025-04-21T15:23:09.773+03:00,2025-04-20T21:57:49.637+03:00,6680,0.9704633,0,0,5487.079,5,6,2025-04-21T15:22:28.502+03:00,766930995.0206352,0,-43.8,100.2578,1,0.45,2025-04-21T15:21:14.605+03:00,112,1.866666666666667,2025-04-21T12:30:07.995+03:00,0.02023345852159405,0
2025-04-21T15:23:15.707+03:00,1745238191.97542,40.95220265019029,29.14025662348531,76.02078,-1,-1,-1,-1,30.00645109687068,58.04164234037241,-9999,18398.79718875,-0.696319580078125,0.6539306640625,-0.27874755859375,18398.79214975,2.369580041853128,-1.191883112355014,-0.7221054143423508,-0.01453233510255814,-0.03924166783690453,-0.0299021378159523,0.007321596145629883,-0.008286774158477783,0.002821981906890869,XArbitraryZVertical,-0.3763898350677128,0.4685479237627582,-0.7919408180595955,-0.107811599319305,-0.6971867680549622,0.6609660983085632,-0.2775870561599731,0,0,0,-1,-1,18392.868614625,unknown,2,2025-04-21T15:23:09.773+03:00,2025-04-20T21:57:49.637+03:00,6680,0.9704633,0,0,5487.079,5,6,2025-04-21T15:22:28.502+03:00,766930995.0206352,0,-43.8,100.2578,1,0.45,2025-04-21T15:21:14.605+03:00,112,1.866666666666667,2025-04-21T12:30:07.995+03:00,0.02023345852159405,0
2025-04-21T15:23:15.717+03:00,1745238191.97542,40.95220265019029,29.14025662348531,76.02078,-1,-1,-1,-1,30.00645109687068,58.04164234037241,-9999,18398.80726475,-0.69488525390625,0.6495208740234375,-0.2800140380859375,18398.80222675,2.36927451710804,-1.192439507108804,-0.721862525463557,-0.01120178587734699,-0.03479525446891785,-0.02697399258613586,0.001979231834411621,-0.005693674087524414,-0.001107841730117798,XArbitraryZVertical,-0.3765963482233919,0.46855739084967,-0.7918283195317426,-0.1078744369287273,-0.6974900364875793,0.6607837677001953,-0.2772583365440369,0,0,0,-1,-1,18392.868614625,unknown,2,2025-04-21T15:23:09.773+03:00,2025-04-20T21:57:49.637+03:00,6680,0.9704633,0,0,5487.079,5,6,2025-04-21T15:22:28.502+03:00,766930995.0206352,0,-43.8,100.2578,1,0.45,2025-04-21T15:21:14.605+03:00,112,1.866666666666667,2025-04-21T12:30:07.995+03:00,0.02023345852159405,0
2025-04-21T15:23:15.727+03:00,1745238191.97542,40.95220265019029,29.14025662348531,76.02078,-1,-1,-1,-1,30.00645109687068,58.04164234037241,-9999,18398.81734075,-0.6953582763671875,0.6578369140625,-0.27886962890625,18398.81230275,2.36910978906546,-1.192817778295264,-0.7216663847553392,0.003184210509061813,-0.01471089012920856,-0.01341524068266153,0.001716256141662598,-0.0105513334274292,-0.002483516931533813,XArbitraryZVertical,-0.3767541109049398,0.468545823137287,-0.7917553475919356,-0.1079095970985941,-0.6977153420448303,0.6606365442276001,-0.2770422995090485,0,0,0,-1,-1,18392.868614625,unknown,2,2025-04-21T15:23:09.773+03:00,2025-04-20T21:57:49.637+03:00,6680,0.9704633,0,0,5487.079,5,6,2025-04-21T15:22:28.502+03:00,766930995.0206352,0,-43.8,100.2578,1,0.45,2025-04-21T15:21:14.605+03:00,112,1.866666666666667,2025-04-21T12:30:07.995+03:00,0.02023345852159405,0
2025-04-21T15:23:15.737+03:00,1745238191.97542,40.95220265019029,29.14025662348531,76.02078,-1,-1,-1,-1,30.00645109687068,58.04164234037241,-9999,18398.82741775,-0.6982574462890625,0.671630859375,-0.2797698974609375,18398.82237875,2.369225612237755,-1.192800730763115,-0.7215698553504524,0.0193791575729847,-0.0008976063691079617,-0.004253966268151999,0.00296097993850708,-0.007900059223175049,-0.002570152282714844,XArbitraryZVertical,-0.376797412807943,0.4684920834714827,-0.7917683536019238,-0.1078966086592807,-0.6977699398994446,0.6605640649795532,-0.2770777642726898,0,0,0,-1,-1,18392.868614625,unknown,2,2025-04-21T15:23:09.773+03:00,2025-04-20T21:57:49.637+03:00,6680,0.9704633,0,0,5487.079,5,6,2025-04-21T15:22:28.502+03:00,766930995.0206352,0,-43.8,100.2578,1,0.45,2025-04-21T15:21:14.605+03:00,112,1.866666666666667,2025-04-21T12:30:07.995+03:00,0.02023345852159405,0
2025-04-21T15:23:15.747+03:00,1745238191.97542,40.95220265019029,29.14025662348531,76.02078,-1,-1,-1,-1,30.00645109687068,58.04164234037241,-9999,18398.83749375,-0.6974334716796875,0.673583984375,-0.277008056640625,18398.83245575,2.369545795042656,-1.192557498237014,-0.721451517761497,0.03164474666118622,0.004351351410150528,-0.006312922574579716,0.0003570318222045898,0.006867766380310059,-0.002096891403198242,XArbitraryZVertical,-0.376804188103836,0.4683806324606096,-0.7918358216209932,-0.1078622426587946,-0.6977753043174744,0.6604752540588379,-0.2772763669490814,0,0,0,-1,-1,18392.868614625,unknown,2,2025-04-21T15:23:09.773+03:00,2025-04-20T21:57:49.637+03:00,6680,0.9704633,0,0,5487.079,5,6,2025-04-21T15:22:28.502+03:00,766930995.0206352,0,-43.8,100.2578,1,0.45,2025-04-21T15:21:14.605+03:00,112,1.866666666666667,2025-04-21T12:30:07.995+03:00,0.02023345852159405,0
2025-04-21T15:23:15.757+03:00,1745238191.97542,40.95220265019029,29.14025662348531,76.02078,-1,-1,-1,-1,30.00645109687068,58.04164234037241,-9999,18398.84756975,-0.697021484375,0.6712188720703125,-0.2730865478515625,18398.84253175,2.369913358391102,-1.192296356900288,-0.7212964371981785,0.02849715761840343,-0.001059925649315119,-0.008610964752733707,0.0007916092872619629,0.0131792426109314,-0.0007935166358947754,XArbitraryZVertical,-0.3768237584252115,0.4682474535156469,-0.791910358697997,-0.1078239222550803,-0.6977978348731995,0.6603587865829468,-0.2774963676929474,0,0,0,-1,-1,18392.868614625,unknown,2,2025-04-21T15:23:09.773+03:00,2025-04-20T21:57:49.637+03:00,6680,0.9704633,0,0,5487.079,5,6,2025-04-21T15:22:28.502+03:00,766930995.0206352,0,-43.8,100.2578,1,0.45,2025-04-21T15:21:14.605+03:00,112,1.866666666666667,2025-04-21T12:30:07.995+03:00,0.02023345852159405,0
2025-04-21T15:23:15.767+03:00,1745238191.97542,40.95220265019029,29.14025662348531,76.02078,-1,-1,-1,-1,30.00645109687068,58.04164234037241,-9999,18398.85764675,-0.6993408203125,0.665191650390625,-0.2683563232421875,18398.85260775,2.370180293471088,-1.192091664960051,-0.7211412304890087,0.02166734635829926,0.007090811617672443,-0.01204890571534634,0.0005401968955993652,0.01250237226486206,0.003507137298583984,XArbitraryZVertical,-0.3768420051196053,0.4681362435593379,-0.7919690555375397,-0.1078125716264044,-0.6978363394737244,0.6602421998977661,-0.2776771187782288,0,0,0,-1,-1,18392.868614625,unknown,2,2025-04-21T15:23:09.773+03:00,2025-04-20T21:57:49.637+03:00,6680,0.9704633,0,0,5487.079,5,6,2025-04-21T15:22:28.502+03:00,766930995.0206352,0,-43.8,100.2578,1,0.45,2025-04-21T15:21:14.605+03:00,112,1.866666666666667,2025-04-21T12:30:07.995+03:00,0.02023345852159405,0
2025-04-21T15:23:15.777+03:00,1745238191.97542,40.95220265019029,29.14025662348531,76.02078,-1,-1,-1,-1,30.00645109687068,58.04164234037241,-9999,18398.86772275,-0.699432373046875,0.661956787109375,-0.2697906494140625,18398.86268475,2.370363041555125,-1.191887406653055,-0.7209790483203503,0.02114163897931576,0.009894321672618389,-0.01127286069095135,-1.215934753417969e-05,0.007726132869720459,0.007488667964935303,XArbitraryZVertical,-0.3768424015799548,0.4680386529221391,-0.7920232861414347,-0.107836344249007,-0.6978790760040283,0.66012042760849,-0.27785924077034,0,0,0,-1,-1,18392.868614625,unknown,2,2025-04-21T15:23:09.773+03:00,2025-04-20T21:57:49.637+03:00,6680,0.9704633,0,0,5487.079,5,6,2025-04-21T15:22:28.502+03:00,766930995.0206352,0,-43.8,100.2578,1,0.45,2025-04-21T15:21:14.605+03:00,112,1.866666666666667,2025-04-21T12:30:07.995+03:00,0.02023345852159405,0
2025-04-21T15:23:15.787+03:00,1745238191.97542,40.95220265019029,29.14025662348531,76.02078,-1,-1,-1,-1,30.00645109687068,58.04164234037241,-9999,18398.87779875,-0.69818115234375,0.6600494384765625,-0.274017333984375,18398.87276075,2.370592862800454,-1.191567507517176,-0.7208163730013434,0.02641982398927212,0.0197073370218277,-0.005404685158282518,-0.002030789852142334,0.00310283899307251,0.0102999210357666,XArbitraryZVertical,-0.3768081014779203,0.467925784863723,-0.7921018786525712,-0.1078686739055641,-0.6978898644447327,0.6599981784820557,-0.278122216463089,0,0,0,-1,-1,18392.868614625,unknown,2,2025-04-21T15:23:09.773+03:00,2025-04-20T21:57:49.637+03:00,6680,0.9704633,0,0,5487.079,5,6,2025-04-21T15:22:28.502+03:00,766930995.0206352,0,-43.8,100.2578,1,0.45,2025-04-21T15:21:14.605+03:00,112,1.866666666666667,2025-04-21T12:30:07.995+03:00,0.02023345852159405,0
2025-04-21T15:23:15.797+03:00,1745238191.97542,40.95220265019029,29.14025662348531,76.02078,-1,-1,-1,-1,30.00645109687068,58.04164234037241,-9999,18398.88787475,-0.69989013671875,0.66033935546875,-0.278289794921875,18398.88283675,2.370968550722739,-1.191092665561556,-0.7206521801432879,0.0353962741792202,0.02252016961574554,-0.005493102129548788,-0.0001244544982910156,0.000418543815612793,0.005162984132766724,XArbitraryZVertical,-0.376746905948371,0.4677765686102061,-0.7922175202768041,-0.1078797737932741,-0.6978582739830017,0.6598748564720154,-0.2784937024116516,0,0,0,-1,-1,18392.868614625,unknown,2,2025-04-21T15:23:09.773+03:00,2025-04-20T21:57:49.637+03:00,6680,0.9704633,0,0,5487.079,5,6,2025-04-21T15:22:28.502+03:00,766930995.0206352,0,-43.8,100.2578,1,0.45,2025-04-21T15:21:14.605+03:00,112,1.866666666666667,2025-04-21T12:30:07.995+03:00,0.02023345852159405,0
2025-04-21T15:23:15.807+03:00,1745238191.97542,40.95220265019029,29.14025662348531,76.02078,-1,-1,-1,-1,30.00645109687068,58.04164234037241,-9999,18398.89795175,-0.6924285888671875,0.65667724609375,-0.280975341796875,18398.89291375,2.371393960927955,-1.190606146802679,-0.7204584354998268,0.03604848310351372,0.01884340867400169,-0.004137685988098383,-0.002018094062805176,0.001510262489318848,0.00254395604133606,XArbitraryZVertical,-0.3766995259696221,0.4676078545062258,-0.7923393690061327,-0.1078830235436184,-0.6978416442871094,0.6597292423248291,-0.2788807153701782,0,0,0,-1,-1,18392.868614625,unknown,2,2025-04-21T15:23:09.773+03:00,2025-04-20T21:57:49.637+03:00,6680,0.9704633,0,0,5487.079,5,6,2025-04-21T15:22:28.502+03:00,766930995.0206352,0,-43.8,100.2578,1,0.45,2025-04-21T15:21:14.605+03:00,112,1.866666666666667,2025-04-21T12:30:07.995+03:00,0.02023345852159405,0
2025-04-21T15:23:15.817+03:00,1745238191.97542,40.95220265019029,29.14025662348531,76.02078,-1,-1,-1,-1,30.00645109687068,58.04164234037241,-9999,18398.90802775,-0.6862030029296875,0.657440185546875,-0.28057861328125,18398.90298975,2.371832696782674,-1.19017007168401,-0.7202829734491175,0.03344817087054253,0.01378633081912994,-0.003137402702122927,0.00188910961151123,-0.001806437969207764,-0.0008929669857025146,XArbitraryZVertical,-0.3766709925207192,0.4674451898115886,-0.7924514489451639,-0.107863162974663,-0.697827160358429,0.6595973968505859,-0.2792279124259949,0,0,0,-1,-1,18392.868614625,unknown,2,2025-04-21T15:23:09.773+03:00,2025-04-20T21:57:49.637+03:00,6680,0.9704633,0,0,5487.079,5,6,2025-04-21T15:22:28.502+03:00,766930995.0206352,0,-43.8,100.2578,1,0.45,2025-04-21T15:21:14.605+03:00,112,1.866666666666667,2025-04-21T12:30:07.995+03:00,0.02023345852159405,0
2025-04-21T15:23:15.828+03:00,1745238191.97542,40.95220265019029,29.14025662348531,76.02078,-1,-1,-1,-1,30.00645109687068,58.04164234037241,-9999,18398.91810375,-0.6908111572265625,0.65533447265625,-0.2778167724609375,18398.91306575,2.372184238633498,-1.189831107325862,-0.7202216781922013,0.02030454203486443,0.007377034984529018,0.00908750481903553,0.01092630624771118,-0.002126574516296387,-0.002411425113677979,XArbitraryZVertical,-0.3766332983350544,0.4673409761284986,-0.7925366171768494,-0.1078215312261304,-0.6977701783180237,0.6595513224601746,-0.2794795334339142,0,0,0,-1,-1,18392.868614625,unknown,2,2025-04-21T15:23:09.773+03:00,2025-04-20T21:57:49.637+03:00,6680,0.9704633,0,0,5487.079,5,6,2025-04-21T15:22:28.502+03:00,766930995.0206352,0,-43.8,100.2578,1,0.45,2025-04-21T15:21:14.605+03:00,112,1.866666666666667,2025-04-21T12:30:07.995+03:00,0.02023345852159405,0
2025-04-21T15:23:15.838+03:00,1745238191.97542,40.95220265019029,29.14025662348531,76.02078,-1,-1,-1,-1,30.00645109687068,58.04164234037241,-9999,18398.92818075,-0.6948089599609375,0.650115966796875,-0.2759246826171875,18398.92314275,2.372459751630649,-1.189563110000204,-0.7203172249984343,0.01270521152764559,0.008434043265879154,0.01384790521115065,0.009114444255828857,-0.003678441047668457,0.0009106993675231934,XArbitraryZVertical,-0.3765688223503948,0.467305439777831,-0.7925984262906259,-0.1077465487745355,-0.6976367831230164,0.6596231460571289,-0.2796430885791779,0,0,0,-1,-1,18392.868614625,unknown,2,2025-04-21T15:23:09.773+03:00,2025-04-20T21:57:49.637+03:00,6680,0.9704633,0,0,5487.079,5,6,2025-04-21T15:22:28.502+03:00,766930995.0206352,0,-43.8,100.2578,1,0.45,2025-04-21T15:21:14.605+03:00,112,1.866666666666667,2025-04-21T12:30:07.995+03:00,0.02023345852159405,0
2025-04-21T15:23:15.848+03:00,1745238191.97542,40.95220265019029,29.14025662348531,76.02078,-1,-1,-1,-1,30.00645109687068,58.04164234037241,-9999,18398.93825675,-0.6996002197265625,0.64654541015625,-0.276641845703125,18398.93321875,2.37261218945373,-1.189375475328949,-0.7204804751141711,0.006269949022680521,0.01408420689404011,0.01829125732183456,0.004475831985473633,-0.006761372089385986,0.003717541694641113,XArbitraryZVertical,-0.3764914361857777,0.4673192332838617,-0.7926358598961549,-0.1076812605245638,-0.6974842548370361,0.6597458124160767,-0.2797338664531708,0,0,0,-1,-1,18392.868614625,unknown,2,2025-04-21T15:23:09.773+03:00,2025-04-20T21:57:49.637+03:00,6680,0.9704633,0,0,5487.079,5,6,2025-04-21T15:22:28.502+03:00,766930995.0206352,0,-43.8,100.2578,1,0.45,2025-04-21T15:21:14.605+03:00,112,1.866666666666667,2025-04-21T12:30:07.995+03:00,0.02023345852159405,0
2025-04-21T15:23:15.858+03:00,1745238191.97542,40.95220265019029,29.14025662348531,76.02078,-1,-1,-1,-1,30.00645109687068,58.04164234037241,-9999,18398.948332,-0.7005157470703125,0.654052734375,-0.2743682861328125,18398.943294,2.372766311444157,-1.189124730183333,-0.7206532241354087,0.009005813859403133,0.01893914863467216,0.01863347366452217,-0.00104069709777832,-0.01410865783691406,0.003712624311447144,XArbitraryZVertical,-0.376387175818563,0.4673323922273359,-0.7926848921040819,-0.1076272388121016,-0.6973082423210144,0.6598756313323975,-0.2798662483692169,0,0,0,-1,-1,18392.868614625,unknown,2,2025-04-21T15:23:09.773+03:00,2025-04-20T21:57:49.637+03:00,6680,0.9704633,0,0,5487.079,5,6,2025-04-21T15:22:28.502+03:00,766930995.0206352,0,-43.8,100.2578,1,0.45,2025-04-21T15:21:14.605+03:00,112,1.866666666666667,2025-04-21T12:30:07.995+03:00,0.02023345852159405,0
2025-04-21T15:23:15.868+03:00,1745238191.97542,40.95220265019029,29.14025662348531,76.02078,-1,-1,-1,-1,30.00645109687068,58.04164234037241,-9999,18398.958409,-0.6993560791015625,0.6530609130859375,-0.2708282470703125,18398.953371,2.372914698066827,-1.188887438811846,-0.7207870492885912,0.009358816780149937,0.01516105514019728,0.01417660713195801,-0.002852320671081543,-0.008716046810150146,0.003845185041427612,XArbitraryZVertical,-0.3762961063508473,0.4673348327054317,-0.7927325369418549,-0.1075839981458297,-0.6971598267555237,0.6599761843681335,-0.279998779296875,0,0,0,-1,-1,18392.868614625,unknown,2,2025-04-21T15:23:09.773+03:00,2025-04-20T21:57:49.637+03:00,6680,0.9704633,0,0,5487.079,5,6,2025-04-21T15:22:28.502+03:00,766930995.0206352,0,-43.8,100.2578,1,0.45,2025-04-21T15:21:14.605+03:00,112,1.866666666666667,2025-04-21T12:30:07.995+03:00,0.02023345852159405,0
2025-04-21T15:23:15.899+03:00,1745238191.97542,40.95220265019029,29.14025662348531,76.02078,-1,-1,-1,-1,30.00645109687068,58.04164234037241,-9999,18398.968485,-0.6919097900390625,0.6513824462890625,-0.275665283203125,18398.963447,2.373117780310433,-1.188638069795881,-0.7208631142712635,0.01666146889328957,0.01327154226601124,0.01400403399020433,-0.004189431667327881,-0.005873978137969971,0.008959382772445679,XArbitraryZVertical,-0.3762266912101638,0.4673077353788654,-0.7927875533157418,-0.1075391429000999,-0.6970434188842773,0.6600333452224731,-0.280153900384903,0,0,0,-1,-1,18392.868614625,unknown,2,2025-04-21T15:23:09.773+03:00,2025-04-20T21:57:49.637+03:00,6680,0.9704633,0,0,5487.079,5,6,2025-04-21T15:22:28.502+03:00,766930995.0206352,0,-43.8,100.2578,1,0.45,2025-04-21T15:21:14.605+03:00,112,1.866666666666667,2025-04-21T12:30:07.995+03:00,0.02023345852159405,0
2025-04-21T15:23:15.901+03:00,1745238191.97542,40.95220265019029,29.14025662348531,76.02078,-1,-1,-1,-1,30.00645109687068,58.04164234037241,-9999,18398.978561,-0.694305419921875,0.658966064453125,-0.27764892578125,18398.973523,2.373450530316686,-1.188218963247812,-0.720952775695343,0.02525082975625992,0.02795634604990482,0.01783852092921734,0.00297778844833374,-0.008947193622589111,0.007154256105422974,XArbitraryZVertical,-0.3761169734082774,0.4672515451807747,-0.7928810943663667,-0.1074787418407728,-0.696871280670166,0.6601006984710693,-0.280424028635025,0,0,0,-1,-1,18392.868614625,unknown,2,2025-04-21T15:23:09.773+03:00,2025-04-20T21:57:49.637+03:00,6680,0.9704633,0,0,5487.079,5,6,2025-04-21T15:22:28.502+03:00,766930995.0206352,0,-43.8,100.2578,1,0.45,2025-04-21T15:21:14.605+03:00,112,1.866666666666667,2025-04-21T12:30:07.995+03:00,0.02023345852159405,0
2025-04-21T15:23:15.911+03:00,1745238191.97542,40.95220265019029,29.14025662348531,76.02078,-1,-1,-1,-1,30.00645109687068,58.04164234037241,-9999,18398.988638,-0.69610595703125,0.6603851318359375,-0.2791748046875,18398.9836,2.373788028240928,-1.187747573202011,-0.7210426154053338,0.01465704198926687,0.0203184001147747,0.01845291070640087,0.004789412021636963,-0.003521561622619629,0.003279685974121094,XArbitraryZVertical,-0.37598766612725,0.4671917325027434,-0.7929844764527604,-0.1074282914145705,-0.6966840028762817,0.6601681709289551,-0.2807303071022034,0,0,0,-1,-1,18392.868614625,unknown,2,2025-04-21T15:23:09.773+03:00,2025-04-20T21:57:49.637+03:00,6680,0.9704633,0,0,5487.079,5,6,2025-04-21T15:22:28.502+03:00,766930995.0206352,0,-43.8,100.2578,1,0.45,2025-04-21T15:21:14.605+03:00,112,1.866666666666667,2025-04-21T12:30:07.995+03:00,0.02023345852159405,0
2025-04-21T15:23:15.916+03:00,1745238191.97542,40.95220265019029,29.14025662348531,76.02078,-1,-1,-1,-1,30.00645109687068,58.04164234037241,-9999,18398.998714,-0.6902618408203125,0.6583404541015625,-0.278045654296875,18398.993676,2.374016559667024,-1.187410576915002,-0.7212223333691683,0.003206780878826976,0.0165494941174984,0.02364247851073742,-0.0004812479019165039,0.001226305961608887,0.001333802938461304,XArbitraryZVertical,-0.3758648892127648,0.4671886545951883,-0.7930533324755281,-0.1073629178723903,-0.6964792609214783,0.6603031158447266,-0.280920684337616,0,0,0,-1,-1,18392.868614625,unknown,2,2025-04-21T15:23:09.773+03:00,2025-04-20T21:57:49.637+03:00,6680,0.9704633,0,0,5487.079,5,6,2025-04-21T15:22:28.502+03:00,766930995.0206352,0,-43.8,100.2578,1,0.45,2025-04-21T15:21:14.605+03:00,112,1.866666666666667,2025-04-21T12:30:07.995+03:00,0.02023345852159405,0
2025-04-21T15:23:15.918+03:00,1745238191.97542,40.95220265019029,29.14025662348531,76.02078,-1,-1,-1,-1,30.00645109687068,58.04164234037241,-9999,18399.00879,-0.693115234375,0.6574859619140625,-0.280242919921875,18399.003752,2.374154245030067,-1.187137080951793,-0.7214552278416009,-0.0004180477117188275,0.01792235486209393,0.0238624569028616,0.004426181316375732,-0.00166475772857666,0.002321153879165649,XArbitraryZVertical,-0.3757335319894855,0.4672232335845753,-0.7931032251917099,-0.1073027531312553,-0.696259617805481,0.6604779958724976,-0.2810535132884979,0,0,0,-1,-1,18392.868614625,unknown,2,2025-04-21T15:23:09.773+03:00,2025-04-20T21:57:49.637+03:00,6680,0.9704633,0,0,5487.079,5,6,2025-04-21T15:22:28.502+03:00,766930995.0206352,0,-43.8,100.2578,1,0.45,2025-04-21T15:21:14.605+03:00,112,1.866666666666667,2025-04-21T12:30:07.995+03:00,0.02023345852159405,0
2025-04-21T15:23:15.929+03:00,1745238191.97542,40.95220265019029,29.14025662348531,76.02078,-1,-1,-1,-1,30.00645109687068,58.04164234037241,-9999,18399.018867,-0.6924285888671875,0.6541900634765625,-0.2783050537109375,18399.013829,2.374126075157083,-1.187064093509455,-0.7216659050094446,-0.01482208725064993,0.005167343653738499,0.01558558456599712,0.005024254322052002,-0.002707898616790771,0.001190721988677979,XArbitraryZVertical,-0.3756481266139031,0.4672925836122493,-0.793107495611678,-0.1072683481642668,-0.6961100697517395,0.6606361865997314,-0.2810522615909576,0,0,0,-1,-1,18392.868614625,unknown,2,2025-04-21T15:23:09.773+03:00,2025-04-20T21:57:49.637+03:00,6680,0.9704633,0,0,5487.079,5,6,2025-04-21T15:22:28.502+03:00,766930995.0206352,0,-43.8,100.2578,1,0.45,2025-04-21T15:21:14.605+03:00,112,1.866666666666667,2025-04-21T12:30:07.995+03:00,0.02023345852159405,0
2025-04-21T15:23:15.942+03:00,1745238191.97542,40.95220265019029,29.14025662348531,76.02078,-1,-1,-1,-1,30.00645109687068,58.04164234037241,-9999,18399.028943,-0.6949310302734375,0.6517486572265625,-0.27923583984375,18399.023905,2.374013278470188,-1.187064279350733,-0.7218167637144629,-0.01024304796010256,0.01567138358950615,0.01577679999172688,0.001834452152252197,-0.004881024360656738,0.001901000738143921,XArbitraryZVertical,-0.3755860804485632,0.4673624553926797,-0.7930958105591442,-0.107268318192213,-0.696017861366272,0.6607494354248047,-0.2810148596763611,0,0,0,-1,-1,18392.868614625,unknown,2,2025-04-21T15:23:09.773+03:00,2025-04-20T21:57:49.637+03:00,6680,0.9704633,0,0,5487.079,5,6,2025-04-21T15:22:28.502+03:00,766930995.0206352,0,-43.8,100.2578,1,0.45,2025-04-21T15:21:14.605+03:00,112,1.866666666666667,2025-04-21T12:30:07.995+03:00,0.02023345852159405,0
2025-04-21T15:23:15.949+03:00,1745238191.97542,40.95220265019029,29.14025662348531,76.02078,-1,-1,-1,-1,30.00645109687068,58.04164234037241,-9999,18399.039019,-0.705841064453125,0.658294677734375,-0.2827606201171875,18399.033981,2.374043510390221,-1.186790867468906,-0.7219688644827564,0.00508970208466053,0.03698932379484177,0.02232438139617443,0.003312230110168457,-0.008977830410003662,0.003396362066268921,XArbitraryZVertical,-0.3754487803162787,0.4673911704125674,-0.7931428783618345,-0.1072747656694806,-0.6958476305007935,0.6608635783195496,-0.2811674177646637,0,0,0,-1,-1,18392.868614625,unknown,2,2025-04-21T15:23:09.773+03:00,2025-04-20T21:57:49.637+03:00,6680,0.9704633,0,0,5487.079,5,6,2025-04-21T15:22:28.502+03:00,766930995.0206352,0,-43.8,100.2578,1,0.45,2025-04-21T15:21:14.605+03:00,112,1.866666666666667,2025-04-21T12:30:07.995+03:00,0.02023345852159405,0
2025-04-21T15:23:15.959+03:00,1745238191.97542,40.95220265019029,29.14025662348531,76.02078,-1,-1,-1,-1,30.00645109687068,58.04164234037241,-9999,18399.049096,-0.7043914794921875,0.670989990234375,-0.285491943359375,18399.044057,2.374268124285057,-1.186286096810133,-0.7221278803739318,0.01549920067191124,0.03884368017315865,0.02394518256187439,-0.006143450736999512,-0.006869316101074219,-0.000411689281463623,XArbitraryZVertical,-0.375263393609346,0.4673732589794167,-0.7932437121468772,-0.1072564878132539,-0.6956082582473755,0.6609829068183899,-0.2814792394638062,0,0,0,-1,-1,18392.868614625,unknown,2,2025-04-21T15:23:09.773+03:00,2025-04-20T21:57:49.637+03:00,6680,0.9704633,0,0,5487.079,5,6,2025-04-21T15:22:28.502+03:00,766930995.0206352,0,-43.8,100.2578,1,0.45,2025-04-21T15:21:14.605+03:00,112,1.866666666666667,2025-04-21T12:30:07.995+03:00,0.02023345852159405,0
2025-04-21T15:23:15.969+03:00,1745238191.97542,40.95220265019029,29.14025662348531,76.02078,-1,-1,-1,-1,30.00645109687068,58.04164234037241,-9999,18399.059172,-0.6970367431640625,0.673583984375,-0.2828521728515625,18399.054134,2.37455378915767,-1.185789837544858,-0.7222748030980444,0.01406661886721849,0.02743916027247906,0.02413116954267025,-0.01070672273635864,0.005318939685821533,-0.003383666276931763,XArbitraryZVertical,-0.3750985397575477,0.4673404799018401,-0.7933465145761991,-0.10721543640573,-0.6953784823417664,0.6610931754112244,-0.2817879319190979,0,0,0,-1,-1,18392.868614625,unknown,2,2025-04-21T15:23:09.773+03:00,2025-04-20T21:57:49.637+03:00,6680,0.9704633,0,0,5487.079,5,6,2025-04-21T15:22:28.502+03:00,766930995.0206352,0,-43.8,100.2578,1,0.45,2025-04-21T15:21:14.605+03:00,112,1.866666666666667,2025-04-21T12:30:07.995+03:00,0.02023345852159405,0
2025-04-21T15:23:15.979+03:00,1745238191.97542,40.95220265019029,29.14025662348531,76.02078,-1,-1,-1,-1,30.00645109687068,58.04164234037241,-9999,18399.069248,-0.695831298828125,0.6685791015625,-0.2833404541015625,18399.06421,2.374747669350729,-1.185470024530549,-0.7224537955470108,0.0008312411373481154,0.01440112199634314,0.02010500244796276,-0.004177451133728027,0.01218849420547485,-0.001191616058349609,XArbitraryZVertical,-0.3749746051706255,0.4673447676943623,-0.7934100660730516,-0.1071600881306073,-0.6951786875724792,0.6612274646759033,-0.2819658219814301,0,0,0,-1,-1,18392.868614625,unknown,2,2025-04-21T15:23:09.773+03:00,2025-04-20T21:57:49.637+03:00,6680,0.9704633,0,0,5487.079,5,6,2025-04-21T15:22:28.502+03:00,766930995.0206352,0,-43.8,100.2578,1,0.45,2025-04-21T15:21:14.605+03:00,112,1.866666666666667,2025-04-21T12:30:07.995+03:00,0.02023345852159405,0
2025-04-21T15:23:15.989+03:00,1745238191.97542,40.95220265019029,29.14025662348531,76.02078,-1,-1,-1,-1,30.00645109687068,58.04164234037241,-9999,18399.079325,-0.6919097900390625,0.6686553955078125,-0.280548095703125,18399.074286,2.37477979353633,-1.185380222474154,-0.7225896199682932,-0.006550175603479147,0.004940841812640429,0.007341836579144001,-0.0009596347808837891,0.008638083934783936,-0.0007052123546600342,XArbitraryZVertical,-0.374914383355534,0.4673777769954043,-0.7934233481435184,-0.1071278336392817,-0.6950699687004089,0.6613293290138245,-0.2819944322109222,0,0,0,-1,-1,18392.868614625,unknown,2,2025-04-21T15:23:09.773+03:00,2025-04-20T21:57:49.637+03:00,6680,0.9704633,0,0,5487.079,5,6,2025-04-21T15:22:28.502+03:00,766930995.0206352,0,-43.8,100.2578,1,0.45,2025-04-21T15:21:14.605+03:00,112,1.866666666666667,2025-04-21T12:30:07.995+03:00,0.02023345852159405,0
2025-04-21T15:23:15.999+03:00,1745238191.97542,40.95220265019029,29.14025662348531,76.02078,-1,-1,-1,-1,30.00645109687068,58.04164234037241,-9999,18399.089401,-0.6910552978515625,0.663848876953125,-0.2822113037109375,18399.084363,2.374646960968584,-1.185490256688086,-0.7226588743106876,-0.01914745941758156,-0.0101584829390049,-0.002453269902616739,0.001653492450714111,0.00788426399230957,0.0001318752765655518,XArbitraryZVertical,-0.3749105944023413,0.4674309293115338,-0.7933929686995073,-0.1071342485061907,-0.6950585842132568,0.6613813042640686,-0.2819007337093353,0,0,0,-1,-1,18392.868614625,unknown,2,2025-04-21T15:23:09.773+03:00,2025-04-20T21:57:49.637+03:00,6680,0.9704633,0,0,5487.079,5,6,2025-04-21T15:22:28.502+03:00,766930995.0206352,0,-43.8,100.2578,1,0.45,2025-04-21T15:21:14.605+03:00,112,1.866666666666667,2025-04-21T12:30:07.995+03:00,0.02023345852159405,0
2025-04-21T15:23:16.009+03:00,1745238191.97542,40.95220265019029,29.14025662348531,76.02078,-1,-1,-1,-1,30.00645109687068,58.04164234037241,-9999,18399.099477,-0.6885986328125,0.657257080078125,-0.279388427734375,18399.094439,2.374265592294371,-1.185905138614379,-0.7226905952634894,-0.03287898376584053,-0.02240955643355846,-0.01508704014122486,0.00410085916519165,0.005525887012481689,0.000140845775604248,XArbitraryZVertical,-0.3749784626438877,0.4675349015335493,-0.7932936494006445,-0.1071792873505149,-0.6951561570167542,0.661405086517334,-0.281604528427124,0,0,0,-1,-1,18392.868614625,unknown,2,2025-04-21T15:23:09.773+03:00,2025-04-20T21:57:49.637+03:00,6680,0.9704633,0,0,5487.079,5,6,2025-04-21T15:22:28.502+03:00,766930995.0206352,0,-43.8,100.2578,1,0.45,2025-04-21T15:21:14.605+03:00,112,1.866666666666667,2025-04-21T12:30:07.995+03:00,0.02023345852159405,0
2025-04-21T15:23:16.019+03:00,1745238191.97542,40.95220265019029,29.14025662348531,76.02078,-1,-1,-1,-1,30.00645109687068,58.04164234037241,-9999,18399.109554,-0.6886138916015625,0.6486968994140625,-0.2739715576171875,18399.104516,2.373871776191704,-1.186256311459107,-0.722539728315656,0.00361351203173399,0.01436390355229378,-0.02792960219085217,0.005772292613983154,-0.0006933808326721191,-0.001118689775466919,XArbitraryZVertical,-0.3750614302313222,0.4675788935707452,-0.7932123807686131,-0.1072981685334962,-0.6953474283218384,0.6612918972969055,-0.2813977897167206,0,0,0,-1,-1,18392.868614625,unknown,2,2025-04-21T15:23:09.773+03:00,2025-04-20T21:57:49.637+03:00,6680,0.9704633,0,0,5487.079,5,6,2025-04-21T15:22:28.502+03:00,766930995.0206352,0,-43.8,100.2578,1,0.45,2025-04-21T15:21:14.605+03:00,112,1.866666666666667,2025-04-21T12:30:07.995+03:00,0.02023345852159405,0
2025-04-21T15:23:16.029+03:00,1745238191.97542,40.95220265019029,29.14025662348531,76.02078,-1,-1,-1,-1,30.00645109687068,58.04164234037241,-9999,18399.11963,-0.6986846923828125,0.6454010009765625,-0.2811126708984375,18399.114592,2.373872923040873,-1.186016789610238,-0.7223157976385857,0.01716094650328159,0.04056428372859955,-0.008068311959505081,0.006971240043640137,-0.008627772331237793,0.006915867328643799,XArbitraryZVertical,-0.3750197126232415,0.4674935742482256,-0.7932658978060179,-0.1074203366410066,-0.6954173445701599,0.6611239314079285,-0.2816199362277985,0,0,0,-1,-1,18392.868614625,unknown,2,2025-04-21T15:23:09.773+03:00,2025-04-20T21:57:49.637+03:00,6680,0.9704633,0,0,5487.079,5,6,2025-04-21T15:22:28.502+03:00,766930995.0206352,0,-43.8,100.2578,1,0.45,2025-04-21T15:21:14.605+03:00,112,1.866666666666667,2025-04-21T12:30:07.995+03:00,0.02023345852159405,0
2025-04-21T15:23:16.039+03:00,1745238191.97542,40.95220265019029,29.14025662348531,76.02078,-1,-1,-1,-1,30.00645109687068,58.04164234037241,-9999,18399.129706,-0.707122802734375,0.656005859375,-0.282623291015625,18399.124668,2.37421441405769,-1.185351281977481,-0.7221538684591614,0.03586166352033615,0.04529192671179771,-0.001186171197332442,0.001664280891418457,-0.01622724533081055,0.004550188779830933,XArbitraryZVertical,-0.3748739217849169,0.4673415258037598,-0.7934150730301794,-0.1074883915531678,-0.6953288316726685,0.6610024571418762,-0.2821228802204132,0,0,0,-1,-1,18392.868614625,unknown,2,2025-04-21T15:23:09.773+03:00,2025-04-20T21:57:49.637+03:00,6680,0.9704633,0,0,5487.079,5,6,2025-04-21T15:22:28.502+03:00,766930995.0206352,0,-43.8,100.2578,1,0.45,2025-04-21T15:21:14.605+03:00,112,1.866666666666667,2025-04-21T12:30:07.995+03:00,0.02023345852159405,0
2025-04-21T15:23:16.050+03:00,1745238191.97542,40.95220265019029,29.14025662348531,76.02078,-1,-1,-1,-1,30.00645109687068,58.04164234037241,-9999,18399.139783,-0.6910400390625,0.6643524169921875,-0.2790679931640625,18399.134744,2.374638370075135,-1.184645396102856,-0.7220192474407948,0.03577138110995293,0.04303755983710289,0.003993676975369453,-0.01206338405609131,-0.00892406702041626,-0.0003118813037872314,XArbitraryZVertical,-0.3747247617933401,0.467180663293091,-0.7935753019956872,-0.1075251380141453,-0.6952119469642639,0.6609014272689819,-0.2826471626758575,0,0,0,-1,-1,18392.868614625,unknown,2,2025-04-21T15:23:09.773+03:00,2025-04-20T21:57:49.637+03:00,6680,0.9704633,0,0,5487.079,5,6,2025-04-21T15:22:28.502+03:00,766930995.0206352,0,-43.8,100.2578,1,0.45,2025-04-21T15:21:14.605+03:00,112,1.866666666666667,2025-04-21T12:30:07.995+03:00,0.02023345852159405,0
2025-04-21T15:23:16.059+03:00,1745238191.97542,40.95220265019029,29.14025662348531,76.02078,-1,-1,-1,-1,30.00645109687068,58.04164234037241,-9999,18399.149859,-0.6888427734375,0.6617431640625,-0.2819976806640625,18399.144821,2.375288502265654,-1.183560171519317,-0.7220479694319524,0.05396449938416481,0.0930144339799881,0.03556971251964569,-0.003126025199890137,0.0006674528121948242,0.002617239952087402,XArbitraryZVertical,-0.3744391254406025,0.4670098410603188,-0.7938124257125558,-0.1075120904814535,-0.6948872804641724,0.6609229445457458,-0.2833943068981171,0,0,0,-1,-1,18392.868614625,unknown,2,2025-04-21T15:23:09.773+03:00,2025-04-20T21:57:49.637+03:00,6680,0.9704633,0,0,5487.079,5,6,2025-04-21T15:22:28.502+03:00,766930995.0206352,0,-43.8,100.2578,1,0.45,2025-04-21T15:21:14.605+03:00,112,1.866666666666667,2025-04-21T12:30:07.995+03:00,0.02023345852159405,0
2025-04-21T15:23:16.070+03:00,1745238191.97542,40.95220265019029,29.14025662348531,76.02078,-1,-1,-1,-1,30.00645109687068,58.04164234037241,-9999,18399.159935,-0.7102508544921875,0.6549072265625,-0.286102294921875,18399.154897,2.376321133513871,-1.181718506898034,-0.722226818608555,0.06675992161035538,0.1241049841046333,0.05264203995466232,0.009730279445648193,0.004073202610015869,0.00398901104927063,XArbitraryZVertical,-0.3739067556045014,0.4667755093146215,-0.7942055744313726,-0.1074790052370318,-0.6942548155784607,0.66105717420578,-0.2846287190914154,0,0,0,-1,-1,18392.868614625,unknown,2,2025-04-21T15:23:09.773+03:00,2025-04-20T21:57:49.637+03:00,6680,0.9704633,0,0,5487.079,5,6,2025-04-21T15:22:28.502+03:00,766930995.0206352,0,-43.8,100.2578,1,0.45,2025-04-21T15:21:14.605+03:00,112,1.866666666666667,2025-04-21T12:30:07.995+03:00,0.02023345852159405,0
2025-04-21T15:23:16.080+03:00,1745238191.97542,40.95220265019029,29.14025662348531,76.02078,-1,-1,-1,-1,30.00645109687068,58.04164234037241,-9999,18399.170012,-0.70062255859375,0.663299560546875,-0.281951904296875,18399.164973,2.377233961670808,-1.18002794746617,-0.7224684157698701,0.04046972841024399,0.07451825588941574,0.03246087208390236,-0.009515285491943359,-0.005339503288269043,0.001149445772171021,XArbitraryZVertical,-0.3733911527859985,0.4665923707881076,-0.7945611351301876,-0.107439472774442,-0.6936250925064087,0.661238431930542,-0.2857412099838257,0,0,0,-1,-1,18392.868614625,unknown,2,2025-04-21T15:23:09.773+03:00,2025-04-20T21:57:49.637+03:00,6680,0.9704633,0,0,5487.079,5,6,2025-04-21T15:22:28.502+03:00,766930995.0206352,0,-43.8,100.2578,1,0.45,2025-04-21T15:21:14.605+03:00,112,1.866666666666667,2025-04-21T12:30:07.995+03:00,0.02023345852159405,0
2025-04-21T15:23:16.090+03:00,1745238191.97542,40.95220265019029,29.14025662348531,76.02078,-1,-1,-1,-1,30.00645109687068,58.04164234037241,-9999,18399.180088,-0.6577606201171875,0.6577301025390625,-0.2750091552734375,18399.17505,2.377482290379158,-1.179512188586193,-0.722581290376147,-0.002029459923505783,0.007307592779397964,0.005108909215778112,-0.0166286826133728,-0.000922858715057373,0.001738071441650391,XArbitraryZVertical,-0.3732175265456097,0.4665548831679623,-0.7946662878180255,-0.1074276614658981,-0.6934085488319397,0.6613231301307678,-0.2860704362392426,0,0,0,-1,-1,18392.868614625,unknown,2,2025-04-21T15:23:09.773+03:00,2025-04-20T21:57:49.637+03:00,6680,0.9704633,0,0,5487.079,5,6,2025-04-21T15:22:28.502+03:00,766930995.0206352,0,-43.8,100.2578,1,0.45,2025-04-21T15:21:14.605+03:00,112,1.866666666666667,2025-04-21T12:30:07.995+03:00,0.02023345852159405,0
2025-04-21T15:23:16.100+03:00,1745238191.97542,40.95220265019029,29.14025662348531,76.02078,-1,-1,-1,-1,30.00645109687068,58.04164234037241,-9999,18399.190164,-0.663421630859375,0.6510772705078125,-0.2831878662109375,18399.185126,2.377502448410999,-1.179394329321004,-0.7226507762209423,0.004341620020568371,0.01744598150253296,0.01140835043042898,0.02006876468658447,0.00148165225982666,0.009401082992553711,XArbitraryZVertical,-0.3731590131098766,0.466567303851512,-0.7946865864454193,-0.1074265011768792,-0.693332314491272,0.6613752245903015,-0.2861346006393433,0,0,0,-1,-1,18392.868614625,unknown,2,2025-04-21T15:23:09.773+03:00,2025-04-20T21:57:49.637+03:00,6680,0.9704633,0,0,5487.079,5,6,2025-04-21T15:22:28.502+03:00,766930995.0206352,0,-43.8,100.2578,1,0.45,2025-04-21T15:21:14.605+03:00,112,1.866666666666667,2025-04-21T12:30:07.995+03:00,0.02023345852159405,0
2025-04-21T15:23:16.110+03:00,1745238191.97542,40.95220265019029,29.14025662348531,76.02078,-1,-1,-1,-1,30.00645109687068,58.04164234037241,-9999,18399.200241,-0.7028656005859375,0.661468505859375,-0.29339599609375,18399.195202,2.377675286943827,-1.17909511278809,-0.7227421400260048,0.01349284127354622,0.01813394203782082,0.01420337148010731,0.04161006212234497,-0.01004618406295776,0.008563220500946045,XArbitraryZVertical,-0.3730588438294903,0.4665486024000735,-0.7947481301817301,-0.1074006329204614,-0.69319087266922,0.6614437699317932,-0.2863189876079559,0,0,0,-1,-1,18392.868614625,unknown,2,2025-04-21T15:23:09.773+03:00,2025-04-20T21:57:49.637+03:00,6680,0.9704633,0,0,5487.079,5,6,2025-04-21T15:22:28.502+03:00,766930995.0206352,0,-43.8,100.2578,1,0.45,2025-04-21T15:21:14.605+03:00,112,1.866666666666667,2025-04-21T12:30:07.995+03:00,0.02023345852159405,0
2025-04-21T15:23:16.120+03:00,1745238191.97542,40.95220265019029,29.14025662348531,76.02078,-1,-1,-1,-1,30.00645109687068,58.04164234037241,-9999,18399.210317,-0.6886444091796875,0.667938232421875,-0.2887115478515625,18399.205279,2.377848869110941,-1.178884205057521,-0.7227426654088557,0.009820075705647469,0.003800542559474707,0.005440505687147379,-3.093481063842773e-05,-0.004782319068908691,-0.005099952220916748,XArbitraryZVertical,-0.3730154241525004,0.4665050672059245,-0.7947967172133567,-0.1073806146220978,-0.6931300759315491,0.6614441275596619,-0.2864650189876556,0,0,0,-1,-1,18392.868614625,unknown,2,2025-04-21T15:23:09.773+03:00,2025-04-20T21:57:49.637+03:00,6680,0.9704633,0,0,5487.079,5,6,2025-04-21T15:22:28.502+03:00,766930995.0206352,0,-43.8,100.2578,1,0.45,2025-04-21T15:21:14.605+03:00,112,1.866666666666667,2025-04-21T12:30:07.995+03:00,0.02023345852159405,0
2025-04-21T15:23:16.130+03:00,1745238191.97542,40.95220265019029,29.14025662348531,76.02078,-1,-1,-1,-1,30.00645109687068,58.04164234037241,-9999,18399.220393,-0.6776123046875,0.6630706787109375,-0.2864227294921875,18399.215355,2.377998663816285,-1.178778459556866,-0.7227039898806423,0.01195080392062664,0.005793585907667875,0.00584394158795476,-0.005393445491790771,0.006004095077514648,-0.003780990839004517,XArbitraryZVertical,-0.3730174977902313,0.4664589096963224,-0.7948259501254991,-0.1073571060988457,-0.6931233406066895,0.661415159702301,-0.2865480780601501,0,0,0,-1,-1,18392.868614625,unknown,2,2025-04-21T15:23:09.773+03:00,2025-04-20T21:57:49.637+03:00,6680,0.9704633,0,0,5487.079,5,6,2025-04-21T15:22:28.502+03:00,766930995.0206352,0,-43.8,100.2578,1,0.45,2025-04-21T15:21:14.605+03:00,112,1.866666666666667,2025-04-21T12:30:07.995+03:00,0.02023345852159405,0
2025-04-21T15:23:16.140+03:00,1745238191.97542,40.95220265019029,29.14025662348531,76.02078,-1,-1,-1,-1,30.00645109687068,58.04164234037241,-9999,18399.23047,-0.6911468505859375,0.6568450927734375,-0.2833099365234375,18399.225431,2.378150420066104,-1.178595111146036,-0.7226898790879274,0.01201471965759993,0.0106743611395359,0.002928046509623528,0.01607745885848999,0.004031002521514893,0.0004695355892181396,XArbitraryZVertical,-0.3729833597757103,0.4664161898759438,-0.794868835949864,-0.1073437127421478,-0.69307941198349,0.661404550075531,-0.2866787016391754,0,0,0,-1,-1,18392.868614625,unknown,2,2025-04-21T15:23:09.773+03:00,2025-04-20T21:57:49.637+03:00,6680,0.9704633,0,0,5487.079,5,6,2025-04-21T15:22:28.502+03:00,766930995.0206352,0,-43.8,100.2578,1,0.45,2025-04-21T15:21:14.605+03:00,112,1.866666666666667,2025-04-21T12:30:07.995+03:00,0.02023345852159405,0
2025-04-21T15:23:16.150+03:00,1745238191.97542,40.95220265019029,29.14025662348531,76.02078,-1,-1,-1,-1,30.00645109687068,58.04164234037241,-9999,18399.240546,-0.690643310546875,0.655181884765625,-0.2834320068359375,18399.235508,2.378253719346977,-1.178430547891258,-0.7227020255388228,0.005544104147702456,0.007437888067215681,0.0009498836589045823,0.006867706775665283,-0.002890288829803467,0.002457380294799805,XArbitraryZVertical,-0.3729391245875701,0.4663920421441559,-0.7949046932754156,-0.1073376060839666,-0.6930249333381653,0.6614136695861816,-0.286789745092392,0,0,0,-1,-1,18392.868614625,unknown,2,2025-04-21T15:23:09.773+03:00,2025-04-20T21:57:49.637+03:00,6680,0.9704633,0,0,5487.079,5,6,2025-04-21T15:22:28.502+03:00,766930995.0206352,0,-43.8,100.2578,1,0.45,2025-04-21T15:21:14.605+03:00,112,1.866666666666667,2025-04-21T12:30:07.995+03:00,0.02023345852159405,0
2025-04-21T15:23:16.160+03:00,1745238191.97542,40.95220265019029,29.14025662348531,76.02078,-1,-1,-1,-1,30.00645109687068,58.04164234037241,-9999,18399.250622,-0.685272216796875,0.651824951171875,-0.283203125,18399.245584,2.37828072336831,-1.178350481598246,-0.722659520075412,0.0006918246508575976,0.008180909790098667,0.0004042019718326628,1.955032348632812e-05,-0.006062686443328857,0.003576487302780151,XArbitraryZVertical,-0.3729236023872491,0.4663689301187057,-0.7949228086445407,-0.1073582081699248,-0.6930280327796936,0.6613817811012268,-0.2868560254573822,0,0,0,-1,-1,18392.868614625,unknown,2,2025-04-21T15:23:09.773+03:00,2025-04-20T21:57:49.637+03:00,6680,0.9704633,0,0,5487.079,5,6,2025-04-21T15:22:28.502+03:00,766930995.0206352,0,-43.8,100.2578,1,0.45,2025-04-21T15:21:14.605+03:00,112,1.866666666666667,2025-04-21T12:30:07.995+03:00,0.02023345852159405,0
2025-04-21T15:23:16.170+03:00,1745238191.97542,40.95220265019029,29.14025662348531,76.02078,-1,-1,-1,-1,30.00645109687068,58.04164234037241,-9999,18399.260699,-0.686981201171875,0.65234375,-0.281982421875,18399.25566,2.378264098039188,-1.178304851094194,-0.7226422886109708,-0.0005826976266689599,0.005250966642051935,0.0003994415747001767,0.00631868839263916,-0.007438421249389648,0.003139406442642212,XArbitraryZVertical,-0.3729057435277326,0.4663639772132384,-0.7949309325373293,-0.1073802809934869,-0.6930252313613892,0.6613688468933105,-0.286891907453537,0,0,0,-1,-1,18392.868614625,unknown,2,2025-04-21T15:23:09.773+03:00,2025-04-20T21:57:49.637+03:00,6680,0.9704633,0,0,5487.079,5,6,2025-04-21T15:22:28.502+03:00,766930995.0206352,0,-43.8,100.2578,1,0.45,2025-04-21T15:21:14.605+03:00,112,1.866666666666667,2025-04-21T12:30:07.995+03:00,0.02023345852159405,0
2025-04-21T15:23:16.180+03:00,1745238191.97542,40.95220265019029,29.14025662348531,76.02078,-1,-1,-1,-1,30.00645109687068,58.04164234037241,-9999,18399.270775,-0.6855010986328125,0.65496826171875,-0.2828826904296875,18399.265737,2.37822635084288,-1.17829687219998,-0.7227028637435293,-0.003225086024031043,0.002095653442665935,0.001074286643415689,0.005608141422271729,-0.01023030281066895,0.004502922296524048,XArbitraryZVertical,-0.3728793967299406,0.4663902442913124,-0.7949281496656293,-0.1073794625654704,-0.6929861307144165,0.6614142656326294,-0.2868821918964386,0,0,0,-1,-1,18392.868614625,unknown,2,2025-04-21T15:23:09.773+03:00,2025-04-20T21:57:49.637+03:00,6680,0.9704633,0,0,5487.079,5,6,2025-04-21T15:22:28.502+03:00,766930995.0206352,0,-43.8,100.2578,1,0.45,2025-04-21T15:21:14.605+03:00,112,1.866666666666667,2025-04-21T12:30:07.995+03:00,0.02023345852159405,0
2025-04-21T15:23:16.190+03:00,1745238191.97542,40.95220265019029,29.14025662348531,76.02078,-1,-1,-1,-1,30.00645109687068,58.04164234037241,-9999,18399.280851,-0.6875762939453125,0.6612548828125,-0.2818145751953125,18399.275813,2.37824345576448,-1.17823911277391,-0.7227823967452304,0.007282282691448927,0.005681999493390322,-0.001334609114564955,0.006366908550262451,-0.008016407489776611,0.004568606615066528,XArbitraryZVertical,-0.3728416730130897,0.4664097440177744,-0.794936657452647,-0.1073625521530357,-0.6929209232330322,0.6614739298820496,-0.2869020700454712,0,0,0,-1,-1,18392.868614625,unknown,2,2025-04-21T15:23:09.773+03:00,2025-04-20T21:57:49.637+03:00,6680,0.9704633,0,0,5487.079,5,6,2025-04-21T15:22:28.502+03:00,766930995.0206352,0,-43.8,100.2578,1,0.45,2025-04-21T15:21:14.605+03:00,112,1.866666666666667,2025-04-21T12:30:07.995+03:00,0.02023345852159405,0
2025-04-21T15:23:16.201+03:00,1745238191.97542,40.95220265019029,29.14025662348531,76.02078,-1,-1,-1,-1,30.00645109687068,58.04164234037241,-9999,18399.290928,-0.695526123046875,0.6663818359375,-0.2820281982421875,18399.285889,2.378349491786819,-1.178068831971246,-0.7227117965193771,0.01159021258354187,0.01311434991657734,-0.003323724027723074,0.006727397441864014,-0.003034889698028564,0.004933357238769531,XArbitraryZVertical,-0.3728153810555038,0.4663579383540499,-0.7949768837088311,-0.1073809933693666,-0.6929152011871338,0.661421000957489,-0.2870379388332367,0,0,0,-1,-1,18392.868614625,unknown,2,2025-04-21T15:23:09.773+03:00,2025-04-20T21:57:49.637+03:00,6680,0.9704633,0,0,5487.079,5,6,2025-04-21T15:22:28.502+03:00,766930995.0206352,0,-43.8,100.2578,1,0.45,2025-04-21T15:21:14.605+03:00,112,1.866666666666667,2025-04-21T12:30:07.995+03:00,0.02023345852159405,0
2025-04-21T15:23:16.211+03:00,1745238191.97542,40.95220265019029,29.14025662348531,76.02078,-1,-1,-1,-1,30.00645109687068,58.04164234037241,-9999,18399.301004,-0.6982421875,0.6659698486328125,-0.283660888671875,18399.295966,2.378501788370228,-1.177830249524654,-0.7226162226501049,0.01427141577005386,0.0140168284997344,-0.004900348838418722,4.917383193969727e-05,0.00324702262878418,0.005260199308395386,XArbitraryZVertical,-0.3727786302639632,0.4662857337480514,-0.7950332721478574,-0.1074042803519592,-0.6929050087928772,0.6613492965698242,-0.2872274219989777,0,0,0,-1,-1,18392.868614625,unknown,2,2025-04-21T15:23:09.773+03:00,2025-04-20T21:57:49.637+03:00,6680,0.9704633,0,0,5487.079,5,6,2025-04-21T15:22:28.502+03:00,766930995.0206352,0,-43.8,100.2578,1,0.45,2025-04-21T15:21:14.605+03:00,112,1.866666666666667,2025-04-21T12:30:07.995+03:00,0.02023345852159405,0
2025-04-21T15:23:16.221+03:00,1745238191.97542,40.95220265019029,29.14025662348531,76.02078,-1,-1,-1,-1,30.00645109687068,58.04164234037241,-9999,18399.31108,-0.69439697265625,0.663330078125,-0.2862548828125,18399.306042,2.378669731498123,-1.177530770401695,-0.7225475972331904,0.0151934027671814,0.01786163449287415,-0.00768228666856885,-0.004954040050506592,0.005938291549682617,0.005042582750320435,XArbitraryZVertical,-0.3727149299951822,0.4662160825398449,-0.7951008090026576,-0.1074275995409348,-0.6928608417510986,0.6612978577613831,-0.2874522805213928,0,0,0,-1,-1,18392.868614625,unknown,2,2025-04-21T15:23:09.773+03:00,2025-04-20T21:57:49.637+03:00,6680,0.9704633,0,0,5487.079,5,6,2025-04-21T15:22:28.502+03:00,766930995.0206352,0,-43.8,100.2578,1,0.45,2025-04-21T15:21:14.605+03:00,112,1.866666666666667,2025-04-21T12:30:07.995+03:00,0.02023345852159405,0
2025-04-21T15:23:16.231+03:00,1745238191.97542,40.95220265019029,29.14025662348531,76.02078,-1,-1,-1,-1,30.00645109687068,58.04164234037241,-9999,18399.321157,-0.693817138671875,0.6601104736328125,-0.287872314453125,18399.316118,2.378787207567476,-1.177281280085299,-0.7224361498192434,0.01117495913058519,0.01506584696471691,-0.009512810967862606,-0.003401339054107666,0.00289386510848999,0.002817511558532715,XArbitraryZVertical,-0.3726693972499198,0.4661446245107663,-0.795158068830094,-0.1074720577390915,-0.6928572058677673,0.6612142324447632,-0.2876534163951874,0,0,0,-1,-1,18392.868614625,unknown,2,2025-04-21T15:23:09.773+03:00,2025-04-20T21:57:49.637+03:00,6680,0.9704633,0,0,5487.079,5,6,2025-04-21T15:22:28.502+03:00,766930995.0206352,0,-43.8,100.2578,1,0.45,2025-04-21T15:21:14.605+03:00,112,1.866666666666667,2025-04-21T12:30:07.995+03:00,0.02023345852159405,0
2025-04-21T15:23:16.241+03:00,1745238191.97542,40.95220265019029,29.14025662348531,76.02078,-1,-1,-1,-1,30.00645109687068,58.04164234037241,-9999,18399.331233,-0.6918487548828125,0.6543121337890625,-0.288726806640625,18399.326195,2.378850104000294,-1.177113837104901,-0.7223322950187248,0.008665994741022587,0.01328339334577322,-0.00347089720889926,-0.000929415225982666,0.001354336738586426,0.001083105802536011,XArbitraryZVertical,-0.3726419747355579,0.466090198626117,-0.7951967798949234,-0.1075167934150618,-0.6928724646568298,0.6611363291740417,-0.2877957820892334,0,0,0,-1,-1,18392.868614625,unknown,2,2025-04-21T15:23:09.773+03:00,2025-04-20T21:57:49.637+03:00,6680,0.9704633,0,0,5487.079,5,6,2025-04-21T15:22:28.502+03:00,766930995.0206352,0,-43.8,100.2578,1,0.45,2025-04-21T15:21:14.605+03:00,112,1.866666666666667,2025-04-21T12:30:07.995+03:00,0.02023345852159405,0
2025-04-21T15:23:16.251+03:00,1745238191.97542,40.95220265019029,29.14025662348531,76.02078,-1,-1,-1,-1,30.00645109687068,58.04164234037241,-9999,18399.341309,-0.6904449462890625,0.653411865234375,-0.2904815673828125,18399.336271,2.378916776900509,-1.176980612420597,-0.7222614277418306,0.008591293357312679,0.008348689414560795,-0.002507565077394247,0.0002809762954711914,-0.004268646240234375,-0.000958174467086792,XArbitraryZVertical,-0.3726212184533697,0.4660476159138249,-0.7952280727687303,-0.1075423943721436,-0.692877471446991,0.6610831618309021,-0.2879060804843903,0,0,0,-1,-1,18392.868614625,unknown,2,2025-04-21T15:23:09.773+03:00,2025-04-20T21:57:49.637+03:00,6680,0.9704633,0,0,5487.079,5,6,2025-04-21T15:22:28.502+03:00,766930995.0206352,0,-43.8,100.2578,1,0.45,2025-04-21T15:21:14.605+03:00,112,1.866666666666667,2025-04-21T12:30:07.995+03:00,0.02023345852159405,0
