loggingTime(txt),locationTimestamp_since1970(s),locationLatitude(WGS84),locationLongitude(WGS84),locationAltitude(m),locationSpeed(m/s),locationSpeedAccuracy(m/s),locationCourse(°),locationCourseAccuracy(°),locationVerticalAccuracy(m),locationHorizontalAccuracy(m),locationFloor(Z),accelerometerTimestamp_sinceReboot(s),accelerometerAccelerationX(G),accelerometerAccelerationY(G),accelerometerAccelerationZ(G),motionTimestamp_sinceReboot(s),motionYaw(rad),motionRoll(rad),motionPitch(rad),motionRotationRateX(rad/s),motionRotationRateY(rad/s),motionRotationRateZ(rad/s),motionUserAccelerationX(G),motionUserAccelerationY(G),motionUserAccelerationZ(G),motionAttitudeReferenceFrame(txt),motionQuaternionX(R),motionQuaternionY(R),motionQuaternionZ(R),motionQuaternionW(R),motionGravityX(G),motionGravityY(G),motionGravityZ(G),motionMagneticFieldX(µT),motionMagneticFieldY(µT),motionMagneticFieldZ(µT),motionHeading(°),motionMagneticFieldCalibrationAccuracy(Z),activityTimestamp_sinceReboot(s),activity(txt),activityActivityConfidence(Z),activityActivityStartDate(txt),pedometerStartDate(txt),pedometerNumberofSteps(N),pedometerAverageActivePace(s/m),pedometerCurrentPace(s/m),pedometerCurrentCadence(steps/s),pedometerDistance(m),pedometerFloorAscended(N),pedometerFloorDescended(N),pedometerEndDate(txt),altimeterTimestamp_sinceReboot(s),altimeterReset(bool),altimeterRelativeAltitude(m),altimeterPressure(kPa),batteryState(N),batteryLevel(R),heartRateBPMTimestamp(txt),heartRateBPM(N),heartRateBPS(R),heartRateVariabilityTimestamp(txt),heartRateVariability(ms),label
2025-04-21T15:44:54.338+03:00,1745239493.52687,40.95230025794708,29.14030550074007,76.50296,-1,-1,-1,-1,30,27.58914568789791,-9999,19080.556131,-0.57574462890625,0.7518768310546875,-0.3381195068359375,19080.546055,2.529598270636657,-1.041645122567552,-0.8432513463393736,0.09605369716882706,-0.01616368442773819,-0.02530314773321152,-0.007748126983642578,-0.04183810949325562,0.008837968111038208,XArbitraryZVertical,0.3259900369397414,-0.4752626361840138,0.8160261648598081,0.04424086058387112,-0.5740848779678345,0.7468093037605286,-0.3357118368148804,0,0,0,-1,-1,19076.073705875,unknown,2,2025-04-21T15:44:49.834+03:00,2025-04-20T21:57:49.637+03:00,6727,0.976288,0,0,5522.566,5,6,2025-04-21T15:44:52.413+03:00,766931799.8428298,0,-43.25,100.2547,1,0.4,2025-04-21T15:39:34.104+03:00,89,1.483333333333333,2025-04-21T12:30:07.995+03:00,0.02023345852159405,0
2025-04-21T15:44:54.340+03:00,1745239493.52687,40.95230025794708,29.14030550074007,76.50296,-1,-1,-1,-1,30,27.58914568789791,-9999,19080.566207,-0.57122802734375,0.747528076171875,-0.3390655517578125,19080.556131,2.530818675167887,-1.040885323315288,-0.8425007881727054,0.1128425300121307,-0.01511280052363873,-0.02477078139781952,-0.02969092130661011,-0.01246923208236694,-0.002649754285812378,XArbitraryZVertical,0.3261321166616005,-0.4747865764936803,0.8162526423769721,0.04412570993498773,-0.5743129849433899,0.7463099956512451,-0.336431086063385,0,0,0,-1,-1,19076.073705875,unknown,2,2025-04-21T15:44:49.834+03:00,2025-04-20T21:57:49.637+03:00,6727,0.976288,0,0,5522.566,5,6,2025-04-21T15:44:52.413+03:00,766931799.8428298,0,-43.25,100.2547,1,0.4,2025-04-21T15:39:34.104+03:00,89,1.483333333333333,2025-04-21T12:30:07.995+03:00,0.02023345852159405,0
2025-04-21T15:44:54.342+03:00,1745239493.52687,40.95230025794708,29.14030550074007,76.50296,-1,-1,-1,-1,30,27.58914568789791,-9999,19080.576283,-0.5772857666015625,0.7458343505859375,-0.3509368896484375,19080.566207,2.53229535074034,-1.039850115871473,-0.8416892311334676,0.1318967044353485,-0.006102195009589195,-0.0192263126373291,0.002403914928436279,0.006259679794311523,-0.0004976987838745117,XArbitraryZVertical,0.3262350527169078,-0.4742411771399434,0.8165359520037141,0.04398728136530271,-0.5744864344596863,0.7457695603370667,-0.3373319804668427,0,0,0,-1,-1,19076.073705875,unknown,2,2025-04-21T15:44:49.834+03:00,2025-04-20T21:57:49.637+03:00,6727,0.976288,0,0,5522.566,5,6,2025-04-21T15:44:52.413+03:00,766931799.8428298,0,-43.25,100.2547,1,0.4,2025-04-21T15:39:34.104+03:00,89,1.483333333333333,2025-04-21T12:30:07.995+03:00,0.02023345852159405,0
2025-04-21T15:44:54.352+03:00,1745239493.52687,40.95230025794708,29.14030550074007,76.50296,-1,-1,-1,-1,30,27.58914568789791,-9999,19080.586358,-0.5704498291015625,0.7454681396484375,-0.3563232421875,19080.576283,2.534010717558816,-1.038552284813597,-0.8408660774318335,0.1443411260843277,0.006256204098463058,-0.016116539016366,0.001746773719787598,0.00160515308380127,-0.001058369874954224,XArbitraryZVertical,0.3262888270089275,-0.4736467112852183,0.816868743224357,0.04381619914477627,-0.5745770931243896,0.7452208995819092,-0.3383888006210327,0,0,0,-1,-1,19076.073705875,unknown,2,2025-04-21T15:44:49.834+03:00,2025-04-20T21:57:49.637+03:00,6727,0.976288,0,0,5522.566,5,6,2025-04-21T15:44:52.413+03:00,766931799.8428298,0,-43.25,100.2547,1,0.4,2025-04-21T15:39:34.104+03:00,89,1.483333333333333,2025-04-21T12:30:07.995+03:00,0.02023345852159405,0
2025-04-21T15:44:54.361+03:00,1745239493.52687,40.95230025794708,29.14030550074007,76.50296,-1,-1,-1,-1,30,27.58914568789791,-9999,19080.596434,-0.56903076171875,0.7385101318359375,-0.3538665771484375,19080.586358,2.535749319451185,-1.037192362036242,-0.8400361101271862,0.1379684656858444,0.002704878803342581,-0.02017879299819469,-0.002270936965942383,0.001563727855682373,-0.01293277740478516,XArbitraryZVertical,0.3263231706042726,-0.4730444234014093,0.8172127827535454,0.04365101859326779,-0.5746486783027649,0.7446672320365906,-0.3394843339920044,0,0,0,-1,-1,19076.073705875,unknown,2,2025-04-21T15:44:49.834+03:00,2025-04-20T21:57:49.637+03:00,6727,0.976288,0,0,5522.566,5,6,2025-04-21T15:44:52.413+03:00,766931799.8428298,0,-43.25,100.2547,1,0.4,2025-04-21T15:39:34.104+03:00,89,1.483333333333333,2025-04-21T12:30:07.995+03:00,0.02023345852159405,0
2025-04-21T15:44:54.371+03:00,1745239493.52687,40.95230025794708,29.14030550074007,76.50296,-1,-1,-1,-1,30,27.58914568789791,-9999,19080.60651,-0.57147216796875,0.732421875,-0.346038818359375,19080.596434,2.537357129001549,-1.035925518263125,-0.8392822336974539,0.1245682239532471,0.01110182516276836,-0.008253423497080803,0.004952967166900635,0.001288831233978271,-0.01541325449943542,XArbitraryZVertical,0.3263472507624998,-0.4724917365443966,0.8175310679834225,0.04349584996195609,-0.5747008919715881,0.7441638708114624,-0.3404980599880219,0,0,0,-1,-1,19076.073705875,unknown,2,2025-04-21T15:44:49.834+03:00,2025-04-20T21:57:49.637+03:00,6727,0.976288,0,0,5522.566,5,6,2025-04-21T15:44:52.413+03:00,766931799.8428298,0,-43.25,100.2547,1,0.4,2025-04-21T15:39:34.104+03:00,89,1.483333333333333,2025-04-21T12:30:07.995+03:00,0.02023345852159405,0
2025-04-21T15:44:54.381+03:00,1745239493.52687,40.95230025794708,29.14030550074007,76.50296,-1,-1,-1,-1,30,27.58914568789791,-9999,19080.616586,-0.5698394775390625,0.7266998291015625,-0.3314971923828125,19080.60651,2.53886125195741,-1.034677128155388,-0.838717239650787,0.1107869669795036,0.01541994139552116,-0.001704411115497351,0.005224525928497314,-0.006771683692932129,-0.0124366283416748,XArbitraryZVertical,0.3263129988122344,-0.4720220662213264,0.8178249844343047,0.04332736561282488,-0.5746368169784546,0.7437863349914551,-0.3414299786090851,0,0,0,-1,-1,19076.073705875,unknown,2,2025-04-21T15:44:49.834+03:00,2025-04-20T21:57:49.637+03:00,6727,0.976288,0,0,5522.566,5,6,2025-04-21T15:44:52.413+03:00,766931799.8428298,0,-43.25,100.2547,1,0.4,2025-04-21T15:39:34.104+03:00,89,1.483333333333333,2025-04-21T12:30:07.995+03:00,0.02023345852159405,0
2025-04-21T15:44:54.392+03:00,1745239493.52687,40.95230025794708,29.14030550074007,76.50296,-1,-1,-1,-1,30,27.58914568789791,-9999,19080.626661,-0.5695037841796875,0.720245361328125,-0.3252105712890625,19080.616586,2.540103027190384,-1.033643398540356,-0.8381850934220165,0.0867530032992363,0.006166521925479174,-0.0004085169057361782,0.003471672534942627,-0.01052051782608032,-0.002103626728057861,XArbitraryZVertical,0.326296973154348,-0.4716112252818803,0.818074742561877,0.0432059659834514,-0.5746234655380249,0.743430495262146,-0.3422262668609619,0,0,0,-1,-1,19076.073705875,unknown,2,2025-04-21T15:44:49.834+03:00,2025-04-20T21:57:49.637+03:00,6727,0.976288,0,0,5522.566,5,6,2025-04-21T15:44:52.413+03:00,766931799.8428298,0,-43.25,100.2547,1,0.4,2025-04-21T15:39:34.104+03:00,89,1.483333333333333,2025-04-21T12:30:07.995+03:00,0.02023345852159405,0
2025-04-21T15:44:54.402+03:00,1745239493.52687,40.95230025794708,29.14030550074007,76.50296,-1,-1,-1,-1,30,27.58914568789791,-9999,19080.636737,-0.567047119140625,0.7294464111328125,-0.3315582275390625,19080.626661,2.541052708646416,-1.032942730158054,-0.8377187424852653,0.07095886021852493,-0.004856833722442389,-0.00213624257594347,0.00459754467010498,-0.0177464485168457,0.01292654871940613,XArbitraryZVertical,0.3263338143182691,-0.4712781267215421,0.8182571247953591,0.04310745557558969,-0.5746811628341675,0.7431185245513916,-0.342806339263916,0,0,0,-1,-1,19076.073705875,unknown,2,2025-04-21T15:44:49.834+03:00,2025-04-20T21:57:49.637+03:00,6727,0.976288,0,0,5522.566,5,6,2025-04-21T15:44:52.413+03:00,766931799.8428298,0,-43.25,100.2547,1,0.4,2025-04-21T15:39:34.104+03:00,89,1.483333333333333,2025-04-21T12:30:07.995+03:00,0.02023345852159405,0
2025-04-21T15:44:54.412+03:00,1745239493.52687,40.95230025794708,29.14030550074007,76.50296,-1,-1,-1,-1,30,27.58914568789791,-9999,19080.646813,-0.569000244140625,0.7398681640625,-0.3406524658203125,19080.636737,2.541886918513038,-1.032449757140671,-0.8373328625035009,0.06694334745407104,-0.01807117275893688,0.003077161498367786,0.005452871322631836,-0.02156215906143188,0.01840749382972717,XArbitraryZVertical,0.3264108795365196,-0.4709963877177569,0.8183951009717927,0.04298572126234484,-0.5747583508491516,0.7428602576255798,-0.3432366847991943,0,0,0,-1,-1,19076.073705875,unknown,2,2025-04-21T15:44:49.834+03:00,2025-04-20T21:57:49.637+03:00,6727,0.976288,0,0,5522.566,5,6,2025-04-21T15:44:52.413+03:00,766931799.8428298,0,-43.25,100.2547,1,0.4,2025-04-21T15:39:34.104+03:00,89,1.483333333333333,2025-04-21T12:30:07.995+03:00,0.02023345852159405,0
2025-04-21T15:44:54.422+03:00,1745239493.52687,40.95230025794708,29.14030550074007,76.50296,-1,-1,-1,-1,30,27.58914568789791,-9999,19080.656889,-0.5698394775390625,0.7463836669921875,-0.3465118408203125,19080.646813,2.542723187862663,-1.032021661116766,-0.8370652077220297,0.06401672959327698,-0.02069205604493618,0.005868653766810894,0.007750153541564941,-0.01154100894927979,0.01085147261619568,XArbitraryZVertical,0.3264895974456962,-0.4707570188325008,0.8185103621804508,0.04281598090048223,-0.5747820734977722,0.7426810264587402,-0.3435847461223602,0,0,0,-1,-1,19076.073705875,unknown,2,2025-04-21T15:44:49.834+03:00,2025-04-20T21:57:49.637+03:00,6727,0.976288,0,0,5522.566,5,6,2025-04-21T15:44:52.413+03:00,766931799.8428298,0,-43.25,100.2547,1,0.4,2025-04-21T15:39:34.104+03:00,89,1.483333333333333,2025-04-21T12:30:07.995+03:00,0.02023345852159405,0
2025-04-21T15:44:54.432+03:00,1745239493.52687,40.95230025794708,29.14030550074007,76.50296,-1,-1,-1,-1,30,27.58914568789791,-9999,19080.666964,-0.572906494140625,0.747100830078125,-0.345947265625,19080.656889,2.543585403040618,-1.031576943766735,-0.8367694815040849,0.0664236918091774,-0.01788295432925224,-0.0008275985601358116,0.005939304828643799,-0.001302778720855713,0.002232342958450317,XArbitraryZVertical,0.326573515793796,-0.4705031953443172,0.8186315173272571,0.04264660328718898,-0.5748174786567688,0.7424829602241516,-0.3439529538154602,0,0,0,-1,-1,19076.073705875,unknown,2,2025-04-21T15:44:49.834+03:00,2025-04-20T21:57:49.637+03:00,6727,0.976288,0,0,5522.566,5,6,2025-04-21T15:44:52.413+03:00,766931799.8428298,0,-43.25,100.2547,1,0.4,2025-04-21T15:39:34.104+03:00,89,1.483333333333333,2025-04-21T12:30:07.995+03:00,0.02023345852159405,0
2025-04-21T15:44:54.442+03:00,1745239493.52687,40.95230025794708,29.14030550074007,76.50296,-1,-1,-1,-1,30,27.58914568789791,-9999,19080.67704,-0.579559326171875,0.7451019287109375,-0.346160888671875,19080.666964,2.544443332238441,-1.031073240788011,-0.8363881256961724,0.06690160185098648,-0.01202439982444048,-0.007134030573070049,0.00492560863494873,0.004705369472503662,-0.002474784851074219,XArbitraryZVertical,0.3266501385331493,-0.4702187331258428,0.8187713117172141,0.04251604138106019,-0.574887216091156,0.7422274947166443,-0.3443880677223206,0,0,0,-1,-1,19076.073705875,unknown,2,2025-04-21T15:44:49.834+03:00,2025-04-20T21:57:49.637+03:00,6727,0.976288,0,0,5522.566,5,6,2025-04-21T15:44:52.413+03:00,766931799.8428298,0,-43.25,100.2547,1,0.4,2025-04-21T15:39:34.104+03:00,89,1.483333333333333,2025-04-21T12:30:07.995+03:00,0.02023345852159405,0
2025-04-21T15:44:54.452+03:00,1745239493.52687,40.95230025794708,29.14030550074007,76.50296,-1,-1,-1,-1,30,27.58914568789791,-9999,19080.687116,-0.5785369873046875,0.742034912109375,-0.348388671875,19080.67704,2.545240202848245,-1.030591429850011,-0.8359469866856503,0.06994639337062836,-0.02310927584767342,-0.01654644124209881,0.0008441805839538574,0.005168914794921875,-0.001175045967102051,XArbitraryZVertical,0.3267339274483564,-0.4699236784787606,0.8189121784785431,0.04242086392665412,-0.5750018954277039,0.7419317960739136,-0.3448333442211151,0,0,0,-1,-1,19076.073705875,unknown,2,2025-04-21T15:44:49.834+03:00,2025-04-20T21:57:49.637+03:00,6727,0.976288,0,0,5522.566,5,6,2025-04-21T15:44:52.413+03:00,766931799.8428298,0,-43.25,100.2547,1,0.4,2025-04-21T15:39:34.104+03:00,89,1.483333333333333,2025-04-21T12:30:07.995+03:00,0.02023345852159405,0
2025-04-21T15:44:54.463+03:00,1745239493.52687,40.95230025794708,29.14030550074007,76.50296,-1,-1,-1,-1,30,27.58914568789791,-9999,19080.697192,-0.573944091796875,0.74530029296875,-0.349945068359375,19080.687116,2.546039195240814,-1.030165850589205,-0.835367778856554,0.07302181422710419,-0.008348971605300903,-0.02420822158455849,-0.004824161529541016,0.003192305564880371,-0.001243263483047485,XArbitraryZVertical,0.3268702661965061,-0.469580915601609,0.819058172885648,0.04234840213999733,-0.5752235054969788,0.7415432929992676,-0.3452991843223572,0,0,0,-1,-1,19076.073705875,unknown,2,2025-04-21T15:44:49.834+03:00,2025-04-20T21:57:49.637+03:00,6727,0.976288,0,0,5522.566,5,6,2025-04-21T15:44:52.413+03:00,766931799.8428298,0,-43.25,100.2547,1,0.4,2025-04-21T15:39:34.104+03:00,89,1.483333333333333,2025-04-21T12:30:07.995+03:00,0.02023345852159405,0
2025-04-21T15:44:54.472+03:00,1745239493.52687,40.95230025794708,29.14030550074007,76.50296,-1,-1,-1,-1,30,27.58914568789791,-9999,19080.70726766667,-0.569732666015625,0.740447998046875,-0.3514556884765625,19080.697192,2.546988170406521,-1.029563953030909,-0.8349167229722162,0.07622799277305603,-0.01626521721482277,0.001972515601664782,-0.003006041049957275,0.001572310924530029,-0.003303617238998413,XArbitraryZVertical,0.3269422094634282,-0.4692547570632276,0.8192228096020466,0.04222120106740561,-0.5753020048141479,0.7412406206130981,-0.3458175361156464,0,0,0,-1,-1,19076.073705875,unknown,2,2025-04-21T15:44:49.834+03:00,2025-04-20T21:57:49.637+03:00,6727,0.976288,0,0,5522.566,5,6,2025-04-21T15:44:52.413+03:00,766931799.8428298,0,-43.25,100.2547,1,0.4,2025-04-21T15:39:34.104+03:00,89,1.483333333333333,2025-04-21T12:30:07.995+03:00,0.02023345852159405,0
2025-04-21T15:44:54.482+03:00,1745239493.52687,40.95230025794708,29.14030550074007,76.50296,-1,-1,-1,-1,30,27.58914568789791,-9999,19080.71734266667,-0.56689453125,0.73187255859375,-0.351348876953125,19080.70726766667,2.547929889485524,-1.029040653751022,-0.8345482483918644,0.06603720784187317,-0.01557406038045883,0.003528634086251259,0.001105666160583496,0.0033760666847229,-0.003304332494735718,XArbitraryZVertical,0.3270268178402077,-0.4689603477921305,0.8193660361265885,0.04205638581113973,-0.5753548741340637,0.7409932017326355,-0.3462592959403992,0,0,0,-1,-1,19076.073705875,unknown,2,2025-04-21T15:44:49.834+03:00,2025-04-20T21:57:49.637+03:00,6727,0.976288,0,0,5522.566,5,6,2025-04-21T15:44:52.413+03:00,766931799.8428298,0,-43.25,100.2547,1,0.4,2025-04-21T15:39:34.104+03:00,89,1.483333333333333,2025-04-21T12:30:07.995+03:00,0.02023345852159405,0
2025-04-21T15:44:54.492+03:00,1745239493.52687,40.95230025794708,29.14030550074007,76.50296,-1,-1,-1,-1,30,27.58914568789791,-9999,19080.72741866667,-0.5663909912109375,0.716461181640625,-0.3484344482421875,19080.71734266667,2.54864814330219,-1.028704680676474,-0.8343389037201212,0.04293082281947136,-0.02005988918244839,0.01120839174836874,0.007286727428436279,-0.001137256622314453,-0.004343241453170776,XArbitraryZVertical,0.3271018480273068,-0.4687622689830148,0.8194576280008661,0.0418967326844079,-0.5753714442253113,0.7408526539802551,-0.3465326428413391,0,0,0,-1,-1,19076.073705875,unknown,2,2025-04-21T15:44:49.834+03:00,2025-04-20T21:57:49.637+03:00,6727,0.976288,0,0,5522.566,5,6,2025-04-21T15:44:52.413+03:00,766931799.8428298,0,-43.25,100.2547,1,0.4,2025-04-21T15:39:34.104+03:00,89,1.483333333333333,2025-04-21T12:30:07.995+03:00,0.02023345852159405,0
2025-04-21T15:44:54.503+03:00,1745239493.52687,40.95230025794708,29.14030550074007,76.50296,-1,-1,-1,-1,30,27.58914568789791,-9999,19080.73749466667,-0.561065673828125,0.7210540771484375,-0.342193603515625,19080.72741866667,2.549124719560704,-1.028580864098151,-0.8342691106127226,0.02403429336845875,-0.02532369457185268,0.009317247197031975,0.007227122783660889,-0.01093226671218872,-0.004672527313232422,XArbitraryZVertical,0.3271775144105127,-0.4686571845453573,0.8194951543241662,0.04174924195441451,-0.5753729343414307,0.7408057451248169,-0.3466306328773499,0,0,0,-1,-1,19076.073705875,unknown,2,2025-04-21T15:44:49.834+03:00,2025-04-20T21:57:49.637+03:00,6727,0.976288,0,0,5522.566,5,6,2025-04-21T15:44:52.413+03:00,766931799.8428298,0,-43.25,100.2547,1,0.4,2025-04-21T15:39:34.104+03:00,89,1.483333333333333,2025-04-21T12:30:07.995+03:00,0.02023345852159405,0
2025-04-21T15:44:54.512+03:00,1745239493.52687,40.95230025794708,29.14030550074007,76.50296,-1,-1,-1,-1,30,27.58914568789791,-9999,19080.74757066667,-0.563934326171875,0.7278900146484375,-0.33807373046875,19080.73749466667,2.549398880396228,-1.028627180515835,-0.8342556630690251,0.009344298392534256,-0.02578894793987274,0.01075295731425285,0.01018136739730835,-0.02450352907180786,-0.001886487007141113,XArbitraryZVertical,0.3272635928226744,-0.4686085688035618,0.8194946408176096,0.04162958860206743,-0.5753974914550781,0.7407967448234558,-0.3466090857982635,0,0,0,-1,-1,19076.073705875,unknown,2,2025-04-21T15:44:49.834+03:00,2025-04-20T21:57:49.637+03:00,6727,0.976288,0,0,5522.566,5,6,2025-04-21T15:44:52.413+03:00,766931799.8428298,0,-43.25,100.2547,1,0.4,2025-04-21T15:39:34.104+03:00,89,1.483333333333333,2025-04-21T12:30:07.995+03:00,0.02023345852159405,0
2025-04-21T15:44:54.523+03:00,1745239493.52687,40.95230025794708,29.14030550074007,76.50296,-1,-1,-1,-1,30,27.58914568789791,-9999,19080.75764566667,-0.56744384765625,0.7300872802734375,-0.3411865234375,19080.74757066667,2.549620639617453,-1.028733983547911,-0.8343095622265876,0.007537409663200378,-0.03075487911701202,0.01026763021945953,0.01354110240936279,-0.0184515118598938,0.004897952079772949,XArbitraryZVertical,0.3273479263826181,-0.4685934488192495,0.8194761938249375,0.04149930538695062,-0.5754002928733826,0.7408329248428345,-0.3465270400047302,0,0,0,-1,-1,19076.073705875,unknown,2,2025-04-21T15:44:49.834+03:00,2025-04-20T21:57:49.637+03:00,6727,0.976288,0,0,5522.566,5,6,2025-04-21T15:44:52.413+03:00,766931799.8428298,0,-43.25,100.2547,1,0.4,2025-04-21T15:39:34.104+03:00,89,1.483333333333333,2025-04-21T12:30:07.995+03:00,0.02023345852159405,0
2025-04-21T15:44:54.533+03:00,1745239493.52687,40.95230025794708,29.14030550074007,76.50296,-1,-1,-1,-1,30,27.58914568789791,-9999,19080.76772166667,-0.574127197265625,0.7327117919921875,-0.3426055908203125,19080.75764566667,2.549769853972061,-1.028918364943272,-0.8343949104492777,0.003560511162504554,-0.02826854959130287,0.01273132022470236,0.01156723499298096,-0.01237475872039795,0.008833348751068115,XArbitraryZVertical,0.3274403559402005,-0.4686028454727472,0.8194403788487927,0.04137231790913903,-0.5754100680351257,0.7408902645111084,-0.3463883697986603,0,0,0,-1,-1,19076.073705875,unknown,2,2025-04-21T15:44:49.834+03:00,2025-04-20T21:57:49.637+03:00,6727,0.976288,0,0,5522.566,5,6,2025-04-21T15:44:52.413+03:00,766931799.8428298,0,-43.25,100.2547,1,0.4,2025-04-21T15:39:34.104+03:00,89,1.483333333333333,2025-04-21T12:30:07.995+03:00,0.02023345852159405,0
2025-04-21T15:44:54.543+03:00,1745239493.52687,40.95230025794708,29.14030550074007,76.50296,-1,-1,-1,-1,30,27.58914568789791,-9999,19080.77779766667,-0.57977294921875,0.736968994140625,-0.344268798828125,19080.76772166667,2.549934030798473,-1.029074439072293,-0.8344818353746164,0.006293313577771187,-0.02562682703137398,0.01382314972579479,0.007492005825042725,-0.01023590564727783,0.004407346248626709,XArbitraryZVertical,0.3275244079612774,-0.468609748894888,0.8194092158726339,0.04124526513782595,-0.5754088759422302,0.7409486174583435,-0.3462653160095215,0,0,0,-1,-1,19076.073705875,unknown,2,2025-04-21T15:44:49.834+03:00,2025-04-20T21:57:49.637+03:00,6727,0.976288,0,0,5522.566,5,6,2025-04-21T15:44:52.413+03:00,766931799.8428298,0,-43.25,100.2547,1,0.4,2025-04-21T15:39:34.104+03:00,89,1.483333333333333,2025-04-21T12:30:07.995+03:00,0.02023345852159405,0
2025-04-21T15:44:54.553+03:00,1745239493.52687,40.95230025794708,29.14030550074007,76.50296,-1,-1,-1,-1,30,27.58914568789791,-9999,19080.78787366667,-0.5834503173828125,0.7369842529296875,-0.3493499755859375,19080.77779766667,2.550114252753968,-1.029163630909739,-0.8345641845958678,0.003059171140193939,-0.01886692456901073,0.01532730180770159,-6.723403930664062e-05,-0.007163166999816895,0.003332793712615967,XArbitraryZVertical,0.3275857580653884,-0.4686110186543938,0.8193898508840614,0.04112860978784549,-0.5753875374794006,0.7410039305686951,-0.3461825549602509,0,0,0,-1,-1,19076.073705875,unknown,2,2025-04-21T15:44:49.834+03:00,2025-04-20T21:57:49.637+03:00,6727,0.976288,0,0,5522.566,5,6,2025-04-21T15:44:52.413+03:00,766931799.8428298,0,-43.25,100.2547,1,0.4,2025-04-21T15:39:34.104+03:00,89,1.483333333333333,2025-04-21T12:30:07.995+03:00,0.02023345852159405,0
2025-04-21T15:44:54.563+03:00,1745239493.52687,40.95230025794708,29.14030550074007,76.50296,-1,-1,-1,-1,30,27.58914568789791,-9999,19080.79794866667,-0.5814666748046875,0.736724853515625,-0.3513946533203125,19080.78787366667,2.55028585633924,-1.029181922006785,-0.834671534210592,0.002585128648206592,-0.01120607648044825,0.01499321032315493,-0.005469739437103271,-0.004030883312225342,0.001450121402740479,XArbitraryZVertical,0.3276108010869939,-0.46862103014156,0.819379233032944,0.04102530746371573,-0.575325608253479,0.7410759925842285,-0.3461309969425201,0,0,0,-1,-1,19076.073705875,unknown,2,2025-04-21T15:44:49.834+03:00,2025-04-20T21:57:49.637+03:00,6727,0.976288,0,0,5522.566,5,6,2025-04-21T15:44:52.413+03:00,766931799.8428298,0,-43.25,100.2547,1,0.4,2025-04-21T15:39:34.104+03:00,89,1.483333333333333,2025-04-21T12:30:07.995+03:00,0.02023345852159405,0
2025-04-21T15:44:54.573+03:00,1745239493.52687,40.95230025794708,29.14030550074007,76.50296,-1,-1,-1,-1,30,27.58914568789791,-9999,19080.80802466667,-0.5771484375,0.736175537109375,-0.351165771484375,19080.79794866667,2.550490509539514,-1.02913631386408,-0.8347617608762554,0.006929542869329453,-0.01192246656864882,0.01225414872169495,-0.00770944356918335,-0.004839122295379639,-0.00345611572265625,XArbitraryZVertical,0.3276209716127982,-0.4686182892330441,0.8193816456787723,0.04092817992244908,-0.5752525925636292,0.7411366105079651,-0.3461228013038635,0,0,0,-1,-1,19076.073705875,unknown,2,2025-04-21T15:44:49.834+03:00,2025-04-20T21:57:49.637+03:00,6727,0.976288,0,0,5522.566,5,6,2025-04-21T15:44:52.413+03:00,766931799.8428298,0,-43.25,100.2547,1,0.4,2025-04-21T15:39:34.104+03:00,89,1.483333333333333,2025-04-21T12:30:07.995+03:00,0.02023345852159405,0
2025-04-21T15:44:54.583+03:00,1745239493.52687,40.95230025794708,29.14030550074007,76.50296,-1,-1,-1,-1,30,27.58914568789791,-9999,19080.81810066667,-0.573089599609375,0.7376556396484375,-0.347412109375,19080.80802466667,2.550666127730175,-1.029104609024195,-0.8347967872840329,0.008672981522977352,-0.009798729792237282,0.008549891412258148,-0.005652308464050293,-0.004084467887878418,-0.004855155944824219,XArbitraryZVertical,0.3276417657909954,-0.4686011919644466,0.8193867309927901,0.04085421313569949,-0.5752192735671997,0.7411600947380066,-0.3461275994777679,0,0,0,-1,-1,19076.073705875,unknown,2,2025-04-21T15:44:49.834+03:00,2025-04-20T21:57:49.637+03:00,6727,0.976288,0,0,5522.566,5,6,2025-04-21T15:44:52.413+03:00,766931799.8428298,0,-43.25,100.2547,1,0.4,2025-04-21T15:39:34.104+03:00,89,1.483333333333333,2025-04-21T12:30:07.995+03:00,0.02023345852159405,0
2025-04-21T15:44:54.593+03:00,1745239493.52687,40.95230025794708,29.14030550074007,76.50296,-1,-1,-1,-1,30,27.58914568789791,-9999,19080.82817666667,-0.5706634521484375,0.7450103759765625,-0.3455352783203125,19080.81810066667,2.550913808341989,-1.029037085522995,-0.8348162962589536,0.01505205128341913,-0.01468935795128345,0.01852076500654221,-0.001247763633728027,-0.004692673683166504,-0.005205243825912476,XArbitraryZVertical,0.3276680228901176,-0.4685660988267782,0.8194008014539997,0.0407633192603845,-0.5751835107803345,0.7411732077598572,-0.3461589515209198,0,0,0,-1,-1,19076.073705875,unknown,2,2025-04-21T15:44:49.834+03:00,2025-04-20T21:57:49.637+03:00,6727,0.976288,0,0,5522.566,5,6,2025-04-21T15:44:52.413+03:00,766931799.8428298,0,-43.25,100.2547,1,0.4,2025-04-21T15:39:34.104+03:00,89,1.483333333333333,2025-04-21T12:30:07.995+03:00,0.02023345852159405,0
2025-04-21T15:44:54.603+03:00,1745239493.52687,40.95230025794708,29.14030550074007,76.50296,-1,-1,-1,-1,30,27.58914568789791,-9999,19080.83825266667,-0.575469970703125,0.7373504638671875,-0.345550537109375,19080.82817666667,2.551160056344762,-1.028985320415147,-0.8348661728459477,0.005799164529889822,-0.0135726947337389,0.007582364603877068,0.002227425575256348,-0.003291785717010498,-0.000677943229675293,XArbitraryZVertical,0.3276939551799294,-0.4685422366270605,0.819409172310006,0.04066130745171873,-0.5751339197158813,0.7412067055702209,-0.3461696803569794,0,0,0,-1,-1,19076.073705875,unknown,2,2025-04-21T15:44:49.834+03:00,2025-04-20T21:57:49.637+03:00,6727,0.976288,0,0,5522.566,5,6,2025-04-21T15:44:52.413+03:00,766931799.8428298,0,-43.25,100.2547,1,0.4,2025-04-21T15:39:34.104+03:00,89,1.483333333333333,2025-04-21T12:30:07.995+03:00,0.02023345852159405,0
2025-04-21T15:44:54.613+03:00,1745239493.52687,40.95230025794708,29.14030550074007,76.50296,-1,-1,-1,-1,30,27.58914568789791,-9999,19080.84832766667,-0.583404541015625,0.7241058349609375,-0.342987060546875,19080.83825266667,2.551205368039176,-1.029062435839074,-0.8349046314097507,-0.002839064924046397,-0.008667951449751854,0.001359622227028012,0.004854321479797363,0.004586458206176758,-0.0003706812858581543,XArbitraryZVertical,0.3277279969055159,-0.4685498968776004,0.8193935821373258,0.04061456144957957,-0.5751363039016724,0.7412325143814087,-0.3461107015609741,0,0,0,-1,-1,19076.073705875,unknown,2,2025-04-21T15:44:49.834+03:00,2025-04-20T21:57:49.637+03:00,6727,0.976288,0,0,5522.566,5,6,2025-04-21T15:44:52.413+03:00,766931799.8428298,0,-43.25,100.2547,1,0.4,2025-04-21T15:39:34.104+03:00,89,1.483333333333333,2025-04-21T12:30:07.995+03:00,0.02023345852159405,0
2025-04-21T15:44:54.624+03:00,1745239493.52687,40.95230025794708,29.14030550074007,76.50296,-1,-1,-1,-1,30,27.58914568789791,-9999,19080.85840366667,-0.5812835693359375,0.7343597412109375,-0.342071533203125,19080.84832766667,2.55122826554513,-1.029104770065467,-0.834945257404104,0.001107273856177926,-0.007049481850117445,0.006526987068355083,-0.00170290470123291,-0.006259262561798096,0.001649349927902222,XArbitraryZVertical,0.3277421264156328,-0.468561290252561,0.8193829059546578,0.04058442979672679,-0.5751251578330994,0.741259753704071,-0.3460708260536194,0,0,0,-1,-1,19076.073705875,unknown,2,2025-04-21T15:44:49.834+03:00,2025-04-20T21:57:49.637+03:00,6727,0.976288,0,0,5522.566,5,6,2025-04-21T15:44:52.413+03:00,766931799.8428298,0,-43.25,100.2547,1,0.4,2025-04-21T15:39:34.104+03:00,89,1.483333333333333,2025-04-21T12:30:07.995+03:00,0.02023345852159405,0
2025-04-21T15:44:54.635+03:00,1745239493.52687,40.95230025794708,29.14030550074007,76.50296,-1,-1,-1,-1,30,27.58914568789791,-9999,19080.86847966667,-0.5774078369140625,0.7320556640625,-0.3427581787109375,19080.85840366667,2.551288796332124,-1.029118435308315,-0.8349890656355221,-5.25328068761155e-05,-0.003561805468052626,0.009561925195157528,-0.008378803730010986,-0.01628321409225464,0.002738654613494873,XArbitraryZVertical,0.3277526625262597,-0.4685670540026478,0.8193773447177264,0.04054472673870033,-0.5751020312309265,0.7412891983985901,-0.3460462093353271,0,0,0,-1,-1,19076.073705875,unknown,2,2025-04-21T15:44:49.834+03:00,2025-04-20T21:57:49.637+03:00,6727,0.976288,0,0,5522.566,5,6,2025-04-21T15:44:52.413+03:00,766931799.8428298,0,-43.25,100.2547,1,0.4,2025-04-21T15:39:34.104+03:00,89,1.483333333333333,2025-04-21T12:30:07.995+03:00,0.02023345852159405,0
2025-04-21T15:44:54.646+03:00,1745239493.52687,40.95230025794708,29.14030550074007,76.50296,-1,-1,-1,-1,30,27.58914568789791,-9999,19080.87855566667,-0.577850341796875,0.7296295166015625,-0.342803955078125,19080.86847966667,2.551323237256657,-1.029142920173323,-0.8350956352978364,-0.004592423792928457,-0.005298452917486429,0.01488172262907028,-0.005584716796875,-0.007077395915985107,0.003873944282531738,XArbitraryZVertical,0.327748292037859,-0.4685993847713897,0.8193629255012834,0.04049636507443777,-0.575042724609375,0.7413607239723206,-0.3459913432598114,0,0,0,-1,-1,19076.073705875,unknown,2,2025-04-21T15:44:49.834+03:00,2025-04-20T21:57:49.637+03:00,6727,0.976288,0,0,5522.566,5,6,2025-04-21T15:44:52.413+03:00,766931799.8428298,0,-43.25,100.2547,1,0.4,2025-04-21T15:39:34.104+03:00,89,1.483333333333333,2025-04-21T12:30:07.995+03:00,0.02023345852159405,0
2025-04-21T15:44:54.660+03:00,1745239493.52687,40.95230025794708,29.14030550074007,76.50296,-1,-1,-1,-1,30,27.58914568789791,-9999,19080.88863166667,-0.574249267578125,0.7333221435546875,-0.3448028564453125,19080.87855566667,2.551378814267193,-1.029129864716309,-0.8352345283866935,-0.0004232448409311473,-0.0005574938841164112,0.01794302649796009,-0.002381563186645508,-0.01016134023666382,0.00370633602142334,XArbitraryZVertical,0.3277266120037485,-0.4686388489111827,0.8193518624884027,0.0404396909658199,-0.5749500393867493,0.7414538860321045,-0.345945805311203,0,0,0,-1,-1,19076.073705875,unknown,2,2025-04-21T15:44:49.834+03:00,2025-04-20T21:57:49.637+03:00,6727,0.976288,0,0,5522.566,5,6,2025-04-21T15:44:52.413+03:00,766931799.8428298,0,-43.25,100.2547,1,0.4,2025-04-21T15:39:34.104+03:00,89,1.483333333333333,2025-04-21T12:30:07.995+03:00,0.02023345852159405,0
2025-04-21T15:44:54.664+03:00,1745239493.52687,40.95230025794708,29.14030550074007,76.50296,-1,-1,-1,-1,30,27.58914568789791,-9999,19080.89870666667,-0.5753631591796875,0.74041748046875,-0.3462066650390625,19080.88863166667,2.551495177048094,-1.029073037000697,-0.8353837489543103,0.0008147255866788328,-0.006140944082289934,0.01859942823648453,-0.002618193626403809,-0.01248931884765625,0.002873212099075317,XArbitraryZVertical,0.3276991398980817,-0.4686711111687275,0.8193479527838534,0.04036539440735236,-0.5748354196548462,0.7415540218353271,-0.3459213376045227,0,0,0,-1,-1,19076.073705875,unknown,2,2025-04-21T15:44:49.834+03:00,2025-04-20T21:57:49.637+03:00,6727,0.976288,0,0,5522.566,5,6,2025-04-21T15:44:52.413+03:00,766931799.8428298,0,-43.25,100.2547,1,0.4,2025-04-21T15:39:34.104+03:00,89,1.483333333333333,2025-04-21T12:30:07.995+03:00,0.02023345852159405,0
2025-04-21T15:44:54.674+03:00,1745239493.52687,40.95230025794708,29.14030550074007,76.50296,-1,-1,-1,-1,30,27.58914568789791,-9999,19080.90878266667,-0.575714111328125,0.7437744140625,-0.3479156494140625,19080.89870666667,2.551647821882158,-1.028999498708815,-0.8354929566363997,0.006229198072105646,-0.00404104171320796,0.01091780792921782,0.0005066990852355957,-0.00761866569519043,0.001012206077575684,XArbitraryZVertical,0.3276816582060231,-0.4686830101787628,0.8193519112925287,0.04029117370810258,-0.5747407674789429,0.7416272759437561,-0.3459219336509705,0,0,0,-1,-1,19076.073705875,unknown,2,2025-04-21T15:44:49.834+03:00,2025-04-20T21:57:49.637+03:00,6727,0.976288,0,0,5522.566,5,6,2025-04-21T15:44:52.413+03:00,766931799.8428298,0,-43.25,100.2547,1,0.4,2025-04-21T15:39:34.104+03:00,89,1.483333333333333,2025-04-21T12:30:07.995+03:00,0.02023345852159405,0
2025-04-21T15:44:54.684+03:00,1745239493.52687,40.95230025794708,29.14030550074007,76.50296,-1,-1,-1,-1,30,27.58914568789791,-9999,19080.91885866667,-0.5797119140625,0.7452392578125,-0.3481292724609375,19080.90878266667,2.55183995961568,-1.028856649896264,-0.8355078138639549,0.01209075003862381,0.005010710097849369,0.005052560940384865,-0.001108527183532715,-0.0008384585380554199,-0.0002846717834472656,XArbitraryZVertical,0.3276650260645232,-0.468653880012122,0.8193776372066507,0.04024196386850828,-0.5746818780899048,0.7416372299194336,-0.3459983468055725,0,0,0,-1,-1,19076.073705875,unknown,2,2025-04-21T15:44:49.834+03:00,2025-04-20T21:57:49.637+03:00,6727,0.976288,0,0,5522.566,5,6,2025-04-21T15:44:52.413+03:00,766931799.8428298,0,-43.25,100.2547,1,0.4,2025-04-21T15:39:34.104+03:00,89,1.483333333333333,2025-04-21T12:30:07.995+03:00,0.02023345852159405,0
2025-04-21T15:44:54.694+03:00,1745239493.52687,40.95230025794708,29.14030550074007,76.50296,-1,-1,-1,-1,30,27.58914568789791,-9999,19080.92893466667,-0.579345703125,0.743743896484375,-0.3471527099609375,19080.91885866667,2.552003916571038,-1.028670699570059,-0.8354336357102931,0.01054718159139156,0.008168419823050499,-0.007986275479197502,-0.001385211944580078,0.001789987087249756,-0.002041608095169067,XArbitraryZVertical,0.3276429631674329,-0.4685971958324698,0.8194189888182408,0.04023799543326829,-0.5746645331382751,0.7415874600410461,-0.3461335003376007,0,0,0,-1,-1,19076.073705875,unknown,2,2025-04-21T15:44:49.834+03:00,2025-04-20T21:57:49.637+03:00,6727,0.976288,0,0,5522.566,5,6,2025-04-21T15:44:52.413+03:00,766931799.8428298,0,-43.25,100.2547,1,0.4,2025-04-21T15:39:34.104+03:00,89,1.483333333333333,2025-04-21T12:30:07.995+03:00,0.02023345852159405,0
2025-04-21T15:44:54.713+03:00,1745239493.52687,40.95230025794708,29.14030550074007,76.50296,-1,-1,-1,-1,30,27.58914568789791,-9999,19080.93900966667,-0.57757568359375,0.740509033203125,-0.343170166015625,19080.92893466667,2.552058984305909,-1.028553521884842,-0.8352623331628836,0.01090138219296932,0.009472303092479706,-0.01085130404680967,-0.005665719509124756,0.003980159759521484,-0.001817107200622559,XArbitraryZVertical,0.3276439691312408,-0.4685255548324428,0.8194571427672316,0.04028865026960125,-0.5747328996658325,0.7414725422859192,-0.3462664783000946,0,0,0,-1,-1,19076.073705875,unknown,2,2025-04-21T15:44:49.834+03:00,2025-04-20T21:57:49.637+03:00,6727,0.976288,0,0,5522.566,5,6,2025-04-21T15:44:52.413+03:00,766931799.8428298,0,-43.25,100.2547,1,0.4,2025-04-21T15:39:34.104+03:00,89,1.483333333333333,2025-04-21T12:30:07.995+03:00,0.02023345852159405,0
2025-04-21T15:44:54.714+03:00,1745239493.52687,40.95230025794708,29.14030550074007,76.50296,-1,-1,-1,-1,30,27.58914568789791,-9999,19080.94908566667,-0.578338623046875,0.734954833984375,-0.3455810546875,19080.93900966667,2.55204041616572,-1.028485632562658,-0.835097586011459,0.0009723181719891727,0.009705596603453159,-0.01021454203873873,-0.004684329032897949,0.002229154109954834,-0.0002197027206420898,XArbitraryZVertical,0.3276465798973835,-0.4684692743876921,0.8194849450889686,0.04035602851780159,-0.5748140215873718,0.7413620352745056,-0.3463685214519501,0,0,0,-1,-1,19076.073705875,unknown,2,2025-04-21T15:44:49.834+03:00,2025-04-20T21:57:49.637+03:00,6727,0.976288,0,0,5522.566,5,6,2025-04-21T15:44:52.413+03:00,766931799.8428298,0,-43.25,100.2547,1,0.4,2025-04-21T15:39:34.104+03:00,89,1.483333333333333,2025-04-21T12:30:07.995+03:00,0.02023345852159405,0
2025-04-21T15:44:54.724+03:00,1745239493.52687,40.95230025794708,29.14030550074007,76.50296,-1,-1,-1,-1,30,27.58914568789791,-9999,19080.95916166667,-0.577301025390625,0.7293548583984375,-0.3480377197265625,19080.94908566667,2.551977986160953,-1.028423421441211,-0.8350260163375313,-0.005584650672972202,0.01156448293477297,-0.003059294307604432,-0.002768278121948242,-0.001430690288543701,0.0035666823387146,XArbitraryZVertical,0.3276215342366837,-0.468453062229643,0.8195013710380228,0.04041535384455323,-0.5748379826545715,0.7413139939308167,-0.3464317321777344,0,0,0,-1,-1,19076.073705875,unknown,2,2025-04-21T15:44:49.834+03:00,2025-04-20T21:57:49.637+03:00,6727,0.976288,0,0,5522.566,5,6,2025-04-21T15:44:52.413+03:00,766931799.8428298,0,-43.25,100.2547,1,0.4,2025-04-21T15:39:34.104+03:00,89,1.483333333333333,2025-04-21T12:30:07.995+03:00,0.02023345852159405,0
2025-04-21T15:44:54.734+03:00,1745239493.52687,40.95230025794708,29.14030550074007,76.50296,-1,-1,-1,-1,30,27.58914568789791,-9999,19080.96923766667,-0.5760040283203125,0.7317352294921875,-0.348114013671875,19080.95916166667,2.551865170184807,-1.02839174453888,-0.8350618691892014,-0.01360049936920404,0.01497173123061657,0.005062548443675041,-0.003504037857055664,-0.006993770599365234,0.0006871521472930908,XArbitraryZVertical,0.3275746382917901,-0.4684835243614635,0.8195003948063798,0.04045922321625094,-0.5748040676116943,0.7413380146026611,-0.346436083316803,0,0,0,-1,-1,19076.073705875,unknown,2,2025-04-21T15:44:49.834+03:00,2025-04-20T21:57:49.637+03:00,6727,0.976288,0,0,5522.566,5,6,2025-04-21T15:44:52.413+03:00,766931799.8428298,0,-43.25,100.2547,1,0.4,2025-04-21T15:39:34.104+03:00,89,1.483333333333333,2025-04-21T12:30:07.995+03:00,0.02023345852159405,0
2025-04-21T15:44:54.744+03:00,1745239493.52687,40.95230025794708,29.14030550074007,76.50296,-1,-1,-1,-1,30,27.58914568789791,-9999,19080.97931366667,-0.5721435546875,0.7353973388671875,-0.3452606201171875,19080.96923766667,2.551757965135068,-1.028308436719455,-0.8351488406237917,-0.009616410359740257,0.01907912455499172,0.006923831533640623,-0.003328680992126465,-0.01153814792633057,-0.001587033271789551,XArbitraryZVertical,0.3274969875781911,-0.4685299840648871,0.8195029583559489,0.04049963056838664,-0.5747200846672058,0.741396427154541,-0.3464507460594177,0,0,0,-1,-1,19076.073705875,unknown,2,2025-04-21T15:44:49.834+03:00,2025-04-20T21:57:49.637+03:00,6727,0.976288,0,0,5522.566,5,6,2025-04-21T15:44:52.413+03:00,766931799.8428298,0,-43.25,100.2547,1,0.4,2025-04-21T15:39:34.104+03:00,89,1.483333333333333,2025-04-21T12:30:07.995+03:00,0.02023345852159405,0
2025-04-21T15:44:54.755+03:00,1745239493.52687,40.95230025794708,29.14030550074007,76.50296,-1,-1,-1,-1,30,27.58914568789791,-9999,19080.98938866667,-0.5692901611328125,0.736907958984375,-0.341766357421875,19080.97931366667,2.551694039965705,-1.028163316266608,-0.835277403793322,-0.01171684544533491,0.01789375208318233,0.00863517913967371,-0.001507401466369629,-0.009442448616027832,-0.001140832901000977,XArbitraryZVertical,0.327395399434241,-0.4685827349955561,0.8195121229282032,0.0405256052092452,-0.5745881795883179,0.741482675075531,-0.3464849591255188,0,0,0,-1,-1,19076.073705875,unknown,2,2025-04-21T15:44:49.834+03:00,2025-04-20T21:57:49.637+03:00,6727,0.976288,0,0,5522.566,5,6,2025-04-21T15:44:52.413+03:00,766931799.8428298,0,-43.25,100.2547,1,0.4,2025-04-21T15:39:34.104+03:00,89,1.483333333333333,2025-04-21T12:30:07.995+03:00,0.02023345852159405,0
2025-04-21T15:44:54.764+03:00,1745239493.52687,40.95230025794708,29.14030550074007,76.50296,-1,-1,-1,-1,30,27.58914568789791,-9999,19080.99946466667,-0.5694732666015625,0.73663330078125,-0.34063720703125,19080.98938866667,2.551577909788087,-1.028073998785152,-0.8354158237917583,-0.01556071918457747,0.01721211522817612,0.006403382867574692,0.001913726329803467,-0.005903720855712891,0.002138078212738037,XArbitraryZVertical,0.3273023845851952,-0.4686486261739662,0.8195100055961351,0.04055720105845199,-0.5744693279266357,0.7415755391120911,-0.3464832305908203,0,0,0,-1,-1,19076.073705875,unknown,2,2025-04-21T15:44:49.834+03:00,2025-04-20T21:57:49.637+03:00,6727,0.976288,0,0,5522.566,5,6,2025-04-21T15:44:52.413+03:00,766931799.8428298,0,-43.25,100.2547,1,0.4,2025-04-21T15:39:34.104+03:00,89,1.483333333333333,2025-04-21T12:30:07.995+03:00,0.02023345852159405,0
2025-04-21T15:44:54.775+03:00,1745239493.52687,40.95230025794708,29.14030550074007,76.50296,-1,-1,-1,-1,30,27.58914568789791,-9999,19081.00954066667,-0.5717926025390625,0.738006591796875,-0.3415069580078125,19080.99946466667,2.551375666168487,-1.02805200963008,-0.8355228102963743,-0.01764597371220589,0.01785873249173164,0.0008064836729317904,0.005500316619873047,-0.004876852035522461,0.004520654678344727,XArbitraryZVertical,0.3272233666276818,-0.4687189020953954,0.8194984627793001,0.04061679756293391,-0.5743938088417053,0.7416473031044006,-0.346454918384552,0,0,0,-1,-1,19076.073705875,unknown,2,2025-04-21T15:44:49.834+03:00,2025-04-20T21:57:49.637+03:00,6727,0.976288,0,0,5522.566,5,6,2025-04-21T15:44:52.413+03:00,766931799.8428298,0,-43.25,100.2547,1,0.4,2025-04-21T15:39:34.104+03:00,89,1.483333333333333,2025-04-21T12:30:07.995+03:00,0.02023345852159405,0
2025-04-21T15:44:54.785+03:00,1745239493.52687,40.95230025794708,29.14030550074007,76.50296,-1,-1,-1,-1,30,27.58914568789791,-9999,19081.01961666667,-0.5738372802734375,0.7374725341796875,-0.342864990234375,19081.00954066667,2.551160821685051,-1.028040759975801,-0.8355887593859359,-0.0131964311003685,0.01725758984684944,-0.004564213566482067,0.005256175994873047,-0.004783749580383301,0.005920886993408203,XArbitraryZVertical,0.3271544733532777,-0.4687770158618948,0.8194891050263413,0.04068990515998555,-0.5743480324745178,0.741691529750824,-0.3464361131191254,0,0,0,-1,-1,19076.073705875,unknown,2,2025-04-21T15:44:49.834+03:00,2025-04-20T21:57:49.637+03:00,6727,0.976288,0,0,5522.566,5,6,2025-04-21T15:44:52.413+03:00,766931799.8428298,0,-43.25,100.2547,1,0.4,2025-04-21T15:39:34.104+03:00,89,1.483333333333333,2025-04-21T12:30:07.995+03:00,0.02023345852159405,0
2025-04-21T15:44:54.795+03:00,1745239493.52687,40.95230025794708,29.14030550074007,76.50296,-1,-1,-1,-1,30,27.58914568789791,-9999,19081.02969266667,-0.5731964111328125,0.737884521484375,-0.3455963134765625,19081.01961666667,2.550928402806794,-1.028033099712821,-0.8356355908788047,-0.01652857847511768,0.02092449553310871,-0.002126355655491352,0.002492427825927734,-0.003563940525054932,0.004167854785919189,XArbitraryZVertical,0.3270869810638647,-0.4688313469478956,0.819480730366593,0.04077440313497701,-0.57431560754776,0.7417229413986206,-0.346422553062439,0,0,0,-1,-1,19076.073705875,unknown,2,2025-04-21T15:44:49.834+03:00,2025-04-20T21:57:49.637+03:00,6727,0.976288,0,0,5522.566,5,6,2025-04-21T15:44:52.413+03:00,766931799.8428298,0,-43.25,100.2547,1,0.4,2025-04-21T15:39:34.104+03:00,89,1.483333333333333,2025-04-21T12:30:07.995+03:00,0.02023345852159405,0
2025-04-21T15:44:54.805+03:00,1745239493.52687,40.95230025794708,29.14030550074007,76.50296,-1,-1,-1,-1,30,27.58914568789791,-9999,19081.03976766667,-0.5692291259765625,0.73626708984375,-0.3490447998046875,19081.02969266667,2.55070560883942,-1.027981538721325,-0.8357113146434918,-0.01482968125492334,0.02540959231555462,0.002687740605324507,-4.553794860839844e-05,-0.004576027393341064,0.003374934196472168,XArbitraryZVertical,0.3269976648549502,-0.4688933606436556,0.8194766817494952,0.04085749036794416,-0.5742495059967041,0.7417737245559692,-0.3464230895042419,0,0,0,-1,-1,19076.073705875,unknown,2,2025-04-21T15:44:49.834+03:00,2025-04-20T21:57:49.637+03:00,6727,0.976288,0,0,5522.566,5,6,2025-04-21T15:44:52.413+03:00,766931799.8428298,0,-43.25,100.2547,1,0.4,2025-04-21T15:39:34.104+03:00,89,1.483333333333333,2025-04-21T12:30:07.995+03:00,0.02023345852159405,0
2025-04-21T15:44:54.815+03:00,1745239493.52687,40.95230025794708,29.14030550074007,76.50296,-1,-1,-1,-1,30,27.58914568789791,-9999,19081.04984366667,-0.57037353515625,0.7357635498046875,-0.3487091064453125,19081.03976766667,2.550524472525166,-1.027833197552017,-0.8358102571512268,-0.01682598516345024,0.0313124880194664,0.005047301296144724,0.001396656036376953,-0.00391000509262085,0.001179128885269165,XArbitraryZVertical,0.3268735152206128,-0.4689547307056159,0.8194869533885737,0.04094010525717591,-0.5741353034973145,0.741840124130249,-0.3464703261852264,0,0,0,-1,-1,19076.073705875,unknown,2,2025-04-21T15:44:49.834+03:00,2025-04-20T21:57:49.637+03:00,6727,0.976288,0,0,5522.566,5,6,2025-04-21T15:44:52.413+03:00,766931799.8428298,0,-43.25,100.2547,1,0.4,2025-04-21T15:39:34.104+03:00,89,1.483333333333333,2025-04-21T12:30:07.995+03:00,0.02023345852159405,0
2025-04-21T15:44:54.825+03:00,1745239493.52687,40.95230025794708,29.14030550074007,76.50296,-1,-1,-1,-1,30,27.58914568789791,-9999,19081.05991966667,-0.571563720703125,0.7346343994140625,-0.3453521728515625,19081.04984366667,2.550288879967751,-1.027648092737026,-0.8359666741514762,-0.02530708909034729,0.04013527184724808,0.008803024888038635,0.004941046237945557,-0.005708575248718262,-0.002711296081542969,XArbitraryZVertical,0.3267093466420684,-0.4690444298642417,0.8194961981996896,0.0410384321856602,-0.5739718079566956,0.7419449687004089,-0.3465166389942169,0,0,0,-1,-1,19076.073705875,unknown,2,2025-04-21T15:44:49.834+03:00,2025-04-20T21:57:49.637+03:00,6727,0.976288,0,0,5522.566,5,6,2025-04-21T15:44:52.413+03:00,766931799.8428298,0,-43.25,100.2547,1,0.4,2025-04-21T15:39:34.104+03:00,89,1.483333333333333,2025-04-21T12:30:07.995+03:00,0.02023345852159405,0
2025-04-21T15:44:54.835+03:00,1745239493.52687,40.95230025794708,29.14030550074007,76.50296,-1,-1,-1,-1,30,27.58914568789791,-9999,19081.06999566667,-0.5723114013671875,0.7359466552734375,-0.343505859375,19081.05991966667,2.549976704062312,-1.027503806838958,-0.8361640054615087,-0.0332971066236496,0.0326366126537323,0.005458892788738012,0.002492129802703857,-0.006573259830474854,-0.001544535160064697,XArbitraryZVertical,0.3265352827331747,-0.4691618279295611,0.8194929040632113,0.04114764202726991,-0.5737965106964111,0.7420772910118103,-0.34652379155159,0,0,0,-1,-1,19076.073705875,unknown,2,2025-04-21T15:44:49.834+03:00,2025-04-20T21:57:49.637+03:00,6727,0.976288,0,0,5522.566,5,6,2025-04-21T15:44:52.413+03:00,766931799.8428298,0,-43.25,100.2547,1,0.4,2025-04-21T15:39:34.104+03:00,89,1.483333333333333,2025-04-21T12:30:07.995+03:00,0.02023345852159405,0
2025-04-21T15:44:54.845+03:00,1745239493.52687,40.95230025794708,29.14030550074007,76.50296,-1,-1,-1,-1,30,27.58914568789791,-9999,19081.08007166667,-0.57177734375,0.7353515625,-0.345428466796875,19081.06999566667,2.549495159985988,-1.027585693845444,-0.8363993505279155,-0.04066966846585274,0.02234788984060287,0.003125897375866771,0.001791238784790039,-0.007402420043945312,0.001583606004714966,XArbitraryZVertical,0.3264060796609745,-0.4693248521519671,0.8194452246540918,0.04126304781741,-0.5736753344535828,0.742235004901886,-0.3463865220546722,0,0,0,-1,-1,19076.073705875,unknown,2,2025-04-21T15:44:49.834+03:00,2025-04-20T21:57:49.637+03:00,6727,0.976288,0,0,5522.566,5,6,2025-04-21T15:44:52.413+03:00,766931799.8428298,0,-43.25,100.2547,1,0.4,2025-04-21T15:39:34.104+03:00,89,1.483333333333333,2025-04-21T12:30:07.995+03:00,0.02023345852159405,0
2025-04-21T15:44:54.855+03:00,1745239493.52687,40.95230025794708,29.14030550074007,76.50296,-1,-1,-1,-1,30,27.58914568789791,-9999,19081.09014666667,-0.572296142578125,0.735992431640625,-0.344573974609375,19081.08007166667,2.548992234946459,-1.027814397875502,-0.8366203283376318,-0.03854047134518623,0.006757743656635284,0.001037446432746947,0.001104295253753662,-0.005750000476837158,0.00228312611579895,XArbitraryZVertical,0.3263350033073576,-0.4694893085027215,0.8193745732013682,0.04135648479855029,-0.5736140608787537,0.7423830628395081,-0.3461705148220062,0,0,0,-1,-1,19076.073705875,unknown,2,2025-04-21T15:44:49.834+03:00,2025-04-20T21:57:49.637+03:00,6727,0.976288,0,0,5522.566,5,6,2025-04-21T15:44:52.413+03:00,766931799.8428298,0,-43.25,100.2547,1,0.4,2025-04-21T15:39:34.104+03:00,89,1.483333333333333,2025-04-21T12:30:07.995+03:00,0.02023345852159405,0
2025-04-21T15:44:54.865+03:00,1745239493.52687,40.95230025794708,29.14030550074007,76.50296,-1,-1,-1,-1,30,27.58914568789791,-9999,19081.10022266667,-0.572113037109375,0.7392730712890625,-0.34417724609375,19081.09014666667,2.548468701293609,-1.028134992881635,-0.8367898822058322,-0.03679776191711426,0.004663100466132164,-0.00956210121512413,0.001916229724884033,-0.007252097129821777,0.0004320442676544189,XArbitraryZVertical,0.326307514994827,-0.4696409321255154,0.8192938909504919,0.04145053267030396,-0.5736172199249268,0.74249666929245,-0.3459216058254242,0,0,0,-1,-1,19076.073705875,unknown,2,2025-04-21T15:44:49.834+03:00,2025-04-20T21:57:49.637+03:00,6727,0.976288,0,0,5522.566,5,6,2025-04-21T15:44:52.413+03:00,766931799.8428298,0,-43.25,100.2547,1,0.4,2025-04-21T15:39:34.104+03:00,89,1.483333333333333,2025-04-21T12:30:07.995+03:00,0.02023345852159405,0
2025-04-21T15:44:54.875+03:00,1745239493.52687,40.95230025794708,29.14030550074007,76.50296,-1,-1,-1,-1,30,27.58914568789791,-9999,19081.11029866667,-0.5720672607421875,0.7401885986328125,-0.34429931640625,19081.10022266667,2.54790822576993,-1.028528361424956,-0.8368650449834232,-0.03365123644471169,0.001339741982519627,-0.01529402285814285,0.001134753227233887,-0.006920933723449707,0.001016855239868164,XArbitraryZVertical,0.3263210548939885,-0.4697669334374355,0.8192103942983,0.04156782227244238,-0.5737055540084839,0.7425469756126404,-0.3456671833992004,0,0,0,-1,-1,19076.073705875,unknown,2,2025-04-21T15:44:49.834+03:00,2025-04-20T21:57:49.637+03:00,6727,0.976288,0,0,5522.566,5,6,2025-04-21T15:44:52.413+03:00,766931799.8428298,0,-43.25,100.2547,1,0.4,2025-04-21T15:39:34.104+03:00,89,1.483333333333333,2025-04-21T12:30:07.995+03:00,0.02023345852159405,0
2025-04-21T15:44:54.886+03:00,1745239493.52687,40.95230025794708,29.14030550074007,76.50296,-1,-1,-1,-1,30,27.58914568789791,-9999,19081.12037466667,-0.571319580078125,0.7371978759765625,-0.34722900390625,19081.11029866667,2.547331574113977,-1.02894726081936,-0.836852217995619,-0.03105292469263077,0.0008325432427227497,-0.02377812191843987,0.001516580581665039,-0.003646969795227051,0.001300215721130371,XArbitraryZVertical,0.3263598722762976,-0.4698652413215685,0.8191313995587134,0.04170907785581333,-0.5738585591316223,0.7425383925437927,-0.34543177485466,0,0,0,-1,-1,19076.073705875,unknown,2,2025-04-21T15:44:49.834+03:00,2025-04-20T21:57:49.637+03:00,6727,0.976288,0,0,5522.566,5,6,2025-04-21T15:44:52.413+03:00,766931799.8428298,0,-43.25,100.2547,1,0.4,2025-04-21T15:39:34.104+03:00,89,1.483333333333333,2025-04-21T12:30:07.995+03:00,0.02023345852159405,0
2025-04-21T15:44:54.896+03:00,1745239493.52687,40.95230025794708,29.14030550074007,76.50296,-1,-1,-1,-1,30,27.58914568789791,-9999,19081.13045066667,-0.5706787109375,0.7337188720703125,-0.34619140625,19081.12037466667,2.546726954108497,-1.029381327758197,-0.8368164836469346,-0.0336146205663681,-0.0005807965062558651,-0.02271631732583046,0.00162816047668457,-0.002951562404632568,-0.0001406371593475342,XArbitraryZVertical,0.3264031453569993,-0.4699604348664814,0.8190516578026584,0.04186429512167574,-0.5740311741828918,0.7425144910812378,-0.3451963663101196,0,0,0,-1,-1,19076.073705875,unknown,2,2025-04-21T15:44:49.834+03:00,2025-04-20T21:57:49.637+03:00,6727,0.976288,0,0,5522.566,5,6,2025-04-21T15:44:52.413+03:00,766931799.8428298,0,-43.25,100.2547,1,0.4,2025-04-21T15:39:34.104+03:00,89,1.483333333333333,2025-04-21T12:30:07.995+03:00,0.02023345852159405,0
2025-04-21T15:44:54.906+03:00,1745239493.52687,40.95230025794708,29.14030550074007,76.50296,-1,-1,-1,-1,30,27.58914568789791,-9999,19081.14052566667,-0.571533203125,0.7358245849609375,-0.340850830078125,19081.13045066667,2.546094614783311,-1.0298234574246,-0.8368021988431312,-0.04013064503669739,0.006510602310299873,-0.02193657867610455,0.002964675426483154,-0.005322456359863281,-0.00186920166015625,XArbitraryZVertical,0.3264386758681478,-0.470067906433963,0.8189676004808085,0.04202300453126654,-0.5741927027702332,0.742504894733429,-0.3449479043483734,0,0,0,-1,-1,19076.073705875,unknown,2,2025-04-21T15:44:49.834+03:00,2025-04-20T21:57:49.637+03:00,6727,0.976288,0,0,5522.566,5,6,2025-04-21T15:44:52.413+03:00,766931799.8428298,0,-43.25,100.2547,1,0.4,2025-04-21T15:39:34.104+03:00,89,1.483333333333333,2025-04-21T12:30:07.995+03:00,0.02023345852159405,0
2025-04-21T15:44:54.916+03:00,1745239493.52687,40.95230025794708,29.14030550074007,76.50296,-1,-1,-1,-1,30,27.58914568789791,-9999,19081.15060166667,-0.5737762451171875,0.7341156005859375,-0.3383026123046875,19081.14052566667,2.545437466687423,-1.030208787121052,-0.8368635059778959,-0.04173786193132401,0.01597814075648785,-0.01225838530808687,0.003653645515441895,-0.008415281772613525,-0.0009542107582092285,XArbitraryZVertical,0.3264289453425856,-0.4702047757459373,0.8188845941681163,0.0421851781585148,-0.5742866396903992,0.7425459623336792,-0.3447032272815704,0,0,0,-1,-1,19076.073705875,unknown,2,2025-04-21T15:44:49.834+03:00,2025-04-20T21:57:49.637+03:00,6727,0.976288,0,0,5522.566,5,6,2025-04-21T15:44:52.413+03:00,766931799.8428298,0,-43.25,100.2547,1,0.4,2025-04-21T15:39:34.104+03:00,89,1.483333333333333,2025-04-21T12:30:07.995+03:00,0.02023345852159405,0
2025-04-21T15:44:54.926+03:00,1745239493.52687,40.95230025794708,29.14030550074007,76.50296,-1,-1,-1,-1,30,27.58914568789791,-9999,19081.16067766667,-0.57843017578125,0.735260009765625,-0.3408203125,19081.15060166667,2.544836091161117,-1.030467051377598,-0.8369988377842863,-0.03973270207643509,0.01995563693344593,-0.004620405845344067,0.003000319004058838,-0.006659567356109619,0.004766166210174561,XArbitraryZVertical,0.3263645352072603,-0.4703558256628647,0.8188157836550423,0.04233447528216649,-0.5742893815040588,0.7426366209983826,-0.3445031642913818,0,0,0,-1,-1,19076.073705875,unknown,2,2025-04-21T15:44:49.834+03:00,2025-04-20T21:57:49.637+03:00,6727,0.976288,0,0,5522.566,5,6,2025-04-21T15:44:52.413+03:00,766931799.8428298,0,-43.25,100.2547,1,0.4,2025-04-21T15:39:34.104+03:00,89,1.483333333333333,2025-04-21T12:30:07.995+03:00,0.02023345852159405,0
2025-04-21T15:44:54.936+03:00,1745239493.52687,40.95230025794708,29.14030550074007,76.50296,-1,-1,-1,-1,30,27.58914568789791,-9999,19081.17075366667,-0.57635498046875,0.743865966796875,-0.3473358154296875,19081.16067766667,2.544375880971809,-1.030600799970247,-0.8371057941872297,-0.027768449857831,0.02075378783047199,-0.009250311180949211,-0.000210881233215332,-0.009462535381317139,0.006342172622680664,XArbitraryZVertical,0.3262883267680958,-0.4704712415903337,0.8187731653167345,0.04246279119789025,-0.5742672681808472,0.7427082061767578,-0.3443854749202728,0,0,0,-1,-1,19076.073705875,unknown,2,2025-04-21T15:44:49.834+03:00,2025-04-20T21:57:49.637+03:00,6727,0.976288,0,0,5522.566,5,6,2025-04-21T15:44:52.413+03:00,766931799.8428298,0,-43.25,100.2547,1,0.4,2025-04-21T15:39:34.104+03:00,89,1.483333333333333,2025-04-21T12:30:07.995+03:00,0.02023345852159405,0
2025-04-21T15:44:54.946+03:00,1745239493.52687,40.95230025794708,29.14030550074007,76.50296,-1,-1,-1,-1,30,27.58914568789791,-9999,19081.18082966667,-0.5771331787109375,0.74835205078125,-0.3522491455078125,19081.17075366667,2.544003107782685,-1.030660303974595,-0.8371171651963345,-0.01873221062123775,0.0214276984333992,-0.01327894255518913,-0.00425642728805542,-0.007028758525848389,0.003160417079925537,XArbitraryZVertical,0.3262225549013633,-0.4705372990633463,0.8187544018292043,0.0425984131705997,-0.5742806196212769,0.7427158355712891,-0.3443470001220703,0,0,0,-1,-1,19076.073705875,unknown,2,2025-04-21T15:44:49.834+03:00,2025-04-20T21:57:49.637+03:00,6727,0.976288,0,0,5522.566,5,6,2025-04-21T15:44:52.413+03:00,766931799.8428298,0,-43.25,100.2547,1,0.4,2025-04-21T15:39:34.104+03:00,89,1.483333333333333,2025-04-21T12:30:07.995+03:00,0.02023345852159405,0
2025-04-21T15:44:54.956+03:00,1745239493.52687,40.95230025794708,29.14030550074007,76.50296,-1,-1,-1,-1,30,27.58914568789791,-9999,19081.19090466667,-0.577484130859375,0.7488861083984375,-0.34991455078125,19081.18082966667,2.543712433582169,-1.03068592395613,-0.8370365167523611,-0.008028966374695301,0.01804495230317116,-0.01896345801651478,-0.0009155869483947754,0.001829564571380615,-0.004056215286254883,XArbitraryZVertical,0.3261818156511167,-0.4705569958745405,0.8187522988828302,0.04273292496196358,-0.5743407607078552,0.7426618337631226,-0.3443630635738373,0,0,0,-1,-1,19076.073705875,unknown,2,2025-04-21T15:44:49.834+03:00,2025-04-20T21:57:49.637+03:00,6727,0.976288,0,0,5522.566,5,6,2025-04-21T15:44:52.413+03:00,766931799.8428298,0,-43.25,100.2547,1,0.4,2025-04-21T15:39:34.104+03:00,89,1.483333333333333,2025-04-21T12:30:07.995+03:00,0.02023345852159405,0
2025-04-21T15:44:54.966+03:00,1745239493.52687,40.95230025794708,29.14030550074007,76.50296,-1,-1,-1,-1,30,27.58914568789791,-9999,19081.20098066667,-0.5787200927734375,0.74627685546875,-0.3446502685546875,19081.19090466667,2.543449096843871,-1.030687595752698,-0.8368972517687024,-0.01150931790471077,0.01753482408821583,-0.02440542913973331,-0.003237247467041016,0.006714105606079102,-0.007910192012786865,XArbitraryZVertical,0.3261501748205481,-0.4705511809476211,0.8187606887009197,0.04287756114421751,-0.5744300484657288,0.7425685524940491,-0.3444153070449829,0,0,0,-1,-1,19076.073705875,unknown,2,2025-04-21T15:44:49.834+03:00,2025-04-20T21:57:49.637+03:00,6727,0.976288,0,0,5522.566,5,6,2025-04-21T15:44:52.413+03:00,766931799.8428298,0,-43.25,100.2547,1,0.4,2025-04-21T15:39:34.104+03:00,89,1.483333333333333,2025-04-21T12:30:07.995+03:00,0.02023345852159405,0
2025-04-21T15:44:54.976+03:00,1745239493.52687,40.95230025794708,29.14030550074007,76.50296,-1,-1,-1,-1,30,27.58914568789791,-9999,19081.21105666667,-0.5770416259765625,0.7436370849609375,-0.34368896484375,19081.20098066667,2.543099966209965,-1.030766145785287,-0.8367567470610443,-0.01864898763597012,0.01719100959599018,-0.02359982207417488,-0.003303766250610352,0.005541682243347168,-0.005567103624343872,XArbitraryZVertical,0.3261300991391242,-0.4705605742245626,0.8187547772409227,0.04303954107030482,-0.5745465755462646,0.7424744367599487,-0.3444238007068634,0,0,0,-1,-1,19076.073705875,unknown,2,2025-04-21T15:44:49.834+03:00,2025-04-20T21:57:49.637+03:00,6727,0.976288,0,0,5522.566,5,6,2025-04-21T15:44:52.413+03:00,766931799.8428298,0,-43.25,100.2547,1,0.4,2025-04-21T15:39:34.104+03:00,89,1.483333333333333,2025-04-21T12:30:07.995+03:00,0.02023345852159405,0
2025-04-21T15:44:54.986+03:00,1745239493.52687,40.95230025794708,29.14030550074007,76.50296,-1,-1,-1,-1,30,27.58914568789791,-9999,19081.22113266667,-0.575897216796875,0.74090576171875,-0.3428497314453125,19081.21105666667,2.542727811791823,-1.030878478805716,-0.8366685110229515,-0.01742812618613243,0.01514230668544769,-0.0172477513551712,-0.004246532917022705,0.004258096218109131,0.0005666017532348633,XArbitraryZVertical,0.3261073089060201,-0.4705927681572681,0.8187374747447149,0.04318903898740558,-0.5746414661407471,0.7424153685569763,-0.3443929255008698,0,0,0,-1,-1,19076.073705875,unknown,2,2025-04-21T15:44:49.834+03:00,2025-04-20T21:57:49.637+03:00,6727,0.976288,0,0,5522.566,5,6,2025-04-21T15:44:52.413+03:00,766931799.8428298,0,-43.25,100.2547,1,0.4,2025-04-21T15:39:34.104+03:00,89,1.483333333333333,2025-04-21T12:30:07.995+03:00,0.02023345852159405,0
