loggingTime(txt),locationTimestamp_since1970(s),locationLatitude(WGS84),locationLongitude(WGS84),locationAltitude(m),locationSpeed(m/s),locationSpeedAccuracy(m/s),locationCourse(°),locationCourseAccuracy(°),locationVerticalAccuracy(m),locationHorizontalAccuracy(m),locationFloor(Z),accelerometerTimestamp_sinceReboot(s),accelerometerAccelerationX(G),accelerometerAccelerationY(G),accelerometerAccelerationZ(G),motionTimestamp_sinceReboot(s),motionYaw(rad),motionRoll(rad),motionPitch(rad),motionRotationRateX(rad/s),motionRotationRateY(rad/s),motionRotationRateZ(rad/s),motionUserAccelerationX(G),motionUserAccelerationY(G),motionUserAccelerationZ(G),motionAttitudeReferenceFrame(txt),motionQuaternionX(R),motionQuaternionY(R),motionQuaternionZ(R),motionQuaternionW(R),motionGravityX(G),motionGravityY(G),motionGravityZ(G),motionMagneticFieldX(µT),motionMagneticFieldY(µT),motionMagneticFieldZ(µT),motionHeading(°),motionMagneticFieldCalibrationAccuracy(Z),activityTimestamp_sinceReboot(s),activity(txt),activityActivityConfidence(Z),activityActivityStartDate(txt),pedometerStartDate(txt),pedometerNumberofSteps(N),pedometerAverageActivePace(s/m),pedometerCurrentPace(s/m),pedometerCurrentCadence(steps/s),pedometerDistance(m),pedometerFloorAscended(N),pedometerFloorDescended(N),pedometerEndDate(txt),altimeterTimestamp_sinceReboot(s),altimeterReset(bool),altimeterRelativeAltitude(m),altimeterPressure(kPa),batteryState(N),batteryLevel(R),heartRateBPMTimestamp(txt),heartRateBPM(N),heartRateBPS(R),heartRateVariabilityTimestamp(txt),heartRateVariability(ms),label
2025-04-22T16:39:20.639+03:00,1745329159.184034,40.9522769728346,29.14030140780613,76.45547,-1,-1,-1,-1,30,23.87926777261467,-9999,37992.73652279167,-0.7389373779296875,0.5926361083984375,-0.179901123046875,37992.72644579167,-2.95797853370668,-1.338147677291836,-0.6443390726066125,-0.0005951986531727016,-0.007216235622763634,-0.01652532257139683,-0.04415518045425415,-0.0179675817489624,-0.00800873339176178,XArbitraryZVertical,-0.6086392956799633,0.1933751342796277,-0.7229018431764009,0.2637750146973724,-0.7779578566551208,0.6006701588630676,-0.1843285262584686,0,0,0,-1,-1,37982.98888104167,unknown,2,2025-04-22T16:39:10.860+03:00,2025-04-21T17:08:51.449+03:00,8620,1.064866,0,0,7158.132,7,22,2025-04-22T16:39:18.598+03:00,767021958.7000424,0,-13.00999,100.3599,1,0.45,2025-04-22T16:39:17.666+03:00,99,1.65,2025-04-22T14:20:19.516+03:00,0.02197104130929222,0
2025-04-22T16:39:20.640+03:00,1745329159.184034,40.9522769728346,29.14030140780613,76.45547,-1,-1,-1,-1,30,23.87926777261467,-9999,37992.74659879167,-0.758636474609375,0.5931854248046875,-0.177459716796875,37992.73652279167,-2.958130384812558,-1.338249688015597,-0.6441577890029884,-0.01301365159451962,0.005847235210239887,-0.02174398489296436,0.01457852125167847,-0.01007121801376343,0.002938568592071533,XArbitraryZVertical,-0.6086730443209913,0.1933391264987261,-0.7229179615228422,0.2636789679895304,-0.7780824303627014,0.6005252003669739,-0.1842742115259171,0,0,0,-1,-1,37982.98888104167,unknown,2,2025-04-22T16:39:10.860+03:00,2025-04-21T17:08:51.449+03:00,8620,1.064866,0,0,7158.132,7,22,2025-04-22T16:39:18.598+03:00,767021958.7000424,0,-13.00999,100.3599,1,0.45,2025-04-22T16:39:17.666+03:00,99,1.65,2025-04-22T14:20:19.516+03:00,0.02197104130929222,0
2025-04-22T16:39:20.641+03:00,1745329159.184034,40.9522769728346,29.14030140780613,76.45547,-1,-1,-1,-1,30,23.87926777261467,-9999,37992.75667479167,-0.7865142822265625,0.605316162109375,-0.17913818359375,37992.74659879167,-2.958311719225036,-1.338228732602577,-0.6440227458583702,-0.01181736029684544,0.01033332943916321,-0.01560193672776222,0.04019677639007568,-0.00848311185836792,0.007230758666992188,XArbitraryZVertical,-0.608656538535247,0.1933458297632815,-0.7229685975128384,0.2635733627505961,-0.7781575322151184,0.6004172563552856,-0.1843092143535614,0,0,0,-1,-1,37982.98888104167,unknown,2,2025-04-22T16:39:10.860+03:00,2025-04-21T17:08:51.449+03:00,8620,1.064866,0,0,7158.132,7,22,2025-04-22T16:39:18.598+03:00,767021958.7000424,0,-13.00999,100.3599,1,0.45,2025-04-22T16:39:17.666+03:00,99,1.65,2025-04-22T14:20:19.516+03:00,0.02197104130929222,0
2025-04-22T16:39:20.642+03:00,1745329159.184034,40.9522769728346,29.14030140780613,76.45547,-1,-1,-1,-1,30,23.87926777261467,-9999,37992.76675179167,-0.7662506103515625,0.6068572998046875,-0.175323486328125,37992.75667479167,-2.958515912229816,-1.338215662201318,-0.6439656505834727,-0.01746019907295704,0.01250127702951431,-0.00934357475489378,-0.008524119853973389,-0.001113295555114746,0.005020990967750549,XArbitraryZVertical,-0.6086357158752976,0.193388037828943,-0.7230079901636208,0.2634822170376837,-0.7781883478164673,0.6003715395927429,-0.1843272596597672,0,0,0,-1,-1,37982.98888104167,unknown,2,2025-04-22T16:39:10.860+03:00,2025-04-21T17:08:51.449+03:00,8620,1.064866,0,0,7158.132,7,22,2025-04-22T16:39:18.598+03:00,767021958.7000424,0,-13.00999,100.3599,1,0.45,2025-04-22T16:39:17.666+03:00,99,1.65,2025-04-22T14:20:19.516+03:00,0.02197104130929222,0
2025-04-22T16:39:20.653+03:00,1745329159.184034,40.9522769728346,29.14030140780613,76.45547,-1,-1,-1,-1,30,23.87926777261467,-9999,37992.77682779167,-0.7704315185546875,0.594451904296875,-0.1748046875,37992.76675179167,-2.958816227247143,-1.338341733093192,-0.6438603336478578,-0.01760693825781345,0.01101310178637505,-0.01077182777225971,0.005507171154022217,0.008614540100097656,0.007119536399841309,XArbitraryZVertical,-0.6086589575699357,0.1934228550519829,-0.7230251065359414,0.2633561672071521,-0.7782732248306274,0.6002873182296753,-0.1842437386512756,0,0,0,-1,-1,37982.98888104167,unknown,2,2025-04-22T16:39:10.860+03:00,2025-04-21T17:08:51.449+03:00,8620,1.064866,0,0,7158.132,7,22,2025-04-22T16:39:18.598+03:00,767021958.7000424,0,-13.00999,100.3599,1,0.45,2025-04-22T16:39:17.666+03:00,99,1.65,2025-04-22T14:20:19.516+03:00,0.02197104130929222,0
2025-04-22T16:39:20.663+03:00,1745329159.184034,40.9522769728346,29.14030140780613,76.45547,-1,-1,-1,-1,30,23.87926777261467,-9999,37992.78690479167,-0.779998779296875,0.6004486083984375,-0.182952880859375,37992.77682779167,-2.959053447822264,-1.338363888915237,-0.6437402213328198,-0.01458038948476315,0.0162881575524807,-0.0122803095728159,0.01247841119766235,-0.002321541309356689,0.01088781654834747,XArbitraryZVertical,-0.6086516932632849,0.1934465683842094,-0.7230675677455326,0.2632387267163732,-0.7783473134040833,0.6001912951469421,-0.1842430830001831,0,0,0,-1,-1,37982.98888104167,unknown,2,2025-04-22T16:39:10.860+03:00,2025-04-21T17:08:51.449+03:00,8620,1.064866,0,0,7158.132,7,22,2025-04-22T16:39:18.598+03:00,767021958.7000424,0,-13.00999,100.3599,1,0.45,2025-04-22T16:39:17.666+03:00,99,1.65,2025-04-22T14:20:19.516+03:00,0.02197104130929222,0
2025-04-22T16:39:20.674+03:00,1745329159.184034,40.9522769728346,29.14030140780613,76.45547,-1,-1,-1,-1,30,23.87926777261467,-9999,37992.79698079167,-0.7720184326171875,0.609832763671875,-0.1834259033203125,37992.78690479167,-2.959186551468499,-1.338197813865938,-0.6438070631159919,-0.008951799012720585,0.01718830689787865,-0.009877339005470276,7.963180541992188e-05,-0.003504097461700439,0.003927767276763916,XArbitraryZVertical,-0.6085745006049915,0.1935342825754278,-0.7231256445970901,0.2631933554359332,-0.7782777547836304,0.6002447605133057,-0.1843631118535995,0,0,0,-1,-1,37982.98888104167,unknown,2,2025-04-22T16:39:10.860+03:00,2025-04-21T17:08:51.449+03:00,8620,1.064866,0,0,7158.132,7,22,2025-04-22T16:39:18.598+03:00,767021958.7000424,0,-13.00999,100.3599,1,0.45,2025-04-22T16:39:17.666+03:00,99,1.65,2025-04-22T14:20:19.516+03:00,0.02197104130929222,0
2025-04-22T16:39:20.683+03:00,1745329159.184034,40.9522769728346,29.14030140780613,76.45547,-1,-1,-1,-1,30,23.87926777261467,-9999,37992.80705679167,-0.7704620361328125,0.60498046875,-0.1823883056640625,37992.79698079167,-2.959299565837171,-1.338053771817627,-0.6437507776570364,-0.01041101105511189,0.01847374811768532,-0.009237281978130341,0.001901865005493164,0.007740914821624756,0.000538170337677002,XArbitraryZVertical,-0.6085150645067602,0.1935662520400037,-0.7231929174669084,0.2631226817500721,-0.7782842516899109,0.6001996994018555,-0.1844830513000488,0,0,0,-1,-1,37982.98888104167,unknown,2,2025-04-22T16:39:10.860+03:00,2025-04-21T17:08:51.449+03:00,8620,1.064866,0,0,7158.132,7,22,2025-04-22T16:39:18.598+03:00,767021958.7000424,0,-13.00999,100.3599,1,0.45,2025-04-22T16:39:17.666+03:00,99,1.65,2025-04-22T14:20:19.516+03:00,0.02197104130929222,0
2025-04-22T16:39:20.693+03:00,1745329159.184034,40.9522769728346,29.14030140780613,76.45547,-1,-1,-1,-1,30,23.87926777261467,-9999,37992.81713379167,-0.77886962890625,0.59722900390625,-0.184356689453125,37992.80705679167,-2.959492573323959,-1.337964012300816,-0.6436347162460923,-0.01769875176250935,0.024260263890028,-0.005606593564152718,0.009689271450042725,0.007757425308227539,0.00193631649017334,XArbitraryZVertical,-0.6084713359751934,0.193592742552536,-0.7232630334573313,0.2630115119769166,-0.7783353924751282,0.6001068949699402,-0.1845689713954926,0,0,0,-1,-1,37982.98888104167,unknown,2,2025-04-22T16:39:10.860+03:00,2025-04-21T17:08:51.449+03:00,8620,1.064866,0,0,7158.132,7,22,2025-04-22T16:39:18.598+03:00,767021958.7000424,0,-13.00999,100.3599,1,0.45,2025-04-22T16:39:17.666+03:00,99,1.65,2025-04-22T14:20:19.516+03:00,0.02197104130929222,0
2025-04-22T16:39:20.703+03:00,1745329159.184034,40.9522769728346,29.14030140780613,76.45547,-1,-1,-1,-1,30,23.87926777261467,-9999,37992.82720979167,-0.776763916015625,0.60076904296875,-0.185455322265625,37992.81713379167,-2.959717691353837,-1.337847723949522,-0.6436304659611849,-0.01640492118895054,0.02632960677146912,-0.004277642816305161,0.0015220046043396,-0.0009825229644775391,0.001554384827613831,XArbitraryZVertical,-0.6084077686524559,0.1936749224220929,-0.7233285008742618,0.2629176636235367,-0.7783162593841553,0.600103497505188,-0.184660017490387,0,0,0,-1,-1,37982.98888104167,unknown,2,2025-04-22T16:39:10.860+03:00,2025-04-21T17:08:51.449+03:00,8620,1.064866,0,0,7158.132,7,22,2025-04-22T16:39:18.598+03:00,767021958.7000424,0,-13.00999,100.3599,1,0.45,2025-04-22T16:39:17.666+03:00,99,1.65,2025-04-22T14:20:19.516+03:00,0.02197104130929222,0
2025-04-22T16:39:20.713+03:00,1745329159.184034,40.9522769728346,29.14030140780613,76.45547,-1,-1,-1,-1,30,23.87926777261467,-9999,37992.83728679167,-0.7761993408203125,0.6018829345703125,-0.1885833740234375,37992.82720979167,-2.959935764550544,-1.337726223010689,-0.6436826864633726,-0.02071178518235683,0.02550029940903187,0.000199929578229785,0.0005535483360290527,-0.001512587070465088,-0.0006165951490402222,XArbitraryZVertical,-0.6083393612933083,0.1937770394132178,-0.7233863166421817,0.2628417253672009,-0.7782633304595947,0.6001452803611755,-0.1847473680973053,0,0,0,-1,-1,37982.98888104167,unknown,2,2025-04-22T16:39:10.860+03:00,2025-04-21T17:08:51.449+03:00,8620,1.064866,0,0,7158.132,7,22,2025-04-22T16:39:18.598+03:00,767021958.7000424,0,-13.00999,100.3599,1,0.45,2025-04-22T16:39:17.666+03:00,99,1.65,2025-04-22T14:20:19.516+03:00,0.02197104130929222,0
2025-04-22T16:39:20.723+03:00,1745329159.184034,40.9522769728346,29.14030140780613,76.45547,-1,-1,-1,-1,30,23.87926777261467,-9999,37992.84736279167,-0.7801055908203125,0.598419189453125,-0.1927490234375,37992.83728679167,-2.960182335467348,-1.337625298488716,-0.643747169489556,-0.01896488480269909,0.02913351729512215,0.005120052956044674,0.003167510032653809,0.001731753349304199,-0.002255961298942566,XArbitraryZVertical,-0.6082748403194563,0.1938897725342527,-0.7234396764735522,0.2627609269487204,-0.778207004070282,0.6001968383789062,-0.1848169565200806,0,0,0,-1,-1,37982.98888104167,unknown,2,2025-04-22T16:39:10.860+03:00,2025-04-21T17:08:51.449+03:00,8620,1.064866,0,0,7158.132,7,22,2025-04-22T16:39:18.598+03:00,767021958.7000424,0,-13.00999,100.3599,1,0.45,2025-04-22T16:39:17.666+03:00,99,1.65,2025-04-22T14:20:19.516+03:00,0.02197104130929222,0
2025-04-22T16:39:20.733+03:00,1745329159.184034,40.9522769728346,29.14030140780613,76.45547,-1,-1,-1,-1,30,23.87926777261467,-9999,37992.85743879167,-0.77545166015625,0.5979156494140625,-0.19122314453125,37992.84736279167,-2.960380168533672,-1.337425327172612,-0.6438855864499206,-0.01627216301858425,0.03604521974921227,0.009160335175693035,-0.0009480714797973633,-0.0005151033401489258,-0.007277026772499084,XArbitraryZVertical,-0.6081744456400212,0.1940287119394701,-0.72350587340567,0.2627089272383399,-0.7780894041061401,0.6003075242042542,-0.1849534064531326,0,0,0,-1,-1,37982.98888104167,unknown,2,2025-04-22T16:39:10.860+03:00,2025-04-21T17:08:51.449+03:00,8620,1.064866,0,0,7158.132,7,22,2025-04-22T16:39:18.598+03:00,767021958.7000424,0,-13.00999,100.3599,1,0.45,2025-04-22T16:39:17.666+03:00,99,1.65,2025-04-22T14:20:19.516+03:00,0.02197104130929222,0
2025-04-22T16:39:20.743+03:00,1745329159.184034,40.9522769728346,29.14030140780613,76.45547,-1,-1,-1,-1,30,23.87926777261467,-9999,37992.86751579167,-0.7695770263671875,0.5954132080078125,-0.1831817626953125,37992.85743879167,-2.960640106893996,-1.337219254332557,-0.6440628343874721,-0.02333246916532516,0.04034808650612831,0.01042360533028841,0.0006498098373413086,-0.00207597017288208,-0.007324442267417908,XArbitraryZVertical,-0.6080633292960399,0.1942021020186773,-0.7235758667327574,0.2626448281150538,-0.7779475450515747,0.60044926404953,-0.1850890666246414,0,0,0,-1,-1,37982.98888104167,unknown,2,2025-04-22T16:39:10.860+03:00,2025-04-21T17:08:51.449+03:00,8620,1.064866,0,0,7158.132,7,22,2025-04-22T16:39:18.598+03:00,767021958.7000424,0,-13.00999,100.3599,1,0.45,2025-04-22T16:39:17.666+03:00,99,1.65,2025-04-22T14:20:19.516+03:00,0.02197104130929222,0
2025-04-22T16:39:20.753+03:00,1745329159.184034,40.9522769728346,29.14030140780613,76.45547,-1,-1,-1,-1,30,23.87926777261467,-9999,37992.87759179167,-0.7665863037109375,0.59356689453125,-0.175933837890625,37992.86751579167,-2.960940825982011,-1.337010144301323,-0.6442083617185467,-0.02522011660039425,0.03905246034264565,0.01081269327551126,0.006064951419830322,-0.003596127033233643,-0.001810908317565918,XArbitraryZVertical,-0.607949121772034,0.1943761964601851,-0.7236571605686394,0.262556674541694,-0.7778239250183105,0.6005656719207764,-0.1852315217256546,0,0,0,-1,-1,37982.98888104167,unknown,2,2025-04-22T16:39:10.860+03:00,2025-04-21T17:08:51.449+03:00,8620,1.064866,0,0,7158.132,7,22,2025-04-22T16:39:18.598+03:00,767021958.7000424,0,-13.00999,100.3599,1,0.45,2025-04-22T16:39:17.666+03:00,99,1.65,2025-04-22T14:20:19.516+03:00,0.02197104130929222,0
2025-04-22T16:39:20.763+03:00,1745329159.184034,40.9522769728346,29.14030140780613,76.45547,-1,-1,-1,-1,30,23.87926777261467,-9999,37992.88766879167,-0.76953125,0.5990447998046875,-0.1779632568359375,37992.87759179167,-2.961255426877089,-1.336809842045384,-0.6444096795569266,-0.02941819280385971,0.03868427872657776,0.0101624159142375,0.01053363084793091,-0.007175028324127197,0.007777318358421326,XArbitraryZVertical,-0.6078331287944869,0.1945745090745845,-0.7237291519925136,0.2624800334507157,-0.7776692509651184,0.6007266044616699,-0.1853592991828918,0,0,0,-1,-1,37982.98888104167,unknown,2,2025-04-22T16:39:10.860+03:00,2025-04-21T17:08:51.449+03:00,8620,1.064866,0,0,7158.132,7,22,2025-04-22T16:39:18.598+03:00,767021958.7000424,0,-13.00999,100.3599,1,0.45,2025-04-22T16:39:17.666+03:00,99,1.65,2025-04-22T14:20:19.516+03:00,0.02197104130929222,0
2025-04-22T16:39:20.773+03:00,1745329159.184034,40.9522769728346,29.14030140780613,76.45547,-1,-1,-1,-1,30,23.87926777261467,-9999,37992.89774479167,-0.768280029296875,0.6078338623046875,-0.1843719482421875,37992.88766879167,-2.961523962382976,-1.336614300016222,-0.6445995683360097,-0.02060366235673428,0.03511510789394379,0.01014111004769802,0.009440362453460693,-0.004244565963745117,0.008772611618041992,XArbitraryZVertical,-0.6077240367671033,0.1947538538948007,-0.7237952085687808,0.2624172927003992,-0.7775219082832336,0.6008784174919128,-0.1854848563671112,0,0,0,-1,-1,37982.98888104167,unknown,2,2025-04-22T16:39:10.860+03:00,2025-04-21T17:08:51.449+03:00,8620,1.064866,0,0,7158.132,7,22,2025-04-22T16:39:18.598+03:00,767021958.7000424,0,-13.00999,100.3599,1,0.45,2025-04-22T16:39:17.666+03:00,99,1.65,2025-04-22T14:20:19.516+03:00,0.02197104130929222,0
2025-04-22T16:39:20.784+03:00,1745329159.184034,40.9522769728346,29.14030140780613,76.45547,-1,-1,-1,-1,30,23.87926777261467,-9999,37992.90782079167,-0.7640838623046875,0.6096038818359375,-0.1856231689453125,37992.89774479167,-2.961716664986244,-1.336406226584396,-0.6447003683758198,-0.01236024498939514,0.03000570274889469,0.002854901365935802,0.00832056999206543,0.003929853439331055,0.00345766544342041,XArbitraryZVertical,-0.6076234770007606,0.1948779560148305,-0.7238686098333872,0.2623556510090118,-0.7774244546890259,0.6009590029716492,-0.185632586479187,0,0,0,-1,-1,37982.98888104167,unknown,2,2025-04-22T16:39:10.860+03:00,2025-04-21T17:08:51.449+03:00,8620,1.064866,0,0,7158.132,7,22,2025-04-22T16:39:18.598+03:00,767021958.7000424,0,-13.00999,100.3599,1,0.45,2025-04-22T16:39:17.666+03:00,99,1.65,2025-04-22T14:20:19.516+03:00,0.02197104130929222,0
2025-04-22T16:39:20.793+03:00,1745329159.184034,40.9522769728346,29.14030140780613,76.45547,-1,-1,-1,-1,30,23.87926777261467,-9999,37992.91789779167,-0.7677001953125,0.60736083984375,-0.1820068359375,37992.90782079167,-2.961885535676903,-1.336216714465288,-0.6447129556056695,-0.01360367517918348,0.02704693004488945,-0.004526049364358187,0.01232153177261353,0.009260356426239014,-0.0003182888031005859,XArbitraryZVertical,-0.6075376165818391,0.1949588938606185,-0.7239464178082634,0.262279603996685,-0.7773818969726562,0.6009690165519714,-0.1857781410217285,0,0,0,-1,-1,37982.98888104167,unknown,2,2025-04-22T16:39:10.860+03:00,2025-04-21T17:08:51.449+03:00,8620,1.064866,0,0,7158.132,7,22,2025-04-22T16:39:18.598+03:00,767021958.7000424,0,-13.00999,100.3599,1,0.45,2025-04-22T16:39:17.666+03:00,99,1.65,2025-04-22T14:20:19.516+03:00,0.02197104130929222,0
2025-04-22T16:39:20.803+03:00,1745329159.184034,40.9522769728346,29.14030140780613,76.45547,-1,-1,-1,-1,30,23.87926777261467,-9999,37992.92797379167,-0.7684783935546875,0.6013946533203125,-0.18231201171875,37992.91789779167,-2.962188168719575,-1.336146282264739,-0.6446866964541739,-0.02999369986355305,0.02154470607638359,-0.01145219895988703,0.01063007116317749,0.007618069648742676,0.002608790993690491,XArbitraryZVertical,-0.6074843089258201,0.1950500951217508,-0.7240113647349357,0.2621558058534731,-0.7773840427398682,0.6009480357170105,-0.1858365535736084,0,0,0,-1,-1,37982.98888104167,unknown,2,2025-04-22T16:39:10.860+03:00,2025-04-21T17:08:51.449+03:00,8620,1.064866,0,0,7158.132,7,22,2025-04-22T16:39:18.598+03:00,767021958.7000424,0,-13.00999,100.3599,1,0.45,2025-04-22T16:39:17.666+03:00,99,1.65,2025-04-22T14:20:19.516+03:00,0.02197104130929222,0
2025-04-22T16:39:20.814+03:00,1745329159.184034,40.9522769728346,29.14030140780613,76.45547,-1,-1,-1,-1,30,23.87926777261467,-9999,37992.93805079167,-0.7708282470703125,0.5954437255859375,-0.18353271484375,37992.92797379167,-2.962610552206242,-1.336176430393919,-0.6446488922584136,-0.03936722874641418,0.02041951939463615,-0.01001409254968166,0.009269237518310547,0.003009676933288574,0.003704607486724854,XArbitraryZVertical,-0.6074564497014889,0.1951600819124315,-0.7240632800579508,0.2619951878139566,-0.7774118185043335,0.6009178161621094,-0.1858184039592743,0,0,0,-1,-1,37982.98888104167,unknown,2,2025-04-22T16:39:10.860+03:00,2025-04-21T17:08:51.449+03:00,8620,1.064866,0,0,7158.132,7,22,2025-04-22T16:39:18.598+03:00,767021958.7000424,0,-13.00999,100.3599,1,0.45,2025-04-22T16:39:17.666+03:00,99,1.65,2025-04-22T14:20:19.516+03:00,0.02197104130929222,0
2025-04-22T16:39:20.824+03:00,1745329159.184034,40.9522769728346,29.14030140780613,76.45547,-1,-1,-1,-1,30,23.87926777261467,-9999,37992.94812679167,-0.7686614990234375,0.59344482421875,-0.18487548828125,37992.93805079167,-2.963149668464272,-1.336275408654477,-0.6446468283049802,-0.0438167043030262,0.01940179243683815,-0.008248882368206978,0.007305145263671875,-0.003870308399200439,0.002376720309257507,XArbitraryZVertical,-0.6074397853481511,0.1953100732052536,-0.7241041814784119,0.2618090779475833,-0.7774314880371094,0.6009162068367004,-0.1857417672872543,0,0,0,-1,-1,37982.98888104167,unknown,2,2025-04-22T16:39:10.860+03:00,2025-04-21T17:08:51.449+03:00,8620,1.064866,0,0,7158.132,7,22,2025-04-22T16:39:18.598+03:00,767021958.7000424,0,-13.00999,100.3599,1,0.45,2025-04-22T16:39:17.666+03:00,99,1.65,2025-04-22T14:20:19.516+03:00,0.02197104130929222,0
2025-04-22T16:39:20.834+03:00,1745329159.184034,40.9522769728346,29.14030140780613,76.45547,-1,-1,-1,-1,30,23.87926777261467,-9999,37992.95820279167,-0.7686309814453125,0.59075927734375,-0.1840362548828125,37992.94812679167,-2.963701205853442,-1.336416101245069,-0.6446727065290022,-0.04305797070264816,0.01555166114121675,-0.007351663429290056,0.007133126258850098,-0.0057830810546875,0.001210853457450867,XArbitraryZVertical,-0.6074351633024343,0.1954689865572549,-0.7241298215031031,0.2616304098725461,-0.7774425745010376,0.6009368896484375,-0.1856288015842438,0,0,0,-1,-1,37982.98888104167,unknown,2,2025-04-22T16:39:10.860+03:00,2025-04-21T17:08:51.449+03:00,8620,1.064866,0,0,7158.132,7,22,2025-04-22T16:39:18.598+03:00,767021958.7000424,0,-13.00999,100.3599,1,0.45,2025-04-22T16:39:17.666+03:00,99,1.65,2025-04-22T14:20:19.516+03:00,0.02197104130929222,0
2025-04-22T16:39:20.844+03:00,1745329159.184034,40.9522769728346,29.14030140780613,76.45547,-1,-1,-1,-1,30,23.87926777261467,-9999,37992.96827979167,-0.7723388671875,0.5919036865234375,-0.18426513671875,37992.95820279167,-2.964271843701736,-1.336626462986491,-0.6447358018183074,-0.04356903210282326,0.01404963806271553,-0.003711255267262459,0.009714007377624512,-0.008442819118499756,0.0003823637962341309,XArbitraryZVertical,-0.6074514558276626,0.1956387470401828,-0.7241309933764336,0.2614621574344477,-0.77744460105896,0.6009873151779175,-0.1854564249515533,0,0,0,-1,-1,37982.98888104167,unknown,2,2025-04-22T16:39:10.860+03:00,2025-04-21T17:08:51.449+03:00,8620,1.064866,0,0,7158.132,7,22,2025-04-22T16:39:18.598+03:00,767021958.7000424,0,-13.00999,100.3599,1,0.45,2025-04-22T16:39:17.666+03:00,99,1.65,2025-04-22T14:20:19.516+03:00,0.02197104130929222,0
2025-04-22T16:39:20.854+03:00,1745329159.184034,40.9522769728346,29.14030140780613,76.45547,-1,-1,-1,-1,30,23.87926777261467,-9999,37992.97835579167,-0.7748870849609375,0.597686767578125,-0.186431884765625,37992.96827979167,-2.96480912881293,-1.336816667538128,-0.6448236854162177,-0.0437551848590374,0.0133937019854784,-0.0007231885683722794,0.006798684597015381,-0.01046615839004517,0.001290321350097656,XArbitraryZVertical,-0.6074620400949893,0.1958104219443713,-0.7241302794015435,0.2613109990156895,-0.7774285078048706,0.6010575294494629,-0.1852962970733643,0,0,0,-1,-1,37982.98888104167,unknown,2,2025-04-22T16:39:10.860+03:00,2025-04-21T17:08:51.449+03:00,8620,1.064866,0,0,7158.132,7,22,2025-04-22T16:39:18.598+03:00,767021958.7000424,0,-13.00999,100.3599,1,0.45,2025-04-22T16:39:17.666+03:00,99,1.65,2025-04-22T14:20:19.516+03:00,0.02197104130929222,0
2025-04-22T16:39:20.864+03:00,1745329159.184034,40.9522769728346,29.14030140780613,76.45547,-1,-1,-1,-1,30,23.87926777261467,-9999,37992.98843279167,-0.774566650390625,0.5988616943359375,-0.1874542236328125,37992.97835579167,-2.965350179727595,-1.336998032381184,-0.6449130200656692,-0.04393807798624039,0.01311546750366688,-0.006399150472134352,0.002583801746368408,-0.004907190799713135,-0.0004042237997055054,XArbitraryZVertical,-0.6074689111750612,0.1959849703182989,-0.7241323862589041,0.2611580578880952,-0.7774097323417664,0.6011289358139038,-0.1851428300142288,0,0,0,-1,-1,37982.98888104167,unknown,2,2025-04-22T16:39:10.860+03:00,2025-04-21T17:08:51.449+03:00,8620,1.064866,0,0,7158.132,7,22,2025-04-22T16:39:18.598+03:00,767021958.7000424,0,-13.00999,100.3599,1,0.45,2025-04-22T16:39:17.666+03:00,99,1.65,2025-04-22T14:20:19.516+03:00,0.02197104130929222,0
2025-04-22T16:39:20.874+03:00,1745329159.184034,40.9522769728346,29.14030140780613,76.45547,-1,-1,-1,-1,30,23.87926777261467,-9999,37992.99850879167,-0.7741851806640625,0.600982666015625,-0.1896514892578125,37992.98843279167,-2.965954359085173,-1.33721698941947,-0.6449914941773806,-0.05080024525523186,0.01051462441682816,-0.01208286918699741,0.002441108226776123,-0.002787768840789795,-0.001668766140937805,XArbitraryZVertical,-0.6074838314036145,0.1961696517587207,-0.7241331421433286,0.260982871030799,-0.7774044871330261,0.6011916399002075,-0.1849617213010788,0,0,0,-1,-1,37982.98888104167,unknown,2,2025-04-22T16:39:10.860+03:00,2025-04-21T17:08:51.449+03:00,8620,1.064866,0,0,7158.132,7,22,2025-04-22T16:39:18.598+03:00,767021958.7000424,0,-13.00999,100.3599,1,0.45,2025-04-22T16:39:17.666+03:00,99,1.65,2025-04-22T14:20:19.516+03:00,0.02197104130929222,0
2025-04-22T16:39:20.884+03:00,1745329159.184034,40.9522769728346,29.14030140780613,76.45547,-1,-1,-1,-1,30,23.87926777261467,-9999,37993.00858479167,-0.777008056640625,0.6042938232421875,-0.19091796875,37992.99850879167,-2.966638322715591,-1.337487480851629,-0.644999696341548,-0.05198175832629204,0.01379470713436604,-0.01936774700880051,0.00285261869430542,-0.0004139542579650879,-0.003467023372650146,XArbitraryZVertical,-0.6075141197985575,0.1963452400102389,-0.7241389169561072,0.2607640930754584,-0.7774496674537659,0.6011981964111328,-0.1847502887248993,0,0,0,-1,-1,37982.98888104167,unknown,2,2025-04-22T16:39:10.860+03:00,2025-04-21T17:08:51.449+03:00,8620,1.064866,0,0,7158.132,7,22,2025-04-22T16:39:18.598+03:00,767021958.7000424,0,-13.00999,100.3599,1,0.45,2025-04-22T16:39:17.666+03:00,99,1.65,2025-04-22T14:20:19.516+03:00,0.02197104130929222,0
2025-04-22T16:39:20.894+03:00,1745329159.184034,40.9522769728346,29.14030140780613,76.45547,-1,-1,-1,-1,30,23.87926777261467,-9999,37993.01866179167,-0.7761688232421875,0.6051177978515625,-0.187713623046875,37993.00858479167,-2.967342009221824,-1.337753598381476,-0.6449300763304107,-0.05440310388803482,0.01586318388581276,-0.02295449189841747,0.001721739768981934,0.0008318424224853516,-0.006807625293731689,XArbitraryZVertical,-0.6075459221670544,0.1964979166488976,-0.7241601720245422,0.260515805687021,-0.7775394916534424,0.6011425852775574,-0.1845530420541763,0,0,0,-1,-1,37982.98888104167,unknown,2,2025-04-22T16:39:10.860+03:00,2025-04-21T17:08:51.449+03:00,8620,1.064866,0,0,7158.132,7,22,2025-04-22T16:39:18.598+03:00,767021958.7000424,0,-13.00999,100.3599,1,0.45,2025-04-22T16:39:17.666+03:00,99,1.65,2025-04-22T14:20:19.516+03:00,0.02197104130929222,0
2025-04-22T16:39:20.904+03:00,1745329159.184034,40.9522769728346,29.14030140780613,76.45547,-1,-1,-1,-1,30,23.87926777261467,-9999,37993.02873779167,-0.7716217041015625,0.594390869140625,-0.18621826171875,37993.01866179167,-2.968112717584105,-1.338041577116165,-0.6448195409621688,-0.06093816459178925,0.01846808940172195,-0.02724041603505611,0.0001457929611206055,0.00504004955291748,-0.005078360438346863,XArbitraryZVertical,-0.6075816941131627,0.1966526430683588,-0.724189536439332,0.260233853462026,-0.7776572704315186,0.6010542511940002,-0.1843444406986237,0,0,0,-1,-1,37982.98888104167,unknown,2,2025-04-22T16:39:10.860+03:00,2025-04-21T17:08:51.449+03:00,8620,1.064866,0,0,7158.132,7,22,2025-04-22T16:39:18.598+03:00,767021958.7000424,0,-13.00999,100.3599,1,0.45,2025-04-22T16:39:17.666+03:00,99,1.65,2025-04-22T14:20:19.516+03:00,0.02197104130929222,0
2025-04-22T16:39:20.919+03:00,1745329159.184034,40.9522769728346,29.14030140780613,76.45547,-1,-1,-1,-1,30,23.87926777261467,-9999,37993.03881479167,-0.7744140625,0.593780517578125,-0.1864471435546875,37993.02873779167,-2.968998147509882,-1.338381695716227,-0.6447067255367359,-0.06887012720108032,0.01911736652255058,-0.02677622810006142,0.004928290843963623,-0.003368854522705078,-0.002641692757606506,XArbitraryZVertical,-0.6076251603511464,0.1968346328043327,-0.7242182741532998,0.2599148303855646,-0.7777860164642334,0.6009640693664551,-0.1840955764055252,0,0,0,-1,-1,37982.98888104167,unknown,2,2025-04-22T16:39:10.860+03:00,2025-04-21T17:08:51.449+03:00,8620,1.064866,0,0,7158.132,7,22,2025-04-22T16:39:18.598+03:00,767021958.7000424,0,-13.00999,100.3599,1,0.45,2025-04-22T16:39:17.666+03:00,99,1.65,2025-04-22T14:20:19.516+03:00,0.02197104130929222,0
2025-04-22T16:39:20.924+03:00,1745329159.184034,40.9522769728346,29.14030140780613,76.45547,-1,-1,-1,-1,30,23.87926777261467,-9999,37993.04889079167,-0.7773284912109375,0.5895843505859375,-0.1823883056640625,37993.03881479167,-2.969944726798404,-1.338727953124305,-0.6446482562429041,-0.07738451659679413,0.01890378259122372,-0.01853560842573643,0.005606114864349365,-0.007869303226470947,-0.00322335958480835,XArbitraryZVertical,-0.6076611891056991,0.1970550933491702,-0.7242447243789376,0.2595896406501714,-0.7778838872909546,0.6009173393249512,-0.1838343441486359,0,0,0,-1,-1,37982.98888104167,unknown,2,2025-04-22T16:39:10.860+03:00,2025-04-21T17:08:51.449+03:00,8620,1.064866,0,0,7158.132,7,22,2025-04-22T16:39:18.598+03:00,767021958.7000424,0,-13.00999,100.3599,1,0.45,2025-04-22T16:39:17.666+03:00,99,1.65,2025-04-22T14:20:19.516+03:00,0.02197104130929222,0
2025-04-22T16:39:20.935+03:00,1745329159.184034,40.9522769728346,29.14030140780613,76.45547,-1,-1,-1,-1,30,23.87926777261467,-9999,37993.05896679167,-0.7763824462890625,0.5891571044921875,-0.1815032958984375,37993.04889079167,-2.970970471198798,-1.339117690620925,-0.6446731308880441,-0.08391192555427551,0.02461439929902554,-0.01338851638138294,0.0009938478469848633,-0.009125173091888428,-0.000234067440032959,XArbitraryZVertical,-0.6076995538714149,0.1973256410990138,-0.7242555334428075,0.2592636677539134,-0.7779408097267151,0.6009371876716614,-0.1835276931524277,0,0,0,-1,-1,37982.98888104167,unknown,2,2025-04-22T16:39:10.860+03:00,2025-04-21T17:08:51.449+03:00,8620,1.064866,0,0,7158.132,7,22,2025-04-22T16:39:18.598+03:00,767021958.7000424,0,-13.00999,100.3599,1,0.45,2025-04-22T16:39:17.666+03:00,99,1.65,2025-04-22T14:20:19.516+03:00,0.02197104130929222,0
2025-04-22T16:39:20.945+03:00,1745329159.184034,40.9522769728346,29.14030140780613,76.45547,-1,-1,-1,-1,30,23.87926777261467,-9999,37993.06904379167,-0.7784881591796875,0.60003662109375,-0.1819305419921875,37993.05896679167,-2.972005316251919,-1.339442529332207,-0.6447388557388503,-0.0747075080871582,0.0333692729473114,-0.01009751483798027,0.001716971397399902,-0.01369428634643555,0.002082839608192444,XArbitraryZVertical,-0.6077106528818557,0.1976229029993366,-0.72428106904679,0.2589395802928544,-0.7779618501663208,0.6009897589683533,-0.183265894651413,0,0,0,-1,-1,37982.98888104167,unknown,2,2025-04-22T16:39:10.860+03:00,2025-04-21T17:08:51.449+03:00,8620,1.064866,0,0,7158.132,7,22,2025-04-22T16:39:18.598+03:00,767021958.7000424,0,-13.00999,100.3599,1,0.45,2025-04-22T16:39:17.666+03:00,99,1.65,2025-04-22T14:20:19.516+03:00,0.02197104130929222,0
2025-04-22T16:39:20.955+03:00,1745329159.184034,40.9522769728346,29.14030140780613,76.45547,-1,-1,-1,-1,30,23.87926777261467,-9999,37993.07911979167,-0.7780914306640625,0.6085205078125,-0.1793212890625,37993.06904379167,-2.972876709557131,-1.339574760557094,-0.6447691444239166,-0.06398109346628189,0.04135635867714882,-0.01547949761152267,-1.609325408935547e-05,-0.005494117736816406,0.0008313804864883423,XArbitraryZVertical,-0.6076703628159236,0.1978820313562437,-0.7243491678254038,0.2586456371845798,-0.7779684066772461,0.6010139584541321,-0.1831588596105576,0,0,0,-1,-1,37982.98888104167,unknown,2,2025-04-22T16:39:10.860+03:00,2025-04-21T17:08:51.449+03:00,8620,1.064866,0,0,7158.132,7,22,2025-04-22T16:39:18.598+03:00,767021958.7000424,0,-13.00999,100.3599,1,0.45,2025-04-22T16:39:17.666+03:00,99,1.65,2025-04-22T14:20:19.516+03:00,0.02197104130929222,0
2025-04-22T16:39:20.965+03:00,1745329159.184034,40.9522769728346,29.14030140780613,76.45547,-1,-1,-1,-1,30,23.87926777261467,-9999,37993.08919679167,-0.7771453857421875,0.61053466796875,-0.182037353515625,37993.07911979167,-2.973625275564631,-1.33955810702313,-0.6447530036352187,-0.05407180637121201,0.04554970934987068,-0.01882020197808743,-0.0003910660743713379,0.005490005016326904,0.003593206405639648,XArbitraryZVertical,-0.607591290821901,0.1981054805231846,-0.7244535221589837,0.258368268221104,-0.7779749631881714,0.6010010242462158,-0.1831740885972977,0,0,0,-1,-1,37982.98888104167,unknown,2,2025-04-22T16:39:10.860+03:00,2025-04-21T17:08:51.449+03:00,8620,1.064866,0,0,7158.132,7,22,2025-04-22T16:39:18.598+03:00,767021958.7000424,0,-13.00999,100.3599,1,0.45,2025-04-22T16:39:17.666+03:00,99,1.65,2025-04-22T14:20:19.516+03:00,0.02197104130929222,0
2025-04-22T16:39:20.975+03:00,1745329159.184034,40.9522769728346,29.14030140780613,76.45547,-1,-1,-1,-1,30,23.87926777261467,-9999,37993.09927279167,-0.7786407470703125,0.6063690185546875,-0.189697265625,37993.08919679167,-2.974305531270425,-1.339437371527697,-0.6447245070209778,-0.05371680855751038,0.05405664443969727,-0.01440787501633167,0.001312375068664551,0.009479999542236328,0.003248527646064758,XArbitraryZVertical,-0.6074820542990931,0.1983169348562144,-0.7245821040889637,0.2581018346457436,-0.7779693007469177,0.6009782552719116,-0.1832718998193741,0,0,0,-1,-1,37982.98888104167,unknown,2,2025-04-22T16:39:10.860+03:00,2025-04-21T17:08:51.449+03:00,8620,1.064866,0,0,7158.132,7,22,2025-04-22T16:39:18.598+03:00,767021958.7000424,0,-13.00999,100.3599,1,0.45,2025-04-22T16:39:17.666+03:00,99,1.65,2025-04-22T14:20:19.516+03:00,0.02197104130929222,0
2025-04-22T16:39:20.985+03:00,1745329159.184034,40.9522769728346,29.14030140780613,76.45547,-1,-1,-1,-1,30,23.87926777261467,-9999,37993.10934879167,-0.7750091552734375,0.60101318359375,-0.1961822509765625,37993.09927279167,-2.975022698969032,-1.339299751871907,-0.6446891142742984,-0.05933135002851486,0.05722547322511673,-0.01902449876070023,-0.0005689859390258789,0.007463634014129639,-0.003597497940063477,XArbitraryZVertical,-0.6073634042581096,0.1985390867350267,-0.7247217059866676,0.2578183071874843,-0.7779648900032043,0.6009500026702881,-0.1833838522434235,0,0,0,-1,-1,37982.98888104167,unknown,2,2025-04-22T16:39:10.860+03:00,2025-04-21T17:08:51.449+03:00,8620,1.064866,0,0,7158.132,7,22,2025-04-22T16:39:18.598+03:00,767021958.7000424,0,-13.00999,100.3599,1,0.45,2025-04-22T16:39:17.666+03:00,99,1.65,2025-04-22T14:20:19.516+03:00,0.02197104130929222,0
2025-04-22T16:39:20.995+03:00,1745329159.184034,40.9522769728346,29.14030140780613,76.45547,-1,-1,-1,-1,30,23.87926777261467,-9999,37993.11942579167,-0.7694244384765625,0.60107421875,-0.1973114013671875,37993.10934879167,-2.975739117730504,-1.339146595705917,-0.6446241237610043,-0.05100151523947716,0.05620415136218071,-0.01955659873783588,0.001409411430358887,0.001869857311248779,-0.01074784994125366,XArbitraryZVertical,-0.6072410983737601,0.1987517376487443,-0.7248702265622122,0.2575250588901406,-0.7779749035835266,0.6008980274200439,-0.1835119873285294,0,0,0,-1,-1,37982.98888104167,unknown,2,2025-04-22T16:39:10.860+03:00,2025-04-21T17:08:51.449+03:00,8620,1.064866,0,0,7158.132,7,22,2025-04-22T16:39:18.598+03:00,767021958.7000424,0,-13.00999,100.3599,1,0.45,2025-04-22T16:39:17.666+03:00,99,1.65,2025-04-22T14:20:19.516+03:00,0.02197104130929222,0
2025-04-22T16:39:21.005+03:00,1745329159.184034,40.9522769728346,29.14030140780613,76.45547,-1,-1,-1,-1,30,23.87926777261467,-9999,37993.12950179167,-0.775421142578125,0.599456787109375,-0.1919097900390625,37993.11942579167,-2.976383636770679,-1.338906317796115,-0.6445124782667491,-0.04679219052195549,0.06152401119470596,-0.02452395856380463,0.00693899393081665,0.0006773471832275391,-0.01451277732849121,XArbitraryZVertical,-0.60709742701168,0.1989360425421245,-0.7250426411898038,0.2572359453841122,-0.7779960632324219,0.6008087992668152,-0.1837143301963806,0,0,0,-1,-1,37982.98888104167,unknown,2,2025-04-22T16:39:10.860+03:00,2025-04-21T17:08:51.449+03:00,8620,1.064866,0,0,7158.132,7,22,2025-04-22T16:39:18.598+03:00,767021958.7000424,0,-13.00999,100.3599,1,0.45,2025-04-22T16:39:17.666+03:00,99,1.65,2025-04-22T14:20:19.516+03:00,0.02197104130929222,0
2025-04-22T16:39:21.015+03:00,1745329159.184034,40.9522769728346,29.14030140780613,76.45547,-1,-1,-1,-1,30,23.87926777261467,-9999,37993.13957879167,-0.7831878662109375,0.5937042236328125,-0.1887359619140625,37993.12950179167,-2.977026959586975,-1.338605789951434,-0.6443314733027217,-0.04569203779101372,0.07237718999385834,-0.0284462608397007,0.006180822849273682,0.0005320906639099121,-0.01004259288311005,XArbitraryZVertical,-0.6069366319896405,0.1991013780558051,-0.7252432592408328,0.2569215660753806,-0.7780465483665466,0.6006640791893005,-0.1839731335639954,0,0,0,-1,-1,37982.98888104167,unknown,2,2025-04-22T16:39:10.860+03:00,2025-04-21T17:08:51.449+03:00,8620,1.064866,0,0,7158.132,7,22,2025-04-22T16:39:18.598+03:00,767021958.7000424,0,-13.00999,100.3599,1,0.45,2025-04-22T16:39:17.666+03:00,99,1.65,2025-04-22T14:20:19.516+03:00,0.02197104130929222,0
2025-04-22T16:39:21.026+03:00,1745329159.184034,40.9522769728346,29.14030140780613,76.45547,-1,-1,-1,-1,30,23.87926777261467,-9999,37993.14965479167,-0.7769317626953125,0.59649658203125,-0.190521240234375,37993.13957879167,-2.97763686413122,-1.338218359739125,-0.6441044206355283,-0.04199949651956558,0.08095929771661758,-0.02985077910125256,-0.003324985504150391,-0.004199624061584473,-0.005376219749450684,XArbitraryZVertical,-0.6067506611488944,0.1992501559181407,-0.7254728064762626,0.2565974959547843,-0.7781080007553101,0.6004825234413147,-0.1843060255050659,0,0,0,-1,-1,37982.98888104167,unknown,2,2025-04-22T16:39:10.860+03:00,2025-04-21T17:08:51.449+03:00,8620,1.064866,0,0,7158.132,7,22,2025-04-22T16:39:18.598+03:00,767021958.7000424,0,-13.00999,100.3599,1,0.45,2025-04-22T16:39:17.666+03:00,99,1.65,2025-04-22T14:20:19.516+03:00,0.02197104130929222,0
2025-04-22T16:39:21.035+03:00,1745329159.184034,40.9522769728346,29.14030140780613,76.45547,-1,-1,-1,-1,30,23.87926777261467,-9999,37993.15973079167,-0.7725677490234375,0.59918212890625,-0.192138671875,37993.14965479167,-2.978289829890304,-1.337779751801582,-0.6438910297958728,-0.04759746044874191,0.08610212802886963,-0.03192245215177536,-0.002442121505737305,-0.005753219127655029,-0.005768299102783203,XArbitraryZVertical,-0.6065408439980265,0.1994236189008786,-0.7257210149391605,0.2562565011372011,-0.7781516909599304,0.6003118753433228,-0.184676855802536,0,0,0,-1,-1,37982.98888104167,unknown,2,2025-04-22T16:39:10.860+03:00,2025-04-21T17:08:51.449+03:00,8620,1.064866,0,0,7158.132,7,22,2025-04-22T16:39:18.598+03:00,767021958.7000424,0,-13.00999,100.3599,1,0.45,2025-04-22T16:39:17.666+03:00,99,1.65,2025-04-22T14:20:19.516+03:00,0.02197104130929222,0
2025-04-22T16:39:21.052+03:00,1745329159.184034,40.9522769728346,29.14030140780613,76.45547,-1,-1,-1,-1,30,23.87926777261467,-9999,37993.16980779167,-0.773101806640625,0.595672607421875,-0.19140625,37993.15973079167,-2.979147611943071,-1.33742941046203,-0.643697077420165,-0.07153461873531342,0.092387855052948,-0.04315480217337608,0.004106640815734863,-0.001371443271636963,-0.00705564022064209,XArbitraryZVertical,-0.6063412052341575,0.1996550845636981,-0.725965700798918,0.2558553450881379,-0.7782002091407776,0.6001567840576172,-0.1849763840436935,0,0,0,-1,-1,37982.98888104167,unknown,2,2025-04-22T16:39:10.860+03:00,2025-04-21T17:08:51.449+03:00,8620,1.064866,0,0,7158.132,7,22,2025-04-22T16:39:18.598+03:00,767021958.7000424,0,-13.00999,100.3599,1,0.45,2025-04-22T16:39:17.666+03:00,99,1.65,2025-04-22T14:20:19.516+03:00,0.02197104130929222,0
2025-04-22T16:39:21.057+03:00,1745329159.184034,40.9522769728346,29.14030140780613,76.45547,-1,-1,-1,-1,30,23.87926777261467,-9999,37993.17988379167,-0.77667236328125,0.58917236328125,-0.191558837890625,37993.16980779167,-2.980314545804763,-1.337205397427543,-0.6435282562694843,-0.09944214671850204,0.09535595029592514,-0.03730090707540512,0.006269454956054688,-0.002319753170013428,-0.007025778293609619,XArbitraryZVertical,-0.606154714370948,0.1999734795391593,-0.7262075917353132,0.2553615376125593,-0.7782572507858276,0.6000217199325562,-0.1851741373538971,0,0,0,-1,-1,37982.98888104167,unknown,2,2025-04-22T16:39:10.860+03:00,2025-04-21T17:08:51.449+03:00,8620,1.064866,0,0,7158.132,7,22,2025-04-22T16:39:18.598+03:00,767021958.7000424,0,-13.00999,100.3599,1,0.45,2025-04-22T16:39:17.666+03:00,99,1.65,2025-04-22T14:20:19.516+03:00,0.02197104130929222,0
2025-04-22T16:39:21.068+03:00,1745329159.184034,40.9522769728346,29.14030140780613,76.45547,-1,-1,-1,-1,30,23.87926777261467,-9999,37993.18996079167,-0.7689056396484375,0.5809173583984375,-0.19952392578125,37993.17988379167,-2.981743847455264,-1.336545677767871,-0.643595962832055,-0.1204493641853333,0.2476837635040283,-0.003674070816487074,0.003284692764282227,-0.007775604724884033,-0.005240067839622498,XArbitraryZVertical,-0.6057674129840639,0.2005163314722721,-0.7265797386297986,0.2547955423904406,-0.7780953049659729,0.600075900554657,-0.1856780797243118,0,0,0,-1,-1,37982.98888104167,unknown,2,2025-04-22T16:39:10.860+03:00,2025-04-21T17:08:51.449+03:00,8620,1.064866,0,0,7158.132,7,22,2025-04-22T16:39:18.598+03:00,767021958.7000424,0,-13.00999,100.3599,1,0.45,2025-04-22T16:39:17.666+03:00,99,1.65,2025-04-22T14:20:19.516+03:00,0.02197104130929222,0
2025-04-22T16:39:21.082+03:00,1745329159.184034,40.9522769728346,29.14030140780613,76.45547,-1,-1,-1,-1,30,23.87926777261467,-9999,37993.20003679167,-0.7496185302734375,0.580841064453125,-0.1956024169921875,37993.18996079167,-2.983417521622002,-1.335622444305215,-0.6438735165251724,-0.1492546498775482,0.1398353278636932,-0.004022945184260607,0.001791238784790039,-0.01599323749542236,-0.009122952818870544,XArbitraryZVertical,-0.6052449034904881,0.2012457002135115,-0.7270313712289733,0.2541731520890666,-0.7777615785598755,0.6002978682518005,-0.1863575428724289,0,0,0,-1,-1,37982.98888104167,unknown,2,2025-04-22T16:39:10.860+03:00,2025-04-21T17:08:51.449+03:00,8620,1.064866,0,0,7158.132,7,22,2025-04-22T16:39:18.598+03:00,767021958.7000424,0,-13.00999,100.3599,1,0.45,2025-04-22T16:39:17.666+03:00,99,1.65,2025-04-22T14:20:19.516+03:00,0.02197104130929222,0
2025-04-22T16:39:21.086+03:00,1745329159.184034,40.9522769728346,29.14030140780613,76.45547,-1,-1,-1,-1,30,23.87926777261467,-9999,37993.21011279167,-0.798004150390625,0.5797882080078125,-0.2089691162109375,37993.20003679167,-2.985196214523848,-1.335239739730488,-0.6441838874660473,-0.139202207326889,0.1532779633998871,-0.006434670183807611,0.02618163824081421,-0.02199387550354004,-0.01301921904087067,XArbitraryZVertical,-0.6049052186463691,0.2019500114106066,-0.7273274719159011,0.2535756768811886,-0.7775091528892517,0.6005460619926453,-0.1866117417812347,0,0,0,-1,-1,37982.98888104167,unknown,2,2025-04-22T16:39:10.860+03:00,2025-04-21T17:08:51.449+03:00,8620,1.064866,0,0,7158.132,7,22,2025-04-22T16:39:18.598+03:00,767021958.7000424,0,-13.00999,100.3599,1,0.45,2025-04-22T16:39:17.666+03:00,99,1.65,2025-04-22T14:20:19.516+03:00,0.02197104130929222,0
2025-04-22T16:39:21.096+03:00,1745329159.184034,40.9522769728346,29.14030140780613,76.45547,-1,-1,-1,-1,30,23.87926777261467,-9999,37993.22018979167,-0.7873687744140625,0.5934600830078125,-0.2260284423828125,37993.21011279167,-2.986986498146851,-1.334688171405954,-0.644495611188141,-0.1541619896888733,0.1686340123414993,-0.004659673199057579,-0.0006079673767089844,-0.01888620853424072,-0.01179492473602295,XArbitraryZVertical,-0.6045020511506722,0.2026792931013424,-0.7276751612632776,0.2529569005660324,-0.7772240042686462,0.6007953286170959,-0.1869967430830002,0,0,0,-1,-1,37982.98888104167,unknown,2,2025-04-22T16:39:10.860+03:00,2025-04-21T17:08:51.449+03:00,8620,1.064866,0,0,7158.132,7,22,2025-04-22T16:39:18.598+03:00,767021958.7000424,0,-13.00999,100.3599,1,0.45,2025-04-22T16:39:17.666+03:00,99,1.65,2025-04-22T14:20:19.516+03:00,0.02197104130929222,0
2025-04-22T16:39:21.106+03:00,1745329159.184034,40.9522769728346,29.14030140780613,76.45547,-1,-1,-1,-1,30,23.87926777261467,-9999,37993.23026579167,-0.7637176513671875,0.6166229248046875,-0.2288970947265625,37993.22018979167,-2.988838806054783,-1.333997562497599,-0.6447847361548801,-0.1408860683441162,0.194210022687912,-0.005283618811517954,-0.02472519874572754,-0.01766777038574219,-0.03644548356533051,XArbitraryZVertical,-0.6040426766441176,0.2034357606120686,-0.7280752993831591,0.2522945103524601,-0.7769256830215454,0.6010264158248901,-0.1874926686286926,0,0,0,-1,-1,37982.98888104167,unknown,2,2025-04-22T16:39:10.860+03:00,2025-04-21T17:08:51.449+03:00,8620,1.064866,0,0,7158.132,7,22,2025-04-22T16:39:18.598+03:00,767021958.7000424,0,-13.00999,100.3599,1,0.45,2025-04-22T16:39:17.666+03:00,99,1.65,2025-04-22T14:20:19.516+03:00,0.02197104130929222,0
2025-04-22T16:39:21.116+03:00,1745329159.184034,40.9522769728346,29.14030140780613,76.45547,-1,-1,-1,-1,30,23.87926777261467,-9999,37993.24034279167,-0.777557373046875,0.6132049560546875,-0.2407684326171875,37993.23026579167,-2.990597407819728,-1.332981083805257,-0.6449474200231418,-0.1423119306564331,0.2156082540750504,-0.02049479633569717,0.01064854860305786,0.01131594181060791,-0.03694543242454529,XArbitraryZVertical,-0.6034820246049674,0.2041563672038876,-0.7285798086557963,0.2515965635662389,-0.7766395807266235,0.6011564135551453,-0.1882592439651489,0,0,0,-1,-1,37982.98888104167,unknown,2,2025-04-22T16:39:10.860+03:00,2025-04-21T17:08:51.449+03:00,8620,1.064866,0,0,7158.132,7,22,2025-04-22T16:39:18.598+03:00,767021958.7000424,0,-13.00999,100.3599,1,0.45,2025-04-22T16:39:17.666+03:00,99,1.65,2025-04-22T14:20:19.516+03:00,0.02197104130929222,0
2025-04-22T16:39:21.126+03:00,1745329159.184034,40.9522769728346,29.14030140780613,76.45547,-1,-1,-1,-1,30,23.87926777261467,-9999,37993.25041879167,-0.7923583984375,0.6104278564453125,-0.2501220703125,37993.24034279167,-2.992766478271657,-1.331971630080135,-0.6451430334524312,-0.2015882283449173,0.2478493452072144,-0.01817394979298115,0.005155980587005615,0.01366215944290161,-0.04835057258605957,XArbitraryZVertical,-0.6028786140033273,0.2050114510968424,-0.7291282420139426,0.2507581505443146,-0.7763350605964661,0.6013127565383911,-0.1890153586864471,0,0,0,-1,-1,37982.98888104167,unknown,2,2025-04-22T16:39:10.860+03:00,2025-04-21T17:08:51.449+03:00,8620,1.064866,0,0,7158.132,7,22,2025-04-22T16:39:18.598+03:00,767021958.7000424,0,-13.00999,100.3599,1,0.45,2025-04-22T16:39:17.666+03:00,99,1.65,2025-04-22T14:20:19.516+03:00,0.02197104130929222,0
2025-04-22T16:39:21.136+03:00,1745329159.184034,40.9522769728346,29.14030140780613,76.45547,-1,-1,-1,-1,30,23.87926777261467,-9999,37993.26049479167,-0.7951812744140625,0.608245849609375,-0.2764434814453125,37993.25041879167,-2.995719745094737,-1.330871957531645,-0.6455023688870819,-0.2795709073543549,0.295916736125946,-0.02353675849735737,-0.0113908052444458,0.00991135835647583,-0.05467414855957031,XArbitraryZVertical,-0.6021487201040122,0.2061749567296591,-0.7297765905356605,0.2496696260437231,-0.7759168148040771,0.6015998125076294,-0.1898176074028015,0,0,0,-1,-1,37982.98888104167,unknown,2,2025-04-22T16:39:10.860+03:00,2025-04-21T17:08:51.449+03:00,8620,1.064866,0,0,7158.132,7,22,2025-04-22T16:39:18.598+03:00,767021958.7000424,0,-13.00999,100.3599,1,0.45,2025-04-22T16:39:17.666+03:00,99,1.65,2025-04-22T14:20:19.516+03:00,0.02197104130929222,0
2025-04-22T16:39:21.146+03:00,1745329159.184034,40.9522769728346,29.14030140780613,76.45547,-1,-1,-1,-1,30,23.87926777261467,-9999,37993.27057179167,-0.801300048828125,0.6090850830078125,-0.285675048828125,37993.26049479167,-2.99979601641792,-1.330366384603288,-0.6461298984257721,-0.3726722896099091,0.2986401617527008,-0.005804866086691618,-0.02012401819229126,0.00661778450012207,-0.07709215581417084,XArbitraryZVertical,-0.6014979268822216,0.2077024058786613,-0.7303447727900396,0.2483069433123962,-0.7754538059234619,0.6021009683609009,-0.1901199072599411,0,0,0,-1,-1,37982.98888104167,unknown,2,2025-04-22T16:39:10.860+03:00,2025-04-21T17:08:51.449+03:00,8620,1.064866,0,0,7158.132,7,22,2025-04-22T16:39:18.598+03:00,767021958.7000424,0,-13.00999,100.3599,1,0.45,2025-04-22T16:39:17.666+03:00,99,1.65,2025-04-22T14:20:19.516+03:00,0.02197104130929222,0
2025-04-22T16:39:21.156+03:00,1745329159.184034,40.9522769728346,29.14030140780613,76.45547,-1,-1,-1,-1,30,23.87926777261467,-9999,37993.28064779167,-0.8203887939453125,0.603363037109375,-0.3004913330078125,37993.27057179167,-3.004642413778591,-1.330407203951114,-0.6469938273531258,-0.406561017036438,0.2726669013500214,-0.008228342980146408,-0.02152204513549805,0.007728815078735352,-0.0946122407913208,XArbitraryZVertical,-0.6009453192118742,0.2094816052044129,-0.7308071113459463,0.2467855280706337,-0.7749561667442322,0.6027905344963074,-0.1899643540382385,0,0,0,-1,-1,37982.98888104167,unknown,2,2025-04-22T16:39:10.860+03:00,2025-04-21T17:08:51.449+03:00,8620,1.064866,0,0,7158.132,7,22,2025-04-22T16:39:18.598+03:00,767021958.7000424,0,-13.00999,100.3599,1,0.45,2025-04-22T16:39:17.666+03:00,99,1.65,2025-04-22T14:20:19.516+03:00,0.02197104130929222,0
2025-04-22T16:39:21.166+03:00,1745329159.184034,40.9522769728346,29.14030140780613,76.45547,-1,-1,-1,-1,30,23.87926777261467,-9999,37993.29072479167,-0.8126220703125,0.645904541015625,-0.331085205078125,37993.28064779167,-3.008994736078977,-1.330302626926873,-0.6479270589862117,-0.2629807591438293,0.2767856419086456,0.04805060848593712,-0.03972774744033813,-0.000690758228302002,-0.1010587513446808,XArbitraryZVertical,-0.6003814483351348,0.2111550683483208,-0.7312391175427558,0.2454482737793319,-0.7743895053863525,0.6035348773002625,-0.1899113059043884,0,0,0,-1,-1,37982.98888104167,unknown,2,2025-04-22T16:39:10.860+03:00,2025-04-21T17:08:51.449+03:00,8620,1.064866,0,0,7158.132,7,22,2025-04-22T16:39:18.598+03:00,767021958.7000424,0,-13.00999,100.3599,1,0.45,2025-04-22T16:39:17.666+03:00,99,1.65,2025-04-22T14:20:19.516+03:00,0.02197104130929222,0
2025-04-22T16:39:21.177+03:00,1745329159.184034,40.9522769728346,29.14030140780613,76.45547,-1,-1,-1,-1,30,23.87926777261467,-9999,37993.30080079167,-0.8010101318359375,0.7028350830078125,-0.3456268310546875,37993.29072479167,-3.011446932930893,-1.329197885080155,-0.6485445486011122,-0.1499775052070618,0.2287917733192444,-0.04335254058241844,-0.04751735925674438,0.0186992883682251,-0.1287043690681458,XArbitraryZVertical,-0.599672383880528,0.2122599097363189,-0.7317820345963023,0.2446095022364636,-0.7738173604011536,0.6040270924568176,-0.1906775236129761,0,0,0,-1,-1,37982.98888104167,unknown,2,2025-04-22T16:39:10.860+03:00,2025-04-21T17:08:51.449+03:00,8620,1.064866,0,0,7158.132,7,22,2025-04-22T16:39:18.598+03:00,767021958.7000424,0,-13.00999,100.3599,1,0.45,2025-04-22T16:39:17.666+03:00,99,1.65,2025-04-22T14:20:19.516+03:00,0.02197104130929222,0
2025-04-22T16:39:21.187+03:00,1745329159.184034,40.9522769728346,29.14030140780613,76.45547,-1,-1,-1,-1,30,23.87926777261467,-9999,37993.31087679167,-0.845611572265625,0.696075439453125,-0.3514556884765625,37993.30080079167,-3.013013035539837,-1.328020818512859,-0.6479735721370353,-0.0596906766295433,0.1929723173379898,-0.1185866743326187,-0.02287167310714722,0.08449262380599976,-0.1521706283092499,XArbitraryZVertical,-0.5991173212141954,0.2126567231233928,-0.7324082292084736,0.2437493288143563,-0.7739270329475403,0.6035719513893127,-0.1916711032390594,0,0,0,-1,-1,37982.98888104167,unknown,2,2025-04-22T16:39:10.860+03:00,2025-04-21T17:08:51.449+03:00,8620,1.064866,0,0,7158.132,7,22,2025-04-22T16:39:18.598+03:00,767021958.7000424,0,-13.00999,100.3599,1,0.45,2025-04-22T16:39:17.666+03:00,99,1.65,2025-04-22T14:20:19.516+03:00,0.02197104130929222,0
2025-04-22T16:39:21.197+03:00,1745329159.184034,40.9522769728346,29.14030140780613,76.45547,-1,-1,-1,-1,30,23.87926777261467,-9999,37993.32095379167,-0.83740234375,0.709136962890625,-0.38385009765625,37993.31087679167,-3.01361069030957,-1.326634687092813,-0.6466537666141537,0.03299851343035698,0.1520198285579681,-0.1594470292329788,-0.0561792254447937,0.09961390495300293,-0.1549187004566193,XArbitraryZVertical,-0.5986433931176243,0.2125042595464485,-0.7330855882911672,0.2430090462892799,-0.7744327783584595,0.602519154548645,-0.192936047911644,0,0,0,-1,-1,37982.98888104167,unknown,2,2025-04-22T16:39:10.860+03:00,2025-04-21T17:08:51.449+03:00,8620,1.064866,0,0,7158.132,7,22,2025-04-22T16:39:18.598+03:00,767021958.7000424,0,-13.00999,100.3599,1,0.45,2025-04-22T16:39:17.666+03:00,99,1.65,2025-04-22T14:20:19.516+03:00,0.02197104130929222,0
2025-04-22T16:39:21.206+03:00,1745329159.184034,40.9522769728346,29.14030140780613,76.45547,-1,-1,-1,-1,30,23.87926777261467,-9999,37993.33102979167,-0.814849853515625,0.7241973876953125,-0.419342041015625,37993.32095379167,-3.012943454191227,-1.324938005578396,-0.6446803854639236,0.1660377979278564,0.1050941273570061,-0.2004280090332031,-0.07120990753173828,0.09977096319198608,-0.1741137802600861,XArbitraryZVertical,-0.5982369208352371,0.2117621805724068,-0.7337953525344362,0.2425149517782657,-0.7752559781074524,0.6009430289268494,-0.1945387274026871,0,0,0,-1,-1,37982.98888104167,unknown,2,2025-04-22T16:39:10.860+03:00,2025-04-21T17:08:51.449+03:00,8620,1.064866,0,0,7158.132,7,22,2025-04-22T16:39:18.598+03:00,767021958.7000424,0,-13.00999,100.3599,1,0.45,2025-04-22T16:39:17.666+03:00,99,1.65,2025-04-22T14:20:19.516+03:00,0.02197104130929222,0
2025-04-22T16:39:21.217+03:00,1745329159.184034,40.9522769728346,29.14030140780613,76.45547,-1,-1,-1,-1,30,23.87926777261467,-9999,37993.34110679167,-0.805389404296875,0.718292236328125,-0.432464599609375,37993.33102979167,-3.011036489670285,-1.323028640975707,-0.6419018401842084,0.2487419992685318,0.04875095933675766,-0.2591733336448669,-0.04466789960861206,0.1235548257827759,-0.2128745764493942,XArbitraryZVertical,-0.5979393442474568,0.2103683766668651,-0.7345334593810784,0.242227408375215,-0.7764989137649536,0.5987198352813721,-0.1964273750782013,0,0,0,-1,-1,37982.98888104167,unknown,2,2025-04-22T16:39:10.860+03:00,2025-04-21T17:08:51.449+03:00,8620,1.064866,0,0,7158.132,7,22,2025-04-22T16:39:18.598+03:00,767021958.7000424,0,-13.00999,100.3599,1,0.45,2025-04-22T16:39:17.666+03:00,99,1.65,2025-04-22T14:20:19.516+03:00,0.02197104130929222,0
2025-04-22T16:39:21.227+03:00,1745329159.184034,40.9522769728346,29.14030140780613,76.45547,-1,-1,-1,-1,30,23.87926777261467,-9999,37993.35118279167,-0.8025970458984375,0.6941375732421875,-0.4453277587890625,37993.34110679167,-3.008942983968649,-1.321679572295103,-0.6386176033646275,0.2218637764453888,-0.03047807887196541,-0.2904119491577148,-0.03013843297958374,0.1253493428230286,-0.2313782423734665,XArbitraryZVertical,-0.5978987053445555,0.2086573583981076,-0.735153340979947,0.2419270569860099,-0.7781347632408142,0.5960860848426819,-0.1979584842920303,0,0,0,-1,-1,37982.98888104167,unknown,2,2025-04-22T16:39:10.860+03:00,2025-04-21T17:08:51.449+03:00,8620,1.064866,0,0,7158.132,7,22,2025-04-22T16:39:18.598+03:00,767021958.7000424,0,-13.00999,100.3599,1,0.45,2025-04-22T16:39:17.666+03:00,99,1.65,2025-04-22T14:20:19.516+03:00,0.02197104130929222,0
2025-04-22T16:39:21.237+03:00,1745329159.184034,40.9522769728346,29.14030140780613,76.45547,-1,-1,-1,-1,30,23.87926777261467,-9999,37993.36125879167,-0.810211181640625,0.6628875732421875,-0.44482421875,37993.35118279167,-3.007759894957968,-1.321761262110081,-0.6352412300697144,0.1230506375432014,-0.1250488013029099,-0.3102093636989594,-0.02217942476272583,0.1132169961929321,-0.2418416738510132,XArbitraryZVertical,-0.5982911346634994,0.207009138727021,-0.7354679359547264,0.2414163606085654,-0.7800971269607544,0.5933716893196106,-0.1983898729085922,0,0,0,-1,-1,37982.98888104167,unknown,2,2025-04-22T16:39:10.860+03:00,2025-04-21T17:08:51.449+03:00,8620,1.064866,0,0,7158.132,7,22,2025-04-22T16:39:18.598+03:00,767021958.7000424,0,-13.00999,100.3599,1,0.45,2025-04-22T16:39:17.666+03:00,99,1.65,2025-04-22T14:20:19.516+03:00,0.02197104130929222,0
2025-04-22T16:39:21.247+03:00,1745329159.184034,40.9522769728346,29.14030140780613,76.45547,-1,-1,-1,-1,30,23.87926777261467,-9999,37993.37133579167,-0.8149871826171875,0.6519012451171875,-0.427886962890625,37993.36125879167,-3.007872352667685,-1.323452800904553,-0.6320446612389554,0.02250406332314014,-0.19971664249897,-0.307218611240387,-0.02434343099594116,0.08257460594177246,-0.250709056854248,XArbitraryZVertical,-0.5991265793903713,0.2056226228563361,-0.7354294312767401,0.2406451495946925,-0.7822664380073547,0.5907956957817078,-0.1975333541631699,0,0,0,-1,-1,37982.98888104167,unknown,2,2025-04-22T16:39:10.860+03:00,2025-04-21T17:08:51.449+03:00,8620,1.064866,0,0,7158.132,7,22,2025-04-22T16:39:18.598+03:00,767021958.7000424,0,-13.00999,100.3599,1,0.45,2025-04-22T16:39:17.666+03:00,99,1.65,2025-04-22T14:20:19.516+03:00,0.02197104130929222,0
2025-04-22T16:39:21.257+03:00,1745329159.184034,40.9522769728346,29.14030140780613,76.45547,-1,-1,-1,-1,30,23.87926777261467,-9999,37993.38141179167,-0.8160247802734375,0.6490325927734375,-0.4164276123046875,37993.37133579167,-3.008841985632396,-1.326477528773054,-0.6290469739013467,-0.02469887025654316,-0.2885362505912781,-0.3060446977615356,-0.02972513437271118,0.0653119683265686,-0.2383663505315781,XArbitraryZVertical,-0.6003495836810182,0.2044100481913475,-0.7350627714111166,0.2397486347757654,-0.7845752239227295,0.5883744359016418,-0.1955938190221786,0,0,0,-1,-1,37982.98888104167,unknown,2,2025-04-22T16:39:10.860+03:00,2025-04-21T17:08:51.449+03:00,8620,1.064866,0,0,7158.132,7,22,2025-04-22T16:39:18.598+03:00,767021958.7000424,0,-13.00999,100.3599,1,0.45,2025-04-22T16:39:17.666+03:00,99,1.65,2025-04-22T14:20:19.516+03:00,0.02197104130929222,0
2025-04-22T16:39:21.267+03:00,1745329159.184034,40.9522769728346,29.14030140780613,76.45547,-1,-1,-1,-1,30,23.87926777261467,-9999,37993.39148879167,-0.8133697509765625,0.6593780517578125,-0.40728759765625,37993.38141179167,-3.010055344602632,-1.330637566166411,-0.6260517002928482,-0.0168547946959734,-0.394411027431488,-0.3169437050819397,-0.02846121788024902,0.06352525949478149,-0.2277095019817352,XArbitraryZVertical,-0.6019644725812501,0.2031389910127505,-0.7343788627868791,0.2388744602358484,-0.787090539932251,0.5859498381614685,-0.1927466541528702,0,0,0,-1,-1,37982.98888104167,unknown,2,2025-04-22T16:39:10.860+03:00,2025-04-21T17:08:51.449+03:00,8620,1.064866,0,0,7158.132,7,22,2025-04-22T16:39:18.598+03:00,767021958.7000424,0,-13.00999,100.3599,1,0.45,2025-04-22T16:39:17.666+03:00,99,1.65,2025-04-22T14:20:19.516+03:00,0.02197104130929222,0
2025-04-22T16:39:21.277+03:00,1745329159.184034,40.9522769728346,29.14030140780613,76.45547,-1,-1,-1,-1,30,23.87926777261467,-9999,37993.40156479167,-0.8090362548828125,0.68231201171875,-0.39935302734375,37993.39148879167,-3.010930699844755,-1.335526387458441,-0.6229201729773514,0.03642147406935692,-0.4760898947715759,-0.3257971107959747,-0.02477127313613892,0.06934624910354614,-0.2206806838512421,XArbitraryZVertical,-0.6038899289804971,0.2016317758774467,-0.7334468338857072,0.2381534751739799,-0.789803683757782,0.5834093689918518,-0.1893231570720673,0,0,0,-1,-1,37982.98888104167,unknown,2,2025-04-22T16:39:10.860+03:00,2025-04-21T17:08:51.449+03:00,8620,1.064866,0,0,7158.132,7,22,2025-04-22T16:39:18.598+03:00,767021958.7000424,0,-13.00999,100.3599,1,0.45,2025-04-22T16:39:17.666+03:00,99,1.65,2025-04-22T14:20:19.516+03:00,0.02197104130929222,0
