loggingTime(txt),locationTimestamp_since1970(s),locationLatitude(WGS84),locationLongitude(WGS84),locationAltitude(m),locationSpeed(m/s),locationSpeedAccuracy(m/s),locationCourse(°),locationCourseAccuracy(°),locationVerticalAccuracy(m),locationHorizontalAccuracy(m),locationFloor(Z),accelerometerTimestamp_sinceReboot(s),accelerometerAccelerationX(G),accelerometerAccelerationY(G),accelerometerAccelerationZ(G),motionTimestamp_sinceReboot(s),motionYaw(rad),motionRoll(rad),motionPitch(rad),motionRotationRateX(rad/s),motionRotationRateY(rad/s),motionRotationRateZ(rad/s),motionUserAccelerationX(G),motionUserAccelerationY(G),motionUserAccelerationZ(G),motionAttitudeReferenceFrame(txt),motionQuaternionX(R),motionQuaternionY(R),motionQuaternionZ(R),motionQuaternionW(R),motionGravityX(G),motionGravityY(G),motionGravityZ(G),motionMagneticFieldX(µT),motionMagneticFieldY(µT),motionMagneticFieldZ(µT),motionHeading(°),motionMagneticFieldCalibrationAccuracy(Z),activityTimestamp_sinceReboot(s),activity(txt),activityActivityConfidence(Z),activityActivityStartDate(txt),pedometerStartDate(txt),pedometerNumberofSteps(N),pedometerAverageActivePace(s/m),pedometerCurrentPace(s/m),pedometerCurrentCadence(steps/s),pedometerDistance(m),pedometerFloorAscended(N),pedometerFloorDescended(N),pedometerEndDate(txt),altimeterTimestamp_sinceReboot(s),altimeterReset(bool),altimeterRelativeAltitude(m),altimeterPressure(kPa),batteryState(N),batteryLevel(R),heartRateBPMTimestamp(txt),heartRateBPM(N),heartRateBPS(R),heartRateVariabilityTimestamp(txt),heartRateVariability(ms),label
2025-04-18T12:17:42.726+03:00,1744967856.981899,40.9536263982903,29.14098580579653,93.69963,-1,-1,-1,-1,30,25.94878961532435,-9999,66050.46674429167,-0.712158203125,0.65673828125,-0.1803436279296875,66050.45666829168,1.029435653669148,-1.332570969379875,-0.7228123726904131,0.05466819554567337,0.03173112869262695,0.1712029874324799,-0.01044350862503052,-0.007596254348754883,0.006531059741973877,XArbitraryZVertical,0.04266397828444435,-0.6400733876261729,0.5522269579260509,0.5324765975670688,-0.7287685871124268,0.6614964008331299,-0.1769716888666153,0,0,0,-1,-1,66048.42023575,unknown,2,2025-04-18T12:17:40.647+03:00,2025-04-17T15:44:39.500+03:00,7589,1.149553,0,0,6253.948,4,10,2025-04-18T12:16:59.379+03:00,766660660.7359301,0,108.98,100.548,1,0.45,2025-04-18T12:17:36.920+03:00,112,1.866666666666667,2025-04-18T08:51:18.885+03:00,0.03057091307199995,1
2025-04-18T12:17:42.730+03:00,1744967856.981899,40.9536263982903,29.14098580579653,93.69963,-1,-1,-1,-1,30,25.94878961532435,-9999,66050.47681929167,-0.7011871337890625,0.628692626953125,-0.1850738525390625,66050.46674429167,1.03058974187719,-1.331302472500856,-0.724220656215618,0.028115414083004,0.07127320766448975,0.06717805564403534,0.009070932865142822,-0.006698548793792725,-0.001890495419502258,XArbitraryZVertical,0.04215626703375839,-0.6398323361574767,0.5528185997177473,0.5321928677617754,-0.7276379466056824,0.6625518798828125,-0.1776748597621918,0,0,0,-1,-1,66048.42023575,unknown,2,2025-04-18T12:17:40.647+03:00,2025-04-17T15:44:39.500+03:00,7589,1.149553,0,0,6253.948,4,10,2025-04-18T12:16:59.379+03:00,766660660.7359301,0,108.98,100.548,1,0.45,2025-04-18T12:17:36.920+03:00,112,1.866666666666667,2025-04-18T08:51:18.885+03:00,0.03057091307199995,1
2025-04-18T12:17:42.733+03:00,1744967856.981899,40.9536263982903,29.14098580579653,93.69963,-1,-1,-1,-1,30,25.94878961532435,-9999,66050.48689429167,-0.637908935546875,0.5475006103515625,-0.165557861328125,66050.47681929167,1.029755176506512,-1.332253706459137,-0.7225991543488174,-0.08300571143627167,-0.09809178113937378,-0.1593687534332275,0.02947801351547241,-0.02321392297744751,-0.008600533008575439,XArbitraryZVertical,0.0427583450455369,-0.6399637667581458,0.5522797605266262,0.5325459862981792,-0.7288494110107422,0.6613364815711975,-0.1772361993789673,0,0,0,-1,-1,66048.42023575,unknown,2,2025-04-18T12:17:40.647+03:00,2025-04-17T15:44:39.500+03:00,7589,1.149553,0,0,6253.948,4,10,2025-04-18T12:16:59.379+03:00,766660660.7359301,0,108.98,100.548,1,0.45,2025-04-18T12:17:36.920+03:00,112,1.866666666666667,2025-04-18T08:51:18.885+03:00,0.03057091307199995,1
2025-04-18T12:17:42.734+03:00,1744967856.981899,40.9536263982903,29.14098580579653,93.69963,-1,-1,-1,-1,30,25.94878961532435,-9999,66050.49696929166,-0.6807098388671875,0.710968017578125,-0.1760406494140625,66050.48689429167,1.027737794546385,-1.334773308136881,-0.7217480608549894,-0.1283548176288605,-0.09613435715436935,-0.1350168138742447,0.07796990871429443,-0.1156080961227417,0.006600797176361084,XArbitraryZVertical,0.04312588176791614,-0.6406049964152114,0.5515322751086776,0.5325200822932242,-0.7298406958580017,0.660697877407074,-0.1755307912826538,0,0,0,-1,-1,66048.42023575,unknown,2,2025-04-18T12:17:40.647+03:00,2025-04-17T15:44:39.500+03:00,7589,1.149553,0,0,6253.948,4,10,2025-04-18T12:16:59.379+03:00,766660660.7359301,0,108.98,100.548,1,0.45,2025-04-18T12:17:36.920+03:00,112,1.866666666666667,2025-04-18T08:51:18.885+03:00,0.03057091307199995,1
2025-04-18T12:17:42.739+03:00,1744967856.981899,40.9536263982903,29.14098580579653,93.69963,-1,-1,-1,-1,30,25.94878961532435,-9999,66050.50704529167,-0.7712554931640625,0.661346435546875,-0.200469970703125,66050.49696929166,1.025289727587237,-1.337420160864731,-0.7201908818784037,-0.1605050265789032,-0.1247473657131195,-0.2025087773799896,0.07284033298492432,0.03450268507003784,0.002296850085258484,XArbitraryZVertical,0.04365234778608239,-0.6412303754953224,0.5505355710006722,0.5327559472033043,-0.7313029170036316,0.6595281362533569,-0.1738361567258835,0,0,0,-1,-1,66048.42023575,unknown,2,2025-04-18T12:17:40.647+03:00,2025-04-17T15:44:39.500+03:00,7589,1.149553,0,0,6253.948,4,10,2025-04-18T12:16:59.379+03:00,766660660.7359301,0,108.98,100.548,1,0.45,2025-04-18T12:17:36.920+03:00,112,1.866666666666667,2025-04-18T08:51:18.885+03:00,0.03057091307199995,1
2025-04-18T12:17:42.749+03:00,1744967856.981899,40.9536263982903,29.14098580579653,93.69963,-1,-1,-1,-1,30,25.94878961532435,-9999,66050.51712029167,-0.7006988525390625,0.634918212890625,-0.1861572265625,66050.50704529167,1.022738806277239,-1.34075616419195,-0.7184684955655145,-0.1225997284054756,-0.1798790544271469,-0.2371437102556229,-0.04553514719009399,0.01791501045227051,-0.029441237449646,XArbitraryZVertical,0.04439460281317892,-0.6420295751043865,0.5494629150935751,0.5328393037663401,-0.7329835295677185,0.6582325100898743,-0.1716542840003967,0,0,0,-1,-1,66048.42023575,unknown,2,2025-04-18T12:17:40.647+03:00,2025-04-17T15:44:39.500+03:00,7589,1.149553,0,0,6253.948,4,10,2025-04-18T12:16:59.379+03:00,766660660.7359301,0,108.98,100.548,1,0.45,2025-04-18T12:17:36.920+03:00,112,1.866666666666667,2025-04-18T08:51:18.885+03:00,0.03057091307199995,1
2025-04-18T12:17:42.759+03:00,1744967856.981899,40.9536263982903,29.14098580579653,93.69963,-1,-1,-1,-1,30,25.94878961532435,-9999,66050.52719529167,-0.7791290283203125,0.66534423828125,-0.1823272705078125,66050.51712029167,1.020754462901726,-1.343641993100033,-0.7167115118503404,-0.1004229933023453,-0.1242759227752686,-0.1296997964382172,0.03484869003295898,-0.02525597810745239,-0.01843386888504028,XArbitraryZVertical,0.04520512403916769,-0.6426952926651469,0.5485414835302569,0.5329180348605715,-0.734601616859436,0.6569088101387024,-0.1697985082864761,0,0,0,-1,-1,66048.42023575,unknown,2,2025-04-18T12:17:40.647+03:00,2025-04-17T15:44:39.500+03:00,7589,1.149553,0,0,6253.948,4,10,2025-04-18T12:16:59.379+03:00,766660660.7359301,0,108.98,100.548,1,0.45,2025-04-18T12:17:36.920+03:00,112,1.866666666666667,2025-04-18T08:51:18.885+03:00,0.03057091307199995,1
2025-04-18T12:17:42.769+03:00,1744967856.981899,40.9536263982903,29.14098580579653,93.69963,-1,-1,-1,-1,30,25.94878961532435,-9999,66050.53727029166,-0.8089141845703125,0.676544189453125,-0.17572021484375,66050.52719529167,1.019485984829886,-1.345467102873246,-0.7156435753261957,-0.06123430654406548,-0.06021890789270401,-0.1026314124464989,-0.03273218870162964,0.005182266235351562,-0.01433862745761871,XArbitraryZVertical,0.04569603251054245,-0.6431211314669431,0.5479616732651337,0.5329589865657848,-0.7355937361717224,0.656103253364563,-0.1686141639947891,0,0,0,-1,-1,66048.42023575,unknown,2,2025-04-18T12:17:40.647+03:00,2025-04-17T15:44:39.500+03:00,7589,1.149553,0,0,6253.948,4,10,2025-04-18T12:16:59.379+03:00,766660660.7359301,0,108.98,100.548,1,0.45,2025-04-18T12:17:36.920+03:00,112,1.866666666666667,2025-04-18T08:51:18.885+03:00,0.03057091307199995,1
2025-04-18T12:17:42.779+03:00,1744967856.981899,40.9536263982903,29.14098580579653,93.69963,-1,-1,-1,-1,30,25.94878961532435,-9999,66050.54734629167,-0.7683258056640625,0.6555633544921875,-0.165740966796875,66050.53727029166,1.018713024178739,-1.346566974481085,-0.714999239759499,-0.03417738899588585,-0.04633345082402229,-0.04650237038731575,-0.0754854679107666,0.0224531888961792,-0.008645161986351013,XArbitraryZVertical,0.04598901968746048,-0.6433782256928391,0.5476093054270248,0.5329855287819323,-0.7361906170845032,0.655616819858551,-0.1678989380598068,0,0,0,-1,-1,66048.42023575,unknown,2,2025-04-18T12:17:40.647+03:00,2025-04-17T15:44:39.500+03:00,7589,1.149553,0,0,6253.948,4,10,2025-04-18T12:16:59.379+03:00,766660660.7359301,0,108.98,100.548,1,0.45,2025-04-18T12:17:36.920+03:00,112,1.866666666666667,2025-04-18T08:51:18.885+03:00,0.03057091307199995,1
2025-04-18T12:17:42.789+03:00,1744967856.981899,40.9536263982903,29.14098580579653,93.69963,-1,-1,-1,-1,30,25.94878961532435,-9999,66050.55742129167,-0.7710113525390625,0.6451873779296875,-0.1685638427734375,66050.54734629167,1.018437616199785,-1.347081228177908,-0.7148597334640536,-0.00897163525223732,-0.01914949715137482,-0.002420128555968404,-0.03516411781311035,0.00162351131439209,0.001647129654884338,XArbitraryZVertical,0.04609321290844766,-0.6435099874902083,0.5474977933384219,0.5329320441074851,-0.7363660335540771,0.6555114984512329,-0.1675406247377396,0,0,0,-1,-1,66048.42023575,unknown,2,2025-04-18T12:17:40.647+03:00,2025-04-17T15:44:39.500+03:00,7589,1.149553,0,0,6253.948,4,10,2025-04-18T12:16:59.379+03:00,766660660.7359301,0,108.98,100.548,1,0.45,2025-04-18T12:17:36.920+03:00,112,1.866666666666667,2025-04-18T08:51:18.885+03:00,0.03057091307199995,1
2025-04-18T12:17:42.799+03:00,1744967856.981899,40.9536263982903,29.14098580579653,93.69963,-1,-1,-1,-1,30,25.94878961532435,-9999,66050.56749629167,-0.7596893310546875,0.65460205078125,-0.174560546875,66050.55742129167,1.018352619212983,-1.347239435065263,-0.7148977585969324,-0.005059584509581327,-0.004412230104207993,0.003072974272072315,-0.03313255310058594,-0.01015442609786987,-0.0002296566963195801,XArbitraryZVertical,0.04609499879873469,-0.6435572655731341,0.5474786673210258,0.5328944354443956,-0.7363682389259338,0.6555402278900146,-0.1674185991287231,0,0,0,-1,-1,66048.42023575,unknown,2,2025-04-18T12:17:40.647+03:00,2025-04-17T15:44:39.500+03:00,7589,1.149553,0,0,6253.948,4,10,2025-04-18T12:16:59.379+03:00,766660660.7359301,0,108.98,100.548,1,0.45,2025-04-18T12:17:36.920+03:00,112,1.866666666666667,2025-04-18T08:51:18.885+03:00,0.03057091307199995,1
2025-04-18T12:17:42.809+03:00,1744967856.981899,40.9536263982903,29.14098580579653,93.69963,-1,-1,-1,-1,30,25.94878961532435,-9999,66050.57757129167,-0.745330810546875,0.6590576171875,-0.1786956787109375,66050.56749629167,1.018398904682538,-1.347219943749193,-0.7148471761703739,0.009073811583220959,-0.00256239902228117,-0.01166602410376072,-0.0263439416885376,-0.002639472484588623,-0.006433591246604919,XArbitraryZVertical,0.04612345716584308,-0.6435468056448876,0.5474819336206359,0.5329011448795704,-0.7363972067832947,0.6555020213127136,-0.167440265417099,0,0,0,-1,-1,66048.42023575,unknown,2,2025-04-18T12:17:40.647+03:00,2025-04-17T15:44:39.500+03:00,7589,1.149553,0,0,6253.948,4,10,2025-04-18T12:16:59.379+03:00,766660660.7359301,0,108.98,100.548,1,0.45,2025-04-18T12:17:36.920+03:00,112,1.866666666666667,2025-04-18T08:51:18.885+03:00,0.03057091307199995,1
2025-04-18T12:17:42.819+03:00,1744967856.981899,40.9536263982903,29.14098580579653,93.69963,-1,-1,-1,-1,30,25.94878961532435,-9999,66050.58764729167,-0.73779296875,0.65081787109375,-0.1830596923828125,66050.57757129167,1.018297120867392,-1.347344536766701,-0.7147924845403573,-0.01777970604598522,-0.0164460577070713,-0.01899520866572857,-0.009732365608215332,0.004756510257720947,-0.01036261022090912,XArbitraryZVertical,0.04614521151750272,-0.6435778047944875,0.5474416344724412,0.5329031990045204,-0.7364529371261597,0.6554607152938843,-0.1673564612865448,0,0,0,-1,-1,66048.42023575,unknown,2,2025-04-18T12:17:40.647+03:00,2025-04-17T15:44:39.500+03:00,7589,1.149553,0,0,6253.948,4,10,2025-04-18T12:16:59.379+03:00,766660660.7359301,0,108.98,100.548,1,0.45,2025-04-18T12:17:36.920+03:00,112,1.866666666666667,2025-04-18T08:51:18.885+03:00,0.03057091307199995,1
2025-04-18T12:17:42.829+03:00,1744967856.981899,40.9536263982903,29.14098580579653,93.69963,-1,-1,-1,-1,30,25.94878961532435,-9999,66050.59772229167,-0.7272186279296875,0.6451873779296875,-0.176300048828125,66050.58764729167,1.017851377988309,-1.347904682554488,-0.7145613566018685,-0.04049567133188248,-0.03772018477320671,-0.03737661615014076,-0.002944886684417725,-0.003766357898712158,-0.01708930730819702,XArbitraryZVertical,0.04624119833245387,-0.6437181409845759,0.5472663204047022,0.5329055214457451,-0.7366943955421448,0.6552861332893372,-0.1669774204492569,0,0,0,-1,-1,66048.42023575,unknown,2,2025-04-18T12:17:40.647+03:00,2025-04-17T15:44:39.500+03:00,7589,1.149553,0,0,6253.948,4,10,2025-04-18T12:16:59.379+03:00,766660660.7359301,0,108.98,100.548,1,0.45,2025-04-18T12:17:36.920+03:00,112,1.866666666666667,2025-04-18T08:51:18.885+03:00,0.03057091307199995,1
2025-04-18T12:17:42.839+03:00,1744967856.981899,40.9536263982903,29.14098580579653,93.69963,-1,-1,-1,-1,30,25.94878961532435,-9999,66050.60779729167,-0.7380218505859375,0.6555328369140625,-0.17877197265625,66050.59772229167,1.017151016947901,-1.348784403624075,-0.7142648027817715,-0.05015728622674942,-0.04879886656999588,-0.0405673161149025,0.009888291358947754,-0.01036298274993896,-0.009927928447723389,XArbitraryZVertical,0.04636691298171364,-0.6439441549019439,0.5470033184814,0.5328916570789174,-0.7370306253433228,0.6550620794296265,-0.166372075676918,0,0,0,-1,-1,66048.42023575,unknown,2,2025-04-18T12:17:40.647+03:00,2025-04-17T15:44:39.500+03:00,7589,1.149553,0,0,6253.948,4,10,2025-04-18T12:16:59.379+03:00,766660660.7359301,0,108.98,100.548,1,0.45,2025-04-18T12:17:36.920+03:00,112,1.866666666666667,2025-04-18T08:51:18.885+03:00,0.03057091307199995,1
2025-04-18T12:17:42.850+03:00,1744967856.981899,40.9536263982903,29.14098580579653,93.69963,-1,-1,-1,-1,30,25.94878961532435,-9999,66050.61787229167,-0.747894287109375,0.6575469970703125,-0.1709442138671875,66050.60779729167,1.016360536733675,-1.349764705166801,-0.7140044442330289,-0.05513926222920418,-0.04489786922931671,-0.03049497306346893,0.00104677677154541,-0.0011025071144104,-0.01357334852218628,XArbitraryZVertical,0.04647745181895229,-0.6442021589665639,0.5467207069949698,0.5328601630283811,-0.7373597025871277,0.6548653841018677,-0.1656868457794189,0,0,0,-1,-1,66048.42023575,unknown,2,2025-04-18T12:17:40.647+03:00,2025-04-17T15:44:39.500+03:00,7589,1.149553,0,0,6253.948,4,10,2025-04-18T12:16:59.379+03:00,766660660.7359301,0,108.98,100.548,1,0.45,2025-04-18T12:17:36.920+03:00,112,1.866666666666667,2025-04-18T08:51:18.885+03:00,0.03057091307199995,1
2025-04-18T12:17:42.859+03:00,1744967856.981899,40.9536263982903,29.14098580579653,93.69963,-1,-1,-1,-1,30,25.94878961532435,-9999,66050.62794729166,-0.7427825927734375,0.6544189453125,-0.1663665771484375,66050.61787229167,1.015521732469509,-1.350728041811391,-0.7138527240690264,-0.06452511250972748,-0.03794468939304352,-0.02400661446154118,-0.009942710399627686,0.003833949565887451,-0.007716059684753418,XArbitraryZVertical,0.0465270196377096,-0.6444657996027795,0.546446082243167,0.5328187571547666,-0.7376159429550171,0.6547507047653198,-0.1649981439113617,0,0,0,-1,-1,66048.42023575,unknown,2,2025-04-18T12:17:40.647+03:00,2025-04-17T15:44:39.500+03:00,7589,1.149553,0,0,6253.948,4,10,2025-04-18T12:16:59.379+03:00,766660660.7359301,0,108.98,100.548,1,0.45,2025-04-18T12:17:36.920+03:00,112,1.866666666666667,2025-04-18T08:51:18.885+03:00,0.03057091307199995,1
2025-04-18T12:17:42.869+03:00,1744967856.981899,40.9536263982903,29.14098580579653,93.69963,-1,-1,-1,-1,30,25.94878961532435,-9999,66050.63802329167,-0.7399444580078125,0.667724609375,-0.1682281494140625,66050.62794729166,1.01462213836376,-1.351658654917344,-0.713810476930355,-0.06432803720235825,-0.02903748117387295,-0.008282777853310108,-0.006725966930389404,-0.0008033514022827148,-0.001804709434509277,XArbitraryZVertical,0.04650702387535959,-0.6447311638466395,0.5461767686477652,0.5327756009972066,-0.7377961874008179,0.6547187566757202,-0.1643176525831223,0,0,0,-1,-1,66048.42023575,unknown,2,2025-04-18T12:17:40.647+03:00,2025-04-17T15:44:39.500+03:00,7589,1.149553,0,0,6253.948,4,10,2025-04-18T12:16:59.379+03:00,766660660.7359301,0,108.98,100.548,1,0.45,2025-04-18T12:17:36.920+03:00,112,1.866666666666667,2025-04-18T08:51:18.885+03:00,0.03057091307199995,1
2025-04-18T12:17:42.880+03:00,1744967856.981899,40.9536263982903,29.14098580579653,93.69963,-1,-1,-1,-1,30,25.94878961532435,-9999,66050.64809829167,-0.7471923828125,0.6692962646484375,-0.165191650390625,66050.63802329167,1.013768285766447,-1.352469472068786,-0.71391201584471,-0.06988725066184998,-0.0187399722635746,0.003849718486890197,-0.001454651355743408,0.01082342863082886,-0.004462063312530518,XArbitraryZVertical,0.04641528405872834,-0.644975300909965,0.5459497936505577,0.5327207033104907,-0.7378641963005066,0.6547955274581909,-0.1637049615383148,0,0,0,-1,-1,66048.42023575,unknown,2,2025-04-18T12:17:40.647+03:00,2025-04-17T15:44:39.500+03:00,7589,1.149553,0,0,6253.948,4,10,2025-04-18T12:16:59.379+03:00,766660660.7359301,0,108.98,100.548,1,0.45,2025-04-18T12:17:36.920+03:00,112,1.866666666666667,2025-04-18T08:51:18.885+03:00,0.03057091307199995,1
2025-04-18T12:17:42.890+03:00,1744967856.981899,40.9536263982903,29.14098580579653,93.69963,-1,-1,-1,-1,30,25.94878961532435,-9999,66050.65817329167,-0.7469940185546875,0.6612548828125,-0.165771484375,66050.64809829167,1.012958686763799,-1.353098349580131,-0.7141664784496505,-0.06343121826648712,-0.001073625404387712,0.02361569926142693,-0.008945584297180176,0.01588016748428345,-0.002825915813446045,XArbitraryZVertical,0.0462309807213934,-0.6451823241835545,0.5457680015127584,0.5326723774871156,-0.7378044128417969,0.6549878120422363,-0.1632049232721329,0,0,0,-1,-1,66048.42023575,unknown,2,2025-04-18T12:17:40.647+03:00,2025-04-17T15:44:39.500+03:00,7589,1.149553,0,0,6253.948,4,10,2025-04-18T12:16:59.379+03:00,766660660.7359301,0,108.98,100.548,1,0.45,2025-04-18T12:17:36.920+03:00,112,1.866666666666667,2025-04-18T08:51:18.885+03:00,0.03057091307199995,1
2025-04-18T12:17:42.900+03:00,1744967856.981899,40.9536263982903,29.14098580579653,93.69963,-1,-1,-1,-1,30,25.94878961532435,-9999,66050.66824829167,-0.7498779296875,0.650421142578125,-0.1646575927734375,66050.65817329167,1.012185790041579,-1.353476134470268,-0.7147217349428352,-0.07678604125976562,0.02331200800836086,0.05894086882472038,-0.009696900844573975,0.006107032299041748,-0.003122031688690186,XArbitraryZVertical,0.04587784672934488,-0.6453459101105204,0.5456591879521359,0.5326162706956091,-0.7375108003616333,0.6554072499275208,-0.1628477573394775,0,0,0,-1,-1,66048.42023575,unknown,2,2025-04-18T12:17:40.647+03:00,2025-04-17T15:44:39.500+03:00,7589,1.149553,0,0,6253.948,4,10,2025-04-18T12:16:59.379+03:00,766660660.7359301,0,108.98,100.548,1,0.45,2025-04-18T12:17:36.920+03:00,112,1.866666666666667,2025-04-18T08:51:18.885+03:00,0.03057091307199995,1
2025-04-18T12:17:42.910+03:00,1744967856.981899,40.9536263982903,29.14098580579653,93.69963,-1,-1,-1,-1,30,25.94878961532435,-9999,66050.67832429167,-0.736846923828125,0.618682861328125,-0.1671905517578125,66050.66824829167,1.011588667950713,-1.353140474415812,-0.7154555088085848,-0.01424808893352747,0.154017299413681,0.07191019505262375,-0.01258653402328491,-0.002915680408477783,-0.001727208495140076,XArbitraryZVertical,0.04532028812876557,-0.6453296699533052,0.5456475634831268,0.5326954638741322,-0.7369861602783203,0.655961275100708,-0.1629913747310638,0,0,0,-1,-1,66048.42023575,unknown,2,2025-04-18T12:17:40.647+03:00,2025-04-17T15:44:39.500+03:00,7589,1.149553,0,0,6253.948,4,10,2025-04-18T12:16:59.379+03:00,766660660.7359301,0,108.98,100.548,1,0.45,2025-04-18T12:17:36.920+03:00,112,1.866666666666667,2025-04-18T08:51:18.885+03:00,0.03057091307199995,1
2025-04-18T12:17:42.920+03:00,1744967856.981899,40.9536263982903,29.14098580579653,93.69963,-1,-1,-1,-1,30,25.94878961532435,-9999,66050.68839929167,-0.7534332275390625,0.5871124267578125,-0.158111572265625,66050.67832429167,1.012613060549392,-1.350607581167197,-0.7161628266668169,-0.0914452001452446,0.1304101645946503,0.07062491774559021,-0.002331137657165527,-0.03114408254623413,-0.0008779019117355347,XArbitraryZVertical,0.04469576267267161,-0.6446892334743843,0.5461119266049685,0.533047654348483,-0.736117959022522,0.6564950346946716,-0.1647561639547348,0,0,0,-1,-1,66048.42023575,unknown,2,2025-04-18T12:17:40.647+03:00,2025-04-17T15:44:39.500+03:00,7589,1.149553,0,0,6253.948,4,10,2025-04-18T12:16:59.379+03:00,766660660.7359301,0,108.98,100.548,1,0.45,2025-04-18T12:17:36.920+03:00,112,1.866666666666667,2025-04-18T08:51:18.885+03:00,0.03057091307199995,1
2025-04-18T12:17:42.930+03:00,1744967856.981899,40.9536263982903,29.14098580579653,93.69963,-1,-1,-1,-1,30,25.94878961532435,-9999,66050.69847429167,-0.6779937744140625,0.7108612060546875,-0.1517791748046875,66050.68839929167,1.012192125132312,-1.350207504628385,-0.7166975869361292,-0.02856530994176865,0.01893130876123905,0.002478090347722173,-0.01722025871276855,-0.07704895734786987,0.0007435530424118042,XArbitraryZVertical,0.04425140414737729,-0.6446354645868392,0.5461100012023244,0.5331519051922727,-0.735709547996521,0.6568983197212219,-0.1649738550186157,0,0,0,-1,-1,66048.42023575,unknown,2,2025-04-18T12:17:40.647+03:00,2025-04-17T15:44:39.500+03:00,7589,1.149553,0,0,6253.948,4,10,2025-04-18T12:16:59.379+03:00,766660660.7359301,0,108.98,100.548,1,0.45,2025-04-18T12:17:36.920+03:00,112,1.866666666666667,2025-04-18T08:51:18.885+03:00,0.03057091307199995,1
2025-04-18T12:17:42.940+03:00,1744967856.981899,40.9536263982903,29.14098580579653,93.69963,-1,-1,-1,-1,30,25.94878961532435,-9999,66050.70854929167,-0.7092742919921875,0.6617889404296875,-0.1810302734375,66050.69847429167,1.011855192014246,-1.35023613379575,-0.7168226200891152,-0.02988790161907673,0.02912022918462753,0.01323150284588337,0.04735571146011353,0.04384356737136841,0.01870991289615631,XArbitraryZVertical,0.04410406589855247,-0.644660715371012,0.5460432820436537,0.5332017537327185,-0.735633909702301,0.6569925546646118,-0.1649347841739655,0,0,0,-1,-1,66048.42023575,unknown,2,2025-04-18T12:17:40.647+03:00,2025-04-17T15:44:39.500+03:00,7589,1.149553,0,0,6253.948,4,10,2025-04-18T12:16:59.379+03:00,766660660.7359301,0,108.98,100.548,1,0.45,2025-04-18T12:17:36.920+03:00,112,1.866666666666667,2025-04-18T08:51:18.885+03:00,0.03057091307199995,1
2025-04-18T12:17:42.950+03:00,1744967856.981899,40.9536263982903,29.14098580579653,93.69963,-1,-1,-1,-1,30,25.94878961532435,-9999,66050.71862529167,-0.7509765625,0.65753173828125,-0.177886962890625,66050.70854929167,1.011532439300638,-1.35008742434799,-0.7169846275543795,-0.02191013656556606,0.0348564125597477,0.002457151422277093,0.03801101446151733,0.01476025581359863,-0.01507852971553802,XArbitraryZVertical,0.04389902426197932,-0.6446413231876944,0.5459912178692758,0.5332954393446683,-0.7355055212974548,0.6571146845817566,-0.1650208830833435,0,0,0,-1,-1,66048.42023575,unknown,2,2025-04-18T12:17:40.647+03:00,2025-04-17T15:44:39.500+03:00,7589,1.149553,0,0,6253.948,4,10,2025-04-18T12:16:59.379+03:00,766660660.7359301,0,108.98,100.548,1,0.45,2025-04-18T12:17:36.920+03:00,112,1.866666666666667,2025-04-18T08:51:18.885+03:00,0.03057091307199995,1
2025-04-18T12:17:42.960+03:00,1744967856.981899,40.9536263982903,29.14098580579653,93.69963,-1,-1,-1,-1,30,25.94878961532435,-9999,66050.72870029167,-0.7178802490234375,0.68450927734375,-0.1719512939453125,66050.71862529167,1.011293130954944,-1.350021079729873,-0.7169617439236549,-0.01217561680823565,0.01120794098824263,-0.01790118217468262,-0.01800030469894409,-0.005089461803436279,-0.01325641572475433,XArbitraryZVertical,0.04381233532142301,-0.6446270252694948,0.5459245264781811,0.533388062225051,-0.7355091571807861,0.6570974588394165,-0.1650729477405548,0,0,0,-1,-1,66048.42023575,unknown,2,2025-04-18T12:17:40.647+03:00,2025-04-17T15:44:39.500+03:00,7589,1.149553,0,0,6253.948,4,10,2025-04-18T12:16:59.379+03:00,766660660.7359301,0,108.98,100.548,1,0.45,2025-04-18T12:17:36.920+03:00,112,1.866666666666667,2025-04-18T08:51:18.885+03:00,0.03057091307199995,1
2025-04-18T12:17:42.997+03:00,1744967856.981899,40.9536263982903,29.14098580579653,93.69963,-1,-1,-1,-1,30,25.94878961532435,-9999,66050.73877529167,-0.73077392578125,0.660369873046875,-0.16339111328125,66050.72870029167,1.011128369761245,-1.350021928231287,-0.7168360701539886,-0.01080914866179228,0.01513077784329653,-0.01529634650796652,0.01543617248535156,0.02854418754577637,-0.007944166660308838,XArbitraryZVertical,0.04380628375555771,-0.6446206551023679,0.5458567102342415,0.5334657643935267,-0.7355899810791016,0.6570026874542236,-0.1650904417037964,0,0,0,-1,-1,66048.42023575,unknown,2,2025-04-18T12:17:40.647+03:00,2025-04-17T15:44:39.500+03:00,7589,1.149553,0,0,6253.948,4,10,2025-04-18T12:16:59.379+03:00,766660660.7359301,0,108.98,100.548,1,0.45,2025-04-18T12:17:36.920+03:00,112,1.866666666666667,2025-04-18T08:51:18.885+03:00,0.03057091307199995,1
2025-04-18T12:17:43.002+03:00,1744967856.981899,40.9536263982903,29.14098580579653,93.69963,-1,-1,-1,-1,30,25.94878961532435,-9999,66050.74885029167,-0.735565185546875,0.647705078125,-0.1633453369140625,66050.73877529167,1.010903566439364,-1.350019596582055,-0.7167680950812749,-0.01875495724380016,0.01523943431675434,-0.005303632467985153,0.007086992263793945,0.006012380123138428,0.001237884163856506,XArbitraryZVertical,0.04375855894079358,-0.6446194436828977,0.545783908527025,0.5335455764182173,-0.7356331348419189,0.6569514870643616,-0.1651019155979156,0,0,0,-1,-1,66048.42023575,unknown,2,2025-04-18T12:17:40.647+03:00,2025-04-17T15:44:39.500+03:00,7589,1.149553,0,0,6253.948,4,10,2025-04-18T12:16:59.379+03:00,766660660.7359301,0,108.98,100.548,1,0.45,2025-04-18T12:17:36.920+03:00,112,1.866666666666667,2025-04-18T08:51:18.885+03:00,0.03057091307199995,1
2025-04-18T12:17:43.003+03:00,1744967856.981899,40.9536263982903,29.14098580579653,93.69963,-1,-1,-1,-1,30,25.94878961532435,-9999,66050.75892529167,-0.7315826416015625,0.64031982421875,-0.15966796875,66050.74885029167,1.010535107384435,-1.35011687947972,-0.7168169657591018,-0.0335187241435051,0.01775265857577324,0.007779145613312721,-0.001183211803436279,-0.008611857891082764,0.0005031377077102661,XArbitraryZVertical,0.0436481019646103,-0.6446574074289501,0.5456927482460244,0.5336020386544708,-0.7356179356575012,0.6569883227348328,-0.1650233417749405,0,0,0,-1,-1,66048.42023575,unknown,2,2025-04-18T12:17:40.647+03:00,2025-04-17T15:44:39.500+03:00,7589,1.149553,0,0,6253.948,4,10,2025-04-18T12:16:59.379+03:00,766660660.7359301,0,108.98,100.548,1,0.45,2025-04-18T12:17:36.920+03:00,112,1.866666666666667,2025-04-18T08:51:18.885+03:00,0.03057091307199995,1
2025-04-18T12:17:43.004+03:00,1744967856.981899,40.9536263982903,29.14098580579653,93.69963,-1,-1,-1,-1,30,25.94878961532435,-9999,66050.76900129167,-0.73675537109375,0.6400146484375,-0.17169189453125,66050.75892529167,1.010067597632516,-1.350257419550811,-0.7169591511471847,-0.04324604943394661,0.0174715630710125,0.01450369413942099,0.004150450229644775,-0.01590591669082642,0.005567312240600586,XArbitraryZVertical,0.04348269051946999,-0.6447165934767864,0.5455919235032297,0.5336472148217699,-0.7355500459671021,0.6570954918861389,-0.164899542927742,0,0,0,-1,-1,66048.42023575,unknown,2,2025-04-18T12:17:40.647+03:00,2025-04-17T15:44:39.500+03:00,7589,1.149553,0,0,6253.948,4,10,2025-04-18T12:16:59.379+03:00,766660660.7359301,0,108.98,100.548,1,0.45,2025-04-18T12:17:36.920+03:00,112,1.866666666666667,2025-04-18T08:51:18.885+03:00,0.03057091307199995,1
2025-04-18T12:17:43.016+03:00,1744967856.981899,40.9536263982903,29.14098580579653,93.69963,-1,-1,-1,-1,30,25.94878961532435,-9999,66050.77907629167,-0.7383270263671875,0.6450958251953125,-0.1796417236328125,66050.76900129167,1.009515825224714,-1.350472292650245,-0.7170506850280933,-0.04507777094841003,0.01251169107854366,0.0167415477335453,-0.0008929967880249023,-0.01798897981643677,-0.004598334431648254,XArbitraryZVertical,0.0433292590977785,-0.6447932973931081,0.5454573960034342,0.5337046074189193,-0.7355268597602844,0.6571645140647888,-0.1647283583879471,0,0,0,-1,-1,66048.42023575,unknown,2,2025-04-18T12:17:40.647+03:00,2025-04-17T15:44:39.500+03:00,7589,1.149553,0,0,6253.948,4,10,2025-04-18T12:16:59.379+03:00,766660660.7359301,0,108.98,100.548,1,0.45,2025-04-18T12:17:36.920+03:00,112,1.866666666666667,2025-04-18T08:51:18.885+03:00,0.03057091307199995,1
2025-04-18T12:17:43.031+03:00,1744967856.981899,40.9536263982903,29.14098580579653,93.69963,-1,-1,-1,-1,30,25.94878961532435,-9999,66050.78915129167,-0.747650146484375,0.65606689453125,-0.1719970703125,66050.77907629167,1.008971271379188,-1.35069729549791,-0.7174360686524353,-0.03671245276927948,0.01571847125887871,0.0146620525047183,-0.00270533561706543,-0.0137934684753418,-0.01485948264598846,XArbitraryZVertical,0.04307139048252106,-0.6448961939270274,0.5453804662144722,0.5336796049229144,-0.7353164553642273,0.6574549078941345,-0.1645075082778931,0,0,0,-1,-1,66048.42023575,unknown,2,2025-04-18T12:17:40.647+03:00,2025-04-17T15:44:39.500+03:00,7589,1.149553,0,0,6253.948,4,10,2025-04-18T12:16:59.379+03:00,766660660.7359301,0,108.98,100.548,1,0.45,2025-04-18T12:17:36.920+03:00,112,1.866666666666667,2025-04-18T08:51:18.885+03:00,0.03057091307199995,1
2025-04-18T12:17:43.033+03:00,1744967856.981899,40.9536263982903,29.14098580579653,93.69963,-1,-1,-1,-1,30,25.94878961532435,-9999,66050.79922629167,-0.74725341796875,0.6662445068359375,-0.16851806640625,66050.78915129167,1.008611079569968,-1.350689670146102,-0.7176988620487912,-0.03238162025809288,0.02033612504601479,0.006429156288504601,-0.01065725088119507,-0.002745687961578369,-0.009047508239746094,XArbitraryZVertical,0.04285516547685784,-0.6449230517554205,0.5453344488956601,0.5337115666710452,-0.7351465821266174,0.6576529145240784,-0.1644753813743591,0,0,0,-1,-1,66048.42023575,unknown,2,2025-04-18T12:17:40.647+03:00,2025-04-17T15:44:39.500+03:00,7589,1.149553,0,0,6253.948,4,10,2025-04-18T12:16:59.379+03:00,766660660.7359301,0,108.98,100.548,1,0.45,2025-04-18T12:17:36.920+03:00,112,1.866666666666667,2025-04-18T08:51:18.885+03:00,0.03057091307199995,1
2025-04-18T12:17:43.041+03:00,1744967856.981899,40.9536263982903,29.14098580579653,93.69963,-1,-1,-1,-1,30,25.94878961532435,-9999,66050.80930229167,-0.735382080078125,0.6649169921875,-0.163848876953125,66050.79922629167,1.008229860373061,-1.350753358628842,-0.7177012382618011,-0.02957744337618351,0.01193132251501083,-0.009528039023280144,-0.01331859827041626,0.008574485778808594,-0.004791721701622009,XArbitraryZVertical,0.04274871189674989,-0.6449483981235329,0.545231798798237,0.5337943461024673,-0.7351555228233337,0.6576547026634216,-0.1644282191991806,0,0,0,-1,-1,66048.42023575,unknown,2,2025-04-18T12:17:40.647+03:00,2025-04-17T15:44:39.500+03:00,7589,1.149553,0,0,6253.948,4,10,2025-04-18T12:16:59.379+03:00,766660660.7359301,0,108.98,100.548,1,0.45,2025-04-18T12:17:36.920+03:00,112,1.866666666666667,2025-04-18T08:51:18.885+03:00,0.03057091307199995,1
2025-04-18T12:17:43.051+03:00,1744967856.981899,40.9536263982903,29.14098580579653,93.69963,-1,-1,-1,-1,30,25.94878961532435,-9999,66050.81937729167,-0.733612060546875,0.67578125,-0.161834716796875,66050.80930229167,1.007891852808528,-1.350793440402555,-0.7177107086841458,-0.0183855090290308,0.02042867057025433,-0.01221889723092318,-0.001614570617675781,0.007087290287017822,0.0002739578485488892,XArbitraryZVertical,0.04264709255532577,-0.6449670710044838,0.5451425178350587,0.5338711270657238,-0.7351560592651367,0.6576618552207947,-0.1643974035978317,0,0,0,-1,-1,66048.42023575,unknown,2,2025-04-18T12:17:40.647+03:00,2025-04-17T15:44:39.500+03:00,7589,1.149553,0,0,6253.948,4,10,2025-04-18T12:16:59.379+03:00,766660660.7359301,0,108.98,100.548,1,0.45,2025-04-18T12:17:36.920+03:00,112,1.866666666666667,2025-04-18T08:51:18.885+03:00,0.03057091307199995,1
2025-04-18T12:17:43.061+03:00,1744967856.981899,40.9536263982903,29.14098580579653,93.69963,-1,-1,-1,-1,30,25.94878961532435,-9999,66050.82945229167,-0.7281646728515625,0.6747894287109375,-0.1643829345703125,66050.81937729167,1.007695954712383,-1.350717955293762,-0.7176449350664031,-0.009412587620317936,0.01906906068325043,-0.009809168986976147,0.001192331314086914,0.01702451705932617,0.00299389660358429,XArbitraryZVertical,0.04258787757680928,-0.6449458132430678,0.54507932364612,0.5339660510573977,-0.7351858615875244,0.6576122641563416,-0.1644623428583145,0,0,0,-1,-1,66048.42023575,unknown,2,2025-04-18T12:17:40.647+03:00,2025-04-17T15:44:39.500+03:00,7589,1.149553,0,0,6253.948,4,10,2025-04-18T12:16:59.379+03:00,766660660.7359301,0,108.98,100.548,1,0.45,2025-04-18T12:17:36.920+03:00,112,1.866666666666667,2025-04-18T08:51:18.885+03:00,0.03057091307199995,1
2025-04-18T12:17:43.071+03:00,1744967856.981899,40.9536263982903,29.14098580579653,93.69963,-1,-1,-1,-1,30,25.94878961532435,-9999,66050.83952729167,-0.72186279296875,0.6632232666015625,-0.1685028076171875,66050.82945229167,1.00749720507879,-1.350677157635693,-0.7175436005055366,-0.01473251823335886,0.01561946794390678,-0.01096764393150806,0.005782544612884521,0.01850473880767822,0.0008411407470703125,XArbitraryZVertical,0.04255045718708012,-0.6449310147540211,0.5450078511449433,0.5340598749532602,-0.7352442145347595,0.6575359702110291,-0.1645068824291229,0,0,0,-1,-1,66048.42023575,unknown,2,2025-04-18T12:17:40.647+03:00,2025-04-17T15:44:39.500+03:00,7589,1.149553,0,0,6253.948,4,10,2025-04-18T12:16:59.379+03:00,766660660.7359301,0,108.98,100.548,1,0.45,2025-04-18T12:17:36.920+03:00,112,1.866666666666667,2025-04-18T08:51:18.885+03:00,0.03057091307199995,1
2025-04-18T12:17:43.081+03:00,1744967856.981899,40.9536263982903,29.14098580579653,93.69963,-1,-1,-1,-1,30,25.94878961532435,-9999,66050.84960329167,-0.72540283203125,0.652801513671875,-0.1743621826171875,66050.83952729167,1.007214729083385,-1.350702118899209,-0.7174984483373007,-0.02090838924050331,0.02032766863703728,-0.003872716333717108,0.01275843381881714,0.006606400012969971,-0.003580451011657715,XArbitraryZVertical,0.0424829733986495,-0.6449400556619774,0.5449232804124613,0.5341407162000674,-0.7352774143218994,0.6575019359588623,-0.1644950360059738,0,0,0,-1,-1,66048.42023575,unknown,2,2025-04-18T12:17:40.647+03:00,2025-04-17T15:44:39.500+03:00,7589,1.149553,0,0,6253.948,4,10,2025-04-18T12:16:59.379+03:00,766660660.7359301,0,108.98,100.548,1,0.45,2025-04-18T12:17:36.920+03:00,112,1.866666666666667,2025-04-18T08:51:18.885+03:00,0.03057091307199995,1
2025-04-18T12:17:43.091+03:00,1744967856.981899,40.9536263982903,29.14098580579653,93.69963,-1,-1,-1,-1,30,25.94878961532435,-9999,66050.85967829167,-0.728271484375,0.64532470703125,-0.1724090576171875,66050.84960329167,1.006938014307246,-1.350672126457813,-0.7174625903449241,-0.02605574578046799,0.01493583433330059,-0.005309757776558399,0.01123529672622681,-0.003681540489196777,-0.009321093559265137,XArbitraryZVertical,0.04239898118695046,-0.6449350480922962,0.5448432023454201,0.5342350258152619,-0.7352953553199768,0.6574749350547791,-0.1645222157239914,0,0,0,-1,-1,66048.42023575,unknown,2,2025-04-18T12:17:40.647+03:00,2025-04-17T15:44:39.500+03:00,7589,1.149553,0,0,6253.948,4,10,2025-04-18T12:16:59.379+03:00,766660660.7359301,0,108.98,100.548,1,0.45,2025-04-18T12:17:36.920+03:00,112,1.866666666666667,2025-04-18T08:51:18.885+03:00,0.03057091307199995,1
2025-04-18T12:17:43.101+03:00,1744967856.981899,40.9536263982903,29.14098580579653,93.69963,-1,-1,-1,-1,30,25.94878961532435,-9999,66050.86975329167,-0.728271484375,0.6428070068359375,-0.164154052734375,66050.85967829167,1.006588644274156,-1.350797795687947,-0.7174039595585147,-0.02966739237308502,-0.001119432039558887,-0.006464571226388216,0.007036328315734863,-0.01202976703643799,-0.008810028433799744,XArbitraryZVertical,0.04234245983109049,-0.6449713295635932,0.544736071956806,0.534304846861495,-0.7353535294532776,0.6574307084083557,-0.1644382029771805,0,0,0,-1,-1,66048.42023575,unknown,2,2025-04-18T12:17:40.647+03:00,2025-04-17T15:44:39.500+03:00,7589,1.149553,0,0,6253.948,4,10,2025-04-18T12:16:59.379+03:00,766660660.7359301,0,108.98,100.548,1,0.45,2025-04-18T12:17:36.920+03:00,112,1.866666666666667,2025-04-18T08:51:18.885+03:00,0.03057091307199995,1
2025-04-18T12:17:43.112+03:00,1744967856.981899,40.9536263982903,29.14098580579653,93.69963,-1,-1,-1,-1,30,25.94878961532435,-9999,66050.87982829167,-0.7397613525390625,0.6418609619140625,-0.1647186279296875,66050.86975329167,1.006159079198065,-1.351116411895132,-0.7173537185053558,-0.03981802985072136,-0.00691234041005373,-0.0111866220831871,0.007181942462921143,-0.01408237218856812,-0.001087293028831482,XArbitraryZVertical,0.04230942819049992,-0.6450615195260685,0.5446049991181202,0.5343322108589225,-0.7354381680488586,0.6573928594589233,-0.164211094379425,0,0,0,-1,-1,66048.42023575,unknown,2,2025-04-18T12:17:40.647+03:00,2025-04-17T15:44:39.500+03:00,7589,1.149553,0,0,6253.948,4,10,2025-04-18T12:16:59.379+03:00,766660660.7359301,0,108.98,100.548,1,0.45,2025-04-18T12:17:36.920+03:00,112,1.866666666666667,2025-04-18T08:51:18.885+03:00,0.03057091307199995,1
2025-04-18T12:17:43.122+03:00,1744967856.981899,40.9536263982903,29.14098580579653,93.69963,-1,-1,-1,-1,30,25.94878961532435,-9999,66050.88990429167,-0.739593505859375,0.641357421875,-0.164337158203125,66050.87982829167,1.005509135993266,-1.351594740600376,-0.7173413040731341,-0.05508599802851677,-0.005158448591828346,-0.01083684898912907,-0.00235980749130249,-0.0159040093421936,-0.0003539323806762695,XArbitraryZVertical,0.04223458660096255,-0.6452020516928565,0.5444188538270793,0.5343582778731371,-0.7355247139930725,0.6573835015296936,-0.1638611108064651,0,0,0,-1,-1,66048.42023575,unknown,2,2025-04-18T12:17:40.647+03:00,2025-04-17T15:44:39.500+03:00,7589,1.149553,0,0,6253.948,4,10,2025-04-18T12:16:59.379+03:00,766660660.7359301,0,108.98,100.548,1,0.45,2025-04-18T12:17:36.920+03:00,112,1.866666666666667,2025-04-18T08:51:18.885+03:00,0.03057091307199995,1
2025-04-18T12:17:43.131+03:00,1744967856.981899,40.9536263982903,29.14098580579653,93.69963,-1,-1,-1,-1,30,25.94878961532435,-9999,66050.89997929167,-0.731109619140625,0.64202880859375,-0.170074462890625,66050.88990429167,1.00467182953882,-1.352178472657853,-0.7174007400671935,-0.06714745610952377,-0.002174642402678728,-0.008079146035015583,-0.005094826221466064,-0.01494169235229492,-0.0005171298980712891,XArbitraryZVertical,0.0421011345855369,-0.6453804068162631,0.5441941695204396,0.5343822827427082,-0.7355821132659912,0.6574283242225647,-0.1634232550859451,0,0,0,-1,-1,66048.42023575,unknown,2,2025-04-18T12:17:40.647+03:00,2025-04-17T15:44:39.500+03:00,7589,1.149553,0,0,6253.948,4,10,2025-04-18T12:16:59.379+03:00,766660660.7359301,0,108.98,100.548,1,0.45,2025-04-18T12:17:36.920+03:00,112,1.866666666666667,2025-04-18T08:51:18.885+03:00,0.03057091307199995,1
2025-04-18T12:17:43.142+03:00,1744967856.981899,40.9536263982903,29.14098580579653,93.69963,-1,-1,-1,-1,30,25.94878961532435,-9999,66050.91005429167,-0.7284698486328125,0.667266845703125,-0.179840087890625,66050.89997929167,1.003771083442453,-1.352770850544692,-0.7175299434996443,-0.06439068913459778,0.002613321645185351,-0.008623163215816021,0.003738582134246826,-0.01647335290908813,-0.005457356572151184,XArbitraryZVertical,0.04192335242270035,-0.6455678636597167,0.5439657024444275,0.5344025531412552,-0.7355959415435791,0.6575256586074829,-0.1629691272974014,0,0,0,-1,-1,66048.42023575,unknown,2,2025-04-18T12:17:40.647+03:00,2025-04-17T15:44:39.500+03:00,7589,1.149553,0,0,6253.948,4,10,2025-04-18T12:16:59.379+03:00,766660660.7359301,0,108.98,100.548,1,0.45,2025-04-18T12:17:36.920+03:00,112,1.866666666666667,2025-04-18T08:51:18.885+03:00,0.03057091307199995,1
2025-04-18T12:17:43.152+03:00,1744967856.981899,40.9536263982903,29.14098580579653,93.69963,-1,-1,-1,-1,30,25.94878961532435,-9999,66050.92012929167,-0.7266387939453125,0.68157958984375,-0.179443359375,66050.91005429167,1.003032132335354,-1.353232106202441,-0.7176191923316133,-0.04527425020933151,0.001006902661174536,-0.01149005629122257,0.006823360919952393,0.006057679653167725,-0.01578857004642487,XArbitraryZVertical,0.0417769502985223,-0.6457136449585437,0.5437756550900118,0.5344313097949083,-0.7356137633323669,0.6575928926467896,-0.1626171469688416,0,0,0,-1,-1,66048.42023575,unknown,2,2025-04-18T12:17:40.647+03:00,2025-04-17T15:44:39.500+03:00,7589,1.149553,0,0,6253.948,4,10,2025-04-18T12:16:59.379+03:00,766660660.7359301,0,108.98,100.548,1,0.45,2025-04-18T12:17:36.920+03:00,112,1.866666666666667,2025-04-18T08:51:18.885+03:00,0.03057091307199995,1
2025-04-18T12:17:43.162+03:00,1744967856.981899,40.9536263982903,29.14098580579653,93.69963,-1,-1,-1,-1,30,25.94878961532435,-9999,66050.93020429167,-0.729736328125,0.6750335693359375,-0.1749725341796875,66050.92012929167,1.002512197977993,-1.353535812719155,-0.7176093412771208,-0.0279974564909935,0.002088478766381741,-0.01529501471668482,0.009000003337860107,0.02364325523376465,-0.0173075944185257,XArbitraryZVertical,0.04169531807165289,-0.6458048765904721,0.5436284957327447,0.5344771400069284,-0.7356694340705872,0.6575855016708374,-0.1623951196670532,0,0,0,-1,-1,66048.42023575,unknown,2,2025-04-18T12:17:40.647+03:00,2025-04-17T15:44:39.500+03:00,7589,1.149553,0,0,6253.948,4,10,2025-04-18T12:16:59.379+03:00,766660660.7359301,0,108.98,100.548,1,0.45,2025-04-18T12:17:36.920+03:00,112,1.866666666666667,2025-04-18T08:51:18.885+03:00,0.03057091307199995,1
2025-04-18T12:17:43.172+03:00,1744967856.981899,40.9536263982903,29.14098580579653,93.69963,-1,-1,-1,-1,30,25.94878961532435,-9999,66050.94028029167,-0.735107421875,0.6655120849609375,-0.17333984375,66050.93020429167,1.002242972146635,-1.353634111946183,-0.7174827844847012,-0.01296684239059687,0.00311672524549067,-0.02050735242664814,0.00657951831817627,0.01859641075134277,-0.01322682201862335,XArbitraryZVertical,0.04168229457902699,-0.6458267708045772,0.5435302726972148,0.5345515917477155,-0.7357666492462158,0.6574901342391968,-0.1623407304286957,0,0,0,-1,-1,66048.42023575,unknown,2,2025-04-18T12:17:40.647+03:00,2025-04-17T15:44:39.500+03:00,7589,1.149553,0,0,6253.948,4,10,2025-04-18T12:16:59.379+03:00,766660660.7359301,0,108.98,100.548,1,0.45,2025-04-18T12:17:36.920+03:00,112,1.866666666666667,2025-04-18T08:51:18.885+03:00,0.03057091307199995,1
2025-04-18T12:17:43.182+03:00,1744967856.981899,40.9536263982903,29.14098580579653,93.69963,-1,-1,-1,-1,30,25.94878961532435,-9999,66050.95035529167,-0.7447052001953125,0.6567230224609375,-0.149200439453125,66050.94028029167,1.00210883997635,-1.35365167260982,-0.7172503784603034,-0.004348986316472292,0.005598924588412046,-0.02268189005553722,0.001604557037353516,0.00917363166809082,-0.01241342723369598,XArbitraryZVertical,0.04173047546209496,-0.6458159324651044,0.5434495834893689,0.5346428213980096,-0.7359185218811035,0.6573150157928467,-0.1623606979846954,0,0,0,-1,-1,66048.42023575,unknown,2,2025-04-18T12:17:40.647+03:00,2025-04-17T15:44:39.500+03:00,7589,1.149553,0,0,6253.948,4,10,2025-04-18T12:16:59.379+03:00,766660660.7359301,0,108.98,100.548,1,0.45,2025-04-18T12:17:36.920+03:00,112,1.866666666666667,2025-04-18T08:51:18.885+03:00,0.03057091307199995,1
2025-04-18T12:17:43.192+03:00,1744967856.981899,40.9536263982903,29.14098580579653,93.69963,-1,-1,-1,-1,30,25.94878961532435,-9999,66050.96043029167,-0.748748779296875,0.636810302734375,-0.1370086669921875,66050.95035529167,1.001997538385565,-1.353599456633735,-0.7170862600247061,-0.008979424834251404,0.02057867310941219,-0.007569517008960247,-0.00771331787109375,0.001164436340332031,0.008903801441192627,XArbitraryZVertical,0.04174155002468161,-0.6457913425454385,0.5433894896856959,0.5347327362566893,-0.7360153794288635,0.6571913361549377,-0.1624223738908768,0,0,0,-1,-1,66048.42023575,unknown,2,2025-04-18T12:17:40.647+03:00,2025-04-17T15:44:39.500+03:00,7589,1.149553,0,0,6253.948,4,10,2025-04-18T12:16:59.379+03:00,766660660.7359301,0,108.98,100.548,1,0.45,2025-04-18T12:17:36.920+03:00,112,1.866666666666667,2025-04-18T08:51:18.885+03:00,0.03057091307199995,1
2025-04-18T12:17:43.202+03:00,1744967856.981899,40.9536263982903,29.14098580579653,93.69963,-1,-1,-1,-1,30,25.94878961532435,-9999,66050.97050529167,-0.7445068359375,0.634674072265625,-0.1499176025390625,66050.96043029167,1.001819891032153,-1.353403472489646,-0.7170865171954044,-0.02075478993356228,0.03695638105273247,0.01064707059413195,-0.01183468103408813,-0.01890110969543457,0.02610726654529572,XArbitraryZVertical,0.04163086992207773,-0.6457426644798407,0.5433461315187741,0.5348441437011086,-0.7359833121299744,0.6571915149688721,-0.1625665575265884,0,0,0,-1,-1,66048.42023575,unknown,2,2025-04-18T12:17:40.647+03:00,2025-04-17T15:44:39.500+03:00,7589,1.149553,0,0,6253.948,4,10,2025-04-18T12:16:59.379+03:00,766660660.7359301,0,108.98,100.548,1,0.45,2025-04-18T12:17:36.920+03:00,112,1.866666666666667,2025-04-18T08:51:18.885+03:00,0.03057091307199995,1
2025-04-18T12:17:43.212+03:00,1744967856.981899,40.9536263982903,29.14098580579653,93.69963,-1,-1,-1,-1,30,25.94878961532435,-9999,66050.98058129167,-0.731536865234375,0.6484832763671875,-0.1614837646484375,66050.97050529167,1.001539139257787,-1.353185019741493,-0.7172384470299946,-0.02878795005381107,0.04435278102755547,0.01826504431664944,-0.009343087673187256,-0.02345585823059082,0.01495504379272461,XArbitraryZVertical,0.0414241607399399,-0.6457020454202705,0.5433046466540045,0.5349515052765813,-0.73585045337677,0.6573060154914856,-0.1627058088779449,0,0,0,-1,-1,66048.42023575,unknown,2,2025-04-18T12:17:40.647+03:00,2025-04-17T15:44:39.500+03:00,7589,1.149553,0,0,6253.948,4,10,2025-04-18T12:16:59.379+03:00,766660660.7359301,0,108.98,100.548,1,0.45,2025-04-18T12:17:36.920+03:00,112,1.866666666666667,2025-04-18T08:51:18.885+03:00,0.03057091307199995,1
2025-04-18T12:17:43.222+03:00,1744967856.981899,40.9536263982903,29.14098580579653,93.69963,-1,-1,-1,-1,30,25.94878961532435,-9999,66050.99065629167,-0.714691162109375,0.6601715087890625,-0.175689697265625,66050.98058129167,1.001204108764765,-1.352991259157584,-0.7174509692357596,-0.0357234850525856,0.03227227926254272,0.01846777461469173,0.002543449401855469,-0.01035606861114502,0.003119811415672302,XArbitraryZVertical,0.04118405587233057,-0.6456738809029186,0.5432596983431851,0.5350497744905568,-0.7356826066970825,0.6574661731719971,-0.1628182232379913,0,0,0,-1,-1,66048.42023575,unknown,2,2025-04-18T12:17:40.647+03:00,2025-04-17T15:44:39.500+03:00,7589,1.149553,0,0,6253.948,4,10,2025-04-18T12:16:59.379+03:00,766660660.7359301,0,108.98,100.548,1,0.45,2025-04-18T12:17:36.920+03:00,112,1.866666666666667,2025-04-18T08:51:18.885+03:00,0.03057091307199995,1
2025-04-18T12:17:43.232+03:00,1744967856.981899,40.9536263982903,29.14098580579653,93.69963,-1,-1,-1,-1,30,25.94878961532435,-9999,66051.00073129167,-0.703765869140625,0.6673583984375,-0.1815185546875,66050.99065629167,1.000836026513408,-1.352963912040437,-0.7177038995956668,-0.03859144449234009,0.009998932480812073,0.01108149904757738,0.01903915405273438,0.001370429992675781,-0.01119351387023926,XArbitraryZVertical,0.04096347783373505,-0.6456940478273863,0.5432102226314521,0.535092518696807,-0.7355156540870667,0.657656729221344,-0.1628023833036423,0,0,0,-1,-1,66048.42023575,unknown,2,2025-04-18T12:17:40.647+03:00,2025-04-17T15:44:39.500+03:00,7589,1.149553,0,0,6253.948,4,10,2025-04-18T12:16:59.379+03:00,766660660.7359301,0,108.98,100.548,1,0.45,2025-04-18T12:17:36.920+03:00,112,1.866666666666667,2025-04-18T08:51:18.885+03:00,0.03057091307199995,1
2025-04-18T12:17:43.242+03:00,1744967856.981899,40.9536263982903,29.14098580579653,93.69963,-1,-1,-1,-1,30,25.94878961532435,-9999,66051.01080629167,-0.706329345703125,0.6621856689453125,-0.1816558837890625,66051.00073129167,1.000483970028153,-1.353093203986428,-0.7179297431901128,-0.02957804314792156,-0.003143034875392914,0.004583219066262245,0.03095436096191406,0.009653687477111816,-0.01888906955718994,XArbitraryZVertical,0.04080069631752412,-0.6457535984920273,0.5431566397623923,0.5350874394265865,-0.7353916168212891,0.657826840877533,-0.1626751869916916,0,0,0,-1,-1,66048.42023575,unknown,2,2025-04-18T12:17:40.647+03:00,2025-04-17T15:44:39.500+03:00,7589,1.149553,0,0,6253.948,4,10,2025-04-18T12:16:59.379+03:00,766660660.7359301,0,108.98,100.548,1,0.45,2025-04-18T12:17:36.920+03:00,112,1.866666666666667,2025-04-18T08:51:18.885+03:00,0.03057091307199995,1
2025-04-18T12:17:43.252+03:00,1744967856.981899,40.9536263982903,29.14098580579653,93.69963,-1,-1,-1,-1,30,25.94878961532435,-9999,66051.02088179167,-0.716583251953125,0.662353515625,-0.1749267578125,66051.01080629167,1.000104982837118,-1.353433497843533,-0.7180404681301109,-0.03733556717634201,-0.02210394293069839,-0.007782370317727327,0.02964144945144653,0.00516045093536377,-0.01889567077159882,XArbitraryZVertical,0.04072945769805626,-0.645861062883805,0.5430695348066937,0.5350514924104631,-0.735375702381134,0.6579102277755737,-0.1624092012643814,0,0,0,-1,-1,66048.42023575,unknown,2,2025-04-18T12:17:40.647+03:00,2025-04-17T15:44:39.500+03:00,7589,1.149553,0,0,6253.948,4,10,2025-04-18T12:16:59.379+03:00,766660660.7359301,0,108.98,100.548,1,0.45,2025-04-18T12:17:36.920+03:00,112,1.866666666666667,2025-04-18T08:51:18.885+03:00,0.03057091307199995,1
2025-04-18T12:17:43.262+03:00,1744967856.981899,40.9536263982903,29.14098580579653,93.69963,-1,-1,-1,-1,30,25.94878961532435,-9999,66051.03095679167,-0.7414093017578125,0.6537017822265625,-0.154510498046875,66051.02088179167,0.999671835086459,-1.353959248827353,-0.7180031714483487,-0.02804326266050339,-0.03104923479259014,-0.01605414785444736,0.02059537172317505,0.004410326480865479,-0.01511137187480927,XArbitraryZVertical,0.04074623656863123,-0.6460076122523236,0.5429358115892541,0.5350089595956277,-0.7354848980903625,0.6578821539878845,-0.1620278209447861,0,0,0,-1,-1,66048.42023575,unknown,2,2025-04-18T12:17:40.647+03:00,2025-04-17T15:44:39.500+03:00,7589,1.149553,0,0,6253.948,4,10,2025-04-18T12:16:59.379+03:00,766660660.7359301,0,108.98,100.548,1,0.45,2025-04-18T12:17:36.920+03:00,112,1.866666666666667,2025-04-18T08:51:18.885+03:00,0.03057091307199995,1
2025-04-18T12:17:43.273+03:00,1744967863.226054,40.95360060295836,29.14095643076388,93.25933,-1,-1,-1,-1,30,25.81347138848038,-9999,66051.04103179167,-0.764892578125,0.6505126953125,-0.1394195556640625,66051.03095679167,0.999305641185033,-1.354534689605415,-0.7178738625096763,-0.01596343144774437,-0.02908595092594624,-0.0181463286280632,-0.002497971057891846,-0.002602815628051758,0.004655778408050537,XArbitraryZVertical,0.04083230117469089,-0.6461588772909344,0.5428012874114123,0.5349563850912258,-0.7356612682342529,0.6577847599983215,-0.1616228520870209,0,0,0,-1,-1,66048.42023575,unknown,2,2025-04-18T12:17:40.647+03:00,2025-04-17T15:44:39.500+03:00,7589,1.149553,0,0,6253.948,4,10,2025-04-18T12:16:59.379+03:00,766660660.7359301,0,108.98,100.548,1,0.45,2025-04-18T12:17:36.920+03:00,112,1.866666666666667,2025-04-18T08:51:18.885+03:00,0.03057091307199995,1
2025-04-18T12:17:43.283+03:00,1744967863.226054,40.95360060295836,29.14095643076388,93.25933,-1,-1,-1,-1,30,25.81347138848038,-9999,66051.05110679167,-0.7615509033203125,0.65411376953125,-0.1429290771484375,66051.04103179167,0.9990067028758433,-1.355064491865414,-0.7176367718012322,-0.006314798723906279,-0.02187917195260525,-0.02062413282692432,-0.02681159973144531,-0.007490158081054688,0.0212213397026062,XArbitraryZVertical,0.04096793427710008,-0.6462881790517971,0.5426649888122342,0.534928009394233,-0.735899031162262,0.6576061248779297,-0.1612664312124252,0,0,0,-1,-1,66048.42023575,unknown,2,2025-04-18T12:17:40.647+03:00,2025-04-17T15:44:39.500+03:00,7589,1.149553,0,0,6253.948,4,10,2025-04-18T12:16:59.379+03:00,766660660.7359301,0,108.98,100.548,1,0.45,2025-04-18T12:17:36.920+03:00,112,1.866666666666667,2025-04-18T08:51:18.885+03:00,0.03057091307199995,1
2025-04-18T12:17:43.293+03:00,1744967863.226054,40.95360060295836,29.14095643076388,93.25933,-1,-1,-1,-1,30,25.81347138848038,-9999,66051.06118279167,-0.745880126953125,0.652191162109375,-0.1480560302734375,66051.05110679167,0.9987977716765937,-1.355452186239863,-0.7173611830518773,-0.008416298776865005,-0.01824608817696571,-0.02091708034276962,-0.02793014049530029,-0.002933800220489502,0.0192047506570816,XArbitraryZVertical,0.04110837151082933,-0.6463746475729465,0.542548199106245,0.5349312019689852,-0.7361384630203247,0.657398521900177,-0.1610198318958282,0,0,0,-1,-1,66048.42023575,unknown,2,2025-04-18T12:17:40.647+03:00,2025-04-17T15:44:39.500+03:00,7589,1.149553,0,0,6253.948,4,10,2025-04-18T12:16:59.379+03:00,766660660.7359301,0,108.98,100.548,1,0.45,2025-04-18T12:17:36.920+03:00,112,1.866666666666667,2025-04-18T08:51:18.885+03:00,0.03057091307199995,1
2025-04-18T12:17:43.303+03:00,1744967863.226054,40.95360060295836,29.14095643076388,93.25933,-1,-1,-1,-1,30,25.81347138848038,-9999,66051.07125779167,-0.730194091796875,0.659698486328125,-0.15625,66051.06118279167,0.9985273207162662,-1.355793895115224,-0.7171793302635122,-0.02174275740981102,-0.0165384691208601,-0.0194611307233572,-0.01144671440124512,-0.005360186100006104,0.01343971490859985,XArbitraryZVertical,0.04118142637718213,-0.6464574157350067,0.5424338516775267,0.5349415959429478,-0.7363103032112122,0.6572614312171936,-0.1607937961816788,0,0,0,-1,-1,66048.42023575,unknown,2,2025-04-18T12:17:40.647+03:00,2025-04-17T15:44:39.500+03:00,7589,1.149553,0,0,6253.948,4,10,2025-04-18T12:16:59.379+03:00,766660660.7359301,0,108.98,100.548,1,0.45,2025-04-18T12:17:36.920+03:00,112,1.866666666666667,2025-04-18T08:51:18.885+03:00,0.03057091307199995,1
2025-04-18T12:17:43.313+03:00,1744967863.226054,40.95360060295836,29.14095643076388,93.25933,-1,-1,-1,-1,30,25.81347138848038,-9999,66051.08133279167,-0.720550537109375,0.65948486328125,-0.1671600341796875,66051.07125779167,0.9981223094431459,-1.356198905597372,-0.7170699942457514,-0.03750094771385193,-0.0210671741515398,-0.02180417999625206,0.004069507122039795,0.001664996147155762,0.00549691915512085,XArbitraryZVertical,0.04120107048236951,-0.6465655607315789,0.5422961281417586,0.5349490948536247,-0.7364456653594971,0.657179057598114,-0.1605108976364136,0,0,0,-1,-1,66048.42023575,unknown,2,2025-04-18T12:17:40.647+03:00,2025-04-17T15:44:39.500+03:00,7589,1.149553,0,0,6253.948,4,10,2025-04-18T12:16:59.379+03:00,766660660.7359301,0,108.98,100.548,1,0.45,2025-04-18T12:17:36.920+03:00,112,1.866666666666667,2025-04-18T08:51:18.885+03:00,0.03057091307199995,1
2025-04-18T12:17:43.323+03:00,1744967863.226054,40.95360060295836,29.14095643076388,93.25933,-1,-1,-1,-1,30,25.81347138848038,-9999,66051.09140779167,-0.72381591796875,0.6566925048828125,-0.1717681884765625,66051.08133279167,0.9976715822338895,-1.356631241348818,-0.7170443333527875,-0.03778304532170296,-0.01947653293609619,-0.01460116077214479,0.01561450958251953,0.003591656684875488,-0.005346536636352539,XArbitraryZVertical,0.04118217780065157,-0.646688495083744,0.5421617505474785,0.5349380187106594,-0.7365313172340393,0.657159686088562,-0.1601960361003876,0,0,0,-1,-1,66048.42023575,unknown,2,2025-04-18T12:17:40.647+03:00,2025-04-17T15:44:39.500+03:00,7589,1.149553,0,0,6253.948,4,10,2025-04-18T12:16:59.379+03:00,766660663.3114082,0,108.98,100.5478,1,0.45,2025-04-18T12:17:36.920+03:00,112,1.866666666666667,2025-04-18T08:51:18.885+03:00,0.03057091307199995,1
2025-04-18T12:17:43.334+03:00,1744967863.226054,40.95360060295836,29.14095643076388,93.25933,-1,-1,-1,-1,30,25.81347138848038,-9999,66051.10148279167,-0.724365234375,0.662445068359375,-0.1717987060546875,66051.09140779167,0.9972658034286558,-1.357012743524971,-0.7171001052519196,-0.03105110488831997,-0.02285528555512428,-0.007755771744996309,0.01382404565811157,-0.001043319702148438,-0.01170824468135834,XArbitraryZVertical,0.0411335873469315,-0.6468032165803032,0.54205612123978,0.5349100744175431,-0.7365565299987793,0.6572017669677734,-0.1599072515964508,0,0,0,-1,-1,66048.42023575,unknown,2,2025-04-18T12:17:40.647+03:00,2025-04-17T15:44:39.500+03:00,7589,1.149553,0,0,6253.948,4,10,2025-04-18T12:16:59.379+03:00,766660663.3114082,0,108.98,100.5478,1,0.45,2025-04-18T12:17:36.920+03:00,112,1.866666666666667,2025-04-18T08:51:18.885+03:00,0.03057091307199995,1
2025-04-18T12:17:43.344+03:00,1744967863.226054,40.95360060295836,29.14095643076388,93.25933,-1,-1,-1,-1,30,25.81347138848038,-9999,66051.11155879167,-0.7255096435546875,0.6613311767578125,-0.170166015625,66051.10148279167,0.9970294591360108,-1.357359379783323,-0.7171504552019896,-0.01532600447535515,-0.02709297463297844,-0.005482797045260668,0.01120728254318237,0.004244089126586914,-0.01261144876480103,XArbitraryZVertical,0.04113231020214166,-0.6469046843156184,0.5419954866409147,0.5348489357678736,-0.7365795969963074,0.6572396755218506,-0.1596449315547943,0,0,0,-1,-1,66048.42023575,unknown,2,2025-04-18T12:17:40.647+03:00,2025-04-17T15:44:39.500+03:00,7589,1.149553,0,0,6253.948,4,10,2025-04-18T12:16:59.379+03:00,766660663.3114082,0,108.98,100.5478,1,0.45,2025-04-18T12:17:36.920+03:00,112,1.866666666666667,2025-04-18T08:51:18.885+03:00,0.03057091307199995,1
2025-04-18T12:17:43.354+03:00,1744967863.226054,40.95360060295836,29.14095643076388,93.25933,-1,-1,-1,-1,30,25.81347138848038,-9999,66051.12163379167,-0.7387237548828125,0.655426025390625,-0.1673431396484375,66051.11155879167,0.9968459303840047,-1.35775921495051,-0.7170933473326487,-0.006094688549637794,-0.02764185145497322,-0.009220276959240437,0.01205539703369141,0.004729568958282471,-0.01158581674098969,XArbitraryZVertical,0.04120258506587498,-0.6470109590245777,0.5419271674480276,0.5347841782198327,-0.7366800308227539,0.6571966409683228,-0.159358337521553,0,0,0,-1,-1,66048.42023575,unknown,2,2025-04-18T12:17:40.647+03:00,2025-04-17T15:44:39.500+03:00,7589,1.149553,0,0,6253.948,4,10,2025-04-18T12:16:59.379+03:00,766660663.3114082,0,108.98,100.5478,1,0.45,2025-04-18T12:17:36.920+03:00,112,1.866666666666667,2025-04-18T08:51:18.885+03:00,0.03057091307199995,1
2025-04-18T12:17:43.363+03:00,1744967863.226054,40.95360060295836,29.14095643076388,93.25933,-1,-1,-1,-1,30,25.81347138848038,-9999,66051.13170879167,-0.7489471435546875,0.65118408203125,-0.159088134765625,66051.12163379167,0.9965970545303952,-1.35827853647516,-0.7169220368588431,-0.01422511972486973,-0.02623923309147358,-0.0138795105740428,0.0003309249877929688,-0.001137971878051758,-0.009762629866600037,XArbitraryZVertical,0.0413266357765792,-0.6471416964926892,0.5418168508462509,0.5347281409842388,-0.736872673034668,0.6570675373077393,-0.1589994728565216,0,0,0,-1,-1,66048.42023575,unknown,2,2025-04-18T12:17:40.647+03:00,2025-04-17T15:44:39.500+03:00,7589,1.149553,0,0,6253.948,4,10,2025-04-18T12:16:59.379+03:00,766660663.3114082,0,108.98,100.5478,1,0.45,2025-04-18T12:17:36.920+03:00,112,1.866666666666667,2025-04-18T08:51:18.885+03:00,0.03057091307199995,1
