loggingTime(txt),locationTimestamp_since1970(s),locationLatitude(WGS84),locationLongitude(WGS84),locationAltitude(m),locationSpeed(m/s),locationSpeedAccuracy(m/s),locationCourse(°),locationCourseAccuracy(°),locationVerticalAccuracy(m),locationHorizontalAccuracy(m),locationFloor(Z),accelerometerTimestamp_sinceReboot(s),accelerometerAccelerationX(G),accelerometerAccelerationY(G),accelerometerAccelerationZ(G),motionTimestamp_sinceReboot(s),motionYaw(rad),motionRoll(rad),motionPitch(rad),motionRotationRateX(rad/s),motionRotationRateY(rad/s),motionRotationRateZ(rad/s),motionUserAccelerationX(G),motionUserAccelerationY(G),motionUserAccelerationZ(G),motionAttitudeReferenceFrame(txt),motionQuaternionX(R),motionQuaternionY(R),motionQuaternionZ(R),motionQuaternionW(R),motionGravityX(G),motionGravityY(G),motionGravityZ(G),motionMagneticFieldX(µT),motionMagneticFieldY(µT),motionMagneticFieldZ(µT),motionHeading(°),motionMagneticFieldCalibrationAccuracy(Z),activityTimestamp_sinceReboot(s),activity(txt),activityActivityConfidence(Z),activityActivityStartDate(txt),pedometerStartDate(txt),pedometerNumberofSteps(N),pedometerAverageActivePace(s/m),pedometerCurrentPace(s/m),pedometerCurrentCadence(steps/s),pedometerDistance(m),pedometerFloorAscended(N),pedometerFloorDescended(N),pedometerEndDate(txt),altimeterTimestamp_sinceReboot(s),altimeterReset(bool),altimeterRelativeAltitude(m),altimeterPressure(kPa),batteryState(N),batteryLevel(R),heartRateBPMTimestamp(txt),heartRateBPM(N),heartRateBPS(R),heartRateVariabilityTimestamp(txt),heartRateVariability(ms),label
2025-04-22T12:25:58.824+03:00,1745313958.242182,40.95219108736872,29.14026335014715,76.62879,-1,-1,-1,-1,30,21.38793351532817,-9999,30239.2458145,-0.6051788330078125,0.47393798828125,-0.541015625,30239.2357385,-0.7097891358584063,-0.8541919118771177,-0.4961836793746583,0.04427109658718109,-0.08145242929458618,-0.03451735526323318,-0.06075423955917358,0.01899832487106323,-0.02104490995407104,XArbitraryZVertical,-0.3491036321435416,-0.2988603125936714,-0.211216330640168,0.8626683036193949,-0.6631073951721191,0.4760729074478149,-0.5776183605194092,0,0,0,-1,-1,30235.1360655,unknown,2,2025-04-22T12:25:44.559+03:00,2025-04-21T17:08:51.449+03:00,7274,0.979095,0,0,6062.87,5,20,2025-04-22T12:23:51.056+03:00,767006736.9230493,0,-20.46,100.4482,1,0.85,2025-04-22T12:25:30.239+03:00,82,1.366666666666667,2025-04-22T09:54:17.825+03:00,0.02225348692287972,0
2025-04-22T12:25:58.827+03:00,1745313958.242182,40.95219108736872,29.14026335014715,76.62879,-1,-1,-1,-1,30,21.38793351532817,-9999,30239.2558915,-0.6918792724609375,0.459808349609375,-0.567474365234375,30239.2458145,-0.7098121344083995,-0.8545515677430862,-0.4957898474076523,0.01147506665438414,0.0102591086179018,-0.02704265899956226,0.03430616855621338,0.03397789597511292,0.03355759382247925,XArbitraryZVertical,-0.348989087788567,-0.2990905790009213,-0.2112529329849435,0.8626259232431874,-0.6634564995765686,0.4757265448570251,-0.5775029063224792,0,0,0,-1,-1,30235.1360655,unknown,2,2025-04-22T12:25:44.559+03:00,2025-04-21T17:08:51.449+03:00,7274,0.979095,0,0,6062.87,5,20,2025-04-22T12:23:51.056+03:00,767006736.9230493,0,-20.46,100.4482,1,0.85,2025-04-22T12:25:30.239+03:00,82,1.366666666666667,2025-04-22T09:54:17.825+03:00,0.02225348692287972,0
2025-04-22T12:25:58.828+03:00,1745313958.242182,40.95219108736872,29.14026335014715,76.62879,-1,-1,-1,-1,30,21.38793351532817,-9999,30239.2659675,-0.6626129150390625,0.4794769287109375,-0.566375732421875,30239.2558915,-0.7099467549948951,-0.8545192349423315,-0.4955785409626167,-0.0006114239804446697,-0.002425527200102806,-0.018998047336936,0.0494999885559082,-0.007492721080780029,0.03301948308944702,XArbitraryZVertical,-0.3489221359553554,-0.2990956113918936,-0.2113646318269121,0.8626238854203635,-0.6635136604309082,0.4755406677722931,-0.5775903463363647,0,0,0,-1,-1,30235.1360655,unknown,2,2025-04-22T12:25:44.559+03:00,2025-04-21T17:08:51.449+03:00,7274,0.979095,0,0,6062.87,5,20,2025-04-22T12:23:51.056+03:00,767006736.9230493,0,-20.46,100.4482,1,0.85,2025-04-22T12:25:30.239+03:00,82,1.366666666666667,2025-04-22T09:54:17.825+03:00,0.02225348692287972,0
2025-04-22T12:25:58.831+03:00,1745313958.242182,40.95219108736872,29.14026335014715,76.62879,-1,-1,-1,-1,30,21.38793351532817,-9999,30239.2760435,-0.6323394775390625,0.4771270751953125,-0.56170654296875,30239.2659675,-0.7101031340063784,-0.8547854945877708,-0.4955379266970521,-0.01231788098812103,-0.02528636902570724,-0.009084697812795639,-0.03199672698974609,-0.01307219266891479,0.008990645408630371,XArbitraryZVertical,-0.3489575805075575,-0.2991913288001964,-0.2113948503410892,0.8625689584611524,-0.6636819839477539,0.4755049347877502,-0.5774263143539429,0,0,0,-1,-1,30235.1360655,unknown,2,2025-04-22T12:25:44.559+03:00,2025-04-21T17:08:51.449+03:00,7274,0.979095,0,0,6062.87,5,20,2025-04-22T12:23:51.056+03:00,767006736.9230493,0,-20.46,100.4482,1,0.85,2025-04-22T12:25:30.239+03:00,82,1.366666666666667,2025-04-22T09:54:17.825+03:00,0.02225348692287972,0
2025-04-22T12:25:58.841+03:00,1745313958.242182,40.95219108736872,29.14026335014715,76.62879,-1,-1,-1,-1,30,21.38793351532817,-9999,30239.2861205,-0.657928466796875,0.477783203125,-0.563568115234375,30239.2760435,-0.7103206048850625,-0.8550822253519397,-0.4955675148080631,-0.01761350966989994,-0.002433184068650007,-0.005163692403584719,0.008370876312255859,0.005456447601318359,0.01107329130172729,XArbitraryZVertical,-0.3490332130461248,-0.2992754016266907,-0.2114301332321658,0.8625005065329971,-0.6638426780700684,0.4755309820175171,-0.57722008228302,0,0,0,-1,-1,30235.1360655,unknown,2,2025-04-22T12:25:44.559+03:00,2025-04-21T17:08:51.449+03:00,7274,0.979095,0,0,6062.87,5,20,2025-04-22T12:23:51.056+03:00,767006736.9230493,0,-20.46,100.4482,1,0.85,2025-04-22T12:25:30.239+03:00,82,1.366666666666667,2025-04-22T09:54:17.825+03:00,0.02225348692287972,0
2025-04-22T12:25:58.851+03:00,1745313958.242182,40.95219108736872,29.14026335014715,76.62879,-1,-1,-1,-1,30,21.38793351532817,-9999,30239.2961965,-0.6565093994140625,0.4871673583984375,-0.566192626953125,30239.2861205,-0.7104581199517001,-0.8551333174213793,-0.4956350811977883,-0.01207999419420958,-0.005619655828922987,-0.002771374769508839,0.02963167428970337,0.0008804202079772949,0.01608425378799438,XArbitraryZVertical,-0.3490858762125375,-0.2992598529404232,-0.2114651793257003,0.8624761483994765,-0.6638479828834534,0.4755904078483582,-0.5771651864051819,0,0,0,-1,-1,30235.1360655,unknown,2,2025-04-22T12:25:44.559+03:00,2025-04-21T17:08:51.449+03:00,7274,0.979095,0,0,6062.87,5,20,2025-04-22T12:23:51.056+03:00,767006736.9230493,0,-20.46,100.4482,1,0.85,2025-04-22T12:25:30.239+03:00,82,1.366666666666667,2025-04-22T09:54:17.825+03:00,0.02225348692287972,0
2025-04-22T12:25:58.861+03:00,1745313958.242182,40.95219108736872,29.14026335014715,76.62879,-1,-1,-1,-1,30,21.38793351532817,-9999,30239.3062735,-0.647918701171875,0.488433837890625,-0.571746826171875,30239.2961965,-0.7105346340015076,-0.855277508773285,-0.4957128984872821,-0.002190878381952643,-0.02037942782044411,-0.004095898009836674,0.004158973693847656,0.003177076578140259,0.01298874616622925,XArbitraryZVertical,-0.3491433958128694,-0.2992930254769553,-0.2114553134212292,0.8624437224145973,-0.6639032363891602,0.4756588637828827,-0.5770451426506042,0,0,0,-1,-1,30235.1360655,unknown,2,2025-04-22T12:25:44.559+03:00,2025-04-21T17:08:51.449+03:00,7274,0.979095,0,0,6062.87,5,20,2025-04-22T12:23:51.056+03:00,767006736.9230493,0,-20.46,100.4482,1,0.85,2025-04-22T12:25:30.239+03:00,82,1.366666666666667,2025-04-22T09:54:17.825+03:00,0.02225348692287972,0
2025-04-22T12:25:58.871+03:00,1745313958.242182,40.95219108736872,29.14026335014715,76.62879,-1,-1,-1,-1,30,21.38793351532817,-9999,30239.3163495,-0.654388427734375,0.488800048828125,-0.5716705322265625,30239.3062735,-0.7105479844725785,-0.8554551370886369,-0.4956657454049957,0.00481723016127944,-0.0180832501500845,-0.006744411773979664,0.009359538555145264,0.01151934266090393,0.01024574041366577,XArbitraryZVertical,-0.3491455270408785,-0.2993767729149577,-0.2114407755548958,0.8624173138952557,-0.6640226244926453,0.475617378950119,-0.5769419074058533,0,0,0,-1,-1,30235.1360655,unknown,2,2025-04-22T12:25:44.559+03:00,2025-04-21T17:08:51.449+03:00,7274,0.979095,0,0,6062.87,5,20,2025-04-22T12:23:51.056+03:00,767006736.9230493,0,-20.46,100.4482,1,0.85,2025-04-22T12:25:30.239+03:00,82,1.366666666666667,2025-04-22T09:54:17.825+03:00,0.02225348692287972,0
2025-04-22T12:25:58.881+03:00,1745313958.242182,40.95219108736872,29.14026335014715,76.62879,-1,-1,-1,-1,30,21.38793351532817,-9999,30239.3264265,-0.650909423828125,0.486358642578125,-0.570648193359375,30239.3163495,-0.7105722796049608,-0.8556733174953004,-0.4955641426911915,0.003605824895203114,-0.02107231505215168,-0.006747440900653601,0.0154881477355957,0.01249372959136963,0.004853010177612305,XArbitraryZVertical,-0.3491319713386193,-0.2994870488344361,-0.2114362739793993,0.862385722914677,-0.6641850471496582,0.4755280017852783,-0.5768287777900696,0,0,0,-1,-1,30235.1360655,unknown,2,2025-04-22T12:25:44.559+03:00,2025-04-21T17:08:51.449+03:00,7274,0.979095,0,0,6062.87,5,20,2025-04-22T12:23:51.056+03:00,767006736.9230493,0,-20.46,100.4482,1,0.85,2025-04-22T12:25:30.239+03:00,82,1.366666666666667,2025-04-22T09:54:17.825+03:00,0.02225348692287972,0
2025-04-22T12:25:58.891+03:00,1745313958.242182,40.95219108736872,29.14026335014715,76.62879,-1,-1,-1,-1,30,21.38793351532817,-9999,30239.3365025,-0.652740478515625,0.484588623046875,-0.5720977783203125,30239.3264265,-0.7106239231442878,-0.8559165407562319,-0.4955095009389954,0.0002576987026259303,-0.02323560044169426,-0.006576465908437967,0.0100175142288208,0.01266384124755859,0.005044162273406982,XArbitraryZVertical,-0.349143847078062,-0.2995938929662375,-0.2114284942699863,0.8623455788818756,-0.664344847202301,0.475479930639267,-0.5766841173171997,0,0,0,-1,-1,30235.1360655,unknown,2,2025-04-22T12:25:44.559+03:00,2025-04-21T17:08:51.449+03:00,7274,0.979095,0,0,6062.87,5,20,2025-04-22T12:23:51.056+03:00,767006736.9230493,0,-20.46,100.4482,1,0.85,2025-04-22T12:25:30.239+03:00,82,1.366666666666667,2025-04-22T09:54:17.825+03:00,0.02225348692287972,0
2025-04-22T12:25:58.901+03:00,1745313958.242182,40.95219108736872,29.14026335014715,76.62879,-1,-1,-1,-1,30,21.38793351532817,-9999,30239.3465785,-0.656402587890625,0.4844970703125,-0.57080078125,30239.3365025,-0.7106807726928366,-0.8561527303872035,-0.4954658582378306,-0.002648742171004415,-0.02127112075686455,-0.006915020756423473,0.01416712999343872,0.01125264167785645,0.006380975246429443,XArbitraryZVertical,-0.3491600631134135,-0.2996945825684681,-0.2114216980407011,0.8623056859553825,-0.6644967198371887,0.4754415452480316,-0.5765408277511597,0,0,0,-1,-1,30235.1360655,unknown,2,2025-04-22T12:25:44.559+03:00,2025-04-21T17:08:51.449+03:00,7274,0.979095,0,0,6062.87,5,20,2025-04-22T12:23:51.056+03:00,767006736.9230493,0,-20.46,100.4482,1,0.85,2025-04-22T12:25:30.239+03:00,82,1.366666666666667,2025-04-22T09:54:17.825+03:00,0.02225348692287972,0
2025-04-22T12:25:58.911+03:00,1745313958.242182,40.95219108736872,29.14026335014715,76.62879,-1,-1,-1,-1,30,21.38793351532817,-9999,30239.3566555,-0.654998779296875,0.4862060546875,-0.572662353515625,30239.3465785,-0.7107526467000871,-0.856416326496832,-0.4954503490317008,-0.004506296943873167,-0.0232330709695816,-0.003869695588946342,0.01144075393676758,0.008946985006332397,0.004364252090454102,XArbitraryZVertical,-0.3491925457141461,-0.2997988022762923,-0.2114101972240257,0.8622591624118447,-0.6646542549133301,0.4754278957843781,-0.5763704776763916,0,0,0,-1,-1,30235.1360655,unknown,2,2025-04-22T12:25:44.559+03:00,2025-04-21T17:08:51.449+03:00,7274,0.979095,0,0,6062.87,5,20,2025-04-22T12:23:51.056+03:00,767006736.9230493,0,-20.46,100.4482,1,0.85,2025-04-22T12:25:30.239+03:00,82,1.366666666666667,2025-04-22T09:54:17.825+03:00,0.02225348692287972,0
2025-04-22T12:25:58.921+03:00,1745313958.242182,40.95219108736872,29.14026335014715,76.62879,-1,-1,-1,-1,30,21.38793351532817,-9999,30239.3667315,-0.6548309326171875,0.485992431640625,-0.57012939453125,30239.3566555,-0.7108367934380799,-0.8566993952913168,-0.4954690176578069,-0.005872365552932024,-0.02504441887140274,-0.004917982500046492,0.008331775665283203,0.009312033653259277,0.00548255443572998,XArbitraryZVertical,-0.3492424659846078,-0.2999023897985147,-0.2113928008141681,0.8622071924640771,-0.6648106575012207,0.4754443168640137,-0.5761765241622925,0,0,0,-1,-1,30235.1360655,unknown,2,2025-04-22T12:25:44.559+03:00,2025-04-21T17:08:51.449+03:00,7274,0.979095,0,0,6062.87,5,20,2025-04-22T12:23:51.056+03:00,767006736.9230493,0,-20.46,100.4482,1,0.85,2025-04-22T12:25:30.239+03:00,82,1.366666666666667,2025-04-22T09:54:17.825+03:00,0.02225348692287972,0
2025-04-22T12:25:58.931+03:00,1745313958.242182,40.95219108736872,29.14026335014715,76.62879,-1,-1,-1,-1,30,21.38793351532817,-9999,30239.3768085,-0.6563720703125,0.4846954345703125,-0.5670623779296875,30239.3667315,-0.7109343655125825,-0.8569930152808358,-0.4955003537612239,-0.009161102585494518,-0.02791956998407841,-0.005336631089448929,0.01091581583023071,0.01132914423942566,0.002790391445159912,XArbitraryZVertical,-0.3493005390651743,-0.3000056214676078,-0.2113764524085378,0.8621517404354755,-0.6649685502052307,0.4754718840122223,-0.5759715437889099,0,0,0,-1,-1,30235.1360655,unknown,2,2025-04-22T12:25:44.559+03:00,2025-04-21T17:08:51.449+03:00,7274,0.979095,0,0,6062.87,5,20,2025-04-22T12:23:51.056+03:00,767006736.9230493,0,-20.46,100.4482,1,0.85,2025-04-22T12:25:30.239+03:00,82,1.366666666666667,2025-04-22T09:54:17.825+03:00,0.02225348692287972,0
2025-04-22T12:25:58.941+03:00,1745313958.242182,40.95219108736872,29.14026335014715,76.62879,-1,-1,-1,-1,30,21.38793351532817,-9999,30239.3868845,-0.656036376953125,0.484527587890625,-0.564971923828125,30239.3768085,-0.7110302398162098,-0.857303288636908,-0.4955448750548117,-0.008982671424746513,-0.02595894783735275,-8.873938350006938e-05,0.01002562046051025,0.010954350233078,0.006094992160797119,XArbitraryZVertical,-0.3493652723761993,-0.3001136675332388,-0.2113534629206885,0.8620936698135183,-0.6651313304901123,0.4755110442638397,-0.5757513642311096,0,0,0,-1,-1,30235.1360655,unknown,2,2025-04-22T12:25:44.559+03:00,2025-04-21T17:08:51.449+03:00,7274,0.979095,0,0,6062.87,5,20,2025-04-22T12:23:51.056+03:00,767006736.9230493,0,-20.46,100.4482,1,0.85,2025-04-22T12:25:30.239+03:00,82,1.366666666666667,2025-04-22T09:54:17.825+03:00,0.02225348692287972,0
2025-04-22T12:25:58.951+03:00,1745313958.242182,40.95219108736872,29.14026335014715,76.62879,-1,-1,-1,-1,30,21.38793351532817,-9999,30239.3969615,-0.652801513671875,0.4835968017578125,-0.566864013671875,30239.3868845,-0.7111492070150568,-0.8576133163098074,-0.4956865310183368,-0.01643179915845394,-0.02435972169041634,0.0004225875600241125,0.00859677791595459,0.009013831615447998,0.008972704410552979,XArbitraryZVertical,-0.3494719782092296,-0.3001980004941887,-0.2113183020012445,0.8620295275682103,-0.6652587056159973,0.4756356775760651,-0.5755009651184082,0,0,0,-1,-1,30235.1360655,unknown,2,2025-04-22T12:25:44.559+03:00,2025-04-21T17:08:51.449+03:00,7274,0.979095,0,0,6062.87,5,20,2025-04-22T12:23:51.056+03:00,767006736.9230493,0,-20.46,100.4482,1,0.85,2025-04-22T12:25:30.239+03:00,82,1.366666666666667,2025-04-22T09:54:17.825+03:00,0.02225348692287972,0
2025-04-22T12:25:58.961+03:00,1745313958.242182,40.95219108736872,29.14026335014715,76.62879,-1,-1,-1,-1,30,21.38793351532817,-9999,30239.4070375,-0.6551055908203125,0.4840240478515625,-0.57342529296875,30239.3969615,-0.7112291331606483,-0.8578616776580003,-0.4958455156518805,-0.008148170076310635,-0.02514601871371269,0.003833630587905645,0.009521722793579102,0.008767187595367432,0.009520947933197021,XArbitraryZVertical,-0.3495730891829964,-0.3002590743756755,-0.211273130442256,0.8619783337483486,-0.6653444170951843,0.4757755100727081,-0.5752862691879272,0,0,0,-1,-1,30235.1360655,unknown,2,2025-04-22T12:25:44.559+03:00,2025-04-21T17:08:51.449+03:00,7274,0.979095,0,0,6062.87,5,20,2025-04-22T12:23:51.056+03:00,767006736.9230493,0,-20.46,100.4482,1,0.85,2025-04-22T12:25:30.239+03:00,82,1.366666666666667,2025-04-22T09:54:17.825+03:00,0.02225348692287972,0
2025-04-22T12:25:58.972+03:00,1745313958.242182,40.95219108736872,29.14026335014715,76.62879,-1,-1,-1,-1,30,21.38793351532817,-9999,30239.4171135,-0.6520843505859375,0.48443603515625,-0.5687255859375,30239.4070375,-0.7112129403699528,-0.8580974052524033,-0.4960113903009531,-0.007469329982995987,-0.02479980885982513,0.01034346129745245,0.01208478212356567,0.006897062063217163,0.00682532787322998,XArbitraryZVertical,-0.3496611392811059,-0.3003301061969231,-0.2111871511504884,0.861938962225409,-0.6654202938079834,0.4759213924407959,-0.5750778317451477,0,0,0,-1,-1,30235.1360655,unknown,2,2025-04-22T12:25:44.559+03:00,2025-04-21T17:08:51.449+03:00,7274,0.979095,0,0,6062.87,5,20,2025-04-22T12:23:51.056+03:00,767006736.9230493,0,-20.46,100.4482,1,0.85,2025-04-22T12:25:30.239+03:00,82,1.366666666666667,2025-04-22T09:54:17.825+03:00,0.02225348692287972,0
2025-04-22T12:25:58.982+03:00,1745313958.242182,40.95219108736872,29.14026335014715,76.62879,-1,-1,-1,-1,30,21.38793351532817,-9999,30239.4271905,-0.653045654296875,0.4839324951171875,-0.5626983642578125,30239.4171135,-0.7112082612546115,-0.8583355914606655,-0.4962121126197574,-0.01164709776639938,-0.03002206794917583,0.009094672277569771,0.009662210941314697,0.007575064897537231,0.002011418342590332,XArbitraryZVertical,-0.3497649339322714,-0.30039316213352,-0.2110977426044821,0.8618968077898737,-0.6654849648475647,0.4760979115962982,-0.5748568773269653,0,0,0,-1,-1,30235.1360655,unknown,2,2025-04-22T12:25:44.559+03:00,2025-04-21T17:08:51.449+03:00,7274,0.979095,0,0,6062.87,5,20,2025-04-22T12:23:51.056+03:00,767006736.9230493,0,-20.46,100.4482,1,0.85,2025-04-22T12:25:30.239+03:00,82,1.366666666666667,2025-04-22T09:54:17.825+03:00,0.02225348692287972,0
2025-04-22T12:25:58.992+03:00,1745313958.242182,40.95219108736872,29.14026335014715,76.62879,-1,-1,-1,-1,30,21.38793351532817,-9999,30239.4372665,-0.6560211181640625,0.4842376708984375,-0.5635528564453125,30239.4271905,-0.7112224462104295,-0.8585987248561523,-0.4963941578182412,-0.008862496353685856,-0.02804946340620518,0.009713591076433659,0.01345574855804443,0.008330494165420532,0.006433606147766113,XArbitraryZVertical,-0.349866781990714,-0.3004674215909166,-0.2110163358500009,0.8618495727685943,-0.6655706763267517,0.4762580096721649,-0.5746251344680786,0,0,0,-1,-1,30235.1360655,unknown,2,2025-04-22T12:25:44.559+03:00,2025-04-21T17:08:51.449+03:00,7274,0.979095,0,0,6062.87,5,20,2025-04-22T12:23:51.056+03:00,767006736.9230493,0,-20.46,100.4482,1,0.85,2025-04-22T12:25:30.239+03:00,82,1.366666666666667,2025-04-22T09:54:17.825+03:00,0.02225348692287972,0
2025-04-22T12:25:59.002+03:00,1745313958.242182,40.95219108736872,29.14026335014715,76.62879,-1,-1,-1,-1,30,21.38793351532817,-9999,30239.4473435,-0.6575927734375,0.4835662841796875,-0.56707763671875,30239.4372665,-0.7112220616029837,-0.8588951660814383,-0.4965722791261801,-0.009145324118435383,-0.03353637456893921,0.007922882214188576,0.01269203424453735,0.008067131042480469,0.01191812753677368,XArbitraryZVertical,-0.3499684029869371,-0.3005593608137616,-0.210923687843538,0.8617989401766378,-0.6656767129898071,0.4764146208763123,-0.5743723511695862,0,0,0,-1,-1,30235.1360655,unknown,2,2025-04-22T12:25:44.559+03:00,2025-04-21T17:08:51.449+03:00,7274,0.979095,0,0,6062.87,5,20,2025-04-22T12:23:51.056+03:00,767006736.9230493,0,-20.46,100.4482,1,0.85,2025-04-22T12:25:30.239+03:00,82,1.366666666666667,2025-04-22T09:54:17.825+03:00,0.02225348692287972,0
2025-04-22T12:25:59.012+03:00,1745313958.242182,40.95219108736872,29.14026335014715,76.62879,-1,-1,-1,-1,30,21.38793351532817,-9999,30239.4574195,-0.661041259765625,0.485198974609375,-0.5686187744140625,30239.4473435,-0.7112391933456038,-0.8592247810369038,-0.4967580583247253,-0.01222020946443081,-0.03788558393716812,0.008797996677458286,0.009854137897491455,0.007384955883026123,0.00970304012298584,XArbitraryZVertical,-0.3500791696997352,-0.3006609737276978,-0.2108310034310947,0.8617411638175121,-0.6657989621162415,0.4765779674053192,-0.5740951299667358,0,0,0,-1,-1,30235.1360655,unknown,2,2025-04-22T12:25:44.559+03:00,2025-04-21T17:08:51.449+03:00,7274,0.979095,0,0,6062.87,5,20,2025-04-22T12:23:51.056+03:00,767006736.9230493,0,-20.46,100.4482,1,0.85,2025-04-22T12:25:30.239+03:00,82,1.366666666666667,2025-04-22T09:54:17.825+03:00,0.02225348692287972,0
2025-04-22T12:25:59.022+03:00,1745313958.242182,40.95219108736872,29.14026335014715,76.62879,-1,-1,-1,-1,30,21.38793351532817,-9999,30239.4674965,-0.660003662109375,0.488494873046875,-0.56915283203125,30239.4574195,-0.7112613288927438,-0.859636050469461,-0.4969271251141882,-0.007795766927301884,-0.04390259459614754,0.003059616312384605,0.007343590259552002,0.006183445453643799,0.00612640380859375,XArbitraryZVertical,-0.3501926601544582,-0.3008002422502274,-0.2107299599181692,0.8616711493216465,-0.665973961353302,0.4767265915870667,-0.5737686157226562,0,0,0,-1,-1,30235.1360655,unknown,2,2025-04-22T12:25:44.559+03:00,2025-04-21T17:08:51.449+03:00,7274,0.979095,0,0,6062.87,5,20,2025-04-22T12:23:51.056+03:00,767006736.9230493,0,-20.46,100.4482,1,0.85,2025-04-22T12:25:30.239+03:00,82,1.366666666666667,2025-04-22T09:54:17.825+03:00,0.02225348692287972,0
2025-04-22T12:25:59.032+03:00,1745313958.242182,40.95219108736872,29.14026335014715,76.62879,-1,-1,-1,-1,30,21.38793351532817,-9999,30239.4775725,-0.6576995849609375,0.4886016845703125,-0.56817626953125,30239.4674965,-0.7112823289064947,-0.860123101435765,-0.4970425666340536,-0.001747461967170238,-0.05050723254680634,0.0008651716634631157,0.005155086517333984,0.009164273738861084,0.004804790019989014,XArbitraryZVertical,-0.3502927361618955,-0.300983139837747,-0.2106273609161504,0.8615916922441327,-0.6662116050720215,0.4768280684947968,-0.573408305644989,0,0,0,-1,-1,30235.1360655,unknown,2,2025-04-22T12:25:44.559+03:00,2025-04-21T17:08:51.449+03:00,7274,0.979095,0,0,6062.87,5,20,2025-04-22T12:23:51.056+03:00,767006736.9230493,0,-20.46,100.4482,1,0.85,2025-04-22T12:25:30.239+03:00,82,1.366666666666667,2025-04-22T09:54:17.825+03:00,0.02225348692287972,0
2025-04-22T12:25:59.042+03:00,1745313958.242182,40.95219108736872,29.14026335014715,76.62879,-1,-1,-1,-1,30,21.38793351532817,-9999,30239.4876485,-0.6607818603515625,0.4906005859375,-0.5671844482421875,30239.4775725,-0.7112763124532345,-0.8606054303340127,-0.4971095747179942,0.003767212387174368,-0.04677714407444,0.003252595663070679,0.005956649780273438,0.01180616021156311,0.004020094871520996,XArbitraryZVertical,-0.3503690765788065,-0.3011784716973462,-0.2105249803765978,0.8615174349889445,-0.6664639115333557,0.4768869578838348,-0.5730660557746887,0,0,0,-1,-1,30235.1360655,unknown,2,2025-04-22T12:25:44.559+03:00,2025-04-21T17:08:51.449+03:00,7274,0.979095,0,0,6062.87,5,20,2025-04-22T12:23:51.056+03:00,767006736.9230493,0,-20.46,100.4482,1,0.85,2025-04-22T12:25:30.239+03:00,82,1.366666666666667,2025-04-22T09:54:17.825+03:00,0.02225348692287972,0
2025-04-22T12:25:59.052+03:00,1745313958.242182,40.95219108736872,29.14026335014715,76.62879,-1,-1,-1,-1,30,21.38793351532817,-9999,30239.4977255,-0.659637451171875,0.488433837890625,-0.5660247802734375,30239.4876485,-0.7111750874954716,-0.8609982087989292,-0.4971218398182891,0.007328923791646957,-0.04287268221378326,0.00426939083263278,0.008908569812774658,0.01159700751304626,0.00476151704788208,XArbitraryZVertical,-0.3504000583495308,-0.301362918698675,-0.2104097511878566,0.8614683591918515,-0.6666843891143799,0.4768977463245392,-0.5728003978729248,0,0,0,-1,-1,30235.1360655,unknown,2,2025-04-22T12:25:44.559+03:00,2025-04-21T17:08:51.449+03:00,7274,0.979095,0,0,6062.87,5,20,2025-04-22T12:23:51.056+03:00,767006736.9230493,0,-20.46,100.4482,1,0.85,2025-04-22T12:25:30.239+03:00,82,1.366666666666667,2025-04-22T09:54:17.825+03:00,0.02225348692287972,0
2025-04-22T12:25:59.062+03:00,1745313958.242182,40.95219108736872,29.14026335014715,76.62879,-1,-1,-1,-1,30,21.38793351532817,-9999,30239.5078015,-0.6578521728515625,0.4826812744140625,-0.566162109375,30239.4977255,-0.7110411608233381,-0.8613185114683579,-0.4971273430099065,0.008271349593997002,-0.03789077699184418,0.006649956572800875,0.006343424320220947,0.01339271664619446,0.005339622497558594,XArbitraryZVertical,-0.3504157119591795,-0.3015232389237503,-0.2102946951775971,0.861434040879334,-0.6668658852577209,0.476902574300766,-0.5725851058959961,0,0,0,-1,-1,30235.1360655,unknown,2,2025-04-22T12:25:44.559+03:00,2025-04-21T17:08:51.449+03:00,7274,0.979095,0,0,6062.87,5,20,2025-04-22T12:23:51.056+03:00,767006736.9230493,0,-20.46,100.4482,1,0.85,2025-04-22T12:25:30.239+03:00,82,1.366666666666667,2025-04-22T09:54:17.825+03:00,0.02225348692287972,0
2025-04-22T12:25:59.072+03:00,1745313958.242182,40.95219108736872,29.14026335014715,76.62879,-1,-1,-1,-1,30,21.38793351532817,-9999,30239.5178785,-0.6576690673828125,0.476806640625,-0.5662689208984375,30239.5078015,-0.7109227464832416,-0.8616099501714582,-0.497203264078082,0.001180151128210127,-0.03286139667034149,0.009776507504284382,0.007245719432830811,0.01123553514480591,0.006189823150634766,XArbitraryZVertical,-0.3504584909979356,-0.3016542192290652,-0.2101752681254496,0.8613998925475433,-0.6670052409172058,0.476969301700592,-0.5723671317100525,0,0,0,-1,-1,30235.1360655,unknown,2,2025-04-22T12:25:44.559+03:00,2025-04-21T17:08:51.449+03:00,7274,0.979095,0,0,6062.87,5,20,2025-04-22T12:23:51.056+03:00,767006736.9230493,0,-20.46,100.4482,1,0.85,2025-04-22T12:25:30.239+03:00,82,1.366666666666667,2025-04-22T09:54:17.825+03:00,0.02225348692287972,0
2025-04-22T12:25:59.082+03:00,1745313958.242182,40.95219108736872,29.14026335014715,76.62879,-1,-1,-1,-1,30,21.38793351532817,-9999,30239.5279545,-0.6591644287109375,0.476470947265625,-0.5653839111328125,30239.5178785,-0.7108655452922079,-0.861895644222613,-0.4973605186347822,-0.003854821203276515,-0.03098306991159916,0.01296577602624893,0.008984982967376709,0.004337698221206665,0.005660474300384521,XArbitraryZVertical,-0.3505419550571007,-0.3017556171960515,-0.2100646118440282,0.8613574679359239,-0.6671118140220642,0.4771074950695038,-0.5721277594566345,0,0,0,-1,-1,30235.1360655,unknown,2,2025-04-22T12:25:44.559+03:00,2025-04-21T17:08:51.449+03:00,7274,0.979095,0,0,6062.87,5,20,2025-04-22T12:23:51.056+03:00,767006736.9230493,0,-20.46,100.4482,1,0.85,2025-04-22T12:25:30.239+03:00,82,1.366666666666667,2025-04-22T09:54:17.825+03:00,0.02225348692287972,0
2025-04-22T12:25:59.093+03:00,1745313958.242182,40.95219108736872,29.14026335014715,76.62879,-1,-1,-1,-1,30,21.38793351532817,-9999,30239.5380315,-0.6620941162109375,0.4796600341796875,-0.563995361328125,30239.5279545,-0.7108284851730038,-0.8621566368318924,-0.4975317843622838,-0.00662983488291502,-0.02495420537889004,0.008806717582046986,0.009255349636077881,-0.000436246395111084,0.006653904914855957,XArbitraryZVertical,-0.3506313714167105,-0.3018400196207142,-0.2099637345195133,0.8613161601937708,-0.6671991348266602,0.477258026599884,-0.571900486946106,0,0,0,-1,-1,30235.1360655,unknown,2,2025-04-22T12:25:44.559+03:00,2025-04-21T17:08:51.449+03:00,7274,0.979095,0,0,6062.87,5,20,2025-04-22T12:23:51.056+03:00,767006736.9230493,0,-20.46,100.4482,1,0.85,2025-04-22T12:25:30.239+03:00,82,1.366666666666667,2025-04-22T09:54:17.825+03:00,0.02225348692287972,0
2025-04-22T12:25:59.103+03:00,1745313958.242182,40.95219108736872,29.14026335014715,76.62879,-1,-1,-1,-1,30,21.38793351532817,-9999,30239.5481075,-0.66241455078125,0.47979736328125,-0.5668792724609375,30239.5380315,-0.7108224691931669,-0.8623919271869535,-0.4977030313230447,-0.009816107340157032,-0.02366903051733971,0.01144640985876322,0.007435739040374756,-0.0005409717559814453,0.006245315074920654,XArbitraryZVertical,-0.35072283483201,-0.3019079014497996,-0.2098806943495449,0.861275223556813,-0.6672714948654175,0.4774084985256195,-0.5716902017593384,0,0,0,-1,-1,30235.1360655,unknown,2,2025-04-22T12:25:44.559+03:00,2025-04-21T17:08:51.449+03:00,7274,0.979095,0,0,6062.87,5,20,2025-04-22T12:23:51.056+03:00,767006736.9230493,0,-20.46,100.4482,1,0.85,2025-04-22T12:25:30.239+03:00,82,1.366666666666667,2025-04-22T09:54:17.825+03:00,0.02225348692287972,0
2025-04-22T12:25:59.113+03:00,1745313958.242182,40.95219108736872,29.14026335014715,76.62879,-1,-1,-1,-1,30,21.38793351532817,-9999,30239.5581845,-0.6638946533203125,0.4837493896484375,-0.5690460205078125,30239.5481075,-0.7108474309083869,-0.8626170503914716,-0.4979189457447345,-0.01112451869994402,-0.0185251347720623,0.01180194225162268,0.005243062973022461,0.002443224191665649,0.00746232271194458,XArbitraryZVertical,-0.3508354061030449,-0.3019569741189107,-0.2098025641309037,0.8612313483695931,-0.6673219799995422,0.4775981903076172,-0.5714730024337769,0,0,0,-1,-1,30235.1360655,unknown,2,2025-04-22T12:25:44.559+03:00,2025-04-21T17:08:51.449+03:00,7274,0.979095,0,0,6062.87,5,20,2025-04-22T12:23:51.056+03:00,767006736.9230493,0,-20.46,100.4482,1,0.85,2025-04-22T12:25:30.239+03:00,82,1.366666666666667,2025-04-22T09:54:17.825+03:00,0.02225348692287972,0
2025-04-22T12:25:59.123+03:00,1745313958.242182,40.95219108736872,29.14026335014715,76.62879,-1,-1,-1,-1,30,21.38793351532817,-9999,30239.5682605,-0.665985107421875,0.4933624267578125,-0.5672454833984375,30239.5581845,-0.7108604182688609,-0.862772396582722,-0.498111361521912,-0.009297989308834076,-0.01332118362188339,0.008879722096025944,0.00489574670791626,0.001938432455062866,0.003194272518157959,XArbitraryZVertical,-0.3509296731139378,-0.3019828164235172,-0.2097368463531943,0.8611997528259371,-0.6673408150672913,0.4777672588825226,-0.571309506893158,0,0,0,-1,-1,30235.1360655,unknown,2,2025-04-22T12:25:44.559+03:00,2025-04-21T17:08:51.449+03:00,7274,0.979095,0,0,6062.87,5,20,2025-04-22T12:23:51.056+03:00,767006736.9230493,0,-20.46,100.4482,1,0.85,2025-04-22T12:25:30.239+03:00,82,1.366666666666667,2025-04-22T09:54:17.825+03:00,0.02225348692287972,0
2025-04-22T12:25:59.133+03:00,1745313958.242182,40.95219108736872,29.14026335014715,76.62879,-1,-1,-1,-1,30,21.38793351532817,-9999,30239.5783365,-0.663116455078125,0.4925994873046875,-0.5659942626953125,30239.5682605,-0.7108527194223224,-0.8628932563397638,-0.4982407345712636,-0.005493930075317621,-0.01296032592654228,0.004555280786007643,0.00244593620300293,0.006295591592788696,0.002218961715698242,XArbitraryZVertical,-0.3509922485967039,-0.302010140861149,-0.2096827062950159,0.8611778558783018,-0.6673629283905029,0.4778808951377869,-0.5711886286735535,0,0,0,-1,-1,30235.1360655,unknown,2,2025-04-22T12:25:44.559+03:00,2025-04-21T17:08:51.449+03:00,7274,0.979095,0,0,6062.87,5,20,2025-04-22T12:23:51.056+03:00,767006736.9230493,0,-20.46,100.4482,1,0.85,2025-04-22T12:25:30.239+03:00,82,1.366666666666667,2025-04-22T09:54:17.825+03:00,0.02225348692287972,0
2025-04-22T12:25:59.143+03:00,1745313958.242182,40.95219108736872,29.14026335014715,76.62879,-1,-1,-1,-1,30,21.38793351532817,-9999,30239.5884135,-0.6656036376953125,0.4876861572265625,-0.5637969970703125,30239.5783365,-0.7108692302591841,-0.8629770616413706,-0.4983671461142419,-0.005714173428714275,-0.003376142587512732,0.002374951029196382,0.001623928546905518,0.01613327860832214,0.003680169582366943,XArbitraryZVertical,-0.3510534143359812,-0.3020178558323415,-0.209646166527803,0.8611591323785894,-0.6673648953437805,0.4779919385910034,-0.5710934400558472,0,0,0,-1,-1,30235.1360655,unknown,2,2025-04-22T12:25:44.559+03:00,2025-04-21T17:08:51.449+03:00,7274,0.979095,0,0,6062.87,5,20,2025-04-22T12:23:51.056+03:00,767006736.9230493,0,-20.46,100.4482,1,0.85,2025-04-22T12:25:30.239+03:00,82,1.366666666666667,2025-04-22T09:54:17.825+03:00,0.02225348692287972,0
2025-04-22T12:25:59.154+03:00,1745313958.242182,40.95219108736872,29.14026335014715,76.62879,-1,-1,-1,-1,30,21.38793351532817,-9999,30239.5984895,-0.6646575927734375,0.4900665283203125,-0.566253662109375,30239.5884135,-0.7108909665713986,-0.8629921925145,-0.4984553056435547,-0.003804421052336693,0.001783465966582298,0.004004538990557194,0.004484474658966064,0.0131109356880188,0.005031228065490723,XArbitraryZVertical,-0.3510930347446881,-0.3020027926056043,-0.209632694858285,0.8611516450557727,-0.6673415899276733,0.4780693650245667,-0.5710560083389282,0,0,0,-1,-1,30235.1360655,unknown,2,2025-04-22T12:25:44.559+03:00,2025-04-21T17:08:51.449+03:00,7274,0.979095,0,0,6062.87,5,20,2025-04-22T12:23:51.056+03:00,767006736.9230493,0,-20.46,100.4482,1,0.85,2025-04-22T12:25:30.239+03:00,82,1.366666666666667,2025-04-22T09:54:17.825+03:00,0.02225348692287972,0
2025-04-22T12:25:59.163+03:00,1745313958.242182,40.95219108736872,29.14026335014715,76.62879,-1,-1,-1,-1,30,21.38793351532817,-9999,30239.6085665,-0.6634674072265625,0.4900054931640625,-0.5684051513671875,30239.5984895,-0.7109088955987104,-0.8629799004410003,-0.4985107299624026,-0.004101896192878485,0.001524606719613075,0.0005695940926671028,0.002061724662780762,0.009033948183059692,0.007021069526672363,XArbitraryZVertical,-0.3511163376503689,-0.3019831820231507,-0.2096298795007533,0.8611496835661111,-0.6673144102096558,0.4781180620193481,-0.5710469484329224,0,0,0,-1,-1,30235.1360655,unknown,2,2025-04-22T12:25:44.559+03:00,2025-04-21T17:08:51.449+03:00,7274,0.979095,0,0,6062.87,5,20,2025-04-22T12:23:51.056+03:00,767006736.9230493,0,-20.46,100.4482,1,0.85,2025-04-22T12:25:30.239+03:00,82,1.366666666666667,2025-04-22T09:54:17.825+03:00,0.02225348692287972,0
2025-04-22T12:25:59.174+03:00,1745313958.242182,40.95219108736872,29.14026335014715,76.62879,-1,-1,-1,-1,30,21.38793351532817,-9999,30239.6186425,-0.6601104736328125,0.48126220703125,-0.5696258544921875,30239.6085665,-0.7109394630358303,-0.8629915676648908,-0.4985786191258296,-0.005955189932137728,-0.002582520712167025,0.001314213848672807,0.003035485744476318,0.01256018877029419,0.004703342914581299,XArbitraryZVertical,-0.3511489639923025,-0.3019691570301796,-0.209625449036469,0.8611423896247803,-0.6672964096069336,0.4781776666641235,-0.5710180401802063,0,0,0,-1,-1,30235.1360655,unknown,2,2025-04-22T12:25:44.559+03:00,2025-04-21T17:08:51.449+03:00,7274,0.979095,0,0,6062.87,5,20,2025-04-22T12:23:51.056+03:00,767006736.9230493,0,-20.46,100.4482,1,0.85,2025-04-22T12:25:30.239+03:00,82,1.366666666666667,2025-04-22T09:54:17.825+03:00,0.02225348692287972,0
2025-04-22T12:25:59.183+03:00,1745313958.242182,40.95219108736872,29.14026335014715,76.62879,-1,-1,-1,-1,30,21.38793351532817,-9999,30239.6287195,-0.65765380859375,0.4826507568359375,-0.565521240234375,30239.6186425,-0.7110256214820042,-0.8630705772418362,-0.4986825297316703,-0.01220576278865337,-0.005875385832041502,0.001614285632967949,0.004553437232971191,0.01101928949356079,0.002619385719299316,XArbitraryZVertical,-0.3512112749911358,-0.301967102100119,-0.2096248746835537,0.8611178069627019,-0.667303740978241,0.4782689213752747,-0.5709330439567566,0,0,0,-1,-1,30235.1360655,unknown,2,2025-04-22T12:25:44.559+03:00,2025-04-21T17:08:51.449+03:00,7274,0.979095,0,0,6062.87,5,20,2025-04-22T12:23:51.056+03:00,767006736.9230493,0,-20.46,100.4482,1,0.85,2025-04-22T12:25:30.239+03:00,82,1.366666666666667,2025-04-22T09:54:17.825+03:00,0.02225348692287972,0
2025-04-22T12:25:59.194+03:00,1745313958.242182,40.95219108736872,29.14026335014715,76.62879,-1,-1,-1,-1,30,21.38793351532817,-9999,30239.6387955,-0.6575927734375,0.4903564453125,-0.5647125244140625,30239.6287195,-0.7110993567263053,-0.8631835666864738,-0.4987815609262358,-0.008008354343473911,-0.005522517021745443,0.003520842408761382,0.007526934146881104,0.002784103155136108,0.001536667346954346,XArbitraryZVertical,-0.3512733556260832,-0.3019828353673214,-0.2096140919875829,0.8610895305357861,-0.6673322319984436,0.4783559143543243,-0.5708267688751221,0,0,0,-1,-1,30235.1360655,unknown,2,2025-04-22T12:25:44.559+03:00,2025-04-21T17:08:51.449+03:00,7274,0.979095,0,0,6062.87,5,20,2025-04-22T12:23:51.056+03:00,767006736.9230493,0,-20.46,100.4482,1,0.85,2025-04-22T12:25:30.239+03:00,82,1.366666666666667,2025-04-22T09:54:17.825+03:00,0.02225348692287972,0
2025-04-22T12:25:59.204+03:00,1745313958.242182,40.95219108736872,29.14026335014715,76.62879,-1,-1,-1,-1,30,21.38793351532817,-9999,30239.6488725,-0.6600799560546875,0.4898223876953125,-0.563568115234375,30239.6387955,-0.7111460042733146,-0.8632269937519644,-0.4988452438019373,-0.007398023270070553,0.001618416514247656,0.0006284831906668842,0.009618997573852539,0.006115645170211792,0.005821347236633301,XArbitraryZVertical,-0.3513100737880512,-0.3019805008282573,-0.2096119636407251,0.8610759012330715,-0.6673338413238525,0.4784118235111237,-0.5707780122756958,0,0,0,-1,-1,30235.1360655,unknown,2,2025-04-22T12:25:44.559+03:00,2025-04-21T17:08:51.449+03:00,7274,0.979095,0,0,6062.87,5,20,2025-04-22T12:23:51.056+03:00,767006736.9230493,0,-20.46,100.4482,1,0.85,2025-04-22T12:25:30.239+03:00,82,1.366666666666667,2025-04-22T09:54:17.825+03:00,0.02225348692287972,0
2025-04-22T12:25:59.215+03:00,1745313958.242182,40.95219108736872,29.14026335014715,76.62879,-1,-1,-1,-1,30,21.38793351532817,-9999,30239.6589485,-0.660858154296875,0.4857025146484375,-0.565887451171875,30239.6488725,-0.7112224965604367,-0.8632430726791482,-0.4989050140574062,-0.009371425956487656,0.003999548964202404,-0.001557705691084266,0.01043045520782471,0.01276174187660217,0.005822598934173584,XArbitraryZVertical,-0.3513469011932335,-0.3019619348125003,-0.2096283793535797,0.861063368996328,-0.6673212647438049,0.4784643054008484,-0.5707486867904663,0,0,0,-1,-1,30235.1360655,unknown,2,2025-04-22T12:25:44.559+03:00,2025-04-21T17:08:51.449+03:00,7274,0.979095,0,0,6062.87,5,20,2025-04-22T12:23:51.056+03:00,767006736.9230493,0,-20.46,100.4482,1,0.85,2025-04-22T12:25:30.239+03:00,82,1.366666666666667,2025-04-22T09:54:17.825+03:00,0.02225348692287972,0
2025-04-22T12:25:59.225+03:00,1745313958.242182,40.95219108736872,29.14026335014715,76.62879,-1,-1,-1,-1,30,21.38793351532817,-9999,30239.6690245,-0.6605377197265625,0.4866485595703125,-0.5693359375,30239.6589485,-0.711327171611521,-0.8632758730141464,-0.4989946375065983,-0.00872208084911108,0.0001153950579464436,-0.00383933586999774,0.007319033145904541,0.01068416237831116,0.006459474563598633,XArbitraryZVertical,-0.3514015117989215,-0.3019395935502155,-0.2096471515186016,0.8610443310399514,-0.6673073768615723,0.4785430133342743,-0.5706989169120789,0,0,0,-1,-1,30235.1360655,unknown,2,2025-04-22T12:25:44.559+03:00,2025-04-21T17:08:51.449+03:00,7274,0.979095,0,0,6062.87,5,20,2025-04-22T12:23:51.056+03:00,767006736.9230493,0,-20.46,100.4482,1,0.85,2025-04-22T12:25:30.239+03:00,82,1.366666666666667,2025-04-22T09:54:17.825+03:00,0.02225348692287972,0
2025-04-22T12:25:59.243+03:00,1745313958.242182,40.95219108736872,29.14026335014715,76.62879,-1,-1,-1,-1,30,21.38793351532817,-9999,30239.6791015,-0.6582489013671875,0.4904022216796875,-0.56622314453125,30239.6690245,-0.7114108478594714,-0.8633194136592105,-0.4990277384810376,-0.002032220363616943,-0.001770655624568462,-0.008419972844421864,0.006980836391448975,0.006794631481170654,0.004268646240234375,XArbitraryZVertical,-0.3514317557444113,-0.3019369615384463,-0.2096679460120346,0.8610278775251533,-0.6673202514648438,0.4785720705986023,-0.5706595778465271,0,0,0,-1,-1,30235.1360655,unknown,2,2025-04-22T12:25:44.559+03:00,2025-04-21T17:08:51.449+03:00,7274,0.979095,0,0,6062.87,5,20,2025-04-22T12:23:51.056+03:00,767006736.9230493,0,-20.46,100.4482,1,0.85,2025-04-22T12:25:30.239+03:00,82,1.366666666666667,2025-04-22T09:54:17.825+03:00,0.02225348692287972,0
2025-04-22T12:25:59.244+03:00,1745313958.242182,40.95219108736872,29.14026335014715,76.62879,-1,-1,-1,-1,30,21.38793351532817,-9999,30239.6891775,-0.65704345703125,0.488006591796875,-0.5630340576171875,30239.6791015,-0.7114811569424774,-0.8633958313926081,-0.4990042900395205,-2.839136868715286e-05,-0.00249097403138876,-0.009223015978932381,0.007200837135314941,0.008066445589065552,0.001112103462219238,XArbitraryZVertical,-0.3514411185960911,-0.3019622356882408,-0.2096901615801971,0.8610098126720294,-0.6673724055290222,0.4785514771938324,-0.5706158876419067,0,0,0,-1,-1,30235.1360655,unknown,2,2025-04-22T12:25:44.559+03:00,2025-04-21T17:08:51.449+03:00,7274,0.979095,0,0,6062.87,5,20,2025-04-22T12:23:51.056+03:00,767006736.9230493,0,-20.46,100.4482,1,0.85,2025-04-22T12:25:30.239+03:00,82,1.366666666666667,2025-04-22T09:54:17.825+03:00,0.02225348692287972,0
2025-04-22T12:25:59.254+03:00,1745313958.242182,40.95219108736872,29.14026335014715,76.62879,-1,-1,-1,-1,30,21.38793351532817,-9999,30239.6992545,-0.6608428955078125,0.485260009765625,-0.5623016357421875,30239.6891775,-0.711544691698762,-0.8634376418193817,-0.4989908605549485,0.0006419262499548495,0.002581016160547733,-0.008145766332745552,0.009213268756866455,0.0123353898525238,0.004353821277618408,XArbitraryZVertical,-0.3514498054923966,-0.3019717786850993,-0.209713240826176,0.8609972785514214,-0.667401134967804,0.4785397052764893,-0.5705921649932861,0,0,0,-1,-1,30235.1360655,unknown,2,2025-04-22T12:25:44.559+03:00,2025-04-21T17:08:51.449+03:00,7274,0.979095,0,0,6062.87,5,20,2025-04-22T12:23:51.056+03:00,767006736.9230493,0,-20.46,100.4482,1,0.85,2025-04-22T12:25:30.239+03:00,82,1.366666666666667,2025-04-22T09:54:17.825+03:00,0.02225348692287972,0
2025-04-22T12:25:59.264+03:00,1745313958.242182,40.95219108736872,29.14026335014715,76.62879,-1,-1,-1,-1,30,21.38793351532817,-9999,30239.7093305,-0.6605682373046875,0.48529052734375,-0.56109619140625,30239.6992545,-0.7115973316112988,-0.8633989543358344,-0.4989820593039539,-0.001420691842213273,0.008073519915342331,-0.007099943701177835,0.009835243225097656,0.009566068649291992,0.00761723518371582,XArbitraryZVertical,-0.3514502125384774,-0.3019476497959382,-0.2097447198277294,0.8609979339753333,-0.6673822402954102,0.4785319566726685,-0.5706207156181335,0,0,0,-1,-1,30235.1360655,unknown,2,2025-04-22T12:25:44.559+03:00,2025-04-21T17:08:51.449+03:00,7274,0.979095,0,0,6062.87,5,20,2025-04-22T12:23:51.056+03:00,767006736.9230493,0,-20.46,100.4482,1,0.85,2025-04-22T12:25:30.239+03:00,82,1.366666666666667,2025-04-22T09:54:17.825+03:00,0.02225348692287972,0
2025-04-22T12:25:59.274+03:00,1745313958.242182,40.95219108736872,29.14026335014715,76.62879,-1,-1,-1,-1,30,21.38793351532817,-9999,30239.7194075,-0.6590728759765625,0.4853057861328125,-0.5618438720703125,30239.7093305,-0.7116470354199126,-0.8633356132994859,-0.4989870793647087,-0.00250140274874866,0.006679887417703867,-0.003453010926023126,0.006592869758605957,0.006052136421203613,0.008420825004577637,XArbitraryZVertical,-0.3514530720673797,-0.3019106331318396,-0.2097760931780321,0.8610020592186327,-0.6673442721366882,0.4785363674163818,-0.5706614255905151,0,0,0,-1,-1,30235.1360655,unknown,2,2025-04-22T12:25:44.559+03:00,2025-04-21T17:08:51.449+03:00,7274,0.979095,0,0,6062.87,5,20,2025-04-22T12:23:51.056+03:00,767006736.9230493,0,-20.46,100.4482,1,0.85,2025-04-22T12:25:30.239+03:00,82,1.366666666666667,2025-04-22T09:54:17.825+03:00,0.02225348692287972,0
2025-04-22T12:25:59.284+03:00,1745313958.242182,40.95219108736872,29.14026335014715,76.62879,-1,-1,-1,-1,30,21.38793351532817,-9999,30239.7294835,-0.66119384765625,0.4824676513671875,-0.5627593994140625,30239.7194075,-0.7116757998481955,-0.8632317073296757,-0.4990299477579382,-0.002193741034716368,0.01524707674980164,-0.0009247056441381574,0.007067322731018066,0.006640106439590454,0.009697556495666504,XArbitraryZVertical,-0.3514634192088144,-0.3018521994171016,-0.2097969177432451,0.861013268040575,-0.6672694087028503,0.4785740077495575,-0.570717453956604,0,0,0,-1,-1,30235.1360655,unknown,2,2025-04-22T12:25:44.559+03:00,2025-04-21T17:08:51.449+03:00,7274,0.979095,0,0,6062.87,5,20,2025-04-22T12:23:51.056+03:00,767006736.9230493,0,-20.46,100.4482,1,0.85,2025-04-22T12:25:30.239+03:00,82,1.366666666666667,2025-04-22T09:54:17.825+03:00,0.02225348692287972,0
2025-04-22T12:25:59.294+03:00,1745313958.242182,40.95219108736872,29.14026335014715,76.62879,-1,-1,-1,-1,30,21.38793351532817,-9999,30239.7395605,-0.66156005859375,0.483001708984375,-0.567230224609375,30239.7294835,-0.7116928185699966,-0.8630552367061479,-0.4991135951261384,-0.001835013274103403,0.0195763111114502,0.0004987539723515511,0.007439732551574707,0.006444573402404785,0.00895005464553833,XArbitraryZVertical,-0.351480503958398,-0.3017563592714415,-0.2098160904025006,0.8610351487445769,-0.6671382188796997,0.4786474704742432,-0.5708091259002686,0,0,0,-1,-1,30235.1360655,unknown,2,2025-04-22T12:25:44.559+03:00,2025-04-21T17:08:51.449+03:00,7274,0.979095,0,0,6062.87,5,20,2025-04-22T12:23:51.056+03:00,767006736.9230493,0,-20.46,100.4482,1,0.85,2025-04-22T12:25:30.239+03:00,82,1.366666666666667,2025-04-22T09:54:17.825+03:00,0.02225348692287972,0
2025-04-22T12:25:59.304+03:00,1745313958.242182,40.95219108736872,29.14026335014715,76.62879,-1,-1,-1,-1,30,21.38793351532817,-9999,30239.7496365,-0.6529998779296875,0.4874725341796875,-0.5766754150390625,30239.7395605,-0.711755879501592,-0.8629543518358956,-0.4992400856734973,-0.007450487930327654,0.006825428921729326,0.003445708192884922,0.005383014678955078,0.002778232097625732,0.007940351963043213,XArbitraryZVertical,-0.3515293025803681,-0.3016763270826728,-0.2098320091768233,0.8610394750908811,-0.6670346260070801,0.4787585139274597,-0.5708370804786682,0,0,0,-1,-1,30235.1360655,unknown,2,2025-04-22T12:25:44.559+03:00,2025-04-21T17:08:51.449+03:00,7274,0.979095,0,0,6062.87,5,20,2025-04-22T12:23:51.056+03:00,767006736.9230493,0,-20.46,100.4482,1,0.85,2025-04-22T12:25:30.239+03:00,82,1.366666666666667,2025-04-22T09:54:17.825+03:00,0.02225348692287972,0
2025-04-22T12:25:59.314+03:00,1745313958.242182,40.95219108736872,29.14026335014715,76.62879,-1,-1,-1,-1,30,21.38793351532817,-9999,30239.7597125,-0.6509246826171875,0.4877471923828125,-0.5825347900390625,30239.7496365,-0.7117144532853772,-0.8628949899060879,-0.4992901192694033,0.009095465764403343,0.001319077331572771,0.006410605274140835,0.005941271781921387,0.00543510913848877,0.002837419509887695,XArbitraryZVertical,-0.3515365677688418,-0.3016479571886096,-0.2098131491995041,0.8610510400734214,-0.6669825911521912,0.4788024425506592,-0.5708611011505127,0,0,0,-1,-1,30235.1360655,unknown,2,2025-04-22T12:25:44.559+03:00,2025-04-21T17:08:51.449+03:00,7274,0.979095,0,0,6062.87,5,20,2025-04-22T12:23:51.056+03:00,767006736.9230493,0,-20.46,100.4482,1,0.85,2025-04-22T12:25:30.239+03:00,82,1.366666666666667,2025-04-22T09:54:17.825+03:00,0.02225348692287972,0
2025-04-22T12:25:59.325+03:00,1745313958.242182,40.95219108736872,29.14026335014715,76.62879,-1,-1,-1,-1,30,21.38793351532817,-9999,30239.7697895,-0.6519775390625,0.49200439453125,-0.5830841064453125,30239.7597125,-0.7114088554413556,-0.8627532720631419,-0.4991764435381169,0.0477745532989502,-0.00354372151196003,0.008238399401307106,0.0150570273399353,0.008678227663040161,-0.007469654083251953,XArbitraryZVertical,-0.3514307337650837,-0.3016635804094063,-0.209732520017002,0.8611084703109569,-0.6669430136680603,0.4787026345729828,-0.570991039276123,0,0,0,-1,-1,30235.1360655,unknown,2,2025-04-22T12:25:44.559+03:00,2025-04-21T17:08:51.449+03:00,7274,0.979095,0,0,6062.87,5,20,2025-04-22T12:23:51.056+03:00,767006736.9230493,0,-20.46,100.4482,1,0.85,2025-04-22T12:25:30.239+03:00,82,1.366666666666667,2025-04-22T09:54:17.825+03:00,0.02225348692287972,0
2025-04-22T12:25:59.335+03:00,1745313958.242182,40.95219108736872,29.14026335014715,76.62879,-1,-1,-1,-1,30,21.38793351532817,-9999,30239.7798655,-0.649566650390625,0.4902496337890625,-0.5808258056640625,30239.7697895,-0.7108969283421565,-0.8625633065754058,-0.4990079935557586,0.04952078685164452,-0.00766549538820982,0.01377085037529469,0.01551330089569092,0.009940028190612793,-0.0120665431022644,XArbitraryZVertical,-0.3512671243045746,-0.30170568128967,-0.2095840338953999,0.8611966234528493,-0.6668958067893982,0.4785547256469727,-0.5711701512336731,0,0,0,-1,-1,30235.1360655,unknown,2,2025-04-22T12:25:44.559+03:00,2025-04-21T17:08:51.449+03:00,7274,0.979095,0,0,6062.87,5,20,2025-04-22T12:23:51.056+03:00,767006736.9230493,0,-20.46,100.4482,1,0.85,2025-04-22T12:25:30.239+03:00,82,1.366666666666667,2025-04-22T09:54:17.825+03:00,0.02225348692287972,0
2025-04-22T12:25:59.345+03:00,1745313958.242182,40.95219108736872,29.14026335014715,76.62879,-1,-1,-1,-1,30,21.38793351532817,-9999,30239.7899425,-0.6522674560546875,0.4893646240234375,-0.5748748779296875,30239.7798655,-0.71033806694937,-0.8623873795158058,-0.4988654841670507,0.05105303227901459,-0.009281635284423828,0.01772331446409225,0.01470160484313965,0.01386460661888123,-0.01204216480255127,XArbitraryZVertical,-0.3511081558544136,-0.301756769894001,-0.2094068812068867,0.8612865822319039,-0.6668470501899719,0.4784295856952667,-0.5713318586349487,0,0,0,-1,-1,30235.1360655,unknown,2,2025-04-22T12:25:44.559+03:00,2025-04-21T17:08:51.449+03:00,7274,0.979095,0,0,6062.87,5,20,2025-04-22T12:23:51.056+03:00,767006736.9230493,0,-20.46,100.4482,1,0.85,2025-04-22T12:25:30.239+03:00,82,1.366666666666667,2025-04-22T09:54:17.825+03:00,0.02225348692287972,0
2025-04-22T12:25:59.355+03:00,1745313958.242182,40.95219108736872,29.14026335014715,76.62879,-1,-1,-1,-1,30,21.38793351532817,-9999,30239.8000185,-0.6627960205078125,0.49822998046875,-0.5644378662109375,30239.7899425,-0.7097736454816206,-0.8621282866419675,-0.4986620217514161,0.05968061089515686,0.008289102464914322,0.01304600387811661,0.01728254556655884,0.01186126470565796,-0.008616983890533447,XArbitraryZVertical,-0.3509155231769399,-0.3017852191457981,-0.2092558377034961,0.8613918752434432,-0.6667729020118713,0.4782509207725525,-0.5715679526329041,0,0,0,-1,-1,30235.1360655,unknown,2,2025-04-22T12:25:44.559+03:00,2025-04-21T17:08:51.449+03:00,7274,0.979095,0,0,6062.87,5,20,2025-04-22T12:23:51.056+03:00,767006736.9230493,0,-20.46,100.4482,1,0.85,2025-04-22T12:25:30.239+03:00,82,1.366666666666667,2025-04-22T09:54:17.825+03:00,0.02225348692287972,0
2025-04-22T12:25:59.365+03:00,1745313958.242182,40.95219108736872,29.14026335014715,76.62879,-1,-1,-1,-1,30,21.38793351532817,-9999,30239.8100955,-0.66937255859375,0.493011474609375,-0.5560455322265625,30239.8000185,-0.7090917874816829,-0.8616177881725398,-0.4983277140521902,0.07441182434558868,0.0352436862885952,0.01066071167588234,0.01319044828414917,0.01244479417800903,-0.0007720589637756348,XArbitraryZVertical,-0.3506272596032992,-0.3017521839033152,-0.2091281243125225,0.8615517188724008,-0.6666022539138794,0.4779573082923889,-0.5720123052597046,0,0,0,-1,-1,30235.1360655,unknown,2,2025-04-22T12:25:44.559+03:00,2025-04-21T17:08:51.449+03:00,7274,0.979095,0,0,6062.87,5,20,2025-04-22T12:23:51.056+03:00,767006736.9230493,0,-20.46,100.4482,1,0.85,2025-04-22T12:25:30.239+03:00,82,1.366666666666667,2025-04-22T09:54:17.825+03:00,0.02225348692287972,0
2025-04-22T12:25:59.375+03:00,1745313958.242182,40.95219108736872,29.14026335014715,76.62879,-1,-1,-1,-1,30,21.38793351532817,-9999,30239.8201715,-0.669036865234375,0.47662353515625,-0.54925537109375,30239.8100955,-0.7084157635237863,-0.8608780280519318,-0.4979967378946009,0.06132371723651886,0.05019813403487206,0.01472442876547575,0.002724707126617432,0.021249920129776,0.008918225765228271,XArbitraryZVertical,-0.3503171723826209,-0.3016184849008642,-0.2090421631441148,0.8617455245737778,-0.6662988662719727,0.4776665568351746,-0.5726083517074585,0,0,0,-1,-1,30235.1360655,unknown,2,2025-04-22T12:25:44.559+03:00,2025-04-21T17:08:51.449+03:00,7274,0.979095,0,0,6062.87,5,20,2025-04-22T12:23:51.056+03:00,767006736.9230493,0,-20.46,100.4482,1,0.85,2025-04-22T12:25:30.239+03:00,82,1.366666666666667,2025-04-22T09:54:17.825+03:00,0.02225348692287972,0
2025-04-22T12:25:59.385+03:00,1745313958.242182,40.95219108736872,29.14026335014715,76.62879,-1,-1,-1,-1,30,21.38793351532817,-9999,30239.8302485,-0.65570068359375,0.4703216552734375,-0.5594940185546875,30239.8201715,-0.7078761415532766,-0.8601760726821532,-0.4978419367461987,0.03369149193167686,0.04092361032962799,0.02114274725317955,-0.004228413105010986,0.01306992769241333,0.01834511756896973,XArbitraryZVertical,-0.3501012220388577,-0.3014415956111873,-0.2089679178245707,0.8619132870245905,-0.6659528613090515,0.4775305390357971,-0.5731241703033447,0,0,0,-1,-1,30235.1360655,unknown,2,2025-04-22T12:25:44.559+03:00,2025-04-21T17:08:51.449+03:00,7274,0.979095,0,0,6062.87,5,20,2025-04-22T12:23:51.056+03:00,767006736.9230493,0,-20.46,100.4482,1,0.85,2025-04-22T12:25:30.239+03:00,82,1.366666666666667,2025-04-22T09:54:17.825+03:00,0.02225348692287972,0
2025-04-22T12:25:59.395+03:00,1745313958.242182,40.95219108736872,29.14026335014715,76.62879,-1,-1,-1,-1,30,21.38793351532817,-9999,30239.8403245,-0.644866943359375,0.474609375,-0.5723876953125,30239.8302485,-0.7075182462374372,-0.8597343125269273,-0.4979587186339707,0.006883310619741678,0.01059047318994999,0.0279961246997118,-0.002357244491577148,-0.003008633852005005,0.02388238906860352,XArbitraryZVertical,-0.3500473740180245,-0.3012903963734658,-0.2088643232358527,0.8620130050119339,-0.6656572818756104,0.477633148431778,-0.5733818411827087,0,0,0,-1,-1,30235.1360655,unknown,2,2025-04-22T12:25:44.559+03:00,2025-04-21T17:08:51.449+03:00,7274,0.979095,0,0,6062.87,5,20,2025-04-22T12:23:51.056+03:00,767006736.9230493,0,-20.46,100.4482,1,0.85,2025-04-22T12:25:30.239+03:00,82,1.366666666666667,2025-04-22T09:54:17.825+03:00,0.02225348692287972,0
2025-04-22T12:25:59.405+03:00,1745313958.242182,40.95219108736872,29.14026335014715,76.62879,-1,-1,-1,-1,30,21.38793351532817,-9999,30239.8504015,-0.646148681640625,0.496978759765625,-0.5656585693359375,30239.8403245,-0.7072684569853891,-0.8596285003017374,-0.4982068596736866,0.004113356582820415,-0.0195610374212265,0.02514228224754333,0.01131677627563477,-0.007773756980895996,0.01217198371887207,XArbitraryZVertical,-0.3500968335037765,-0.3012386969205235,-0.2087185443269514,0.8620462781637953,-0.6655067801475525,0.4778511524200439,-0.5733749270439148,0,0,0,-1,-1,30235.1360655,unknown,2,2025-04-22T12:25:44.559+03:00,2025-04-21T17:08:51.449+03:00,7274,0.979095,0,0,6062.87,5,20,2025-04-22T12:23:51.056+03:00,767006736.9230493,0,-20.46,100.4482,1,0.85,2025-04-22T12:25:30.239+03:00,82,1.366666666666667,2025-04-22T09:54:17.825+03:00,0.02225348692287972,0
2025-04-22T12:25:59.415+03:00,1745313958.242182,40.95219108736872,29.14026335014715,76.62879,-1,-1,-1,-1,30,21.38793351532817,-9999,30239.8604775,-0.654388427734375,0.512115478515625,-0.5621337890625,30239.8504015,-0.7069730573455254,-0.8597769188887951,-0.4983424192222382,0.02194055542349815,-0.04480221122503281,0.01817705109715462,0.0211641788482666,-0.001957088708877563,0.0005410313606262207,XArbitraryZVertical,-0.3501213544267296,-0.3013271766063029,-0.208534314724515,0.8620501457383678,-0.6655429005622864,0.4779702126979828,-0.573233962059021,0,0,0,-1,-1,30235.1360655,unknown,2,2025-04-22T12:25:44.559+03:00,2025-04-21T17:08:51.449+03:00,7274,0.979095,0,0,6062.87,5,20,2025-04-22T12:23:51.056+03:00,767006736.9230493,0,-20.46,100.4482,1,0.85,2025-04-22T12:25:30.239+03:00,82,1.366666666666667,2025-04-22T09:54:17.825+03:00,0.02225348692287972,0
2025-04-22T12:25:59.425+03:00,1745313958.242182,40.95219108736872,29.14026335014715,76.62879,-1,-1,-1,-1,30,21.38793351532817,-9999,30239.8705545,-0.66680908203125,0.504119873046875,-0.554229736328125,30239.8604775,-0.706580254214774,-0.8599484067994394,-0.4982289978688734,0.0467333197593689,-0.03498147055506706,0.001034581917338073,0.01903003454208374,0.02196145057678223,0.00821375846862793,XArbitraryZVertical,-0.3500351842710021,-0.3014926059869786,-0.2083608767851151,0.8620692169773949,-0.6656822562217712,0.4778705835342407,-0.5731551647186279,0,0,0,-1,-1,30235.1360655,unknown,2,2025-04-22T12:25:44.559+03:00,2025-04-21T17:08:51.449+03:00,7274,0.979095,0,0,6062.87,5,20,2025-04-22T12:23:51.056+03:00,767006736.9230493,0,-20.46,100.4482,1,0.85,2025-04-22T12:25:30.239+03:00,82,1.366666666666667,2025-04-22T09:54:17.825+03:00,0.02225348692287972,0
2025-04-22T12:25:59.435+03:00,1745313958.242182,40.95219108736872,29.14026335014715,76.62879,-1,-1,-1,-1,30,21.38793351532817,-9999,30239.8806305,-0.6693267822265625,0.4988250732421875,-0.546661376953125,30239.8705545,-0.7061418963280947,-0.8599297379858182,-0.4979533277770774,0.05210784822702408,-0.01578966714441776,-0.003542060265317559,0.009750247001647949,0.03463953733444214,0.01173007488250732,XArbitraryZVertical,-0.3498581109078136,-0.3016165460076928,-0.2082381178448602,0.8621274121936582,-0.6657713651657104,0.4776284098625183,-0.5732535123825073,0,0,0,-1,-1,30235.1360655,unknown,2,2025-04-22T12:25:44.559+03:00,2025-04-21T17:08:51.449+03:00,7274,0.979095,0,0,6062.87,5,20,2025-04-22T12:23:51.056+03:00,767006736.9230493,0,-20.46,100.4482,1,0.85,2025-04-22T12:25:30.239+03:00,82,1.366666666666667,2025-04-22T09:54:17.825+03:00,0.02225348692287972,0
2025-04-22T12:25:59.445+03:00,1745313958.242182,40.95219108736872,29.14026335014715,76.62879,-1,-1,-1,-1,30,21.38793351532817,-9999,30239.8907075,-0.6563873291015625,0.48699951171875,-0.5538482666015625,30239.8806305,-0.7057205177043773,-0.8598372880795108,-0.497740291521284,0.03150296956300735,-0.01390841044485569,0.01063354685902596,-0.001852929592132568,0.02585452795028687,0.02046394348144531,XArbitraryZVertical,-0.3497007224576074,-0.3016930854355767,-0.2081212457263204,0.8621925525250873,-0.6657953858375549,0.4774412214756012,-0.5733813643455505,0,0,0,-1,-1,30235.1360655,unknown,2,2025-04-22T12:25:44.559+03:00,2025-04-21T17:08:51.449+03:00,7274,0.979095,0,0,6062.87,5,20,2025-04-22T12:23:51.056+03:00,767006736.9230493,0,-20.46,100.4482,1,0.85,2025-04-22T12:25:30.239+03:00,82,1.366666666666667,2025-04-22T09:54:17.825+03:00,0.02225348692287972,0
2025-04-22T12:25:59.455+03:00,1745313958.242182,40.95219108736872,29.14026335014715,76.62879,-1,-1,-1,-1,30,21.38793351532817,-9999,30239.9007835,-0.6457672119140625,0.4720306396484375,-0.5651397705078125,30239.8907075,-0.7054844119985049,-0.8599227216779288,-0.497834027579079,0.0005189547664485872,-0.02086511999368668,0.01777641102671623,-0.002722859382629395,0.02018746733665466,0.02648138999938965,XArbitraryZVertical,-0.3497110468918781,-0.3017524188804547,-0.207983136202374,0.862200994360912,-0.6658104658126831,0.4775235950946808,-0.5732952952384949,0,0,0,-1,-1,30235.1360655,unknown,2,2025-04-22T12:25:44.559+03:00,2025-04-21T17:08:51.449+03:00,7274,0.979095,0,0,6062.87,5,20,2025-04-22T12:23:51.056+03:00,767006736.9230493,0,-20.46,100.4482,1,0.85,2025-04-22T12:25:30.239+03:00,82,1.366666666666667,2025-04-22T09:54:17.825+03:00,0.02225348692287972,0
2025-04-22T12:25:59.465+03:00,1745313958.242182,40.95219108736872,29.14026335014715,76.62879,-1,-1,-1,-1,30,21.38793351532817,-9999,30239.9108595,-0.646575927734375,0.47125244140625,-0.568939208984375,30239.9007835,-0.7054426769256321,-0.8601961430956871,-0.4981258413569167,-0.01824268139898777,-0.02549948543310165,0.02641946636140347,0.01103061437606812,0.00638127326965332,0.01787710189819336,XArbitraryZVertical,-0.349848621431874,-0.3018191163374651,-0.2078507112106889,0.8621537540241034,-0.6658615469932556,0.4777799546718597,-0.5730223059654236,0,0,0,-1,-1,30235.1360655,unknown,2,2025-04-22T12:25:44.559+03:00,2025-04-21T17:08:51.449+03:00,7274,0.979095,0,0,6062.87,5,20,2025-04-22T12:23:51.056+03:00,767006736.9230493,0,-20.46,100.4482,1,0.85,2025-04-22T12:25:30.239+03:00,82,1.366666666666667,2025-04-22T09:54:17.825+03:00,0.02225348692287972,0
