loggingTime(txt),locationTimestamp_since1970(s),locationLatitude(WGS84),locationLongitude(WGS84),locationAltitude(m),locationSpeed(m/s),locationSpeedAccuracy(m/s),locationCourse(°),locationCourseAccuracy(°),locationVerticalAccuracy(m),locationHorizontalAccuracy(m),locationFloor(Z),accelerometerTimestamp_sinceReboot(s),accelerometerAccelerationX(G),accelerometerAccelerationY(G),accelerometerAccelerationZ(G),motionTimestamp_sinceReboot(s),motionYaw(rad),motionRoll(rad),motionPitch(rad),motionRotationRateX(rad/s),motionRotationRateY(rad/s),motionRotationRateZ(rad/s),motionUserAccelerationX(G),motionUserAccelerationY(G),motionUserAccelerationZ(G),motionAttitudeReferenceFrame(txt),motionQuaternionX(R),motionQuaternionY(R),motionQuaternionZ(R),motionQuaternionW(R),motionGravityX(G),motionGravityY(G),motionGravityZ(G),motionMagneticFieldX(µT),motionMagneticFieldY(µT),motionMagneticFieldZ(µT),motionHeading(°),motionMagneticFieldCalibrationAccuracy(Z),activityTimestamp_sinceReboot(s),activity(txt),activityActivityConfidence(Z),activityActivityStartDate(txt),pedometerStartDate(txt),pedometerNumberofSteps(N),pedometerAverageActivePace(s/m),pedometerCurrentPace(s/m),pedometerCurrentCadence(steps/s),pedometerDistance(m),pedometerFloorAscended(N),pedometerFloorDescended(N),pedometerEndDate(txt),altimeterTimestamp_sinceReboot(s),altimeterReset(bool),altimeterRelativeAltitude(m),altimeterPressure(kPa),batteryState(N),batteryLevel(R),heartRateBPMTimestamp(txt),heartRateBPM(N),heartRateBPS(R),heartRateVariabilityTimestamp(txt),heartRateVariability(ms),label
2025-04-22T12:10:14.341+03:00,1745313008.972918,40.95222567643675,29.14026538326243,76.34016,-1,-1,-1,-1,30,20.32104858318339,-9999,29403.866279375,-0.606109619140625,0.5745697021484375,-0.551910400390625,29403.856203375,-0.656001832067871,-0.8250512838928163,-0.6166361454497914,-0.01145242806524038,-0.009366774931550026,0.002168314065784216,-0.004390180110931396,0.001921236515045166,-0.00604557991027832,XArbitraryZVertical,-0.3862470066866598,-0.2720948378125906,-0.1660326754226843,0.8655696559494571,-0.5992932915687561,0.5782940983772278,-0.5535553097724915,0,0,0,-1,-1,29382.265214,unknown,2,2025-04-22T12:09:52.710+03:00,2025-04-21T17:08:51.449+03:00,7208,0.9677966,0,0,6015.835,5,20,2025-04-22T12:09:26.917+03:00,767005813.448632,0,-20.61,100.4508,1,0.85,2025-04-22T12:10:10.706+03:00,84,1.4,2025-04-22T09:54:17.825+03:00,0.02225348692287972,0
2025-04-22T12:10:14.342+03:00,1745313008.972918,40.95222567643675,29.14026538326243,76.34016,-1,-1,-1,-1,30,20.32104858318339,-9999,29403.876354375,-0.60516357421875,0.5770721435546875,-0.555816650390625,29403.866279375,-0.6561366351991818,-0.8252783422436234,-0.6167652637030281,-0.02321328036487103,-0.02008526399731636,0.004633036442101002,-0.0008862018585205078,0.001876950263977051,0.001000344753265381,XArbitraryZVertical,-0.3863350502878863,-0.2721414680840598,-0.1660180125910106,0.8655184327196618,-0.5993640422821045,0.5783994197845459,-0.5533685088157654,0,0,0,-1,-1,29382.265214,unknown,2,2025-04-22T12:09:52.710+03:00,2025-04-21T17:08:51.449+03:00,7208,0.9677966,0,0,6015.835,5,20,2025-04-22T12:09:26.917+03:00,767005813.448632,0,-20.61,100.4508,1,0.85,2025-04-22T12:10:10.706+03:00,84,1.4,2025-04-22T09:54:17.825+03:00,0.02225348692287972,0
2025-04-22T12:10:14.343+03:00,1745313008.972918,40.95222567643675,29.14026538326243,76.34016,-1,-1,-1,-1,30,20.32104858318339,-9999,29403.886430375,-0.5984649658203125,0.5816192626953125,-0.55511474609375,29403.876354375,-0.6563318187496323,-0.8256944939332672,-0.616944284539229,-0.02371235564351082,-0.03603599965572357,0.001400225097313523,-0.007079720497131348,-0.005059242248535156,-8.225440979003906e-05,XArbitraryZVertical,-0.386466564309991,-0.2722483529950386,-0.165981681151351,0.8654331463117214,-0.5995182394981384,0.5785454511642456,-0.553048849105835,0,0,0,-1,-1,29382.265214,unknown,2,2025-04-22T12:09:52.710+03:00,2025-04-21T17:08:51.449+03:00,7208,0.9677966,0,0,6015.835,5,20,2025-04-22T12:09:26.917+03:00,767005813.448632,0,-20.61,100.4508,1,0.85,2025-04-22T12:10:10.706+03:00,84,1.4,2025-04-22T09:54:17.825+03:00,0.02225348692287972,0
2025-04-22T12:10:14.349+03:00,1745313008.972918,40.95222567643675,29.14026538326243,76.34016,-1,-1,-1,-1,30,20.32104858318339,-9999,29403.896506375,-0.601043701171875,0.585601806640625,-0.5544586181640625,29403.886430375,-0.6565499294084453,-0.8262081523986036,-0.6170713640103264,-0.01692868582904339,-0.03544311597943306,-0.008050368167459965,-0.005247592926025391,-0.0009057521820068359,-0.002912044525146484,XArbitraryZVertical,-0.3865889291816014,-0.2724032459878818,-0.1659480712211628,0.8653360902143306,-0.5997480750083923,0.57864910364151,-0.5526909232139587,0,0,0,-1,-1,29382.265214,unknown,2,2025-04-22T12:09:52.710+03:00,2025-04-21T17:08:51.449+03:00,7208,0.9677966,0,0,6015.835,5,20,2025-04-22T12:09:26.917+03:00,767005813.448632,0,-20.61,100.4508,1,0.85,2025-04-22T12:10:10.706+03:00,84,1.4,2025-04-22T09:54:17.825+03:00,0.02225348692287972,0
2025-04-22T12:10:14.359+03:00,1745313008.972918,40.95222567643675,29.14026538326243,76.34016,-1,-1,-1,-1,30,20.32104858318339,-9999,29403.906582375,-0.6028594970703125,0.586517333984375,-0.55157470703125,29403.896506375,-0.6567798925167049,-0.8267519199732252,-0.6170794830635282,-0.0138106569647789,-0.04843481257557869,-0.01577699743211269,0.001442790031433105,0.003726363182067871,-0.002417445182800293,XArbitraryZVertical,-0.3866685403803051,-0.2725924419461299,-0.1659406225533344,0.86524243546755,-0.6000451445579529,0.5786557197570801,-0.5523616075515747,0,0,0,-1,-1,29382.265214,unknown,2,2025-04-22T12:09:52.710+03:00,2025-04-21T17:08:51.449+03:00,7208,0.9677966,0,0,6015.835,5,20,2025-04-22T12:09:26.917+03:00,767005813.448632,0,-20.61,100.4508,1,0.85,2025-04-22T12:10:10.706+03:00,84,1.4,2025-04-22T09:54:17.825+03:00,0.02225348692287972,0
2025-04-22T12:10:14.367+03:00,1745313008.972918,40.95222567643675,29.14026538326243,76.34016,-1,-1,-1,-1,30,20.32104858318339,-9999,29403.916658375,-0.5980377197265625,0.58050537109375,-0.54730224609375,29403.906582375,-0.6569119794996358,-0.827255945557813,-0.6170172950016477,0.003619399387389421,-0.03043830208480358,-0.004627706948667765,-0.001639783382415771,0.007835924625396729,-0.001810550689697266,XArbitraryZVertical,-0.3867039016654373,-0.2727972891792196,-0.1659143737999969,0.8651671215820397,-0.6003499627113342,0.5786049962043762,-0.5520834922790527,0,0,0,-1,-1,29382.265214,unknown,2,2025-04-22T12:09:52.710+03:00,2025-04-21T17:08:51.449+03:00,7208,0.9677966,0,0,6015.835,5,20,2025-04-22T12:09:26.917+03:00,767005813.448632,0,-20.61,100.4508,1,0.85,2025-04-22T12:10:10.706+03:00,84,1.4,2025-04-22T09:54:17.825+03:00,0.02225348692287972,0
2025-04-22T12:10:14.377+03:00,1745313008.972918,40.95222567643675,29.14026538326243,76.34016,-1,-1,-1,-1,30,20.32104858318339,-9999,29403.926733375,-0.602874755859375,0.567901611328125,-0.547210693359375,29403.916658375,-0.6568636592393132,-0.8273842554277394,-0.6170311821350077,-0.007684387266635895,-0.008565761148929596,0.01145592238754034,-0.001895308494567871,0.007626235485076904,0.0003042221069335938,XArbitraryZVertical,-0.3867134090099817,-0.2728593806771765,-0.1658655238301321,0.8651526676157932,-0.6004148721694946,0.5786163210868835,-0.5520009994506836,0,0,0,-1,-1,29382.265214,unknown,2,2025-04-22T12:09:52.710+03:00,2025-04-21T17:08:51.449+03:00,7208,0.9677966,0,0,6015.835,5,20,2025-04-22T12:09:26.917+03:00,767005813.448632,0,-20.61,100.4508,1,0.85,2025-04-22T12:10:10.706+03:00,84,1.4,2025-04-22T09:54:17.825+03:00,0.02225348692287972,0
2025-04-22T12:10:14.387+03:00,1745313008.972918,40.95222567643675,29.14026538326243,76.34016,-1,-1,-1,-1,30,20.32104858318339,-9999,29403.936809375,-0.60198974609375,0.570831298828125,-0.546112060546875,29403.926733375,-0.6569226750317938,-0.8275698823296977,-0.6172349455782132,-0.02775017358362675,-0.0238485112786293,0.01828563213348389,0.002774238586425781,-0.0002608299255371094,0.004370152950286865,XArbitraryZVertical,-0.3868169511617163,-0.2728878214364745,-0.1658090833740521,0.8651082651417668,-0.6004305481910706,0.5787824988365173,-0.5518097877502441,0,0,0,-1,-1,29382.265214,unknown,2,2025-04-22T12:09:52.710+03:00,2025-04-21T17:08:51.449+03:00,7208,0.9677966,0,0,6015.835,5,20,2025-04-22T12:09:26.917+03:00,767005813.448632,0,-20.61,100.4508,1,0.85,2025-04-22T12:10:10.706+03:00,84,1.4,2025-04-22T09:54:17.825+03:00,0.02225348692287972,0
2025-04-22T12:10:14.397+03:00,1745313008.972918,40.95222567643675,29.14026538326243,76.34016,-1,-1,-1,-1,30,20.32104858318339,-9999,29403.946885375,-0.595916748046875,0.579559326171875,-0.54656982421875,29403.936809375,-0.6570340024036584,-0.8278398108463603,-0.6175731823360645,-0.03338036313652992,-0.01603586226701736,0.01826565712690353,-0.002988874912261963,-0.01239281892776489,0.004472315311431885,XArbitraryZVertical,-0.3869875574849938,-0.2729158796376361,-0.1657284847598473,0.8650383898962977,-0.6004351377487183,0.5790582895278931,-0.5515151023864746,0,0,0,-1,-1,29382.265214,unknown,2,2025-04-22T12:09:52.710+03:00,2025-04-21T17:08:51.449+03:00,7208,0.9677966,0,0,6015.835,5,20,2025-04-22T12:09:26.917+03:00,767005813.448632,0,-20.61,100.4508,1,0.85,2025-04-22T12:10:10.706+03:00,84,1.4,2025-04-22T09:54:17.825+03:00,0.02225348692287972,0
2025-04-22T12:10:14.407+03:00,1745313008.972918,40.95222567643675,29.14026538326243,76.34016,-1,-1,-1,-1,30,20.32104858318339,-9999,29403.956961375,-0.605621337890625,0.5810546875,-0.545623779296875,29403.946885375,-0.6572396037610443,-0.8281572418998555,-0.6179903476135149,-0.04930799826979637,-0.02676154300570488,0.02271643280982971,-0.0006725788116455078,-0.007438063621520996,0.005033791065216064,XArbitraryZVertical,-0.3872058594853323,-0.2729305273177879,-0.165661580361509,0.8649489207121376,-0.6004322171211243,0.5793983936309814,-0.5511611104011536,0,0,0,-1,-1,29382.265214,unknown,2,2025-04-22T12:09:52.710+03:00,2025-04-21T17:08:51.449+03:00,7208,0.9677966,0,0,6015.835,5,20,2025-04-22T12:09:26.917+03:00,767005813.448632,0,-20.61,100.4508,1,0.85,2025-04-22T12:10:10.706+03:00,84,1.4,2025-04-22T09:54:17.825+03:00,0.02225348692287972,0
2025-04-22T12:10:14.417+03:00,1745313008.972918,40.95222567643675,29.14026538326243,76.34016,-1,-1,-1,-1,30,20.32104858318339,-9999,29403.967037375,-0.5971832275390625,0.5753326416015625,-0.5477447509765625,29403.956961375,-0.6575326641370868,-0.8286532651445981,-0.618478557603701,-0.05195864289999008,-0.03432252258062363,0.02249965257942677,0.003634214401245117,0.0001749396324157715,0.004743039608001709,XArbitraryZVertical,-0.3874787483715321,-0.2729912698336739,-0.1655817302953198,0.864822852589042,-0.6004970073699951,0.5797961950302124,-0.5506719946861267,0,0,0,-1,-1,29382.265214,unknown,2,2025-04-22T12:09:52.710+03:00,2025-04-21T17:08:51.449+03:00,7208,0.9677966,0,0,6015.835,5,20,2025-04-22T12:09:26.917+03:00,767005813.448632,0,-20.61,100.4508,1,0.85,2025-04-22T12:10:10.706+03:00,84,1.4,2025-04-22T09:54:17.825+03:00,0.02225348692287972,0
2025-04-22T12:10:14.427+03:00,1745313008.972918,40.95222567643675,29.14026538326243,76.34016,-1,-1,-1,-1,30,20.32104858318339,-9999,29403.977113375,-0.596160888671875,0.5755462646484375,-0.549774169921875,29403.967037375,-0.6577438746519446,-0.829075784446795,-0.6190289280487573,-0.04805710911750793,-0.02624968439340591,0.03909966722130775,-0.005676448345184326,0.0003522634506225586,0.004227817058563232,XArbitraryZVertical,-0.3877587230323583,-0.2730236165148019,-0.1654665092759069,0.864709214628405,-0.6004942655563354,0.5802445411682129,-0.5502025485038757,0,0,0,-1,-1,29382.265214,unknown,2,2025-04-22T12:09:52.710+03:00,2025-04-21T17:08:51.449+03:00,7208,0.9677966,0,0,6015.835,5,20,2025-04-22T12:09:26.917+03:00,767005813.448632,0,-20.61,100.4508,1,0.85,2025-04-22T12:10:10.706+03:00,84,1.4,2025-04-22T09:54:17.825+03:00,0.02225348692287972,0
2025-04-22T12:10:14.437+03:00,1745313008.972918,40.95222567643675,29.14026538326243,76.34016,-1,-1,-1,-1,30,20.32104858318339,-9999,29403.987188375,-0.6108245849609375,0.586151123046875,-0.549102783203125,29403.977113375,-0.6578759684422579,-0.8293748269345272,-0.6198171867209386,-0.07370787858963013,-0.01391338929533958,0.05807548761367798,0.00515216588973999,-0.005462288856506348,0.00215226411819458,XArbitraryZVertical,-0.3881109979684403,-0.2729705073557853,-0.1652869925648252,0.8646022851605097,-0.6003212332725525,0.5808863639831543,-0.5497139096260071,0,0,0,-1,-1,29382.265214,unknown,2,2025-04-22T12:09:52.710+03:00,2025-04-21T17:08:51.449+03:00,7208,0.9677966,0,0,6015.835,5,20,2025-04-22T12:09:26.917+03:00,767005813.448632,0,-20.61,100.4508,1,0.85,2025-04-22T12:10:10.706+03:00,84,1.4,2025-04-22T09:54:17.825+03:00,0.02225348692287972,0
2025-04-22T12:10:14.447+03:00,1745313008.972918,40.95222567643675,29.14026538326243,76.34016,-1,-1,-1,-1,30,20.32104858318339,-9999,29403.997264375,-0.60968017578125,0.5858917236328125,-0.5490570068359375,29403.987188375,-0.6580404128718453,-0.8294456296819476,-0.6207426544408078,-0.06770724058151245,0.01329532824456692,0.04969159141182899,0.002535998821258545,-0.005467712879180908,-0.0004507899284362793,XArbitraryZVertical,-0.3885026110595388,-0.272785033610993,-0.1651345328644178,0.864513995240104,-0.599963366985321,0.5816394090652466,-0.5493081212043762,0,0,0,-1,-1,29382.265214,unknown,2,2025-04-22T12:09:52.710+03:00,2025-04-21T17:08:51.449+03:00,7208,0.9677966,0,0,6015.835,5,20,2025-04-22T12:09:26.917+03:00,767005813.448632,0,-20.61,100.4508,1,0.85,2025-04-22T12:10:10.706+03:00,84,1.4,2025-04-22T09:54:17.825+03:00,0.02225348692287972,0
2025-04-22T12:10:14.457+03:00,1745313008.972918,40.95222567643675,29.14026538326243,76.34016,-1,-1,-1,-1,30,20.32104858318339,-9999,29404.007340375,-0.5914459228515625,0.580841064453125,-0.5459747314453125,29403.997264375,-0.6582765846166316,-0.8293847680511238,-0.6214784722252166,-0.05177567899227142,0.02614694461226463,0.02949977107346058,-0.01278209686279297,0.005378007888793945,0.0004409551620483398,XArbitraryZVertical,-0.3888185418590758,-0.2725663503401168,-0.1650816214905772,0.8644510736254866,-0.599614143371582,0.5822378396987915,-0.5490554571151733,0,0,0,-1,-1,29382.265214,unknown,2,2025-04-22T12:09:52.710+03:00,2025-04-21T17:08:51.449+03:00,7208,0.9677966,0,0,6015.835,5,20,2025-04-22T12:09:26.917+03:00,767005813.448632,0,-20.61,100.4508,1,0.85,2025-04-22T12:10:10.706+03:00,84,1.4,2025-04-22T09:54:17.825+03:00,0.02225348692287972,0
2025-04-22T12:10:14.467+03:00,1745313008.972918,40.95222567643675,29.14026538326243,76.34016,-1,-1,-1,-1,30,20.32104858318339,-9999,29404.017416375,-0.594146728515625,0.5845947265625,-0.5428314208984375,29404.007340375,-0.6582230557737671,-0.8286514274789269,-0.6216567435666087,0.05762764066457748,0.1550640612840652,0.00127525650896132,-0.009309351444244385,0.002211868762969971,0.0006730556488037109,XArbitraryZVertical,-0.3888206270455576,-0.2722242809246257,-0.1651606585688066,0.8645429108862274,-0.5991348624229431,0.5823827385902405,-0.549424946308136,0,0,0,-1,-1,29382.265214,unknown,2,2025-04-22T12:09:52.710+03:00,2025-04-21T17:08:51.449+03:00,7208,0.9677966,0,0,6015.835,5,20,2025-04-22T12:09:26.917+03:00,767005813.448632,0,-20.61,100.4508,1,0.85,2025-04-22T12:10:10.706+03:00,84,1.4,2025-04-22T09:54:17.825+03:00,0.02225348692287972,0
2025-04-22T12:10:14.477+03:00,1745313008.972918,40.95222567643675,29.14026538326243,76.34016,-1,-1,-1,-1,30,20.32104858318339,-9999,29404.027492375,-0.64727783203125,0.6186065673828125,-0.532989501953125,29404.017416375,-0.6572064799460613,-0.8254774750712057,-0.6206355350903836,0.1132403016090393,0.2361831367015839,-0.01544566731899977,0.008087813854217529,-0.001016497611999512,0.006972789764404297,XArbitraryZVertical,-0.3880189938910803,-0.2712523601977194,-0.1655685304943582,0.8651303304628052,-0.59782475233078,0.581552267074585,-0.5517268180847168,0,0,0,-1,-1,29382.265214,unknown,2,2025-04-22T12:09:52.710+03:00,2025-04-21T17:08:51.449+03:00,7208,0.9677966,0,0,6015.835,5,20,2025-04-22T12:09:26.917+03:00,767005813.448632,0,-20.61,100.4508,1,0.85,2025-04-22T12:10:10.706+03:00,84,1.4,2025-04-22T09:54:17.825+03:00,0.02225348692287972,0
2025-04-22T12:10:14.487+03:00,1745313008.972918,40.95222567643675,29.14026538326243,76.34016,-1,-1,-1,-1,30,20.32104858318339,-9999,29404.037568375,-0.593994140625,0.600616455078125,-0.5326385498046875,29404.027492375,-0.6563966405336444,-0.8232500656378063,-0.6198922666268867,0.08986353874206543,0.1105537712574005,-0.007676193956285715,-0.001096069812774658,0.005569696426391602,0.01064139604568481,XArbitraryZVertical,-0.387432515617845,-0.2705932116297496,-0.1658176526763248,0.8655516904534721,-0.5969111323356628,0.5809474587440491,-0.5533507466316223,0,0,0,-1,-1,29382.265214,unknown,2,2025-04-22T12:09:52.710+03:00,2025-04-21T17:08:51.449+03:00,7208,0.9677966,0,0,6015.835,5,20,2025-04-22T12:09:26.917+03:00,767005813.448632,0,-20.61,100.4508,1,0.85,2025-04-22T12:10:10.706+03:00,84,1.4,2025-04-22T09:54:17.825+03:00,0.02225348692287972,0
2025-04-22T12:10:14.497+03:00,1745313008.972918,40.95222567643675,29.14026538326243,76.34016,-1,-1,-1,-1,30,20.32104858318339,-9999,29404.047643375,-0.51336669921875,0.527862548828125,-0.5337982177734375,29404.037568375,-0.65593797203799,-0.8226632759867745,-0.6192866457327437,0.0478401891887188,-0.03535816073417664,-0.02771621569991112,-0.05324137210845947,0.04218029975891113,0.02313268184661865,XArbitraryZVertical,-0.3870834829552007,-0.2705481772494113,-0.1658692114868764,0.8657120288651533,-0.5968440771102905,0.580454409122467,-0.5539401173591614,0,0,0,-1,-1,29382.265214,unknown,2,2025-04-22T12:09:52.710+03:00,2025-04-21T17:08:51.449+03:00,7208,0.9677966,0,0,6015.835,5,20,2025-04-22T12:09:26.917+03:00,767005813.448632,0,-20.61,100.4508,1,0.85,2025-04-22T12:10:10.706+03:00,84,1.4,2025-04-22T09:54:17.825+03:00,0.02225348692287972,0
2025-04-22T12:10:14.508+03:00,1745313008.972918,40.95222567643675,29.14026538326243,76.34016,-1,-1,-1,-1,30,20.32104858318339,-9999,29404.057719375,-0.5666961669921875,0.5576629638671875,-0.539520263671875,29404.047643375,-0.6558982570732855,-0.8231683939054226,-0.618880420973471,0.01941147819161415,-0.04656074941158295,-0.02442601136863232,0.01900374889373779,0.009445488452911377,0.0195125937461853,XArbitraryZVertical,-0.3869600531800761,-0.2708550488320361,-0.1658458093761363,0.8656758487273045,-0.5972967743873596,0.5801236033439636,-0.5537989139556885,0,0,0,-1,-1,29382.265214,unknown,2,2025-04-22T12:09:52.710+03:00,2025-04-21T17:08:51.449+03:00,7208,0.9677966,0,0,6015.835,5,20,2025-04-22T12:09:26.917+03:00,767005813.448632,0,-20.61,100.4508,1,0.85,2025-04-22T12:10:10.706+03:00,84,1.4,2025-04-22T09:54:17.825+03:00,0.02225348692287972,0
2025-04-22T12:10:14.518+03:00,1745313008.972918,40.95222567643675,29.14026538326243,76.34016,-1,-1,-1,-1,30,20.32104858318339,-9999,29404.067795375,-0.6275634765625,0.5882568359375,-0.5511322021484375,29404.057719375,-0.6558545745695438,-0.8232777848018055,-0.6185670042589319,0.02767047472298145,0.02073946222662926,-0.01779820211231709,0.08282691240310669,-0.0527535080909729,0.02057772874832153,XArbitraryZVertical,-0.3868398576150492,-0.2709729800940683,-0.1658763570481042,0.8656867802163605,-0.5974906086921692,0.5798682570457458,-0.553857147693634,0,0,0,-1,-1,29382.265214,unknown,2,2025-04-22T12:09:52.710+03:00,2025-04-21T17:08:51.449+03:00,7208,0.9677966,0,0,6015.835,5,20,2025-04-22T12:09:26.917+03:00,767005813.448632,0,-20.61,100.4508,1,0.85,2025-04-22T12:10:10.706+03:00,84,1.4,2025-04-22T09:54:17.825+03:00,0.02225348692287972,0
2025-04-22T12:10:14.528+03:00,1745313008.972918,40.95222567643675,29.14026538326243,76.34016,-1,-1,-1,-1,30,20.32104858318339,-9999,29404.077871375,-0.6090545654296875,0.581634521484375,-0.55706787109375,29404.067795375,-0.6557231259725361,-0.8229276620480583,-0.6182480285548867,0.0309621412307024,0.02183668687939644,-0.01438136771321297,0.02011591196060181,-0.01608610153198242,0.01305431127548218,XArbitraryZVertical,-0.386667416981838,-0.2709100681087192,-0.1659590315656631,0.8657677029665135,-0.5974322557449341,0.5796083807945251,-0.554192066192627,0,0,0,-1,-1,29382.265214,unknown,2,2025-04-22T12:09:52.710+03:00,2025-04-21T17:08:51.449+03:00,7208,0.9677966,0,0,6015.835,5,20,2025-04-22T12:09:26.917+03:00,767005813.448632,0,-20.61,100.4508,1,0.85,2025-04-22T12:10:10.706+03:00,84,1.4,2025-04-22T09:54:17.825+03:00,0.02225348692287972,0
2025-04-22T12:10:14.538+03:00,1745313008.972918,40.95222567643675,29.14026538326243,76.34016,-1,-1,-1,-1,30,20.32104858318339,-9999,29404.087947375,-0.579010009765625,0.56732177734375,-0.55584716796875,29404.077871375,-0.6556443755144463,-0.822911666733262,-0.6179362620337228,0.02141524106264114,-0.02387221530079842,-0.0205290075391531,-0.03208285570144653,0.01015365123748779,0.001971602439880371,XArbitraryZVertical,-0.3865326730933377,-0.2709801441348431,-0.1659982532988768,0.8657984180149779,-0.5975558757781982,0.5793542861938477,-0.5543245077133179,0,0,0,-1,-1,29382.265214,unknown,2,2025-04-22T12:09:52.710+03:00,2025-04-21T17:08:51.449+03:00,7208,0.9677966,0,0,6015.835,5,20,2025-04-22T12:09:26.917+03:00,767005813.448632,0,-20.61,100.4508,1,0.85,2025-04-22T12:10:10.706+03:00,84,1.4,2025-04-22T09:54:17.825+03:00,0.02225348692287972,0
2025-04-22T12:10:14.548+03:00,1745313008.972918,40.95222567643675,29.14026538326243,76.34016,-1,-1,-1,-1,30,20.32104858318339,-9999,29404.098023375,-0.5877685546875,0.568145751953125,-0.5552978515625,29404.087947375,-0.6556683489097647,-0.8232634856807857,-0.617659121793986,0.01262421254068613,-0.03676557540893555,-0.02077465318143368,-0.005586147308349609,0.0008885860443115234,-0.003409147262573242,XArbitraryZVertical,-0.3864560532051999,-0.2711827161622219,-0.1660030528968705,0.8657681668922268,-0.5978685021400452,0.5791283845901489,-0.5542232990264893,0,0,0,-1,-1,29382.265214,unknown,2,2025-04-22T12:09:52.710+03:00,2025-04-21T17:08:51.449+03:00,7208,0.9677966,0,0,6015.835,5,20,2025-04-22T12:09:26.917+03:00,767005813.448632,0,-20.61,100.4508,1,0.85,2025-04-22T12:10:10.706+03:00,84,1.4,2025-04-22T09:54:17.825+03:00,0.02225348692287972,0
2025-04-22T12:10:14.558+03:00,1745313008.972918,40.95222567643675,29.14026538326243,76.34016,-1,-1,-1,-1,30,20.32104858318339,-9999,29404.108098375,-0.60333251953125,0.57330322265625,-0.5542449951171875,29404.098023375,-0.6557847150152973,-0.8236525698818582,-0.6174800944882975,0.002486357698217034,-0.02858008444309235,-0.02062072232365608,0.02029454708099365,-0.01237791776657104,-0.001953959465026855,XArbitraryZVertical,-0.3864336351924404,-0.2713641303857359,-0.1660185879699521,0.8657183791816708,-0.5981601476669312,0.578982412815094,-0.5540611147880554,0,0,0,-1,-1,29382.265214,unknown,2,2025-04-22T12:09:52.710+03:00,2025-04-21T17:08:51.449+03:00,7208,0.9677966,0,0,6015.835,5,20,2025-04-22T12:09:26.917+03:00,767005813.448632,0,-20.61,100.4508,1,0.85,2025-04-22T12:10:10.706+03:00,84,1.4,2025-04-22T09:54:17.825+03:00,0.02225348692287972,0
2025-04-22T12:10:14.568+03:00,1745313008.972918,40.95222567643675,29.14026538326243,76.34016,-1,-1,-1,-1,30,20.32104858318339,-9999,29404.118174375,-0.6039581298828125,0.571563720703125,-0.548797607421875,29404.108098375,-0.6559235675705529,-0.8240249773775312,-0.6173396575295003,0.000195972592337057,-0.03054183349013329,-0.01876359805464745,0.008811235427856445,-0.00977623462677002,-0.001129627227783203,XArbitraryZVertical,-0.3864281067119256,-0.2715263285087945,-0.1660383897604548,0.8656661985226545,-0.5984261035919189,0.5788679122924805,-0.5538935661315918,0,0,0,-1,-1,29382.265214,unknown,2,2025-04-22T12:09:52.710+03:00,2025-04-21T17:08:51.449+03:00,7208,0.9677966,0,0,6015.835,5,20,2025-04-22T12:09:26.917+03:00,767005813.448632,0,-20.61,100.4508,1,0.85,2025-04-22T12:10:10.706+03:00,84,1.4,2025-04-22T09:54:17.825+03:00,0.02225348692287972,0
2025-04-22T12:10:14.579+03:00,1745313008.972918,40.95222567643675,29.14026538326243,76.34016,-1,-1,-1,-1,30,20.32104858318339,-9999,29404.128250375,-0.6018524169921875,0.56951904296875,-0.5398406982421875,29404.118174375,-0.656187610769209,-0.8245783692933322,-0.617317678909194,-0.01557393558323383,-0.03308169171214104,-0.01216987799853086,-0.005262017250061035,-0.004738152027130127,-0.000262141227722168,XArbitraryZVertical,-0.3865012668024854,-0.2717191758186375,-0.1660506903084412,0.865570646821093,-0.598741888999939,0.5788499712944031,-0.5535709261894226,0,0,0,-1,-1,29382.265214,unknown,2,2025-04-22T12:09:52.710+03:00,2025-04-21T17:08:51.449+03:00,7208,0.9677966,0,0,6015.835,5,20,2025-04-22T12:09:26.917+03:00,767005813.448632,0,-20.61,100.4508,1,0.85,2025-04-22T12:10:10.706+03:00,84,1.4,2025-04-22T09:54:17.825+03:00,0.02225348692287972,0
2025-04-22T12:10:14.588+03:00,1745313008.972918,40.95222567643675,29.14026538326243,76.34016,-1,-1,-1,-1,30,20.32104858318339,-9999,29404.138326375,-0.6037750244140625,0.5722503662109375,-0.5392303466796875,29404.128250375,-0.6564374047906378,-0.8250121004959702,-0.6174262566066093,-0.01976408623158932,-0.02298877760767937,-0.007831289432942867,-0.004442512989044189,-0.007970035076141357,0.005157589912414551,XArbitraryZVertical,-0.3866139418805931,-0.2718370693546124,-0.1660504687922668,0.8654833636680094,-0.5989357829093933,0.5789385437965393,-0.5532685518264771,0,0,0,-1,-1,29382.265214,unknown,2,2025-04-22T12:09:52.710+03:00,2025-04-21T17:08:51.449+03:00,7208,0.9677966,0,0,6015.835,5,20,2025-04-22T12:09:26.917+03:00,767005813.448632,0,-20.61,100.4508,1,0.85,2025-04-22T12:10:10.706+03:00,84,1.4,2025-04-22T09:54:17.825+03:00,0.02225348692287972,0
2025-04-22T12:10:14.598+03:00,1745313008.972918,40.95222567643675,29.14026538326243,76.34016,-1,-1,-1,-1,30,20.32104858318339,-9999,29404.148402375,-0.599456787109375,0.5766143798828125,-0.5407562255859375,29404.138326375,-0.6565531605899489,-0.8251612279703956,-0.6174953780986039,-0.009439810179173946,-0.01062798127532005,-0.00322854844853282,-0.002451598644256592,-0.009735345840454102,0.01440995931625366,XArbitraryZVertical,-0.3866692792629792,-0.2718655106016016,-0.1660561234984518,0.8654485679462856,-0.5989888310432434,0.5789948701858521,-0.5531520247459412,0,0,0,-1,-1,29382.265214,unknown,2,2025-04-22T12:09:52.710+03:00,2025-04-21T17:08:51.449+03:00,7208,0.9677966,0,0,6015.835,5,20,2025-04-22T12:09:26.917+03:00,767005813.448632,0,-20.61,100.4508,1,0.85,2025-04-22T12:10:10.706+03:00,84,1.4,2025-04-22T09:54:17.825+03:00,0.02225348692287972,0
2025-04-22T12:10:14.609+03:00,1745313008.972918,40.95222567643675,29.14026538326243,76.34016,-1,-1,-1,-1,30,20.32104858318339,-9999,29404.158478375,-0.5832977294921875,0.579071044921875,-0.541534423828125,29404.148402375,-0.6565827370707984,-0.8252688587424091,-0.6174902224589556,0.006406197790056467,-0.01094150077551603,-0.001795801101252437,-0.004816055297851562,-0.006114840507507324,0.01384401321411133,XArbitraryZVertical,-0.3866801965623441,-0.2719073904347107,-0.1660492803718115,0.8654318708517807,-0.5990505814552307,0.5789906978607178,-0.5530896186828613,0,0,0,-1,-1,29382.265214,unknown,2,2025-04-22T12:09:52.710+03:00,2025-04-21T17:08:51.449+03:00,7208,0.9677966,0,0,6015.835,5,20,2025-04-22T12:09:26.917+03:00,767005813.448632,0,-20.61,100.4508,1,0.85,2025-04-22T12:10:10.706+03:00,84,1.4,2025-04-22T09:54:17.825+03:00,0.02225348692287972,0
2025-04-22T12:10:14.619+03:00,1745313008.972918,40.95222567643675,29.14026538326243,76.34016,-1,-1,-1,-1,30,20.32104858318339,-9999,29404.168553375,-0.57452392578125,0.577484130859375,-0.5473480224609375,29404.158478375,-0.656575294183976,-0.8254749643876474,-0.6174432788798879,0.006347608286887407,-0.02143009379506111,0.0004777394933626056,0.001741886138916016,-0.001483678817749023,0.01178580522537231,XArbitraryZVertical,-0.3866778541068429,-0.2720073224649391,-0.1660167977190523,0.86540768453558,-0.599184513092041,0.578952431678772,-0.5529845356941223,0,0,0,-1,-1,29382.265214,unknown,2,2025-04-22T12:09:52.710+03:00,2025-04-21T17:08:51.449+03:00,7208,0.9677966,0,0,6015.835,5,20,2025-04-22T12:09:26.917+03:00,767005813.448632,0,-20.61,100.4508,1,0.85,2025-04-22T12:10:10.706+03:00,84,1.4,2025-04-22T09:54:17.825+03:00,0.02225348692287972,0
2025-04-22T12:10:14.629+03:00,1745313008.972918,40.95222567643675,29.14026538326243,76.34016,-1,-1,-1,-1,30,20.32104858318339,-9999,29404.178629375,-0.5762939453125,0.580810546875,-0.550323486328125,29404.168553375,-0.6564766578594254,-0.8256621062245003,-0.6173971639039777,0.007260540034621954,-0.02639342844486237,0.003900833427906036,0.01747477054595947,0.000568091869354248,0.01105093955993652,XArbitraryZVertical,-0.3866617632076564,-0.2721165239228954,-0.1659483698348609,0.8653938057753894,-0.5993077158927917,0.5789148211479187,-0.5528905391693115,0,0,0,-1,-1,29382.265214,unknown,2,2025-04-22T12:09:52.710+03:00,2025-04-21T17:08:51.449+03:00,7208,0.9677966,0,0,6015.835,5,20,2025-04-22T12:09:26.917+03:00,767005813.448632,0,-20.61,100.4508,1,0.85,2025-04-22T12:10:10.706+03:00,84,1.4,2025-04-22T09:54:17.825+03:00,0.02225348692287972,0
2025-04-22T12:10:14.639+03:00,1745313008.972918,40.95222567643675,29.14026538326243,76.34016,-1,-1,-1,-1,30,20.32104858318339,-9999,29404.188705375,-0.5853424072265625,0.5858001708984375,-0.554656982421875,29404.178629375,-0.6563124961233889,-0.8258242049098602,-0.6173430983928043,0.01308354176580906,-0.03003636375069618,0.004376474302262068,0.02541512250900269,-0.001127302646636963,0.004886746406555176,XArbitraryZVertical,-0.3866316071091333,-0.2722291223684306,-0.1658582049219363,0.8653891354528029,-0.5994203090667725,0.5788707137107849,-0.5528146028518677,0,0,0,-1,-1,29382.265214,unknown,2,2025-04-22T12:09:52.710+03:00,2025-04-21T17:08:51.449+03:00,7208,0.9677966,0,0,6015.835,5,20,2025-04-22T12:09:26.917+03:00,767005813.448632,0,-20.61,100.4508,1,0.85,2025-04-22T12:10:10.706+03:00,84,1.4,2025-04-22T09:54:17.825+03:00,0.02225348692287972,0
2025-04-22T12:10:14.649+03:00,1745313008.972918,40.95222567643675,29.14026538326243,76.34016,-1,-1,-1,-1,30,20.32104858318339,-9999,29404.19878204167,-0.5912017822265625,0.5858917236328125,-0.555389404296875,29404.188705375,-0.6561266559240847,-0.8260497410953764,-0.6172206886714539,0.0207811426371336,-0.040738545358181,6.974319694563746e-05,0.02263170480728149,0.002787232398986816,0.002480268478393555,XArbitraryZVertical,-0.3865768409638763,-0.2723869093283945,-0.1657618400096305,0.8653824251523287,-0.5995970368385315,0.5787708759307861,-0.5527274608612061,0,0,0,-1,-1,29382.265214,unknown,2,2025-04-22T12:09:52.710+03:00,2025-04-21T17:08:51.449+03:00,7208,0.9677966,0,0,6015.835,5,20,2025-04-22T12:09:26.917+03:00,767005813.448632,0,-20.61,100.4508,1,0.85,2025-04-22T12:10:10.706+03:00,84,1.4,2025-04-22T09:54:17.825+03:00,0.02225348692287972,0
2025-04-22T12:10:14.659+03:00,1745313008.972918,40.95222567643675,29.14026538326243,76.34016,-1,-1,-1,-1,30,20.32104858318339,-9999,29404.20885804167,-0.59381103515625,0.576812744140625,-0.55084228515625,29404.19878204167,-0.6560103096425844,-0.8264577376937018,-0.6171309513170037,0.005335074383765459,-0.05468392372131348,0.0005397910717874765,0.01320600509643555,0.007834732532501221,-0.002535820007324219,XArbitraryZVertical,-0.3865595254099552,-0.2726037191685177,-0.165652896179481,0.865342673834914,-0.599860668182373,0.5786977410316467,-0.5525178909301758,0,0,0,-1,-1,29382.265214,unknown,2,2025-04-22T12:09:52.710+03:00,2025-04-21T17:08:51.449+03:00,7208,0.9677966,0,0,6015.835,5,20,2025-04-22T12:09:26.917+03:00,767005813.448632,0,-20.61,100.4508,1,0.85,2025-04-22T12:10:10.706+03:00,84,1.4,2025-04-22T09:54:17.825+03:00,0.02225348692287972,0
2025-04-22T12:10:14.669+03:00,1745313008.972918,40.95222567643675,29.14026538326243,76.34016,-1,-1,-1,-1,30,20.32104858318339,-9999,29404.21893404167,-0.597564697265625,0.5672149658203125,-0.545684814453125,29404.20885804167,-0.6560234083093266,-0.8270967712112989,-0.6171115487564914,-0.004749451298266649,-0.06782308965921402,-0.0003141181368846446,0.007936716079711914,0.006019532680511475,-0.002850592136383057,XArbitraryZVertical,-0.3866065617281372,-0.2728815157056929,-0.1655394381483864,0.8652558745087121,-0.6002219319343567,0.5786818861961365,-0.5521420836448669,0,0,0,-1,-1,29382.265214,unknown,2,2025-04-22T12:09:52.710+03:00,2025-04-21T17:08:51.449+03:00,7208,0.9677966,0,0,6015.835,5,20,2025-04-22T12:09:26.917+03:00,767005813.448632,0,-20.61,100.4508,1,0.85,2025-04-22T12:10:10.706+03:00,84,1.4,2025-04-22T09:54:17.825+03:00,0.02225348692287972,0
2025-04-22T12:10:14.682+03:00,1745313008.972918,40.95222567643675,29.14026538326243,76.34016,-1,-1,-1,-1,30,20.32104858318339,-9999,29404.22900904167,-0.6046905517578125,0.5625762939453125,-0.54132080078125,29404.21893404167,-0.6561682619894721,-0.8278965093002063,-0.6172131018166706,-0.0239401888102293,-0.0691906213760376,0.003884088946506381,0.006473243236541748,-0.002608299255371094,0.001573264598846436,XArbitraryZVertical,-0.3867324875460003,-0.2731793272807623,-0.1654245060611296,0.8651275013114116,-0.6006199717521667,0.5787647366523743,-0.5516220927238464,0,0,0,-1,-1,29382.265214,unknown,2,2025-04-22T12:09:52.710+03:00,2025-04-21T17:08:51.449+03:00,7208,0.9677966,0,0,6015.835,5,20,2025-04-22T12:09:26.917+03:00,767005813.448632,0,-20.61,100.4508,1,0.85,2025-04-22T12:10:10.706+03:00,84,1.4,2025-04-22T09:54:17.825+03:00,0.02225348692287972,0
2025-04-22T12:10:14.689+03:00,1745313008.972918,40.95222567643675,29.14026538326243,76.34016,-1,-1,-1,-1,30,20.32104858318339,-9999,29404.23908504167,-0.6022491455078125,0.563995361328125,-0.54156494140625,29404.22900904167,-0.656431824448739,-0.8287623429928357,-0.6174657661711656,-0.03898405283689499,-0.06812023371458054,0.006943694781512022,0.00244826078414917,-0.01248836517333984,0.006172716617584229,XArbitraryZVertical,-0.3869394342689179,-0.2734527102856909,-0.1653138566545025,0.8649697131416071,-0.6009895205497742,0.578970730304718,-0.5510029792785645,0,0,0,-1,-1,29382.265214,unknown,2,2025-04-22T12:09:52.710+03:00,2025-04-21T17:08:51.449+03:00,7208,0.9677966,0,0,6015.835,5,20,2025-04-22T12:09:26.917+03:00,767005813.448632,0,-20.61,100.4508,1,0.85,2025-04-22T12:10:10.706+03:00,84,1.4,2025-04-22T09:54:17.825+03:00,0.02225348692287972,0
2025-04-22T12:10:14.701+03:00,1745313008.972918,40.95222567643675,29.14026538326243,76.34016,-1,-1,-1,-1,30,20.32104858318339,-9999,29404.24916104167,-0.594757080078125,0.5700836181640625,-0.5464630126953125,29404.23908504167,-0.6567475453735007,-0.8296831051920546,-0.6178267331421905,-0.04364405199885368,-0.07889698445796967,0.01042790804058313,-0.003927946090698242,-0.01670408248901367,0.008544981479644775,XArbitraryZVertical,-0.3872005047550433,-0.2737181269575044,-0.1651904485298413,0.8647925904217146,-0.6013424396514893,0.5792649984359741,-0.5503082871437073,0,0,0,-1,-1,29382.265214,unknown,2,2025-04-22T12:09:52.710+03:00,2025-04-21T17:08:51.449+03:00,7208,0.9677966,0,0,6015.835,5,20,2025-04-22T12:09:26.917+03:00,767005813.448632,0,-20.61,100.4508,1,0.85,2025-04-22T12:10:10.706+03:00,84,1.4,2025-04-22T09:54:17.825+03:00,0.02225348692287972,0
2025-04-22T12:10:14.723+03:00,1745313008.972918,40.95222567643675,29.14026538326243,76.34016,-1,-1,-1,-1,30,20.32104858318339,-9999,29404.25923704167,-0.588836669921875,0.578094482421875,-0.550384521484375,29404.24916104167,-0.6570272885036497,-0.8306795204058546,-0.618231723890213,-0.038039430975914,-0.08963591605424881,0.01157253514975309,0.0002157092094421387,-0.01448595523834229,0.007283806800842285,XArbitraryZVertical,-0.3874801376780241,-0.2740143013046821,-0.1650266095356288,0.86460482503467,-0.6017172336578369,0.5795950889587402,-0.5495505928993225,0,0,0,-1,-1,29382.265214,unknown,2,2025-04-22T12:09:52.710+03:00,2025-04-21T17:08:51.449+03:00,7208,0.9677966,0,0,6015.835,5,20,2025-04-22T12:09:26.917+03:00,767005813.448632,0,-20.61,100.4508,1,0.85,2025-04-22T12:10:10.706+03:00,84,1.4,2025-04-22T09:54:17.825+03:00,0.02225348692287972,0
2025-04-22T12:10:14.724+03:00,1745313008.972918,40.95222567643675,29.14026538326243,76.34016,-1,-1,-1,-1,30,20.32104858318339,-9999,29404.26931304167,-0.5865020751953125,0.5852508544921875,-0.5571746826171875,29404.25923704167,-0.6572022490318332,-0.8316587743842613,-0.6186071669145525,-0.03288648277521133,-0.09259122610092163,0.01100554782897234,0.008466243743896484,-0.008642613887786865,0.001939475536346436,XArbitraryZVertical,-0.3877323214422341,-0.2743290610113596,-0.164827244413788,0.8644298782563702,-0.6020941734313965,0.5799009799957275,-0.5488144159317017,0,0,0,-1,-1,29382.265214,unknown,2,2025-04-22T12:09:52.710+03:00,2025-04-21T17:08:51.449+03:00,7208,0.9677966,0,0,6015.835,5,20,2025-04-22T12:09:26.917+03:00,767005813.448632,0,-20.61,100.4508,1,0.85,2025-04-22T12:10:10.706+03:00,84,1.4,2025-04-22T09:54:17.825+03:00,0.02225348692287972,0
2025-04-22T12:10:14.729+03:00,1745313008.972918,40.95222567643675,29.14026538326243,76.34016,-1,-1,-1,-1,30,20.32104858318339,-9999,29404.27938904167,-0.5873565673828125,0.5842437744140625,-0.5620574951171875,29404.26931304167,-0.6572803298508494,-0.8326176804670015,-0.6188830755491121,-0.01400200463831425,-0.09983769059181213,0.009738682769238949,0.01438230276107788,-0.001268506050109863,-0.002789437770843506,XArbitraryZVertical,-0.3879303149282994,-0.274673475115829,-0.1646123688555529,0.8642725697740835,-0.6025017499923706,0.5801257491111755,-0.5481290817260742,0,0,0,-1,-1,29382.265214,unknown,2,2025-04-22T12:09:52.710+03:00,2025-04-21T17:08:51.449+03:00,7208,0.9677966,0,0,6015.835,5,20,2025-04-22T12:09:26.917+03:00,767005813.448632,0,-20.61,100.4508,1,0.85,2025-04-22T12:10:10.706+03:00,84,1.4,2025-04-22T09:54:17.825+03:00,0.02225348692287972,0
2025-04-22T12:10:14.739+03:00,1745313008.972918,40.95222567643675,29.14026538326243,76.34016,-1,-1,-1,-1,30,20.32104858318339,-9999,29404.28946404167,-0.590118408203125,0.5829315185546875,-0.5639801025390625,29404.27938904167,-0.6572343117127097,-0.8335922916921533,-0.6190512260829067,-0.002167715923860669,-0.1108527779579163,0.0117368521168828,0.01655298471450806,0.004988014698028564,-0.00971376895904541,XArbitraryZVertical,-0.3880700525181521,-0.2750700989932981,-0.1643652079525783,0.864130865264077,-0.6029635667800903,0.5802627205848694,-0.5474761724472046,0,0,0,-1,-1,29382.265214,unknown,2,2025-04-22T12:09:52.710+03:00,2025-04-21T17:08:51.449+03:00,7208,0.9677966,0,0,6015.835,5,20,2025-04-22T12:09:26.917+03:00,767005813.448632,0,-20.61,100.4508,1,0.85,2025-04-22T12:10:10.706+03:00,84,1.4,2025-04-22T09:54:17.825+03:00,0.02225348692287972,0
2025-04-22T12:10:14.749+03:00,1745313008.972918,40.95222567643675,29.14026538326243,76.34016,-1,-1,-1,-1,30,20.32104858318339,-9999,29404.29954004167,-0.5909881591796875,0.579986572265625,-0.564056396484375,29404.28946404167,-0.6570593069537389,-0.8346449267929654,-0.6191435596335763,0.009846002794802189,-0.1260973215103149,0.01650161296129227,0.01554811000823975,0.003295361995697021,-0.01627463102340698,XArbitraryZVertical,-0.3881686287912448,-0.2755404633774652,-0.1640643095664633,0.8639938562514963,-0.6034997701644897,0.5803378820419312,-0.5468051433563232,0,0,0,-1,-1,29382.265214,unknown,2,2025-04-22T12:09:52.710+03:00,2025-04-21T17:08:51.449+03:00,7208,0.9677966,0,0,6015.835,5,20,2025-04-22T12:09:26.917+03:00,767005813.448632,0,-20.61,100.4508,1,0.85,2025-04-22T12:10:10.706+03:00,84,1.4,2025-04-22T09:54:17.825+03:00,0.02225348692287972,0
2025-04-22T12:10:14.759+03:00,1745313008.972918,40.95222567643675,29.14026538326243,76.34016,-1,-1,-1,-1,30,20.32104858318339,-9999,29404.30961604167,-0.5951080322265625,0.57391357421875,-0.56085205078125,29404.29954004167,-0.6567708467255842,-0.8357845801807003,-0.619209730155606,0.0117749311029911,-0.1335962414741516,0.02381172403693199,0.01435708999633789,0.002966880798339844,-0.01772099733352661,XArbitraryZVertical,-0.3882481795067783,-0.2760755808446172,-0.1637034246516595,0.8638557333522052,-0.6040940880775452,0.5803918242454529,-0.5460912585258484,0,0,0,-1,-1,29382.265214,unknown,2,2025-04-22T12:09:52.710+03:00,2025-04-21T17:08:51.449+03:00,7208,0.9677966,0,0,6015.835,5,20,2025-04-22T12:09:26.917+03:00,767005813.448632,0,-20.61,100.4508,1,0.85,2025-04-22T12:10:10.706+03:00,84,1.4,2025-04-22T09:54:17.825+03:00,0.02225348692287972,0
2025-04-22T12:10:14.770+03:00,1745313008.972918,40.95222567643675,29.14026538326243,76.34016,-1,-1,-1,-1,30,20.32104858318339,-9999,29404.31969204167,-0.594146728515625,0.572418212890625,-0.5561676025390625,29404.30961604167,-0.6564526655280589,-0.8369767315248064,-0.619297386887926,0.008679937571287155,-0.1391346901655197,0.02618812955915928,0.01327615976333618,-0.002002596855163574,-0.01788055896759033,XArbitraryZVertical,-0.388336059885982,-0.2766347983414674,-0.1633145631965384,0.8637108773774648,-0.6047068238258362,0.580463171005249,-0.5453366041183472,0,0,0,-1,-1,29382.265214,unknown,2,2025-04-22T12:09:52.710+03:00,2025-04-21T17:08:51.449+03:00,7208,0.9677966,0,0,6015.835,5,20,2025-04-22T12:09:26.917+03:00,767005813.448632,0,-20.61,100.4508,1,0.85,2025-04-22T12:10:10.706+03:00,84,1.4,2025-04-22T09:54:17.825+03:00,0.02225348692287972,0
2025-04-22T12:10:14.780+03:00,1745313008.972918,40.95222567643675,29.14026538326243,76.34016,-1,-1,-1,-1,30,20.32104858318339,-9999,29404.32976804167,-0.591156005859375,0.573272705078125,-0.548187255859375,29404.31969204167,-0.6562079203112693,-0.8382889765946847,-0.6194816858840144,-0.008525148034095764,-0.1450053602457047,0.03328332304954529,0.01008176803588867,-0.006715059280395508,-0.01532810926437378,XArbitraryZVertical,-0.3884813842232006,-0.2772123212337976,-0.1629119896414095,0.8635364353020584,-0.6053424477577209,0.5806132555007935,-0.5444710850715637,0,0,0,-1,-1,29382.265214,unknown,2,2025-04-22T12:09:52.710+03:00,2025-04-21T17:08:51.449+03:00,7208,0.9677966,0,0,6015.835,5,20,2025-04-22T12:09:26.917+03:00,767005813.448632,0,-20.61,100.4508,1,0.85,2025-04-22T12:10:10.706+03:00,84,1.4,2025-04-22T09:54:17.825+03:00,0.02225348692287972,0
2025-04-22T12:10:14.790+03:00,1745313008.972918,40.95222567643675,29.14026538326243,76.34016,-1,-1,-1,-1,30,20.32104858318339,-9999,29404.33984404167,-0.5890350341796875,0.5746002197265625,-0.540283203125,29404.32976804167,-0.6560722535183091,-0.8396758915869701,-0.6198059362226508,-0.02176758274435997,-0.1470025926828384,0.03573323413729668,0.0126798152923584,-0.008504867553710938,-0.01153314113616943,XArbitraryZVertical,-0.3887023890867879,-0.2777729403161717,-0.1625098725707822,0.8633326091912892,-0.6059568524360657,0.5808771848678589,-0.5435053110122681,0,0,0,-1,-1,29382.265214,unknown,2,2025-04-22T12:09:52.710+03:00,2025-04-21T17:08:51.449+03:00,7208,0.9677966,0,0,6015.835,5,20,2025-04-22T12:09:26.917+03:00,767005813.448632,0,-20.61,100.4508,1,0.85,2025-04-22T12:10:10.706+03:00,84,1.4,2025-04-22T09:54:17.825+03:00,0.02225348692287972,0
2025-04-22T12:10:14.800+03:00,1745313008.972918,40.95222567643675,29.14026538326243,76.34016,-1,-1,-1,-1,30,20.32104858318339,-9999,29404.34991904167,-0.58929443359375,0.5709075927734375,-0.537017822265625,29404.33984404167,-0.6560485423902207,-0.8411146438374951,-0.6203001907653448,-0.04314690828323364,-0.1458385288715363,0.03923315927386284,0.01600891351699829,-0.007655918598175049,-0.004586160182952881,XArbitraryZVertical,-0.3890093644281935,-0.2783001832480336,-0.162106837885915,0.8631002746122389,-0.6065241098403931,0.581279456615448,-0.5424414277076721,0,0,0,-1,-1,29382.265214,unknown,2,2025-04-22T12:09:52.710+03:00,2025-04-21T17:08:51.449+03:00,7208,0.9677966,0,0,6015.835,5,20,2025-04-22T12:09:26.917+03:00,767005813.448632,0,-20.61,100.4508,1,0.85,2025-04-22T12:10:10.706+03:00,84,1.4,2025-04-22T09:54:17.825+03:00,0.02225348692287972,0
2025-04-22T12:10:14.829+03:00,1745313008.972918,40.95222567643675,29.14026538326243,76.34016,-1,-1,-1,-1,30,20.32104858318339,-9999,29404.35999504167,-0.5883941650390625,0.5716094970703125,-0.5377960205078125,29404.34991904167,-0.6561833876914854,-0.842633257923544,-0.620988424878769,-0.06294751167297363,-0.1502255499362946,0.04075422510504723,0.01822692155838013,-0.006812036037445068,0.001305878162384033,XArbitraryZVertical,-0.3894204245430588,-0.2787921790609888,-0.1617118120007048,0.8628300787945636,-0.6070483326911926,0.5818393230438232,-0.5412533283233643,0,0,0,-1,-1,29382.265214,unknown,2,2025-04-22T12:09:52.710+03:00,2025-04-21T17:08:51.449+03:00,7208,0.9677966,0,0,6015.835,5,20,2025-04-22T12:09:26.917+03:00,767005813.448632,0,-20.61,100.4508,1,0.85,2025-04-22T12:10:10.706+03:00,84,1.4,2025-04-22T09:54:17.825+03:00,0.02225348692287972,0
2025-04-22T12:10:14.833+03:00,1745313008.972918,40.95222567643675,29.14026538326243,76.34016,-1,-1,-1,-1,30,20.32104858318339,-9999,29404.37007104167,-0.5868988037109375,0.58056640625,-0.5417938232421875,29404.35999504167,-0.6563944404257214,-0.8442489870775391,-0.6217358346373044,-0.06415817886590958,-0.1627655774354935,0.03625534474849701,0.01851606369018555,-0.01240932941436768,0.003529548645019531,XArbitraryZVertical,-0.3898725509297131,-0.2792991024116183,-0.1613166166233735,0.8625359925044217,-0.6075968742370605,0.5824470520019531,-0.539982795715332,0,0,0,-1,-1,29382.265214,unknown,2,2025-04-22T12:09:52.710+03:00,2025-04-21T17:08:51.449+03:00,7208,0.9677966,0,0,6015.835,5,20,2025-04-22T12:09:26.917+03:00,767005813.448632,0,-20.61,100.4508,1,0.85,2025-04-22T12:10:10.706+03:00,84,1.4,2025-04-22T09:54:17.825+03:00,0.02225348692287972,0
2025-04-22T12:10:14.836+03:00,1745313008.972918,40.95222567643675,29.14026538326243,76.34016,-1,-1,-1,-1,30,20.32104858318339,-9999,29404.38014704167,-0.584503173828125,0.59100341796875,-0.53955078125,29404.37007104167,-0.6566014430932594,-0.8460119955101166,-0.6224213092432145,-0.05822259932756424,-0.1805614233016968,0.03340372815728188,0.01977843046188354,-0.01086068153381348,0.0008956789970397949,XArbitraryZVertical,-0.390311343123019,-0.2798822599823514,-0.1609044961739829,0.8622254345587927,-0.6082488894462585,0.5830041170120239,-0.5386459231376648,0,0,0,-1,-1,29382.265214,unknown,2,2025-04-22T12:09:52.710+03:00,2025-04-21T17:08:51.449+03:00,7208,0.9677966,0,0,6015.835,5,20,2025-04-22T12:09:26.917+03:00,767005813.448632,0,-20.61,100.4508,1,0.85,2025-04-22T12:10:10.706+03:00,84,1.4,2025-04-22T09:54:17.825+03:00,0.02225348692287972,0
2025-04-22T12:10:14.840+03:00,1745313008.972918,40.95222567643675,29.14026538326243,76.34016,-1,-1,-1,-1,30,20.32104858318339,-9999,29404.39022304167,-0.5865478515625,0.5882568359375,-0.5318450927734375,29404.38014704167,-0.6568256454956671,-0.8479209379570839,-0.6230276282352836,-0.05733096972107887,-0.1895136535167694,0.02451623044908047,0.02215778827667236,-0.001068770885467529,-0.004162430763244629,XArbitraryZVertical,-0.3907328441864899,-0.2805403271948237,-0.1604888398852131,0.8618981082057414,-0.6090108752250671,0.583496630191803,-0.5372499227523804,0,0,0,-1,-1,29382.265214,unknown,2,2025-04-22T12:09:52.710+03:00,2025-04-21T17:08:51.449+03:00,7208,0.9677966,0,0,6015.835,5,20,2025-04-22T12:09:26.917+03:00,767005813.448632,0,-20.61,100.4508,1,0.85,2025-04-22T12:10:10.706+03:00,84,1.4,2025-04-22T09:54:17.825+03:00,0.02225348692287972,0
2025-04-22T12:10:14.851+03:00,1745313008.972918,40.95222567643675,29.14026538326243,76.34016,-1,-1,-1,-1,30,20.32104858318339,-9999,29404.40029904167,-0.5873565673828125,0.5815277099609375,-0.532012939453125,29404.39022304167,-0.6570737126786659,-0.8499069939052379,-0.623592818666574,-0.06210322305560112,-0.1948656588792801,0.02778998762369156,0.02521878480911255,0.007261395454406738,-0.002859532833099365,XArbitraryZVertical,-0.391147395400878,-0.2812347008610294,-0.1600771642163117,0.8615601644947132,-0.609828770160675,0.5839555263519287,-0.5358214974403381,0,0,0,-1,-1,29382.265214,unknown,2,2025-04-22T12:09:52.710+03:00,2025-04-21T17:08:51.449+03:00,7208,0.9677966,0,0,6015.835,5,20,2025-04-22T12:09:26.917+03:00,767005813.448632,0,-20.61,100.4508,1,0.85,2025-04-22T12:10:10.706+03:00,84,1.4,2025-04-22T09:54:17.825+03:00,0.02225348692287972,0
2025-04-22T12:10:14.861+03:00,1745313008.972918,40.95222567643675,29.14026538326243,76.34016,-1,-1,-1,-1,30,20.32104858318339,-9999,29404.41037404167,-0.583099365234375,0.582366943359375,-0.5394744873046875,29404.40029904167,-0.6573160427960156,-0.8519986471587804,-0.6241667462130601,-0.0539558120071888,-0.2079218029975891,0.0271401759237051,0.02370554208755493,0.002645194530487061,0.003409743309020996,XArbitraryZVertical,-0.3915723781168399,-0.2819734583383962,-0.1596396711222942,0.8612068544780623,-0.6106958985328674,0.5844213366508484,-0.5343241095542908,0,0,0,-1,-1,29382.265214,unknown,2,2025-04-22T12:09:52.710+03:00,2025-04-21T17:08:51.449+03:00,7208,0.9677966,0,0,6015.835,5,20,2025-04-22T12:09:26.917+03:00,767005813.448632,0,-20.61,100.4508,1,0.85,2025-04-22T12:10:10.706+03:00,84,1.4,2025-04-22T09:54:17.825+03:00,0.02225348692287972,0
2025-04-22T12:10:14.871+03:00,1745313008.972918,40.95222567643675,29.14026538326243,76.34016,-1,-1,-1,-1,30,20.32104858318339,-9999,29404.42045004167,-0.5804443359375,0.5919952392578125,-0.5413665771484375,29404.41037404167,-0.6574472049679114,-0.8542252240545741,-0.6245739904085785,-0.0238934513181448,-0.2383121401071548,0.01536850444972515,0.02482104301452637,-0.00328516960144043,0.0003664493560791016,XArbitraryZVertical,-0.391926979491884,-0.2828249041312338,-0.1591657464367825,0.8608539996653373,-0.6117045879364014,0.5847517251968384,-0.5328066349029541,0,0,0,-1,-1,29382.265214,unknown,2,2025-04-22T12:09:52.710+03:00,2025-04-21T17:08:51.449+03:00,7208,0.9677966,0,0,6015.835,5,20,2025-04-22T12:09:26.917+03:00,767005813.448632,0,-20.61,100.4508,1,0.85,2025-04-22T12:10:10.706+03:00,84,1.4,2025-04-22T09:54:17.825+03:00,0.02225348692287972,0
2025-04-22T12:10:14.881+03:00,1745313008.972918,40.95222567643675,29.14026538326243,76.34016,-1,-1,-1,-1,30,20.32104858318339,-9999,29404.43052604167,-0.5843505859375,0.5927734375,-0.53741455078125,29404.42045004167,-0.6573600222122378,-0.8566722459219737,-0.6246755636315608,0.008042910136282444,-0.2761228978633881,-5.945336306467652e-05,0.03027421236038208,-0.001231372356414795,-0.009227573871612549,XArbitraryZVertical,-0.3921485865251088,-0.2838747214682062,-0.1586250015058909,0.8605072358457017,-0.6129616498947144,0.5848341584205627,-0.5312692523002625,0,0,0,-1,-1,29382.265214,unknown,2,2025-04-22T12:09:52.710+03:00,2025-04-21T17:08:51.449+03:00,7208,0.9677966,0,0,6015.835,5,20,2025-04-22T12:09:26.917+03:00,767005813.448632,0,-20.61,100.4508,1,0.85,2025-04-22T12:10:10.706+03:00,84,1.4,2025-04-22T09:54:17.825+03:00,0.02225348692287972,0
2025-04-22T12:10:14.891+03:00,1745313008.972918,40.95222567643675,29.14026538326243,76.34016,-1,-1,-1,-1,30,20.32104858318339,-9999,29404.44060204167,-0.5951385498046875,0.585479736328125,-0.530364990234375,29404.43052604167,-0.6571880158319217,-0.8594870348401736,-0.6244958940002135,0.02438180334866047,-0.3132352530956268,-0.01448213588446379,0.03407460451126099,0.007718682289123535,-0.01160359382629395,XArbitraryZVertical,-0.3922771014486814,-0.2851552188153662,-0.1580407651875066,0.8601326494789026,-0.6145341992378235,0.5846883654594421,-0.5296103358268738,0,0,0,-1,-1,29382.265214,unknown,2,2025-04-22T12:09:52.710+03:00,2025-04-21T17:08:51.449+03:00,7208,0.9677966,0,0,6015.835,5,20,2025-04-22T12:09:26.917+03:00,767005813.448632,0,-20.61,100.4508,1,0.85,2025-04-22T12:10:10.706+03:00,84,1.4,2025-04-22T09:54:17.825+03:00,0.02225348692287972,0
2025-04-22T12:10:14.901+03:00,1745313008.972918,40.95222567643675,29.14026538326243,76.34016,-1,-1,-1,-1,30,20.32104858318339,-9999,29404.45067804167,-0.605224609375,0.5821685791015625,-0.5251312255859375,29404.44060204167,-0.6570626961540316,-0.8626559281493557,-0.6241568715512734,0.02332559414207935,-0.3416855335235596,-0.02682189270853996,0.03162777423858643,0.007856428623199463,-0.008770883083343506,XArbitraryZVertical,-0.3923774103036188,-0.2866101698510904,-0.1574442399247342,0.8597125394573069,-0.6163598299026489,0.5844132900238037,-0.5277891755104065,0,0,0,-1,-1,29382.265214,unknown,2,2025-04-22T12:09:52.710+03:00,2025-04-21T17:08:51.449+03:00,7208,0.9677966,0,0,6015.835,5,20,2025-04-22T12:09:26.917+03:00,767005813.448632,0,-20.61,100.4508,1,0.85,2025-04-22T12:10:10.706+03:00,84,1.4,2025-04-22T09:54:17.825+03:00,0.02225348692287972,0
2025-04-22T12:10:14.911+03:00,1745313008.972918,40.95222567643675,29.14026538326243,76.34016,-1,-1,-1,-1,30,20.32104858318339,-9999,29404.46075304167,-0.6067047119140625,0.5735321044921875,-0.523529052734375,29404.45067804167,-0.6571176775882291,-0.8661708087983374,-0.6238057417210777,0.006928976625204086,-0.3621818125247955,-0.03674965724349022,0.02145898342132568,0.0008782148361206055,-0.004398941993713379,XArbitraryZVertical,-0.3925251072369014,-0.2881801787401328,-0.156860219129128,0.8592270354665912,-0.6183675527572632,0.5841283798217773,-0.5257524251937866,0,0,0,-1,-1,29382.265214,unknown,2,2025-04-22T12:09:52.710+03:00,2025-04-21T17:08:51.449+03:00,7208,0.9677966,0,0,6015.835,5,20,2025-04-22T12:09:26.917+03:00,767005813.448632,0,-20.61,100.4508,1,0.85,2025-04-22T12:10:10.706+03:00,84,1.4,2025-04-22T09:54:17.825+03:00,0.02225348692287972,0
2025-04-22T12:10:14.921+03:00,1745313008.972918,40.95222567643675,29.14026538326243,76.34016,-1,-1,-1,-1,30,20.32104858318339,-9999,29404.47082904167,-0.6103668212890625,0.56683349609375,-0.52581787109375,29404.46075304167,-0.657405680229735,-0.8699886228146098,-0.6235204766495217,-0.01135255862027407,-0.3770055174827576,-0.04694397002458572,0.01461678743362427,-0.002949059009552002,-0.001285076141357422,XArbitraryZVertical,-0.3927549961133463,-0.2898204615538984,-0.1563012401478977,0.8586719404179796,-0.6204975843429565,0.583896815776825,-0.5234951972961426,0,0,0,-1,-1,29382.265214,unknown,2,2025-04-22T12:09:52.710+03:00,2025-04-21T17:08:51.449+03:00,7208,0.9677966,0,0,6015.835,5,20,2025-04-22T12:09:26.917+03:00,767005813.448632,0,-20.61,100.4508,1,0.85,2025-04-22T12:10:10.706+03:00,84,1.4,2025-04-22T09:54:17.825+03:00,0.02225348692287972,0
2025-04-22T12:10:14.931+03:00,1745313008.972918,40.95222567643675,29.14026538326243,76.34016,-1,-1,-1,-1,30,20.32104858318339,-9999,29404.48090504167,-0.605224609375,0.56439208984375,-0.528289794921875,29404.47082904167,-0.6578725671009528,-0.8740507068612837,-0.6232284250965386,-0.01337782666087151,-0.3902035355567932,-0.0611879862844944,0.0157092809677124,-0.01165354251861572,-0.001915216445922852,XArbitraryZVertical,-0.3930266344526862,-0.2915307104222962,-0.1557723074336523,0.8580646162370987,-0.6227496862411499,0.5836596488952637,-0.5210798382759094,0,0,0,-1,-1,29382.265214,unknown,2,2025-04-22T12:09:52.710+03:00,2025-04-21T17:08:51.449+03:00,7208,0.9677966,0,0,6015.835,5,20,2025-04-22T12:09:26.917+03:00,767005813.448632,0,-20.61,100.4508,1,0.85,2025-04-22T12:10:10.706+03:00,84,1.4,2025-04-22T09:54:17.825+03:00,0.02225348692287972,0
2025-04-22T12:10:14.941+03:00,1745313008.972918,40.95222567643675,29.14026538326243,76.34016,-1,-1,-1,-1,30,20.32104858318339,-9999,29404.49098104167,-0.594757080078125,0.5514984130859375,-0.5252227783203125,29404.48090504167,-0.6584729594682919,-0.8783995892376567,-0.6228933483515503,-0.0206647664308548,-0.4205342829227448,-0.06470602750778198,0.01465624570846558,-0.01704239845275879,-0.007677376270294189,XArbitraryZVertical,-0.393322940470112,-0.2933450639109275,-0.1552539189144612,0.8574042233760073,-0.6251604557037354,0.583387553691864,-0.5184914469718933,0,0,0,-1,-1,29382.265214,unknown,2,2025-04-22T12:09:52.710+03:00,2025-04-21T17:08:51.449+03:00,7208,0.9677966,0,0,6015.835,5,20,2025-04-22T12:09:26.917+03:00,767005813.448632,0,-20.61,100.4508,1,0.85,2025-04-22T12:10:10.706+03:00,84,1.4,2025-04-22T09:54:17.825+03:00,0.02225348692287972,0
2025-04-22T12:10:14.951+03:00,1745313008.972918,40.95222567643675,29.14026538326243,76.34016,-1,-1,-1,-1,30,20.32104858318339,-9999,29404.50105704167,-0.5964813232421875,0.545318603515625,-0.5074615478515625,29404.49098104167,-0.6591852223376236,-0.8831197426208827,-0.6225763575336172,-0.02780044078826904,-0.4466955959796906,-0.0654694139957428,0.02412116527557373,-0.02005040645599365,-0.01314115524291992,XArbitraryZVertical,-0.3936711423785277,-0.2952913346843816,-0.1547054923256908,0.8566750032980252,-0.6277436017990112,0.5831300616264343,-0.5156521201133728,0,0,0,-1,-1,29382.265214,unknown,2,2025-04-22T12:09:52.710+03:00,2025-04-21T17:08:51.449+03:00,7208,0.9677966,0,0,6015.835,5,20,2025-04-22T12:09:26.917+03:00,767005813.448632,0,-20.61,100.4508,1,0.85,2025-04-22T12:10:10.706+03:00,84,1.4,2025-04-22T09:54:17.825+03:00,0.02225348692287972,0
2025-04-22T12:10:14.961+03:00,1745313008.972918,40.95222567643675,29.14026538326243,76.34016,-1,-1,-1,-1,30,20.32104858318339,-9999,29404.51113304167,-0.603515625,0.5440826416015625,-0.4897613525390625,29404.50105704167,-0.6600407568485593,-0.8882993146748364,-0.6222735796409471,-0.04020038619637489,-0.4785925447940826,-0.06752245128154755,0.0364115834236145,-0.03262174129486084,-0.011252760887146,XArbitraryZVertical,-0.3940810090212341,-0.2974013703428925,-0.1541237312373085,0.8558612023958699,-0.630543053150177,0.5828840732574463,-0.5125051736831665,0,0,0,-1,-1,29382.265214,unknown,2,2025-04-22T12:09:52.710+03:00,2025-04-21T17:08:51.449+03:00,7208,0.9677966,0,0,6015.835,5,20,2025-04-22T12:09:26.917+03:00,767005813.448632,0,-20.61,100.4508,1,0.85,2025-04-22T12:10:10.706+03:00,84,1.4,2025-04-22T09:54:17.825+03:00,0.02225348692287972,0
2025-04-22T12:10:14.972+03:00,1745313008.972918,40.95222567643675,29.14026538326243,76.34016,-1,-1,-1,-1,30,20.32104858318339,-9999,29404.52120804167,-0.605224609375,0.5364532470703125,-0.481231689453125,29404.51113304167,-0.660998618695998,-0.8938482963390509,-0.6220766070470274,-0.05131569132208824,-0.516024112701416,-0.05986496433615685,0.03622239828109741,-0.03816848993301392,0.003790795803070068,XArbitraryZVertical,-0.3945748924827324,-0.2996255866604251,-0.1534863978271117,0.8549719319504759,-0.6334667205810547,0.5827240347862244,-0.5090703368186951,0,0,0,-1,-1,29382.265214,unknown,2,2025-04-22T12:09:52.710+03:00,2025-04-21T17:08:51.449+03:00,7208,0.9677966,0,0,6015.835,5,20,2025-04-22T12:09:26.917+03:00,767005813.448632,0,-20.61,100.4508,1,0.85,2025-04-22T12:10:10.706+03:00,84,1.4,2025-04-22T09:54:17.825+03:00,0.02225348692287972,0
2025-04-22T12:10:14.981+03:00,1745313008.972918,40.95222567643675,29.14026538326243,76.34016,-1,-1,-1,-1,30,20.32104858318339,-9999,29404.53128404167,-0.5978851318359375,0.5238189697265625,-0.4791717529296875,29404.52120804167,-0.6621377342560585,-0.8999367901896126,-0.6220599378912848,-0.09190945327281952,-0.562122106552124,-0.05391626060009003,0.0321614146232605,-0.03981810808181763,0.01674574613571167,XArbitraryZVertical,-0.3952059739532046,-0.3020052663905194,-0.1527749314601932,0.8539700534543906,-0.6365620493888855,0.5827104449272156,-0.5052101016044617,0,0,0,-1,-1,29382.265214,unknown,2,2025-04-22T12:09:52.710+03:00,2025-04-21T17:08:51.449+03:00,7208,0.9677966,0,0,6015.835,5,20,2025-04-22T12:09:26.917+03:00,767005813.448632,0,-20.61,100.4508,1,0.85,2025-04-22T12:10:10.706+03:00,84,1.4,2025-04-22T09:54:17.825+03:00,0.02225348692287972,0
2025-04-22T12:10:14.991+03:00,1745313008.972918,40.95222567643675,29.14026538326243,76.34016,-1,-1,-1,-1,30,20.32104858318339,-9999,29404.54136004167,-0.5825958251953125,0.504364013671875,-0.4794769287109375,29404.53128404167,-0.6635876351640253,-0.906734702751235,-0.6224466760142031,-0.1466878801584244,-0.6188966035842896,-0.03058716841042042,0.03451848030090332,-0.04825007915496826,0.02053815126419067,XArbitraryZVertical,-0.3960919539031904,-0.3045407394308476,-0.1519554815411414,0.8528044802571382,-0.6398041248321533,0.5830247402191162,-0.5007321834564209,0,0,0,-1,-1,29382.265214,unknown,2,2025-04-22T12:09:52.710+03:00,2025-04-21T17:08:51.449+03:00,7208,0.9677966,0,0,6015.835,5,20,2025-04-22T12:09:26.917+03:00,767005813.448632,0,-20.61,100.4508,1,0.85,2025-04-22T12:10:10.706+03:00,84,1.4,2025-04-22T09:54:17.825+03:00,0.02225348692287972,0
