loggingTime(txt),locationTimestamp_since1970(s),locationLatitude(WGS84),locationLongitude(WGS84),locationAltitude(m),locationSpeed(m/s),locationSpeedAccuracy(m/s),locationCourse(°),locationCourseAccuracy(°),locationVerticalAccuracy(m),locationHorizontalAccuracy(m),locationFloor(Z),accelerometerTimestamp_sinceReboot(s),accelerometerAccelerationX(G),accelerometerAccelerationY(G),accelerometerAccelerationZ(G),motionTimestamp_sinceReboot(s),motionYaw(rad),motionRoll(rad),motionPitch(rad),motionRotationRateX(rad/s),motionRotationRateY(rad/s),motionRotationRateZ(rad/s),motionUserAccelerationX(G),motionUserAccelerationY(G),motionUserAccelerationZ(G),motionAttitudeReferenceFrame(txt),motionQuaternionX(R),motionQuaternionY(R),motionQuaternionZ(R),motionQuaternionW(R),motionGravityX(G),motionGravityY(G),motionGravityZ(G),motionMagneticFieldX(µT),motionMagneticFieldY(µT),motionMagneticFieldZ(µT),motionHeading(°),motionMagneticFieldCalibrationAccuracy(Z),activityTimestamp_sinceReboot(s),activity(txt),activityActivityConfidence(Z),activityActivityStartDate(txt),pedometerStartDate(txt),pedometerNumberofSteps(N),pedometerAverageActivePace(s/m),pedometerCurrentPace(s/m),pedometerCurrentCadence(steps/s),pedometerDistance(m),pedometerFloorAscended(N),pedometerFloorDescended(N),pedometerEndDate(txt),altimeterTimestamp_sinceReboot(s),altimeterReset(bool),altimeterRelativeAltitude(m),altimeterPressure(kPa),batteryState(N),batteryLevel(R),heartRateBPMTimestamp(txt),heartRateBPM(N),heartRateBPS(R),heartRateVariabilityTimestamp(txt),heartRateVariability(ms),label
2025-04-22T17:17:43.336+03:00,1745331459.217669,40.95219958186703,29.14026822168964,76.1451,-1,-1,-1,-1,30,18.38710864918669,-9999,39270.69101754167,-0.7772979736328125,0.439849853515625,-0.3459320068359375,39270.68094154167,-2.773829746353874,-1.134773710442796,-0.5152293622294249,-0.02181548066437244,-0.02778409421443939,0.008705440908670425,-0.0645221471786499,-0.002591699361801147,-0.009489476680755615,XArbitraryZVertical,0.5502192272245439,-0.1162067533639962,0.7766955253011429,-0.2837231981493472,-0.7887645363807678,0.4927344620227814,-0.3675095736980438,0,0,0,-1,-1,39266.84337537501,unknown,2,2025-04-22T17:17:39.459+03:00,2025-04-21T17:08:51.449+03:00,9030,1.057261,0,0,7531.346,7,22,2025-04-22T17:16:53.031+03:00,767024262.1388104,0,-10.57,100.3307,1,0.4,2025-04-22T17:17:39.158+03:00,85,1.416666666666667,2025-04-22T14:20:19.516+03:00,0.02197104130929222,0
2025-04-22T17:17:43.337+03:00,1745331459.217669,40.95219958186703,29.14026822168964,76.1451,-1,-1,-1,-1,30,18.38710864918669,-9999,39270.70109254167,-0.8095855712890625,0.5187225341796875,-0.361419677734375,39270.69101754167,-2.774005158504764,-1.134926541862878,-0.515435027407649,-0.01000063493847847,0.01219714432954788,0.01111400313675404,0.01053065061569214,-0.06491971015930176,0.02297043800354004,XArbitraryZVertical,0.5502698676557929,-0.1163183553937613,0.7766468344651914,-0.2837124626884049,-0.7887287735939026,0.4929133951663971,-0.3673462271690369,0,0,0,-1,-1,39266.84337537501,unknown,2,2025-04-22T17:17:39.459+03:00,2025-04-21T17:08:51.449+03:00,9030,1.057261,0,0,7531.346,7,22,2025-04-22T17:16:53.031+03:00,767024262.1388104,0,-10.57,100.3307,1,0.4,2025-04-22T17:17:39.158+03:00,85,1.416666666666667,2025-04-22T14:20:19.516+03:00,0.02197104130929222,0
2025-04-22T17:17:43.338+03:00,1745331459.217669,40.95219958186703,29.14026822168964,76.1451,-1,-1,-1,-1,30,18.38710864918669,-9999,39270.71116854167,-0.791015625,0.5299224853515625,-0.3609161376953125,39270.70109254167,-2.773869196740985,-1.134695229093878,-0.5154515856534104,0.02759521082043648,0.01552769355475903,0.003561544930562377,0.005097687244415283,-0.0437244176864624,0.01895326375961304,XArbitraryZVertical,0.5501880659997608,-0.1163206086009615,0.7766886580856357,-0.2837557146371804,-0.7886363863945007,0.4929278194904327,-0.3675252199172974,0,0,0,-1,-1,39266.84337537501,unknown,2,2025-04-22T17:17:39.459+03:00,2025-04-21T17:08:51.449+03:00,9030,1.057261,0,0,7531.346,7,22,2025-04-22T17:16:53.031+03:00,767024262.1388104,0,-10.57,100.3307,1,0.4,2025-04-22T17:17:39.158+03:00,85,1.416666666666667,2025-04-22T14:20:19.516+03:00,0.02197104130929222,0
2025-04-22T17:17:43.345+03:00,1745331459.217669,40.95219958186703,29.14026822168964,76.1451,-1,-1,-1,-1,30,18.38710864918669,-9999,39270.72124454167,-0.7820281982421875,0.491851806640625,-0.35284423828125,39270.71116854167,-2.773514717154597,-1.134464025686553,-0.5153326354307594,0.03009898215532303,-0.000584297813475132,0.002457731170579791,-0.02070629596710205,0.03259670734405518,0.005610555410385132,XArbitraryZVertical,0.550118029805955,-0.1162067466312255,0.7767201110796954,-0.2838518833709933,-0.7886044383049011,0.4928243160247803,-0.3677322864532471,0,0,0,-1,-1,39266.84337537501,unknown,2,2025-04-22T17:17:39.459+03:00,2025-04-21T17:08:51.449+03:00,9030,1.057261,0,0,7531.346,7,22,2025-04-22T17:16:53.031+03:00,767024262.1388104,0,-10.57,100.3307,1,0.4,2025-04-22T17:17:39.158+03:00,85,1.416666666666667,2025-04-22T14:20:19.516+03:00,0.02197104130929222,0
2025-04-22T17:17:43.357+03:00,1745331459.217669,40.95219958186703,29.14026822168964,76.1451,-1,-1,-1,-1,30,18.38710864918669,-9999,39270.73131954167,-0.7867889404296875,0.4763641357421875,-0.348602294921875,39270.72124454167,-2.773325673145362,-1.134405353439339,-0.5152825786072095,0.005090034566819668,0.002103364560753107,0.006712397094815969,4.64320182800293e-05,0.03273186087608337,0.006994783878326416,XArbitraryZVertical,0.5501058513453965,-0.1161423748203747,0.7767171221141596,-0.2839100988088334,-0.788605272769928,0.4927807450294495,-0.3677890002727509,0,0,0,-1,-1,39266.84337537501,unknown,2,2025-04-22T17:17:39.459+03:00,2025-04-21T17:08:51.449+03:00,9030,1.057261,0,0,7531.346,7,22,2025-04-22T17:16:53.031+03:00,767024262.1388104,0,-10.57,100.3307,1,0.4,2025-04-22T17:17:39.158+03:00,85,1.416666666666667,2025-04-22T14:20:19.516+03:00,0.02197104130929222,0
2025-04-22T17:17:43.361+03:00,1745331459.217669,40.95219958186703,29.14026822168964,76.1451,-1,-1,-1,-1,30,18.38710864918669,-9999,39270.74139554167,-0.78802490234375,0.4870758056640625,-0.35675048828125,39270.73131954167,-2.773326064767531,-1.134352873378945,-0.5153405426910969,-0.00819834042340517,0.004189684987068176,0.007806557230651379,0.006013214588165283,-0.004641592502593994,0.01534008979797363,XArbitraryZVertical,0.5500858746279225,-0.1161738963774865,0.7767227318853116,-0.2839205607412871,-0.7885600924491882,0.4928312003612518,-0.3678183257579803,0,0,0,-1,-1,39266.84337537501,unknown,2,2025-04-22T17:17:39.459+03:00,2025-04-21T17:08:51.449+03:00,9030,1.057261,0,0,7531.346,7,22,2025-04-22T17:16:53.031+03:00,767024262.1388104,0,-10.57,100.3307,1,0.4,2025-04-22T17:17:39.158+03:00,85,1.416666666666667,2025-04-22T14:20:19.516+03:00,0.02197104130929222,0
2025-04-22T17:17:43.371+03:00,1745331459.217669,40.95219958186703,29.14026822168964,76.1451,-1,-1,-1,-1,30,18.38710864918669,-9999,39270.75147154167,-0.7818145751953125,0.500244140625,-0.3654022216796875,39270.74139554167,-2.773348985257293,-1.134312985808196,-0.5154574864007562,-0.002666155574843287,-0.003328684717416763,0.003468800336122513,0.0005599856376647949,-0.01638579368591309,0.01847520470619202,XArbitraryZVertical,0.5500699245760468,-0.1162342263692702,0.776718962275579,-0.283936891689694,-0.7884930968284607,0.4929329454898834,-0.3678253591060638,0,0,0,-1,-1,39266.84337537501,unknown,2,2025-04-22T17:17:39.459+03:00,2025-04-21T17:08:51.449+03:00,9030,1.057261,0,0,7531.346,7,22,2025-04-22T17:16:53.031+03:00,767024262.1388104,0,-10.57,100.3307,1,0.4,2025-04-22T17:17:39.158+03:00,85,1.416666666666667,2025-04-22T14:20:19.516+03:00,0.02197104130929222,0
2025-04-22T17:17:43.381+03:00,1745331459.217669,40.95219958186703,29.14026822168964,76.1451,-1,-1,-1,-1,30,18.38710864918669,-9999,39270.76154754167,-0.7821502685546875,0.49835205078125,-0.3652191162109375,39270.75147154167,-2.773281318658499,-1.134342691268221,-0.5155223576683456,0.007597733289003372,-0.007727894466370344,0.005598164163529873,0.0004655718803405762,-0.004693001508712769,0.00980183482170105,XArbitraryZVertical,0.5500858671256519,-0.1162382132896273,0.7766912644466931,-0.2839801882343732,-0.7884750962257385,0.4929893910884857,-0.3677884340286255,0,0,0,-1,-1,39266.84337537501,unknown,2,2025-04-22T17:17:39.459+03:00,2025-04-21T17:08:51.449+03:00,9030,1.057261,0,0,7531.346,7,22,2025-04-22T17:16:53.031+03:00,767024262.1388104,0,-10.57,100.3307,1,0.4,2025-04-22T17:17:39.158+03:00,85,1.416666666666667,2025-04-22T14:20:19.516+03:00,0.02197104130929222,0
2025-04-22T17:17:43.394+03:00,1745331459.217669,40.95219958186703,29.14026822168964,76.1451,-1,-1,-1,-1,30,18.38710864918669,-9999,39270.77162254167,-0.7861480712890625,0.491912841796875,-0.3628387451171875,39270.76154754167,-2.773104209088275,-1.134337995974757,-0.5155131731754198,0.02085415087640285,-0.003410111647099257,0.01028106641024351,0.007731139659881592,0.007293164730072021,0.001964390277862549,XArbitraryZVertical,0.5500942610091827,-0.1161863618278779,0.7766688524537054,-0.2840465358119453,-0.7884774804115295,0.4929814040660858,-0.3677940666675568,0,0,0,-1,-1,39266.84337537501,unknown,2,2025-04-22T17:17:39.459+03:00,2025-04-21T17:08:51.449+03:00,9030,1.057261,0,0,7531.346,7,22,2025-04-22T17:16:53.031+03:00,767024262.1388104,0,-10.57,100.3307,1,0.4,2025-04-22T17:17:39.158+03:00,85,1.416666666666667,2025-04-22T14:20:19.516+03:00,0.02197104130929222,0
2025-04-22T17:17:43.401+03:00,1745331459.217669,40.95219958186703,29.14026822168964,76.1451,-1,-1,-1,-1,30,18.38710864918669,-9999,39270.78169854167,-0.78765869140625,0.493438720703125,-0.3612823486328125,39270.77162254167,-2.77278399109681,-1.134180603057047,-0.5154632607897888,0.02952014282345772,0.002745585748925805,0.01025553420186043,0.005895018577575684,0.003720283508300781,0.002999186515808105,XArbitraryZVertical,0.5500513599604896,-0.1161000067182128,0.7766743327422682,-0.2841499911825965,-0.7884418964385986,0.4929379820823669,-0.3679285943508148,0,0,0,-1,-1,39266.84337537501,unknown,2,2025-04-22T17:17:39.459+03:00,2025-04-21T17:08:51.449+03:00,9030,1.057261,0,0,7531.346,7,22,2025-04-22T17:16:53.031+03:00,767024262.1388104,0,-10.57,100.3307,1,0.4,2025-04-22T17:17:39.158+03:00,85,1.416666666666667,2025-04-22T14:20:19.516+03:00,0.02197104130929222,0
2025-04-22T17:17:43.412+03:00,1745331459.217669,40.95219958186703,29.14026822168964,76.1451,-1,-1,-1,-1,30,18.38710864918669,-9999,39270.79177454167,-0.78619384765625,0.49298095703125,-0.3592529296875,39270.78169854167,-2.772413022903247,-1.133968665508044,-0.5153734292487302,0.03275881335139275,0.001327452715486288,0.006124704144895077,0.002439260482788086,-0.001999914646148682,0.005382299423217773,XArbitraryZVertical,0.5499898946491066,-0.1159909499843429,0.7766937339935164,-0.2842606040408021,-0.788404107093811,0.492859810590744,-0.3681144416332245,0,0,0,-1,-1,39266.84337537501,unknown,2,2025-04-22T17:17:39.459+03:00,2025-04-21T17:08:51.449+03:00,9030,1.057261,0,0,7531.346,7,22,2025-04-22T17:16:53.031+03:00,767024262.1388104,0,-10.57,100.3307,1,0.4,2025-04-22T17:17:39.158+03:00,85,1.416666666666667,2025-04-22T14:20:19.516+03:00,0.02197104130929222,0
2025-04-22T17:17:43.422+03:00,1745331459.217669,40.95219958186703,29.14026822168964,76.1451,-1,-1,-1,-1,30,18.38710864918669,-9999,39270.80184954167,-0.7883453369140625,0.485809326171875,-0.353546142578125,39270.79177454167,-2.772064126723443,-1.133769842862773,-0.5152940326273449,0.02825607359409332,0.004996889270842075,0.006974452640861273,0.001150190830230713,0.0004495084285736084,0.006761044263839722,XArbitraryZVertical,0.5499323233622497,-0.115890473654076,0.7767108422854622,-0.2843658520337257,-0.7883661985397339,0.4927907288074493,-0.3682876825332642,0,0,0,-1,-1,39266.84337537501,unknown,2,2025-04-22T17:17:39.459+03:00,2025-04-21T17:08:51.449+03:00,9030,1.057261,0,0,7531.346,7,22,2025-04-22T17:16:53.031+03:00,767024262.1388104,0,-10.57,100.3307,1,0.4,2025-04-22T17:17:39.158+03:00,85,1.416666666666667,2025-04-22T14:20:19.516+03:00,0.02197104130929222,0
2025-04-22T17:17:43.432+03:00,1745331459.217669,40.95219958186703,29.14026822168964,76.1451,-1,-1,-1,-1,30,18.38710864918669,-9999,39270.81192554167,-0.793060302734375,0.483642578125,-0.35321044921875,39270.80184954167,-2.771793764066388,-1.133563334811744,-0.5152802972231282,0.01432987116277218,0.008503207005560398,0.008945191279053688,0.001797378063201904,-0.0007287263870239258,0.01058879494667053,XArbitraryZVertical,0.5498676851256311,-0.1158398302233503,0.7767312521218966,-0.2844556481769709,-0.7882962226867676,0.4927787780761719,-0.368453323841095,0,0,0,-1,-1,39266.84337537501,unknown,2,2025-04-22T17:17:39.459+03:00,2025-04-21T17:08:51.449+03:00,9030,1.057261,0,0,7531.346,7,22,2025-04-22T17:16:53.031+03:00,767024262.1388104,0,-10.57,100.3307,1,0.4,2025-04-22T17:17:39.158+03:00,85,1.416666666666667,2025-04-22T14:20:19.516+03:00,0.02197104130929222,0
2025-04-22T17:17:43.442+03:00,1745331459.217669,40.95219958186703,29.14026822168964,76.1451,-1,-1,-1,-1,30,18.38710864918669,-9999,39270.82200154167,-0.79168701171875,0.4831695556640625,-0.358001708984375,39270.81192554167,-2.77165771743917,-1.133420013502569,-0.5153123250257886,0.003347394987940788,0.008561130613088608,0.007760550826787949,-0.0008789300918579102,-0.007272124290466309,0.01533374190330505,XArbitraryZVertical,0.5498201561335543,-0.11583606376635,0.7767463642471119,-0.2845077185307694,-0.7882291078567505,0.4928066432476044,-0.3685595989227295,0,0,0,-1,-1,39266.84337537501,unknown,2,2025-04-22T17:17:39.459+03:00,2025-04-21T17:08:51.449+03:00,9030,1.057261,0,0,7531.346,7,22,2025-04-22T17:16:53.031+03:00,767024262.1388104,0,-10.57,100.3307,1,0.4,2025-04-22T17:17:39.158+03:00,85,1.416666666666667,2025-04-22T14:20:19.516+03:00,0.02197104130929222,0
2025-04-22T17:17:43.452+03:00,1745331459.217669,40.95219958186703,29.14026822168964,76.1451,-1,-1,-1,-1,30,18.38710864918669,-9999,39270.83207654167,-0.78802490234375,0.4892120361328125,-0.360931396484375,39270.82200154167,-2.771611206946061,-1.133344983181947,-0.5153807896926389,-0.0008449529414065182,0.002279532607644796,0.008629807271063328,-0.005056977272033691,-0.008903294801712036,0.01505821943283081,XArbitraryZVertical,0.549794217029557,-0.1158622296708877,0.7767500421356894,-0.2845375765774423,-0.7881710529327393,0.4928662180900574,-0.3686045110225677,0,0,0,-1,-1,39266.84337537501,unknown,2,2025-04-22T17:17:39.459+03:00,2025-04-21T17:08:51.449+03:00,9030,1.057261,0,0,7531.346,7,22,2025-04-22T17:16:53.031+03:00,767024262.1388104,0,-10.57,100.3307,1,0.4,2025-04-22T17:17:39.158+03:00,85,1.416666666666667,2025-04-22T14:20:19.516+03:00,0.02197104130929222,0
2025-04-22T17:17:43.462+03:00,1745331459.217669,40.95219958186703,29.14026822168964,76.1451,-1,-1,-1,-1,30,18.38710864918669,-9999,39270.84215212501,-0.786590576171875,0.493927001953125,-0.3634796142578125,39270.83207654167,-2.771561530423709,-1.133337690071179,-0.5154242117601602,0.006556238047778606,-0.002606302499771118,0.004615358076989651,-0.003370106220245361,-0.008742719888687134,0.01006525754928589,XArbitraryZVertical,0.5497946092560864,-0.1158675788155392,0.7767382645044955,-0.284566657879528,-0.7881489396095276,0.492904007434845,-0.3686011731624603,0,0,0,-1,-1,39266.84337537501,unknown,2,2025-04-22T17:17:39.459+03:00,2025-04-21T17:08:51.449+03:00,9030,1.057261,0,0,7531.346,7,22,2025-04-22T17:16:53.031+03:00,767024262.1388104,0,-10.57,100.3307,1,0.4,2025-04-22T17:17:39.158+03:00,85,1.416666666666667,2025-04-22T14:20:19.516+03:00,0.02197104130929222,0
2025-04-22T17:17:43.472+03:00,1745331459.217669,40.95219958186703,29.14026822168964,76.1451,-1,-1,-1,-1,30,18.38710864918669,-9999,39270.852228125,-0.7864227294921875,0.4931640625,-0.36456298828125,39270.84215212501,-2.771474531466504,-1.133336276684131,-0.5154656980737151,0.007865980267524719,-0.00737043097615242,0.003522929036989808,1.353025436401367e-05,-0.002568483352661133,0.007128030061721802,XArbitraryZVertical,0.5497994352477091,-0.1158610346019508,0.7767198371957961,-0.2846101153677079,-0.7881298065185547,0.4929400980472565,-0.3685936033725739,0,0,0,-1,-1,39266.84337537501,unknown,2,2025-04-22T17:17:39.459+03:00,2025-04-21T17:08:51.449+03:00,9030,1.057261,0,0,7531.346,7,22,2025-04-22T17:16:53.031+03:00,767024262.1388104,0,-10.57,100.3307,1,0.4,2025-04-22T17:17:39.158+03:00,85,1.416666666666667,2025-04-22T14:20:19.516+03:00,0.02197104130929222,0
2025-04-22T17:17:43.482+03:00,1745331459.217669,40.95219958186703,29.14026822168964,76.1451,-1,-1,-1,-1,30,18.38710864918669,-9999,39270.862304125,-0.7899169921875,0.491790771484375,-0.3657684326171875,39270.852228125,-2.771312419627013,-1.133366794177621,-0.5154778782988912,0.01962536759674549,-0.01634215377271175,0.005097090266644955,0.001987755298614502,0.001311928033828735,0.00548398494720459,XArbitraryZVertical,0.549820751155482,-0.1158171364345378,0.7766866369190993,-0.2846777260940667,-0.7881357669830322,0.4929506778717041,-0.3685670793056488,0,0,0,-1,-1,39266.84337537501,unknown,2,2025-04-22T17:17:39.459+03:00,2025-04-21T17:08:51.449+03:00,9030,1.057261,0,0,7531.346,7,22,2025-04-22T17:16:53.031+03:00,767024262.1388104,0,-10.57,100.3307,1,0.4,2025-04-22T17:17:39.158+03:00,85,1.416666666666667,2025-04-22T14:20:19.516+03:00,0.02197104130929222,0
2025-04-22T17:17:43.492+03:00,1745331459.217669,40.95219958186703,29.14026822168964,76.1451,-1,-1,-1,-1,30,18.38710864918669,-9999,39270.872379125,-0.7919464111328125,0.49517822265625,-0.36297607421875,39270.862304125,-2.771051716537708,-1.133383530762977,-0.5154335392139261,0.02694586478173733,-0.009648298844695091,0.006299773696810007,0.001327097415924072,-0.0003737509250640869,0.003420114517211914,XArbitraryZVertical,0.5498419911905172,-0.1157247450402419,0.7766517352985021,-0.2847695025769965,-0.7881616950035095,0.4929121136665344,-0.3685631453990936,0,0,0,-1,-1,39266.84337537501,unknown,2,2025-04-22T17:17:39.459+03:00,2025-04-21T17:08:51.449+03:00,9030,1.057261,0,0,7531.346,7,22,2025-04-22T17:16:53.031+03:00,767024262.1388104,0,-10.57,100.3307,1,0.4,2025-04-22T17:17:39.158+03:00,85,1.416666666666667,2025-04-22T14:20:19.516+03:00,0.02197104130929222,0
2025-04-22T17:17:43.502+03:00,1745331459.217669,40.95219958186703,29.14026822168964,76.1451,-1,-1,-1,-1,30,18.38710864918669,-9999,39270.882455125,-0.793426513671875,0.4922637939453125,-0.35491943359375,39270.872379125,-2.770693831631638,-1.133282065359765,-0.5153253410572849,0.04149477928876877,-0.002814295701682568,-0.0004477109177969396,-0.001484930515289307,-0.0003406405448913574,0.003339558839797974,XArbitraryZVertical,0.5498224493221194,-0.1155960923495925,0.7766451244221195,-0.2848771292023627,-0.7881724834442139,0.4928179681301117,-0.3686656355857849,0,0,0,-1,-1,39266.84337537501,unknown,2,2025-04-22T17:17:39.459+03:00,2025-04-21T17:08:51.449+03:00,9030,1.057261,0,0,7531.346,7,22,2025-04-22T17:16:53.031+03:00,767024262.1388104,0,-10.57,100.3307,1,0.4,2025-04-22T17:17:39.158+03:00,85,1.416666666666667,2025-04-22T14:20:19.516+03:00,0.02197104130929222,0
2025-04-22T17:17:43.512+03:00,1745331459.217669,40.95219958186703,29.14026822168964,76.1451,-1,-1,-1,-1,30,18.38710864918669,-9999,39270.89253112501,-0.7926177978515625,0.4912109375,-0.3500518798828125,39270.882455125,-2.770273738171804,-1.133109900164926,-0.5151380917195671,0.04232648387551308,0.0009815078228712082,-0.002250937279313803,-0.0040740966796875,0.003301262855529785,0.007283300161361694,XArbitraryZVertical,0.5497783443849847,-0.1154276947619538,0.7766613656349489,-0.2849862728013034,-0.7881925702095032,0.4926550388336182,-0.3688404262065887,0,0,0,-1,-1,39266.84337537501,unknown,2,2025-04-22T17:17:39.459+03:00,2025-04-21T17:08:51.449+03:00,9030,1.057261,0,0,7531.346,7,22,2025-04-22T17:16:53.031+03:00,767024262.1388104,0,-10.57,100.3307,1,0.4,2025-04-22T17:17:39.158+03:00,85,1.416666666666667,2025-04-22T14:20:19.516+03:00,0.02197104130929222,0
2025-04-22T17:17:43.522+03:00,1745331459.217669,40.95219958186703,29.14026822168964,76.1451,-1,-1,-1,-1,30,18.38710864918669,-9999,39270.902606125,-0.78936767578125,0.493133544921875,-0.35595703125,39270.89253112501,-2.769904803151717,-1.132928552704181,-0.5149331657549664,0.03393646329641342,0.005805558059364557,-0.004902380518615246,-0.004751503467559814,-0.0008081197738647461,0.01497629284858704,XArbitraryZVertical,0.549727527243614,-0.1152673814125033,0.7766900610072477,-0.2850708833408366,-0.7882170677185059,0.4924766719341278,-0.3690261542797089,0,0,0,-1,-1,39266.84337537501,unknown,2,2025-04-22T17:17:39.459+03:00,2025-04-21T17:08:51.449+03:00,9030,1.057261,0,0,7531.346,7,22,2025-04-22T17:16:53.031+03:00,767024262.1388104,0,-10.57,100.3307,1,0.4,2025-04-22T17:17:39.158+03:00,85,1.416666666666667,2025-04-22T14:20:19.516+03:00,0.02197104130929222,0
2025-04-22T17:17:43.532+03:00,1745331459.217669,40.95219958186703,29.14026822168964,76.1451,-1,-1,-1,-1,30,18.38710864918669,-9999,39270.912682125,-0.78948974609375,0.4845428466796875,-0.3589019775390625,39270.902606125,-2.769652828184705,-1.132792843299541,-0.5147314833063087,0.02138365246355534,0.003275022143498063,-0.005301321856677532,-0.003658771514892578,-0.000846177339553833,0.01788726449012756,XArbitraryZVertical,0.5496876598012783,-0.1151340438612028,0.7767224512968162,-0.2851135040220302,-0.7882569432258606,0.4923011362552643,-0.3691752552986145,0,0,0,-1,-1,39266.84337537501,unknown,2,2025-04-22T17:17:39.459+03:00,2025-04-21T17:08:51.449+03:00,9030,1.057261,0,0,7531.346,7,22,2025-04-22T17:16:53.031+03:00,767024262.1388104,0,-10.57,100.3307,1,0.4,2025-04-22T17:17:39.158+03:00,85,1.416666666666667,2025-04-22T14:20:19.516+03:00,0.02197104130929222,0
2025-04-22T17:17:43.543+03:00,1745331459.217669,40.95219958186703,29.14026822168964,76.1451,-1,-1,-1,-1,30,18.38710864918669,-9999,39270.922758125,-0.787200927734375,0.4771728515625,-0.3601837158203125,39270.912682125,-2.769535314976107,-1.132739459856533,-0.5146299651483183,0.008440557867288589,0.001521463971585035,6.824033334851265e-06,-0.001130819320678711,-0.0002084672451019287,0.01267099380493164,XArbitraryZVertical,0.5496728347336441,-0.1150673567352477,0.776736005310135,-0.2851322085184628,-0.788282573223114,0.4922127723693848,-0.369238555431366,0,0,0,-1,-1,39266.84337537501,unknown,2,2025-04-22T17:17:39.459+03:00,2025-04-21T17:08:51.449+03:00,9030,1.057261,0,0,7531.346,7,22,2025-04-22T17:16:53.031+03:00,767024262.1388104,0,-10.57,100.3307,1,0.4,2025-04-22T17:17:39.158+03:00,85,1.416666666666667,2025-04-22T14:20:19.516+03:00,0.02197104130929222,0
2025-04-22T17:17:43.553+03:00,1745331459.217669,40.95219958186703,29.14026822168964,76.1451,-1,-1,-1,-1,30,18.38710864918669,-9999,39270.932834125,-0.7845306396484375,0.481414794921875,-0.3623046875,39270.922758125,-2.769534809504737,-1.132727922052016,-0.5146353811787767,-0.004115447867661715,0.001255680341273546,0.002278500469401479,-0.0009848475456237793,-0.009063303470611572,0.01045116782188416,XArbitraryZVertical,0.5496684315262345,-0.1150711071872499,0.7767382518622576,-0.2851330110525105,-0.7882758378982544,0.492217481136322,-0.3692465126514435,0,0,0,-1,-1,39266.84337537501,unknown,2,2025-04-22T17:17:39.459+03:00,2025-04-21T17:08:51.449+03:00,9030,1.057261,0,0,7531.346,7,22,2025-04-22T17:16:53.031+03:00,767024262.1388104,0,-10.57,100.3307,1,0.4,2025-04-22T17:17:39.158+03:00,85,1.416666666666667,2025-04-22T14:20:19.516+03:00,0.02197104130929222,0
2025-04-22T17:17:43.563+03:00,1745331459.217669,40.95219958186703,29.14026822168964,76.1451,-1,-1,-1,-1,30,18.38710864918669,-9999,39270.94290912501,-0.781829833984375,0.4835052490234375,-0.365478515625,39270.932834125,-2.769608108891437,-1.132801550596143,-0.514700873730361,-0.009122323244810104,-0.007327022030949593,0.003916144836694002,0.001393496990203857,-0.01481181383132935,0.008853614330291748,XArbitraryZVertical,0.5496933449328096,-0.1151078311801337,0.7767184798268063,-0.2851241907675356,-0.7882739305496216,0.4922744929790497,-0.3691748380661011,0,0,0,-1,-1,39266.84337537501,unknown,2,2025-04-22T17:17:39.459+03:00,2025-04-21T17:08:51.449+03:00,9030,1.057261,0,0,7531.346,7,22,2025-04-22T17:16:53.031+03:00,767024262.1388104,0,-10.57,100.3307,1,0.4,2025-04-22T17:17:39.158+03:00,85,1.416666666666667,2025-04-22T14:20:19.516+03:00,0.02197104130929222,0
2025-04-22T17:17:43.573+03:00,1745331459.217669,40.95219958186703,29.14026822168964,76.1451,-1,-1,-1,-1,30,18.38710864918669,-9999,39270.952985125,-0.78326416015625,0.4876251220703125,-0.3686370849609375,39270.94290912501,-2.769704187128969,-1.132972926568444,-0.5147898840264499,-0.01528833992779255,-0.01129246782511473,0.005047988146543503,0.003766894340515137,-0.009869158267974854,0.006075441837310791,XArbitraryZVertical,0.5497551118655793,-0.1151466275691953,0.7766713848563214,-0.2851176711274403,-0.7882974743843079,0.4923519790172577,-0.3690211474895477,0,0,0,-1,-1,39266.84337537501,unknown,2,2025-04-22T17:17:39.459+03:00,2025-04-21T17:08:51.449+03:00,9030,1.057261,0,0,7531.346,7,22,2025-04-22T17:16:53.031+03:00,767024262.1388104,0,-10.57,100.3307,1,0.4,2025-04-22T17:17:39.158+03:00,85,1.416666666666667,2025-04-22T14:20:19.516+03:00,0.02197104130929222,0
2025-04-22T17:17:43.583+03:00,1745331459.217669,40.95219958186703,29.14026822168964,76.1451,-1,-1,-1,-1,30,18.38710864918669,-9999,39270.963061125,-0.7882232666015625,0.4936065673828125,-0.3710479736328125,39270.952985125,-2.76985734250276,-1.133164811282269,-0.5148912591597001,-0.0128935594111681,-0.008040416985750198,0.002461692551150918,0.006325483322143555,-0.008202612400054932,0.003385305404663086,XArbitraryZVertical,0.5498216415097731,-0.115203299408662,0.7766249196421515,-0.2850930918342735,-0.7883230447769165,0.4924402236938477,-0.3688487112522125,0,0,0,-1,-1,39266.84337537501,unknown,2,2025-04-22T17:17:39.459+03:00,2025-04-21T17:08:51.449+03:00,9030,1.057261,0,0,7531.346,7,22,2025-04-22T17:16:53.031+03:00,767024262.1388104,0,-10.57,100.3307,1,0.4,2025-04-22T17:17:39.158+03:00,85,1.416666666666667,2025-04-22T14:20:19.516+03:00,0.02197104130929222,0
2025-04-22T17:17:43.593+03:00,1745331459.217669,40.95219958186703,29.14026822168964,76.1451,-1,-1,-1,-1,30,18.38710864918669,-9999,39270.973136125,-0.792572021484375,0.49658203125,-0.3693084716796875,39270.963061125,-2.769979320904635,-1.133311854285858,-0.5149862172285029,-0.007296926807612181,-0.004095742013305426,0.003885685000568628,0.005009829998016357,-0.004501104354858398,0.0003503561019897461,XArbitraryZVertical,0.5498724939539749,-0.1152551489419639,0.7765872829143965,-0.2850765327173954,-0.7883349061012268,0.4925228655338287,-0.368712991476059,0,0,0,-1,-1,39266.84337537501,unknown,2,2025-04-22T17:17:39.459+03:00,2025-04-21T17:08:51.449+03:00,9030,1.057261,0,0,7531.346,7,22,2025-04-22T17:16:53.031+03:00,767024262.1388104,0,-10.57,100.3307,1,0.4,2025-04-22T17:17:39.158+03:00,85,1.416666666666667,2025-04-22T14:20:19.516+03:00,0.02197104130929222,0
2025-04-22T17:17:43.603+03:00,1745331459.217669,40.95219958186703,29.14026822168964,76.1451,-1,-1,-1,-1,30,18.38710864918669,-9999,39270.983212125,-0.7911224365234375,0.4962005615234375,-0.3648529052734375,39270.973136125,-2.770012749332337,-1.133398298164491,-0.5150351499324251,0.002407965017482638,-0.003503122366964817,0.005180813372135162,-0.000595390796661377,0.001941293478012085,-0.003313809633255005,XArbitraryZVertical,0.5499045428136431,-0.1152722672840874,0.7765607025406204,-0.2850800360066352,-0.7883448600769043,0.4925654530525208,-0.3686345815658569,0,0,0,-1,-1,39266.84337537501,unknown,2,2025-04-22T17:17:39.459+03:00,2025-04-21T17:08:51.449+03:00,9030,1.057261,0,0,7531.346,7,22,2025-04-22T17:16:53.031+03:00,767024262.1388104,0,-10.57,100.3307,1,0.4,2025-04-22T17:17:39.158+03:00,85,1.416666666666667,2025-04-22T14:20:19.516+03:00,0.02197104130929222,0
2025-04-22T17:17:43.616+03:00,1745331459.217669,40.95219958186703,29.14026822168964,76.1451,-1,-1,-1,-1,30,18.38710864918669,-9999,39270.993288125,-0.788909912109375,0.4981231689453125,-0.3651275634765625,39270.983212125,-2.769960176249382,-1.133436021193094,-0.5150586969801679,0.008606206625699997,-0.001421329099684954,0.003698764368891716,-0.00433039665222168,0.003873944282531738,6.955862045288086e-05,XArbitraryZVertical,0.5499224029793395,-0.1152621603295095,0.7765392789584653,-0.2851081718952108,-0.7883483171463013,0.4925859272480011,-0.3685999810695648,0,0,0,-1,-1,39266.84337537501,unknown,2,2025-04-22T17:17:39.459+03:00,2025-04-21T17:08:51.449+03:00,9030,1.057261,0,0,7531.346,7,22,2025-04-22T17:16:53.031+03:00,767024262.1388104,0,-10.57,100.3307,1,0.4,2025-04-22T17:17:39.158+03:00,85,1.416666666666667,2025-04-22T14:20:19.516+03:00,0.02197104130929222,0
2025-04-22T17:17:43.623+03:00,1745331459.217669,40.95219958186703,29.14026822168964,76.1451,-1,-1,-1,-1,30,18.38710864918669,-9999,39271.003363125,-0.78778076171875,0.499176025390625,-0.3671112060546875,39270.993288125,-2.769839117308004,-1.133427822026746,-0.5150619225567341,0.01362812891602516,-0.005021656863391399,0.005788280628621578,-0.002107024192810059,0.004038959741592407,0.003859490156173706,XArbitraryZVertical,0.5499262248166524,-0.1152313804929931,0.7765237596390101,-0.2851554581973227,-0.7883438467979431,0.4925887286663055,-0.368605762720108,0,0,0,-1,-1,39266.84337537501,unknown,2,2025-04-22T17:17:39.459+03:00,2025-04-21T17:08:51.449+03:00,9030,1.057261,0,0,7531.346,7,22,2025-04-22T17:16:53.031+03:00,767024262.1388104,0,-10.57,100.3307,1,0.4,2025-04-22T17:17:39.158+03:00,85,1.416666666666667,2025-04-22T14:20:19.516+03:00,0.02197104130929222,0
2025-04-22T17:17:43.633+03:00,1745331459.217669,40.95219958186703,29.14026822168964,76.1451,-1,-1,-1,-1,30,18.38710864918669,-9999,39271.013439125,-0.7870941162109375,0.49383544921875,-0.365447998046875,39271.003363125,-2.769704611975461,-1.133470938851349,-0.5150327555267979,0.01289975363761187,-0.01151683926582336,0.004696917254477739,-0.00108635425567627,0.006582051515579224,0.002992361783981323,XArbitraryZVertical,0.5499504774789542,-0.1151761915475848,0.7764971777263837,-0.2852032984411065,-0.7883727550506592,0.4925633668899536,-0.3685778379440308,0,0,0,-1,-1,39266.84337537501,unknown,2,2025-04-22T17:17:39.459+03:00,2025-04-21T17:08:51.449+03:00,9030,1.057261,0,0,7531.346,7,22,2025-04-22T17:16:53.031+03:00,767024262.1388104,0,-10.57,100.3307,1,0.4,2025-04-22T17:17:39.158+03:00,85,1.416666666666667,2025-04-22T14:20:19.516+03:00,0.02197104130929222,0
2025-04-22T17:17:43.643+03:00,1745331459.217669,40.95219958186703,29.14026822168964,76.1451,-1,-1,-1,-1,30,18.38710864918669,-9999,39271.023515125,-0.7885589599609375,0.488677978515625,-0.3654327392578125,39271.013439125,-2.769570827922732,-1.133534493934786,-0.5150062965948183,0.01094379555433989,-0.008412792347371578,0.00806748028844595,0.0006273388862609863,0.005964219570159912,0.001864373683929443,XArbitraryZVertical,0.5499826305245572,-0.1151193900329888,0.7764647239864759,-0.2852526795190018,-0.7884079813957214,0.4925403296947479,-0.3685332536697388,0,0,0,-1,-1,39266.84337537501,unknown,2,2025-04-22T17:17:39.459+03:00,2025-04-21T17:08:51.449+03:00,9030,1.057261,0,0,7531.346,7,22,2025-04-22T17:16:53.031+03:00,767024262.1388104,0,-10.57,100.3307,1,0.4,2025-04-22T17:17:39.158+03:00,85,1.416666666666667,2025-04-22T14:20:19.516+03:00,0.02197104130929222,0
2025-04-22T17:17:43.654+03:00,1745331459.217669,40.95219958186703,29.14026822168964,76.1451,-1,-1,-1,-1,30,18.38710864918669,-9999,39271.033591125,-0.7904510498046875,0.4906463623046875,-0.364959716796875,39271.023515125,-2.769410981748869,-1.133504058504538,-0.5149989744552738,0.01245833560824394,-0.0003601927310228348,0.008456568233668804,0.000558316707611084,0.0005995631217956543,0.002286642789840698,XArbitraryZVertical,0.5499799433309915,-0.1150767346738917,0.7764514795109903,-0.2853112722814267,-0.7884001135826111,0.492533951997757,-0.3685588240623474,0,0,0,-1,-1,39266.84337537501,unknown,2,2025-04-22T17:17:39.459+03:00,2025-04-21T17:08:51.449+03:00,9030,1.057261,0,0,7531.346,7,22,2025-04-22T17:16:53.031+03:00,767024262.1388104,0,-10.57,100.3307,1,0.4,2025-04-22T17:17:39.158+03:00,85,1.416666666666667,2025-04-22T14:20:19.516+03:00,0.02197104130929222,0
2025-04-22T17:17:43.664+03:00,1745331459.217669,40.95219958186703,29.14026822168964,76.1451,-1,-1,-1,-1,30,18.38710864918669,-9999,39271.04366612501,-0.7899627685546875,0.4925689697265625,-0.3645782470703125,39271.033591125,-2.769230796486709,-1.133392924258401,-0.5150080056240203,0.01382486987859011,0.004676976706832647,0.009149422869086266,0.0002692937850952148,-0.003635048866271973,0.003394722938537598,XArbitraryZVertical,0.5499472415149872,-0.1150467802439887,0.7764549307960287,-0.2853769534388956,-0.7883551120758057,0.4925418198108673,-0.3686445355415344,0,0,0,-1,-1,39266.84337537501,unknown,2,2025-04-22T17:17:39.459+03:00,2025-04-21T17:08:51.449+03:00,9030,1.057261,0,0,7531.346,7,22,2025-04-22T17:16:53.031+03:00,767024262.1388104,0,-10.57,100.3307,1,0.4,2025-04-22T17:17:39.158+03:00,85,1.416666666666667,2025-04-22T14:20:19.516+03:00,0.02197104130929222,0
2025-04-22T17:17:43.674+03:00,1745331459.217669,40.95219958186703,29.14026822168964,76.1451,-1,-1,-1,-1,30,18.38710864918669,-9999,39271.053742125,-0.785919189453125,0.4901580810546875,-0.3635711669921875,39271.04366612501,-2.769004932526091,-1.133252241352647,-0.5150069020641969,0.01827447861433029,0.001013532280921936,0.007562178652733564,-0.002788066864013672,-0.002215027809143066,0.004009425640106201,XArbitraryZVertical,0.5499055981911328,-0.115004287156127,0.7764615947478765,-0.2854562969145459,-0.7883037328720093,0.4925408661365509,-0.3687556982040405,0,0,0,-1,-1,39266.84337537501,unknown,2,2025-04-22T17:17:39.459+03:00,2025-04-21T17:08:51.449+03:00,9030,1.057261,0,0,7531.346,7,22,2025-04-22T17:16:53.031+03:00,767024262.1388104,0,-10.57,100.3307,1,0.4,2025-04-22T17:17:39.158+03:00,85,1.416666666666667,2025-04-22T14:20:19.516+03:00,0.02197104130929222,0
2025-04-22T17:17:43.684+03:00,1745331459.217669,40.95219958186703,29.14026822168964,76.1451,-1,-1,-1,-1,30,18.38710864918669,-9999,39271.063818125,-0.7863311767578125,0.49053955078125,-0.361083984375,39271.053742125,-2.768766318223615,-1.133112187414567,-0.5150222467539571,0.01864299550652504,0.001362340059131384,0.008688796311616898,-0.001702189445495605,-0.0003210306167602539,0.004223406314849854,XArbitraryZVertical,0.5498650814476652,-0.1149650321179674,0.776463624659794,-0.2855444813668197,-0.7882452011108398,0.4925542175769806,-0.3688628673553467,0,0,0,-1,-1,39266.84337537501,unknown,2,2025-04-22T17:17:39.459+03:00,2025-04-21T17:08:51.449+03:00,9030,1.057261,0,0,7531.346,7,22,2025-04-22T17:16:53.031+03:00,767024262.1388104,0,-10.57,100.3307,1,0.4,2025-04-22T17:17:39.158+03:00,85,1.416666666666667,2025-04-22T14:20:19.516+03:00,0.02197104130929222,0
2025-04-22T17:17:43.694+03:00,1745331459.217669,40.95219958186703,29.14026822168964,76.1451,-1,-1,-1,-1,30,18.38710864918669,-9999,39271.073893125,-0.7867584228515625,0.49053955078125,-0.3601531982421875,39271.063818125,-2.768544932110871,-1.133002139885108,-0.5150509676591862,0.01937829330563545,-0.0002653840929269791,0.009668306447565556,0.002242147922515869,-0.002222836017608643,0.005875825881958008,XArbitraryZVertical,0.5498353257309776,-0.1149317606801079,0.7764578482360888,-0.2856308564553572,-0.7881917953491211,0.4925791919231415,-0.3689436018466949,0,0,0,-1,-1,39266.84337537501,unknown,2,2025-04-22T17:17:39.459+03:00,2025-04-21T17:08:51.449+03:00,9030,1.057261,0,0,7531.346,7,22,2025-04-22T17:16:53.031+03:00,767024262.1388104,0,-10.57,100.3307,1,0.4,2025-04-22T17:17:39.158+03:00,85,1.416666666666667,2025-04-22T14:20:19.516+03:00,0.02197104130929222,0
2025-04-22T17:17:43.704+03:00,1745331459.217669,40.95219958186703,29.14026822168964,76.1451,-1,-1,-1,-1,30,18.38710864918669,-9999,39271.083969125,-0.7850494384765625,0.490570068359375,-0.361175537109375,39271.073893125,-2.768363422405641,-1.132942189021108,-0.5150797991383979,0.01065684016793966,-0.005185973830521107,0.009079414419829845,0.002313971519470215,-0.002705633640289307,0.00808379054069519,XArbitraryZVertical,0.5498227207357278,-0.114902341085152,0.776444006455222,-0.2857046608862761,-0.7881568670272827,0.4926042854785919,-0.3689848482608795,0,0,0,-1,-1,39266.84337537501,unknown,2,2025-04-22T17:17:39.459+03:00,2025-04-21T17:08:51.449+03:00,9030,1.057261,0,0,7531.346,7,22,2025-04-22T17:16:53.031+03:00,767024262.1388104,0,-10.57,100.3307,1,0.4,2025-04-22T17:17:39.158+03:00,85,1.416666666666667,2025-04-22T14:20:19.516+03:00,0.02197104130929222,0
2025-04-22T17:17:43.714+03:00,1745331459.217669,40.95219958186703,29.14026822168964,76.1451,-1,-1,-1,-1,30,18.38710864918669,-9999,39271.094045125,-0.7847900390625,0.4901275634765625,-0.36053466796875,39271.083969125,-2.768222941122509,-1.132961311888336,-0.5151320194291051,0.009130316786468029,-0.009816944599151611,0.006767258513718843,0.001763641834259033,-0.002430647611618042,0.00871393084526062,XArbitraryZVertical,0.54983866119481,-0.1148825861016442,0.7764106486476381,-0.2857725693770067,-0.788140594959259,0.4926497340202332,-0.3689588904380798,0,0,0,-1,-1,39266.84337537501,unknown,2,2025-04-22T17:17:39.459+03:00,2025-04-21T17:08:51.449+03:00,9030,1.057261,0,0,7531.346,7,22,2025-04-22T17:16:53.031+03:00,767024262.1388104,0,-10.57,100.3307,1,0.4,2025-04-22T17:17:39.158+03:00,85,1.416666666666667,2025-04-22T14:20:19.516+03:00,0.02197104130929222,0
2025-04-22T17:17:43.724+03:00,1745331459.217669,40.95219958186703,29.14026822168964,76.1451,-1,-1,-1,-1,30,18.38710864918669,-9999,39271.104120125,-0.7860565185546875,0.492889404296875,-0.3596954345703125,39271.094045125,-2.768113217171702,-1.133027042006924,-0.5151947830619811,0.003973371349275112,-0.01415549963712692,0.008369415998458862,0.003636837005615234,-0.002607405185699463,0.007703006267547607,XArbitraryZVertical,0.5498710155687266,-0.1148689825273087,0.7763672555004228,-0.2858336915921848,-0.7881368398666382,0.4927043616771698,-0.3688939809799194,0,0,0,-1,-1,39266.84337537501,unknown,2,2025-04-22T17:17:39.459+03:00,2025-04-21T17:08:51.449+03:00,9030,1.057261,0,0,7531.346,7,22,2025-04-22T17:16:53.031+03:00,767024262.1388104,0,-10.57,100.3307,1,0.4,2025-04-22T17:17:39.158+03:00,85,1.416666666666667,2025-04-22T14:20:19.516+03:00,0.02197104130929222,0
2025-04-22T17:17:43.734+03:00,1745331459.217669,40.95219958186703,29.14026822168964,76.1451,-1,-1,-1,-1,30,18.38710864918669,-9999,39271.114196125,-0.7870330810546875,0.4930419921875,-0.3640899658203125,39271.104120125,-2.768037966660025,-1.133152432548263,-0.5152310440530817,0.006178202107548714,-0.01524633169174194,0.0038652119692415,0.003865242004394531,-0.002135396003723145,0.00866466760635376,XArbitraryZVertical,0.5499243295884306,-0.1148453783083779,0.776316390708934,-0.2858786161775677,-0.788166880607605,0.4927359223365784,-0.3687875270843506,0,0,0,-1,-1,39266.84337537501,unknown,2,2025-04-22T17:17:39.459+03:00,2025-04-21T17:08:51.449+03:00,9030,1.057261,0,0,7531.346,7,22,2025-04-22T17:16:53.031+03:00,767024262.1388104,0,-10.57,100.3307,1,0.4,2025-04-22T17:17:39.158+03:00,85,1.416666666666667,2025-04-22T14:20:19.516+03:00,0.02197104130929222,0
2025-04-22T17:17:43.745+03:00,1745331459.217669,40.95219958186703,29.14026822168964,76.1451,-1,-1,-1,-1,30,18.38710864918669,-9999,39271.124272125,-0.787994384765625,0.4906463623046875,-0.364501953125,39271.114196125,-2.767956342203163,-1.133301171892234,-0.5152308418733305,0.007679625879973173,-0.02014847844839096,0.001633183215744793,0.002027988433837891,0.0008249580860137939,0.008837401866912842,XArbitraryZVertical,0.5499867563025618,-0.1148016003857519,0.7762637910117598,-0.2859187800890031,-0.7882217168807983,0.492735743522644,-0.3686703145503998,0,0,0,-1,-1,39266.84337537501,unknown,2,2025-04-22T17:17:39.459+03:00,2025-04-21T17:08:51.449+03:00,9030,1.057261,0,0,7531.346,7,22,2025-04-22T17:16:53.031+03:00,767024262.1388104,0,-10.57,100.3307,1,0.4,2025-04-22T17:17:39.158+03:00,85,1.416666666666667,2025-04-22T14:20:19.516+03:00,0.02197104130929222,0
2025-04-22T17:17:43.754+03:00,1745331459.217669,40.95219958186703,29.14026822168964,76.1451,-1,-1,-1,-1,30,18.38710864918669,-9999,39271.134348125,-0.7891693115234375,0.491546630859375,-0.361846923828125,39271.124272125,-2.76790297692743,-1.133479192812384,-0.5152241760179538,0.003672633785754442,-0.02016525715589523,0.002224404830485582,0.001532018184661865,-0.0004814863204956055,0.004105567932128906,XArbitraryZVertical,0.5500588510431778,-0.1147587117022102,0.7762082538996082,-0.2859481456924111,-0.7882903814315796,0.4927299320697784,-0.3685314059257507,0,0,0,-1,-1,39266.84337537501,unknown,2,2025-04-22T17:17:39.459+03:00,2025-04-21T17:08:51.449+03:00,9030,1.057261,0,0,7531.346,7,22,2025-04-22T17:16:53.031+03:00,767024262.1388104,0,-10.57,100.3307,1,0.4,2025-04-22T17:17:39.158+03:00,85,1.416666666666667,2025-04-22T14:20:19.516+03:00,0.02197104130929222,0
2025-04-22T17:17:43.766+03:00,1745331459.217669,40.95219958186703,29.14026822168964,76.1451,-1,-1,-1,-1,30,18.38710864918669,-9999,39271.144423125,-0.78802490234375,0.4917144775390625,-0.3626556396484375,39271.134348125,-2.767859035093534,-1.133681990462428,-0.5152133312030442,0.00529856001958251,-0.02005253732204437,0.0009152283309958875,0.0003604292869567871,-0.002928704023361206,0.004359960556030273,XArbitraryZVertical,0.5501399723669946,-0.1147131317904495,0.7761479246595635,-0.2859742937110684,-0.7883699536323547,0.4927204847335815,-0.3683738112449646,0,0,0,-1,-1,39266.84337537501,unknown,2,2025-04-22T17:17:39.459+03:00,2025-04-21T17:08:51.449+03:00,9030,1.057261,0,0,7531.346,7,22,2025-04-22T17:16:53.031+03:00,767024262.1388104,0,-10.57,100.3307,1,0.4,2025-04-22T17:17:39.158+03:00,85,1.416666666666667,2025-04-22T14:20:19.516+03:00,0.02197104130929222,0
2025-04-22T17:17:43.775+03:00,1745331459.217669,40.95219958186703,29.14026822168964,76.1451,-1,-1,-1,-1,30,18.38710864918669,-9999,39271.154499125,-0.78729248046875,0.4910888671875,-0.3614044189453125,39271.144423125,-2.767806986230984,-1.133894849250315,-0.5152081250307731,0.003909188788384199,-0.02538951300084591,-0.000191847764654085,-0.000626981258392334,-0.001154154539108276,0.00579535961151123,XArbitraryZVertical,0.5502255218029797,-0.1146662334311607,0.7760826772616424,-0.2860054656954414,-0.7884506583213806,0.4927159547805786,-0.3682070672512054,0,0,0,-1,-1,39266.84337537501,unknown,2,2025-04-22T17:17:39.459+03:00,2025-04-21T17:08:51.449+03:00,9030,1.057261,0,0,7531.346,7,22,2025-04-22T17:16:53.031+03:00,767024262.1388104,0,-10.57,100.3307,1,0.4,2025-04-22T17:17:39.158+03:00,85,1.416666666666667,2025-04-22T14:20:19.516+03:00,0.02197104130929222,0
2025-04-22T17:17:43.790+03:00,1745331459.217669,40.95219958186703,29.14026822168964,76.1451,-1,-1,-1,-1,30,18.38710864918669,-9999,39271.164575125,-0.790771484375,0.488311767578125,-0.36083984375,39271.154499125,-2.767789476171633,-1.134141303035091,-0.5152069853452352,-0.001030109240673482,-0.02161547914147377,0.003024884732440114,0.0007612705230712891,-0.001061618328094482,0.004701018333435059,XArbitraryZVertical,0.5503221384595833,-0.1146256902366358,0.7760125864254552,-0.286026126899159,-0.7885419130325317,0.4927149713039398,-0.3680129945278168,0,0,0,-1,-1,39266.84337537501,unknown,2,2025-04-22T17:17:39.459+03:00,2025-04-21T17:08:51.449+03:00,9030,1.057261,0,0,7531.346,7,22,2025-04-22T17:16:53.031+03:00,767024262.1388104,0,-10.57,100.3307,1,0.4,2025-04-22T17:17:39.158+03:00,85,1.416666666666667,2025-04-22T14:20:19.516+03:00,0.02197104130929222,0
2025-04-22T17:17:43.796+03:00,1745331459.217669,40.95219958186703,29.14026822168964,76.1451,-1,-1,-1,-1,30,18.38710864918669,-9999,39271.174650125,-0.791412353515625,0.4904022216796875,-0.3603363037109375,39271.164575125,-2.767834095345048,-1.134358633280086,-0.5152459064357963,-0.005612078122794628,-0.01481376588344574,0.0008778441115282476,0.0007627606391906738,-0.002163559198379517,0.007024019956588745,XArbitraryZVertical,0.5504042289534549,-0.1146229695291345,0.7759532170974597,-0.2860304338535897,-0.7886045575141907,0.4927488565444946,-0.3678335249423981,0,0,0,-1,-1,39266.84337537501,unknown,2,2025-04-22T17:17:39.459+03:00,2025-04-21T17:08:51.449+03:00,9030,1.057261,0,0,7531.346,7,22,2025-04-22T17:16:53.031+03:00,767024262.1388104,0,-10.57,100.3307,1,0.4,2025-04-22T17:17:39.158+03:00,85,1.416666666666667,2025-04-22T14:20:19.516+03:00,0.02197104130929222,0
2025-04-22T17:17:43.805+03:00,1745331459.217669,40.95219958186703,29.14026822168964,76.1451,-1,-1,-1,-1,30,18.38710864918669,-9999,39271.184726125,-0.790985107421875,0.492431640625,-0.3624267578125,39271.174650125,-2.767904544290206,-1.134529857367419,-0.5152637875648832,-0.006406499072909355,-0.009877065196633339,-0.001911550760269165,-0.002218782901763916,-0.004452675580978394,0.006580084562301636,XArbitraryZVertical,0.5504667724771179,-0.1146252631121736,0.7759134183346451,-0.2860171227233284,-0.7886595129966736,0.492764413356781,-0.367694765329361,0,0,0,-1,-1,39266.84337537501,unknown,2,2025-04-22T17:17:39.459+03:00,2025-04-21T17:08:51.449+03:00,9030,1.057261,0,0,7531.346,7,22,2025-04-22T17:16:53.031+03:00,767024262.1388104,0,-10.57,100.3307,1,0.4,2025-04-22T17:17:39.158+03:00,85,1.416666666666667,2025-04-22T14:20:19.516+03:00,0.02197104130929222,0
2025-04-22T17:17:43.815+03:00,1745331459.217669,40.95219958186703,29.14026822168964,76.1451,-1,-1,-1,-1,30,18.38710864918669,-9999,39271.194802125,-0.790191650390625,0.4916534423828125,-0.3627166748046875,39271.184726125,-2.767982558394013,-1.134670996896449,-0.5152628749669349,-0.005362007301300764,-0.008470917120575905,-0.004438357893377542,-0.002654790878295898,-0.002330899238586426,0.006941944360733032,XArbitraryZVertical,0.5505170529671163,-0.1146261812844245,0.77588583884021,-0.2859947270036433,-0.7887117862701416,0.4927636086940765,-0.3675836324691772,0,0,0,-1,-1,39266.84337537501,unknown,2,2025-04-22T17:17:39.459+03:00,2025-04-21T17:08:51.449+03:00,9030,1.057261,0,0,7531.346,7,22,2025-04-22T17:16:53.031+03:00,767024262.1388104,0,-10.57,100.3307,1,0.4,2025-04-22T17:17:39.158+03:00,85,1.416666666666667,2025-04-22T14:20:19.516+03:00,0.02197104130929222,0
2025-04-22T17:17:43.825+03:00,1745331459.217669,40.95219958186703,29.14026822168964,76.1451,-1,-1,-1,-1,30,18.38710864918669,-9999,39271.204877125,-0.7928314208984375,0.48931884765625,-0.360992431640625,39271.194802125,-2.768069193165972,-1.134784526121291,-0.515239280855318,-0.002960102166980505,-0.001035104040056467,-0.006463825237005949,-0.001778483390808105,-0.0001894831657409668,0.004339605569839478,XArbitraryZVertical,0.550555949668232,-0.1146240672409082,0.7758704842747651,-0.2859620519869241,-0.7887639403343201,0.4927430748939514,-0.3674989342689514,0,0,0,-1,-1,39266.84337537501,unknown,2,2025-04-22T17:17:39.459+03:00,2025-04-21T17:08:51.449+03:00,9030,1.057261,0,0,7531.346,7,22,2025-04-22T17:16:53.031+03:00,767024262.1388104,0,-10.57,100.3307,1,0.4,2025-04-22T17:17:39.158+03:00,85,1.416666666666667,2025-04-22T14:20:19.516+03:00,0.02197104130929222,0
2025-04-22T17:17:43.835+03:00,1745331459.217669,40.95219958186703,29.14026822168964,76.1451,-1,-1,-1,-1,30,18.38710864918669,-9999,39271.214953125,-0.792572021484375,0.4918670654296875,-0.3616485595703125,39271.204877125,-2.768143885010565,-1.134825940118062,-0.5151740054681868,-0.0002205082855653018,0.003507183399051428,-0.01049212273210287,-0.001978218555450439,-0.00100243091583252,0.004549413919448853,XArbitraryZVertical,0.5505671847823653,-0.1146117251557648,0.7758798027433617,-0.2859200843799619,-0.7888083457946777,0.4926862716674805,-0.3674798607826233,0,0,0,-1,-1,39266.84337537501,unknown,2,2025-04-22T17:17:39.459+03:00,2025-04-21T17:08:51.449+03:00,9030,1.057261,0,0,7531.346,7,22,2025-04-22T17:16:53.031+03:00,767024262.1388104,0,-10.57,100.3307,1,0.4,2025-04-22T17:17:39.158+03:00,85,1.416666666666667,2025-04-22T14:20:19.516+03:00,0.02197104130929222,0
2025-04-22T17:17:43.845+03:00,1745331459.217669,40.95219958186703,29.14026822168964,76.1451,-1,-1,-1,-1,30,18.38710864918669,-9999,39271.225029125,-0.7898101806640625,0.4937744140625,-0.35894775390625,39271.214953125,-2.768176020224888,-1.134816837196319,-0.5150715084721001,0.004772452637553215,0.001560479402542114,-0.009721503593027592,-0.003766894340515137,-0.00294262170791626,0.005783379077911377,XArbitraryZVertical,0.5505609406143284,-0.1145794948251002,0.7759027118340825,-0.2858829752957293,-0.7888507843017578,0.4925970733165741,-0.3675083816051483,0,0,0,-1,-1,39266.84337537501,unknown,2,2025-04-22T17:17:39.459+03:00,2025-04-21T17:08:51.449+03:00,9030,1.057261,0,0,7531.346,7,22,2025-04-22T17:16:53.031+03:00,767024262.1388104,0,-10.57,100.3307,1,0.4,2025-04-22T17:17:39.158+03:00,85,1.416666666666667,2025-04-22T14:20:19.516+03:00,0.02197104130929222,0
2025-04-22T17:17:43.855+03:00,1745331459.217669,40.95219958186703,29.14026822168964,76.1451,-1,-1,-1,-1,30,18.38710864918669,-9999,39271.235105125,-0.791473388671875,0.493743896484375,-0.3582000732421875,39271.225029125,-2.768204671820203,-1.134811690660398,-0.5149857630047078,0.00222300854511559,0.005972804501652718,-0.006653008982539177,-0.003486335277557373,-0.0002282559871673584,0.006705522537231445,XArbitraryZVertical,0.5505565770986165,-0.1145526707088777,0.7759214219350538,-0.2858513815289889,-0.7888872027397156,0.4925224483013153,-0.3675302863121033,0,0,0,-1,-1,39266.84337537501,unknown,2,2025-04-22T17:17:39.459+03:00,2025-04-21T17:08:51.449+03:00,9030,1.057261,0,0,7531.346,7,22,2025-04-22T17:16:53.031+03:00,767024262.1388104,0,-10.57,100.3307,1,0.4,2025-04-22T17:17:39.158+03:00,85,1.416666666666667,2025-04-22T14:20:19.516+03:00,0.02197104130929222,0
2025-04-22T17:17:43.865+03:00,1745331459.217669,40.95219958186703,29.14026822168964,76.1451,-1,-1,-1,-1,30,18.38710864918669,-9999,39271.245180125,-0.79248046875,0.49420166015625,-0.3594818115234375,39271.235105125,-2.768212363254205,-1.134727192851668,-0.5149089600614735,0.006389257963746786,0.01010656356811523,-0.00688483752310276,-0.001224756240844727,0.00104406476020813,0.009214341640472412,XArbitraryZVertical,0.5505226961692905,-0.1145351043981698,0.7759576462007933,-0.2858254870840439,-0.7888904809951782,0.4924556016921997,-0.3676129281520844,0,0,0,-1,-1,39266.84337537501,unknown,2,2025-04-22T17:17:39.459+03:00,2025-04-21T17:08:51.449+03:00,9030,1.057261,0,0,7531.346,7,22,2025-04-22T17:16:53.031+03:00,767024262.1388104,0,-10.57,100.3307,1,0.4,2025-04-22T17:17:39.158+03:00,85,1.416666666666667,2025-04-22T14:20:19.516+03:00,0.02197104130929222,0
2025-04-22T17:17:43.875+03:00,1745331459.217669,40.95219958186703,29.14026822168964,76.1451,-1,-1,-1,-1,30,18.38710864918669,-9999,39271.255256125,-0.78936767578125,0.48956298828125,-0.3586883544921875,39271.245180125,-2.768234616440729,-1.134667114746202,-0.5148352253247265,-2.922673593275249e-05,0.006740593817085028,-0.006504804361611605,-0.002785563468933105,0.001199781894683838,0.009551703929901123,XArbitraryZVertical,0.5504974912031484,-0.1145193380787177,0.7759886806453862,-0.2857960527066457,-0.7889012694358826,0.492391437292099,-0.3676756620407104,0,0,0,-1,-1,39266.84337537501,unknown,2,2025-04-22T17:17:39.459+03:00,2025-04-21T17:08:51.449+03:00,9030,1.057261,0,0,7531.346,7,22,2025-04-22T17:16:53.031+03:00,767024262.1388104,0,-10.57,100.3307,1,0.4,2025-04-22T17:17:39.158+03:00,85,1.416666666666667,2025-04-22T14:20:19.516+03:00,0.02197104130929222,0
2025-04-22T17:17:43.886+03:00,1745331459.217669,40.95219958186703,29.14026822168964,76.1451,-1,-1,-1,-1,30,18.38710864918669,-9999,39271.265332125,-0.7873992919921875,0.487213134765625,-0.3590850830078125,39271.255256125,-2.768272310324222,-1.134674566555373,-0.5147430964619738,-0.0002498696267139167,0.002112419344484806,-0.007962020114064217,-0.002406060695648193,0.0009289979934692383,0.008756250143051147,XArbitraryZVertical,0.5504974508101769,-0.1144905720914912,0.7760061342796365,-0.2857601597629429,-0.7889451384544373,0.4923112392425537,-0.367688924074173,0,0,0,-1,-1,39266.84337537501,unknown,2,2025-04-22T17:17:39.459+03:00,2025-04-21T17:08:51.449+03:00,9030,1.057261,0,0,7531.346,7,22,2025-04-22T17:16:53.031+03:00,767024262.1388104,0,-10.57,100.3307,1,0.4,2025-04-22T17:17:39.158+03:00,85,1.416666666666667,2025-04-22T14:20:19.516+03:00,0.02197104130929222,0
2025-04-22T17:17:43.895+03:00,1745331459.217669,40.95219958186703,29.14026822168964,76.1451,-1,-1,-1,-1,30,18.38710864918669,-9999,39271.275407125,-0.788055419921875,0.4891357421875,-0.3618927001953125,39271.265332125,-2.768335873613143,-1.13471032089802,-0.5146513196965306,0.001303019584156573,-0.0004532700404524803,-0.01072584837675095,2.837181091308594e-05,-0.003812879323959351,0.008457213640213013,XArbitraryZVertical,0.5505069161041153,-0.1144650306603401,0.7760194277974674,-0.285715929061863,-0.7889991402626038,0.4922313690185547,-0.3676797747612,0,0,0,-1,-1,39266.84337537501,unknown,2,2025-04-22T17:17:39.459+03:00,2025-04-21T17:08:51.449+03:00,9030,1.057261,0,0,7531.346,7,22,2025-04-22T17:16:53.031+03:00,767024262.1388104,0,-10.57,100.3307,1,0.4,2025-04-22T17:17:39.158+03:00,85,1.416666666666667,2025-04-22T14:20:19.516+03:00,0.02197104130929222,0
2025-04-22T17:17:43.905+03:00,1745331459.217669,40.95219958186703,29.14026822168964,76.1451,-1,-1,-1,-1,30,18.38710864918669,-9999,39271.285483125,-0.789947509765625,0.490447998046875,-0.3599395751953125,39271.275407125,-2.768376147642008,-1.134758469759945,-0.5145483310532233,0.002885935828089714,-0.00218066293746233,-0.0108704911544919,0.001495838165283203,-0.004943996667861938,0.008303314447402954,XArbitraryZVertical,0.5505224294242851,-0.1144266743647989,0.7760277029781548,-0.2856788018681742,-0.7890627384185791,0.4921417236328125,-0.36766317486763,0,0,0,-1,-1,39266.84337537501,unknown,2,2025-04-22T17:17:39.459+03:00,2025-04-21T17:08:51.449+03:00,9030,1.057261,0,0,7531.346,7,22,2025-04-22T17:16:53.031+03:00,767024262.1388104,0,-10.57,100.3307,1,0.4,2025-04-22T17:17:39.158+03:00,85,1.416666666666667,2025-04-22T14:20:19.516+03:00,0.02197104130929222,0
2025-04-22T17:17:43.916+03:00,1745331459.217669,40.95219958186703,29.14026822168964,76.1451,-1,-1,-1,-1,30,18.38710864918669,-9999,39271.295559125,-0.789764404296875,0.4907989501953125,-0.35845947265625,39271.285483125,-2.768392900055465,-1.134817853443717,-0.514409224497873,0.004594886209815741,-0.004347676876932383,-0.01351660862565041,0.0009998679161071777,-0.002411961555480957,0.005721837282180786,XArbitraryZVertical,0.5505433318717278,-0.1143652966524326,0.7760351346633604,-0.2856429462586954,-0.7891466617584229,0.4920206069946289,-0.3676452338695526,0,0,0,-1,-1,39266.84337537501,unknown,2,2025-04-22T17:17:39.459+03:00,2025-04-21T17:08:51.449+03:00,9030,1.057261,0,0,7531.346,7,22,2025-04-22T17:16:53.031+03:00,767024262.1388104,0,-10.57,100.3307,1,0.4,2025-04-22T17:17:39.158+03:00,85,1.416666666666667,2025-04-22T14:20:19.516+03:00,0.02197104130929222,0
2025-04-22T17:17:43.926+03:00,1745331459.217669,40.95219958186703,29.14026822168964,76.1451,-1,-1,-1,-1,30,18.38710864918669,-9999,39271.30563512501,-0.789947509765625,0.4912261962890625,-0.357391357421875,39271.295559125,-2.768415164586039,-1.13486583389844,-0.5142480631285624,0.005345964804291725,-0.002220011316239834,-0.01571421511471272,-3.975629806518555e-05,-0.0008067786693572998,0.00852513313293457,XArbitraryZVertical,0.5505592887100611,-0.1142979261865504,0.7760499885809694,-0.2855991193810567,-0.789236307144165,0.4918802976608276,-0.3676409125328064,0,0,0,-1,-1,39266.84337537501,unknown,2,2025-04-22T17:17:39.459+03:00,2025-04-21T17:08:51.449+03:00,9030,1.057261,0,0,7531.346,7,22,2025-04-22T17:16:53.031+03:00,767024262.1388104,0,-10.57,100.3307,1,0.4,2025-04-22T17:17:39.158+03:00,85,1.416666666666667,2025-04-22T14:20:19.516+03:00,0.02197104130929222,0
2025-04-22T17:17:43.936+03:00,1745331459.217669,40.95219958186703,29.14026822168964,76.1451,-1,-1,-1,-1,30,18.38710864918669,-9999,39271.315710125,-0.7881011962890625,0.4930267333984375,-0.359375,39271.30563512501,-2.768469731497856,-1.134918905375981,-0.5140742580614154,0.0005879608215764165,0.0006772419437766075,-0.0179014690220356,-0.000644683837890625,-0.001586169004440308,0.00984683632850647,XArbitraryZVertical,0.5505752824329058,-0.1142335156889428,0.776069891592866,-0.28554005000482,-0.7893332839012146,0.4917289614677429,-0.3676351308822632,0,0,0,-1,-1,39266.84337537501,unknown,2,2025-04-22T17:17:39.459+03:00,2025-04-21T17:08:51.449+03:00,9030,1.057261,0,0,7531.346,7,22,2025-04-22T17:16:53.031+03:00,767024262.1388104,0,-10.57,100.3307,1,0.4,2025-04-22T17:17:39.158+03:00,85,1.416666666666667,2025-04-22T14:20:19.516+03:00,0.02197104130929222,0
2025-04-22T17:17:43.946+03:00,1745331459.217669,40.95219958186703,29.14026822168964,76.1451,-1,-1,-1,-1,30,18.38710864918669,-9999,39271.325786125,-0.78515625,0.4909515380859375,-0.36065673828125,39271.315710125,-2.768622719132738,-1.135004459740591,-0.5139256726737486,-0.009043560363352299,0.0006890264339745045,-0.02237674593925476,-0.0003790855407714844,0.0003284215927124023,0.01040524244308472,XArbitraryZVertical,0.5505984824843804,-0.1142019983791777,0.7760909846869463,-0.2854505714916679,-0.7894309759140015,0.4915995895862579,-0.3675984144210815,0,0,0,-1,-1,39266.84337537501,unknown,2,2025-04-22T17:17:39.459+03:00,2025-04-21T17:08:51.449+03:00,9030,1.057261,0,0,7531.346,7,22,2025-04-22T17:16:53.031+03:00,767024262.1388104,0,-10.57,100.3307,1,0.4,2025-04-22T17:17:39.158+03:00,85,1.416666666666667,2025-04-22T14:20:19.516+03:00,0.02197104130929222,0
2025-04-22T17:17:43.956+03:00,1745331459.217669,40.95219958186703,29.14026822168964,76.1451,-1,-1,-1,-1,30,18.38710864918669,-9999,39271.335862125,-0.78302001953125,0.4873809814453125,-0.3628692626953125,39271.325786125,-2.768940677860825,-1.135173110229844,-0.5138052158183807,-0.02282382175326347,0.0006765094585716724,-0.02412697486579418,0.001460731029510498,0.001379340887069702,0.008023530244827271,XArbitraryZVertical,0.550644770009703,-0.114215701612933,0.7761082938808301,-0.2853084204582282,-0.7895465493202209,0.4914946854114532,-0.3674902319908142,0,0,0,-1,-1,39266.84337537501,unknown,2,2025-04-22T17:17:39.459+03:00,2025-04-21T17:08:51.449+03:00,9030,1.057261,0,0,7531.346,7,22,2025-04-22T17:16:53.031+03:00,767024262.1388104,0,-10.57,100.3307,1,0.4,2025-04-22T17:17:39.158+03:00,85,1.416666666666667,2025-04-22T14:20:19.516+03:00,0.02197104130929222,0
2025-04-22T17:17:43.966+03:00,1745331459.217669,40.95219958186703,29.14026822168964,76.1451,-1,-1,-1,-1,30,18.38710864918669,-9999,39271.345937125,-0.78765869140625,0.48712158203125,-0.365936279296875,39271.335862125,-2.769349936199289,-1.135410154382778,-0.5137167917945777,-0.0312848836183548,-0.0006446181796491146,-0.02100451849400997,0.004730522632598877,-0.0008934736251831055,0.006160914897918701,XArbitraryZVertical,0.5507126361969792,-0.114258026970685,0.7761149766776154,-0.2851423088493418,-0.7896730303764343,0.4914176762104034,-0.3673214018344879,0,0,0,-1,-1,39266.84337537501,unknown,2,2025-04-22T17:17:39.459+03:00,2025-04-21T17:08:51.449+03:00,9030,1.057261,0,0,7531.346,7,22,2025-04-22T17:16:53.031+03:00,767024262.1388104,0,-10.57,100.3307,1,0.4,2025-04-22T17:17:39.158+03:00,85,1.416666666666667,2025-04-22T14:20:19.516+03:00,0.02197104130929222,0
2025-04-22T17:17:43.976+03:00,1745331459.217669,40.95219958186703,29.14026822168964,76.1451,-1,-1,-1,-1,30,18.38710864918669,-9999,39271.35601312501,-0.79278564453125,0.486358642578125,-0.36346435546875,39271.345937125,-2.769853073179589,-1.135650772560706,-0.5137030122229403,-0.03837767988443375,0.004435095004737377,-0.01716690324246883,0.006610274314880371,-0.004818201065063477,0.004081696271896362,XArbitraryZVertical,0.5507771317428179,-0.1143565764310492,0.7761225941037556,-0.2849575740060554,-0.7897676229476929,0.4914056658744812,-0.3671342432498932,0,0,0,-1,-1,39266.84337537501,unknown,2,2025-04-22T17:17:39.459+03:00,2025-04-21T17:08:51.449+03:00,9030,1.057261,0,0,7531.346,7,22,2025-04-22T17:16:53.031+03:00,767024262.1388104,0,-10.57,100.3307,1,0.4,2025-04-22T17:17:39.158+03:00,85,1.416666666666667,2025-04-22T14:20:19.516+03:00,0.02197104130929222,0
