loggingTime(txt),locationTimestamp_since1970(s),locationLatitude(WGS84),locationLongitude(WGS84),locationAltitude(m),locationSpeed(m/s),locationSpeedAccuracy(m/s),locationCourse(°),locationCourseAccuracy(°),locationVerticalAccuracy(m),locationHorizontalAccuracy(m),locationFloor(Z),accelerometerTimestamp_sinceReboot(s),accelerometerAccelerationX(G),accelerometerAccelerationY(G),accelerometerAccelerationZ(G),motionTimestamp_sinceReboot(s),motionYaw(rad),motionRoll(rad),motionPitch(rad),motionRotationRateX(rad/s),motionRotationRateY(rad/s),motionRotationRateZ(rad/s),motionUserAccelerationX(G),motionUserAccelerationY(G),motionUserAccelerationZ(G),motionAttitudeReferenceFrame(txt),motionQuaternionX(R),motionQuaternionY(R),motionQuaternionZ(R),motionQuaternionW(R),motionGravityX(G),motionGravityY(G),motionGravityZ(G),motionMagneticFieldX(µT),motionMagneticFieldY(µT),motionMagneticFieldZ(µT),motionHeading(°),motionMagneticFieldCalibrationAccuracy(Z),activityTimestamp_sinceReboot(s),activity(txt),activityActivityConfidence(Z),activityActivityStartDate(txt),pedometerStartDate(txt),pedometerNumberofSteps(N),pedometerAverageActivePace(s/m),pedometerCurrentPace(s/m),pedometerCurrentCadence(steps/s),pedometerDistance(m),pedometerFloorAscended(N),pedometerFloorDescended(N),pedometerEndDate(txt),altimeterTimestamp_sinceReboot(s),altimeterReset(bool),altimeterRelativeAltitude(m),altimeterPressure(kPa),batteryState(N),batteryLevel(R),heartRateBPMTimestamp(txt),heartRateBPM(N),heartRateBPS(R),heartRateVariabilityTimestamp(txt),heartRateVariability(ms),label
2025-04-22T17:34:53.385+03:00,1745332493.05674,40.95225675339998,29.14028333183624,76.03829,-1,-1,-1,-1,30,22.82566558724317,-9999,40053.56034304167,-0.793243408203125,0.4856109619140625,-0.2927093505859375,40053.55530504167,-2.935165969454034,-1.198829361324261,-0.5042052689649755,0.05037057027220726,-0.01427804119884968,-0.006557716522365808,0.02388918399810791,0.01757481694221497,0.02004837989807129,XArbitraryZVertical,0.5646384003093672,-0.1485705536906613,0.7808126836925182,-0.222354885594192,-0.8156828880310059,0.4831117689609528,-0.3182205259799957,0,0,0,-1,-1,40046.296696,unknown,2,2025-04-22T17:34:46.097+03:00,2025-04-21T17:08:51.449+03:00,9072,1.060317,0,0,7564.165,7,22,2025-04-22T17:34:51.256+03:00,767025281.0476028,0,-11,100.3358,1,0.35,2025-04-22T17:33:08.763+03:00,78,1.3,2025-04-22T14:20:19.516+03:00,0.02197104130929222,0
2025-04-22T17:34:53.386+03:00,1745332493.05674,40.95225675339998,29.14028333183624,76.03829,-1,-1,-1,-1,30,22.82566558724317,-9999,40053.57041904167,-0.862060546875,0.4578704833984375,-0.3021392822265625,40053.56538104167,-2.934797825545866,-1.198520988080387,-0.5040572454114153,0.03234976157546043,0.03980010747909546,0.005541556980460882,0.01319175958633423,-0.002131998538970947,0.02530026435852051,XArbitraryZVertical,0.5645495864828078,-0.1484409713348429,0.7808781874035473,-0.2224370750086683,-0.8156513571739197,0.4829821586608887,-0.3184980750083923,0,0,0,-1,-1,40046.296696,unknown,2,2025-04-22T17:34:46.097+03:00,2025-04-21T17:08:51.449+03:00,9072,1.060317,0,0,7564.165,7,22,2025-04-22T17:34:51.256+03:00,767025281.0476028,0,-11,100.3358,1,0.35,2025-04-22T17:33:08.763+03:00,78,1.3,2025-04-22T14:20:19.516+03:00,0.02197104130929222,0
2025-04-22T17:34:53.386+03:00,1745332493.05674,40.95225675339998,29.14028333183624,76.03829,-1,-1,-1,-1,30,22.82566558724317,-9999,40053.58049504167,-0.830047607421875,0.476806640625,-0.309600830078125,40053.57545704167,-2.934514772363104,-1.198135978618561,-0.5039195578714233,0.02161482349038124,0.01107764896005392,0.001260791788809001,-0.04888069629669189,-0.02433502674102783,0.01549142599105835,XArbitraryZVertical,0.564424196201364,-0.148348142256087,0.7809733696697584,-0.2224830963614456,-0.8155906200408936,0.4828615784645081,-0.3188363015651703,0,0,0,-1,-1,40046.296696,unknown,2,2025-04-22T17:34:46.097+03:00,2025-04-21T17:08:51.449+03:00,9072,1.060317,0,0,7564.165,7,22,2025-04-22T17:34:51.256+03:00,767025281.0476028,0,-11,100.3358,1,0.35,2025-04-22T17:33:08.763+03:00,78,1.3,2025-04-22T14:20:19.516+03:00,0.02197104130929222,0
2025-04-22T17:34:53.396+03:00,1745332493.05674,40.95225675339998,29.14028333183624,76.03829,-1,-1,-1,-1,30,22.82566558724317,-9999,40053.59057104167,-0.793975830078125,0.4787445068359375,-0.31060791015625,40053.58553304167,-2.934303555427141,-1.198014045630834,-0.5038830894325161,0.01079014036804438,-0.007393504492938519,6.556505104526877e-05,-0.006346464157104492,-0.00367322564125061,0.008868157863616943,XArbitraryZVertical,0.5643932907765991,-0.1482873345111461,0.7809890189007106,-0.2225470177009751,-0.8155680894851685,0.4828296601772308,-0.3189421594142914,0,0,0,-1,-1,40046.296696,unknown,2,2025-04-22T17:34:46.097+03:00,2025-04-21T17:08:51.449+03:00,9072,1.060317,0,0,7564.165,7,22,2025-04-22T17:34:51.256+03:00,767025281.0476028,0,-11,100.3358,1,0.35,2025-04-22T17:33:08.763+03:00,78,1.3,2025-04-22T14:20:19.516+03:00,0.02197104130929222,0
2025-04-22T17:34:53.405+03:00,1745332493.05674,40.95225675339998,29.14028333183624,76.03829,-1,-1,-1,-1,30,22.82566558724317,-9999,40053.60064704167,-0.8144378662109375,0.4722442626953125,-0.3106536865234375,40053.59560904167,-2.934181656590824,-1.197895180826581,-0.503924942650962,0.004274183884263039,0.01055886410176754,0.005530904047191143,0.02133727073669434,-0.004518598318099976,0.00901871919631958,XArbitraryZVertical,0.5643547214892909,-0.1482831191339996,0.7810035082642184,-0.2225967251518087,-0.8155113458633423,0.4828662872314453,-0.3190317153930664,0,0,0,-1,-1,40046.296696,unknown,2,2025-04-22T17:34:46.097+03:00,2025-04-21T17:08:51.449+03:00,9072,1.060317,0,0,7564.165,7,22,2025-04-22T17:34:51.256+03:00,767025281.0476028,0,-11,100.3358,1,0.35,2025-04-22T17:33:08.763+03:00,78,1.3,2025-04-22T14:20:19.516+03:00,0.02197104130929222,0
2025-04-22T17:34:53.416+03:00,1745332493.05674,40.95225675339998,29.14028333183624,76.03829,-1,-1,-1,-1,30,22.82566558724317,-9999,40053.61072304167,-0.8253936767578125,0.4734954833984375,-0.3120574951171875,40053.60568504167,-2.934060613173112,-1.197630541417531,-0.5039702118551188,0.007955138571560383,0.01832990348339081,0.006715844385325909,-0.002388179302215576,-0.01038709282875061,0.008845090866088867,XArbitraryZVertical,0.5642590674490811,-0.1482967661356359,0.7810587421545532,-0.2226361815890601,-0.8154065012931824,0.4829059541225433,-0.3192395567893982,0,0,0,-1,-1,40046.296696,unknown,2,2025-04-22T17:34:46.097+03:00,2025-04-21T17:08:51.449+03:00,9072,1.060317,0,0,7564.165,7,22,2025-04-22T17:34:51.256+03:00,767025281.0476028,0,-11,100.3358,1,0.35,2025-04-22T17:33:08.763+03:00,78,1.3,2025-04-22T14:20:19.516+03:00,0.02197104130929222,0
2025-04-22T17:34:53.427+03:00,1745332493.05674,40.95225675339998,29.14028333183624,76.03829,-1,-1,-1,-1,30,22.82566558724317,-9999,40053.62079904167,-0.81011962890625,0.480987548828125,-0.312469482421875,40053.61576104167,-2.933915348138066,-1.197442572973033,-0.503974779701305,0.01090006250888109,0.004093175753951073,0.005403438583016396,-0.009133517742156982,-0.007919192314147949,0.008051544427871704,XArbitraryZVertical,0.5641962974298794,-0.1482785600023795,0.7810950139147845,-0.2226801673049875,-0.8153444528579712,0.4829099476337433,-0.3193920254707336,0,0,0,-1,-1,40046.296696,unknown,2,2025-04-22T17:34:46.097+03:00,2025-04-21T17:08:51.449+03:00,9072,1.060317,0,0,7564.165,7,22,2025-04-22T17:34:51.256+03:00,767025281.0476028,0,-11,100.3358,1,0.35,2025-04-22T17:33:08.763+03:00,78,1.3,2025-04-22T14:20:19.516+03:00,0.02197104130929222,0
2025-04-22T17:34:53.436+03:00,1745332493.05674,40.95225675339998,29.14028333183624,76.03829,-1,-1,-1,-1,30,22.82566558724317,-9999,40053.63087504167,-0.8033905029296875,0.485992431640625,-0.3125457763671875,40053.62583704167,-2.933785554848741,-1.197416161541232,-0.5039923232059402,0.008799360133707523,-0.008421284146606922,0.008039435371756554,0.006902337074279785,-0.0002135932445526123,0.0068797767162323,XArbitraryZVertical,0.5641951161238336,-0.1482520034920613,0.781085644501367,-0.2227334757581758,-0.815328061580658,0.4829252958297729,-0.3194104433059692,0,0,0,-1,-1,40046.296696,unknown,2,2025-04-22T17:34:46.097+03:00,2025-04-21T17:08:51.449+03:00,9072,1.060317,0,0,7564.165,7,22,2025-04-22T17:34:51.256+03:00,767025281.0476028,0,-11,100.3358,1,0.35,2025-04-22T17:33:08.763+03:00,78,1.3,2025-04-22T14:20:19.516+03:00,0.02197104130929222,0
2025-04-22T17:34:53.446+03:00,1745332493.05674,40.95225675339998,29.14028333183624,76.03829,-1,-1,-1,-1,30,22.82566558724317,-9999,40053.64095104167,-0.8118743896484375,0.4816131591796875,-0.3118133544921875,40053.63591304167,-2.933654386215659,-1.197386074890537,-0.5040438650415009,0.01157996710389853,0.001056906301528215,0.009192850440740585,0.01098942756652832,0.002472639083862305,0.006300121545791626,XArbitraryZVertical,0.5641915974347399,-0.1482392055157064,0.7810729907150397,-0.2227959051065773,-0.8152954578399658,0.4829704463481903,-0.3194259703159332,0,0,0,-1,-1,40046.296696,unknown,2,2025-04-22T17:34:46.097+03:00,2025-04-21T17:08:51.449+03:00,9072,1.060317,0,0,7564.165,7,22,2025-04-22T17:34:51.256+03:00,767025281.0476028,0,-11,100.3358,1,0.35,2025-04-22T17:33:08.763+03:00,78,1.3,2025-04-22T14:20:19.516+03:00,0.02197104130929222,0
2025-04-22T17:34:53.456+03:00,1745332493.05674,40.95225675339998,29.14028333183624,76.03829,-1,-1,-1,-1,30,22.82566558724317,-9999,40053.65102704167,-0.8180084228515625,0.4798126220703125,-0.306488037109375,40053.64598904167,-2.933483386088259,-1.197303101785184,-0.5040545671930255,0.01686800643801689,0.001407976727932692,0.004186807200312614,0.002535343170166016,-0.001977086067199707,0.00775444507598877,XArbitraryZVertical,0.5641715675663885,-0.1482045526163302,0.7810759107381973,-0.2228593287918683,-0.815264105796814,0.48297980427742,-0.3194917142391205,0,0,0,-1,-1,40046.296696,unknown,2,2025-04-22T17:34:46.097+03:00,2025-04-21T17:08:51.449+03:00,9072,1.060317,0,0,7564.165,7,22,2025-04-22T17:34:51.256+03:00,767025281.0476028,0,-11,100.3358,1,0.35,2025-04-22T17:33:08.763+03:00,78,1.3,2025-04-22T14:20:19.516+03:00,0.02197104130929222,0
2025-04-22T17:34:53.466+03:00,1745332493.05674,40.95225675339998,29.14028333183624,76.03829,-1,-1,-1,-1,30,22.82566558724317,-9999,40053.66110404167,-0.811279296875,0.4790496826171875,-0.3010406494140625,40053.65606604167,-2.93333490144646,-1.197270915874235,-0.5039974277796976,0.01472629234194756,-0.001661848742514849,0.004255782812833786,-0.002255856990814209,-0.003513872623443604,0.01429101824760437,XArbitraryZVertical,0.5641716131815114,-0.1481431014304502,0.7810759403309451,-0.2229000372601458,-0.8152795433998108,0.4829297661781311,-0.3195280134677887,0,0,0,-1,-1,40046.296696,unknown,2,2025-04-22T17:34:46.097+03:00,2025-04-21T17:08:51.449+03:00,9072,1.060317,0,0,7564.165,7,22,2025-04-22T17:34:51.256+03:00,767025281.0476028,0,-11,100.3358,1,0.35,2025-04-22T17:33:08.763+03:00,78,1.3,2025-04-22T14:20:19.516+03:00,0.02197104130929222,0
2025-04-22T17:34:53.476+03:00,1745332493.05674,40.95225675339998,29.14028333183624,76.03829,-1,-1,-1,-1,30,22.82566558724317,-9999,40053.67118004167,-0.8075714111328125,0.4785003662109375,-0.3054351806640625,40053.66614204167,-2.933208521849898,-1.197297335840337,-0.5039842448519262,0.008791703730821609,-0.01220503821969032,0.005015449598431587,0.004564046859741211,-0.003853321075439453,0.01889520883560181,XArbitraryZVertical,0.5641916665815899,-0.1480991679857682,0.7810561037365468,-0.2229479134367934,-0.8152939081192017,0.4829182326793671,-0.3195087909698486,0,0,0,-1,-1,40046.296696,unknown,2,2025-04-22T17:34:46.097+03:00,2025-04-21T17:08:51.449+03:00,9072,1.060317,0,0,7564.165,7,22,2025-04-22T17:34:51.256+03:00,767025281.0476028,0,-11,100.3358,1,0.35,2025-04-22T17:33:08.763+03:00,78,1.3,2025-04-22T14:20:19.516+03:00,0.02197104130929222,0
2025-04-22T17:34:53.486+03:00,1745332493.05674,40.95225675339998,29.14028333183624,76.03829,-1,-1,-1,-1,30,22.82566558724317,-9999,40053.68125604167,-0.8085174560546875,0.4770355224609375,-0.3093109130859375,40053.67621804167,-2.933101572840523,-1.197388606279321,-0.5039974229176793,0.01188736222684383,-0.01543358713388443,0.003088119905441999,0.007776260375976562,-0.005116134881973267,0.0134320855140686,XArbitraryZVertical,0.5642348742179349,-0.1480641786662779,0.78101657056177,-0.222999875456636,-0.8153169751167297,0.4829297661781311,-0.3194320201873779,0,0,0,-1,-1,40046.296696,unknown,2,2025-04-22T17:34:46.097+03:00,2025-04-21T17:08:51.449+03:00,9072,1.060317,0,0,7564.165,7,22,2025-04-22T17:34:51.256+03:00,767025281.0476028,0,-11,100.3358,1,0.35,2025-04-22T17:33:08.763+03:00,78,1.3,2025-04-22T14:20:19.516+03:00,0.02197104130929222,0
2025-04-22T17:34:53.496+03:00,1745332493.05674,40.95225675339998,29.14028333183624,76.03829,-1,-1,-1,-1,30,22.82566558724317,-9999,40053.69133204167,-0.81219482421875,0.47802734375,-0.3119354248046875,40053.68629404167,-2.932987179147133,-1.19752858027668,-0.5039439913140188,0.01242785062640905,-0.01536580920219421,0.0002275518490932882,0.007188856601715088,-0.006305277347564697,0.009909391403198242,XArbitraryZVertical,0.5642995022837546,-0.1479946422622983,0.7809713676225865,-0.2230409751678676,-0.8153857588768005,0.4828829765319824,-0.31932732462883,0,0,0,-1,-1,40046.296696,unknown,2,2025-04-22T17:34:46.097+03:00,2025-04-21T17:08:51.449+03:00,9072,1.060317,0,0,7564.165,7,22,2025-04-22T17:34:51.256+03:00,767025281.0476028,0,-11,100.3358,1,0.35,2025-04-22T17:33:08.763+03:00,78,1.3,2025-04-22T14:20:19.516+03:00,0.02197104130929222,0
2025-04-22T17:34:53.506+03:00,1745332493.05674,40.95225675339998,29.14028333183624,76.03829,-1,-1,-1,-1,30,22.82566558724317,-9999,40053.70140804167,-0.813568115234375,0.476409912109375,-0.313385009765625,40053.69637004167,-2.932858461883108,-1.197687475518474,-0.5038753777199931,0.01042941492050886,-0.02097016572952271,0.002197492169216275,0.003135323524475098,-0.004581987857818604,0.006953775882720947,XArbitraryZVertical,0.564372999301764,-0.1479127989570191,0.7809211957777962,-0.2230851002011166,-0.8154674172401428,0.4828228950500488,-0.3192098438739777,0,0,0,-1,-1,40046.296696,unknown,2,2025-04-22T17:34:46.097+03:00,2025-04-21T17:08:51.449+03:00,9072,1.060317,0,0,7564.165,7,22,2025-04-22T17:34:51.256+03:00,767025281.0476028,0,-11,100.3358,1,0.35,2025-04-22T17:33:08.763+03:00,78,1.3,2025-04-22T14:20:19.516+03:00,0.02197104130929222,0
2025-04-22T17:34:53.516+03:00,1745332493.05674,40.95225675339998,29.14028333183624,76.03829,-1,-1,-1,-1,30,22.82566558724317,-9999,40053.71148404167,-0.812469482421875,0.4727935791015625,-0.3109130859375,40053.70644604167,-2.932838091366993,-1.197897145629739,-0.5039082015837888,-0.005063657648861408,-0.02043660171329975,0.003515956457704306,0.00195157527923584,-0.006991118192672729,0.005785226821899414,XArbitraryZVertical,0.5644554396557332,-0.1478969536093744,0.7808554910694036,-0.2231171175626698,-0.8155195713043213,0.4828516244888306,-0.3190330862998962,0,0,0,-1,-1,40046.296696,unknown,2,2025-04-22T17:34:46.097+03:00,2025-04-21T17:08:51.449+03:00,9072,1.060317,0,0,7564.165,7,22,2025-04-22T17:34:51.256+03:00,767025281.0476028,0,-11,100.3358,1,0.35,2025-04-22T17:33:08.763+03:00,78,1.3,2025-04-22T14:20:19.516+03:00,0.02197104130929222,0
2025-04-22T17:34:53.527+03:00,1745332493.05674,40.95225675339998,29.14028333183624,76.03829,-1,-1,-1,-1,30,22.82566558724317,-9999,40053.72156004167,-0.813873291015625,0.47442626953125,-0.313720703125,40053.71652204167,-2.932913284638144,-1.198141991252969,-0.5040109522380223,-0.01369842421263456,-0.01922646164894104,0.007555173244327307,0.002487003803253174,-0.01091104745864868,0.009015977382659912,XArbitraryZVertical,0.5645425650161061,-0.1479324795744743,0.7807813374616628,-0.2231326666717538,-0.8155514597892761,0.4829416275024414,-0.3188153505325317,0,0,0,-1,-1,40046.296696,unknown,2,2025-04-22T17:34:46.097+03:00,2025-04-21T17:08:51.449+03:00,9072,1.060317,0,0,7564.165,7,22,2025-04-22T17:34:51.256+03:00,767025281.0476028,0,-11,100.3358,1,0.35,2025-04-22T17:33:08.763+03:00,78,1.3,2025-04-22T14:20:19.516+03:00,0.02197104130929222,0
2025-04-22T17:34:53.536+03:00,1745332493.05674,40.95225675339998,29.14028333183624,76.03829,-1,-1,-1,-1,30,22.82566558724317,-9999,40053.73163604167,-0.8137359619140625,0.479461669921875,-0.3193206787109375,40053.72659804167,-2.932995663907254,-1.198421248727906,-0.5041054948823217,-0.007364229299128056,-0.02347513660788536,0.005044411402195692,0.001160085201263428,-0.008582949638366699,0.004300713539123535,XArbitraryZVertical,0.5646428202943207,-0.1479628794738903,0.7806992486646337,-0.2231458296264528,-0.8155978322029114,0.483024388551712,-0.3185709416866302,0,0,0,-1,-1,40046.296696,unknown,2,2025-04-22T17:34:46.097+03:00,2025-04-21T17:08:51.449+03:00,9072,1.060317,0,0,7564.165,7,22,2025-04-22T17:34:51.256+03:00,767025281.0476028,0,-11,100.3358,1,0.35,2025-04-22T17:33:08.763+03:00,78,1.3,2025-04-22T14:20:19.516+03:00,0.02197104130929222,0
2025-04-22T17:34:53.546+03:00,1745332493.05674,40.95225675339998,29.14028333183624,76.03829,-1,-1,-1,-1,30,22.82566558724317,-9999,40053.74171204167,-0.814453125,0.4826812744140625,-0.3200225830078125,40053.73667404167,-2.933040439412593,-1.198718758675581,-0.5041716628983337,-0.001162526197731495,-0.02348179370164871,0.007509166840463877,0.001865923404693604,-0.003040909767150879,-0.002148598432540894,XArbitraryZVertical,0.5647537668698386,-0.1479691299596325,0.7806115276329223,-0.2231676285891638,-0.8156627416610718,0.4830823242664337,-0.318316638469696,0,0,0,-1,-1,40046.296696,unknown,2,2025-04-22T17:34:46.097+03:00,2025-04-21T17:08:51.449+03:00,9072,1.060317,0,0,7564.165,7,22,2025-04-22T17:34:51.256+03:00,767025281.0476028,0,-11,100.3358,1,0.35,2025-04-22T17:33:08.763+03:00,78,1.3,2025-04-22T14:20:19.516+03:00,0.02197104130929222,0
2025-04-22T17:34:53.556+03:00,1745332493.05674,40.95225675339998,29.14028333183624,76.03829,-1,-1,-1,-1,30,22.82566558724317,-9999,40053.75178804167,-0.816192626953125,0.4839935302734375,-0.317962646484375,40053.74675004167,-2.933033406093023,-1.198974997689306,-0.5042320982392491,0.001545775448903441,-0.01994151994585991,0.004293599631637335,0.00161510705947876,-0.0006676912307739258,-0.001651108264923096,XArbitraryZVertical,0.5648525745424978,-0.1479630169594008,0.7805305068191705,-0.2232051015210681,-0.8157171607017517,0.4831352531909943,-0.3180970251560211,0,0,0,-1,-1,40046.296696,unknown,2,2025-04-22T17:34:46.097+03:00,2025-04-21T17:08:51.449+03:00,9072,1.060317,0,0,7564.165,7,22,2025-04-22T17:34:51.256+03:00,767025281.0476028,0,-11,100.3358,1,0.35,2025-04-22T17:33:08.763+03:00,78,1.3,2025-04-22T14:20:19.516+03:00,0.02197104130929222,0
2025-04-22T17:34:53.567+03:00,1745332493.05674,40.95225675339998,29.14028333183624,76.03829,-1,-1,-1,-1,30,22.82566558724317,-9999,40053.76186404167,-0.815826416015625,0.4852294921875,-0.320159912109375,40053.75682604167,-2.933032412769548,-1.199205086186035,-0.5042828165779277,0.0008062156848609447,-0.02120945043861866,0.004208112135529518,-0.001172661781311035,0.0004323124885559082,-0.0007795095443725586,XArbitraryZVertical,0.5649409962470207,-0.1479575887990333,0.7804587952053584,-0.223235748524224,-0.8157674670219421,0.4831796586513519,-0.3179004490375519,0,0,0,-1,-1,40046.296696,unknown,2,2025-04-22T17:34:46.097+03:00,2025-04-21T17:08:51.449+03:00,9072,1.060317,0,0,7564.165,7,22,2025-04-22T17:34:51.256+03:00,767025281.0476028,0,-11,100.3358,1,0.35,2025-04-22T17:33:08.763+03:00,78,1.3,2025-04-22T14:20:19.516+03:00,0.02197104130929222,0
2025-04-22T17:34:53.577+03:00,1745332493.05674,40.95225675339998,29.14028333183624,76.03829,-1,-1,-1,-1,30,22.82566558724317,-9999,40053.77193866667,-0.8161163330078125,0.4809112548828125,-0.316986083984375,40053.76690066667,-2.933057877984267,-1.199426302960293,-0.5043542754204388,-0.008097331039607525,-0.01480807643383741,0.008600430563092232,-0.0002648234367370605,0.002246558666229248,-0.002696782350540161,XArbitraryZVertical,0.5650234114331224,-0.1479690288443252,0.7803897333123135,-0.2232608338059238,-0.8158055543899536,0.4832422137260437,-0.3177074193954468,0,0,0,-1,-1,40046.296696,unknown,2,2025-04-22T17:34:46.097+03:00,2025-04-21T17:08:51.449+03:00,9072,1.060317,0,0,7564.165,7,22,2025-04-22T17:34:51.256+03:00,767025281.0476028,0,-11,100.3358,1,0.35,2025-04-22T17:33:08.763+03:00,78,1.3,2025-04-22T14:20:19.516+03:00,0.02197104130929222,0
2025-04-22T17:34:53.587+03:00,1745332493.05674,40.95225675339998,29.14028333183624,76.03829,-1,-1,-1,-1,30,22.82566558724317,-9999,40053.78201566667,-0.8184814453125,0.480316162109375,-0.3127899169921875,40053.77697766667,-2.933105910605414,-1.199582521041985,-0.50444541286499,-0.004748139530420303,-0.008568290621042252,0.006543138530105352,-0.0003019571304321289,-0.002746522426605225,0.001401752233505249,XArbitraryZVertical,0.5650782036342925,-0.1480020417023541,0.7803391403973117,-0.223277443566064,-0.8158142566680908,0.4833219945430756,-0.3175640404224396,0,0,0,-1,-1,40046.296696,unknown,2,2025-04-22T17:34:46.097+03:00,2025-04-21T17:08:51.449+03:00,9072,1.060317,0,0,7564.165,7,22,2025-04-22T17:34:51.256+03:00,767025281.0476028,0,-11,100.3358,1,0.35,2025-04-22T17:33:08.763+03:00,78,1.3,2025-04-22T14:20:19.516+03:00,0.02197104130929222,0
2025-04-22T17:34:53.597+03:00,1745332493.05674,40.95225675339998,29.14028333183624,76.03829,-1,-1,-1,-1,30,22.82566558724317,-9999,40053.79209166667,-0.8192138671875,0.4835968017578125,-0.31298828125,40053.78705366667,-2.933129787901905,-1.199689847733317,-0.5044985016340801,-0.006205820944160223,-0.008669624105095863,0.007475710939615965,-0.002565443515777588,-0.002365678548812866,0.005272179841995239,XArbitraryZVertical,0.5651167953811124,-0.1480182932452822,0.7803045642668084,-0.2232899317174384,-0.8158244490623474,0.4833684861660004,-0.3174671828746796,0,0,0,-1,-1,40046.296696,unknown,2,2025-04-22T17:34:46.097+03:00,2025-04-21T17:08:51.449+03:00,9072,1.060317,0,0,7564.165,7,22,2025-04-22T17:34:51.256+03:00,767025281.0476028,0,-11,100.3358,1,0.35,2025-04-22T17:33:08.763+03:00,78,1.3,2025-04-22T14:20:19.516+03:00,0.02197104130929222,0
2025-04-22T17:34:53.607+03:00,1745332493.05674,40.95225675339998,29.14028333183624,76.03829,-1,-1,-1,-1,30,22.82566558724317,-9999,40053.80216766667,-0.818695068359375,0.4788665771484375,-0.3128204345703125,40053.79712966667,-2.933157144011853,-1.199786014221556,-0.5045747954066495,-0.002375662559643388,-0.00198269309476018,0.009956978261470795,-0.003744125366210938,-0.0007845759391784668,0.00420379638671875,XArbitraryZVertical,0.5651501179804009,-0.1480461727968636,0.7802704397833999,-0.2233063000869484,-0.815820574760437,0.4834352731704712,-0.3173753619194031,0,0,0,-1,-1,40046.296696,unknown,2,2025-04-22T17:34:46.097+03:00,2025-04-21T17:08:51.449+03:00,9072,1.060317,0,0,7564.165,7,22,2025-04-22T17:34:51.256+03:00,767025281.0476028,0,-11,100.3358,1,0.35,2025-04-22T17:33:08.763+03:00,78,1.3,2025-04-22T14:20:19.516+03:00,0.02197104130929222,0
2025-04-22T17:34:53.617+03:00,1745332493.05674,40.95225675339998,29.14028333183624,76.03829,-1,-1,-1,-1,30,22.82566558724317,-9999,40053.81224366667,-0.8186187744140625,0.4763946533203125,-0.310882568359375,40053.80720566667,-2.933164612576977,-1.199810005232419,-0.5046506532844715,-0.007624020799994469,-0.001893010921776295,0.008874636143445969,-0.002611100673675537,-0.005108147859573364,0.004994899034500122,XArbitraryZVertical,0.5651567570102063,-0.1480763064651197,0.7802545999510417,-0.223324971188869,-0.815794050693512,0.483501672744751,-0.3173424899578094,0,0,0,-1,-1,40046.296696,unknown,2,2025-04-22T17:34:46.097+03:00,2025-04-21T17:08:51.449+03:00,9072,1.060317,0,0,7564.165,7,22,2025-04-22T17:34:51.256+03:00,767025281.0476028,0,-11,100.3358,1,0.35,2025-04-22T17:33:08.763+03:00,78,1.3,2025-04-22T14:20:19.516+03:00,0.02197104130929222,0
2025-04-22T17:34:53.627+03:00,1745332493.05674,40.95225675339998,29.14028333183624,76.03829,-1,-1,-1,-1,30,22.82566558724317,-9999,40053.82231966667,-0.8154754638671875,0.4800872802734375,-0.314605712890625,40053.81728166667,-2.933185332665889,-1.199847101083224,-0.5047466452425986,-0.006310549564659595,-0.008182331919670105,0.008918046019971371,-0.003466546535491943,-0.00601622462272644,0.005649656057357788,XArbitraryZVertical,0.5651669828345451,-0.1481169015626495,0.7802336655670715,-0.2233447076461574,-0.8157623410224915,0.4835856854915619,-0.3172953426837921,0,0,0,-1,-1,40046.296696,unknown,2,2025-04-22T17:34:46.097+03:00,2025-04-21T17:08:51.449+03:00,9072,1.060317,0,0,7564.165,7,22,2025-04-22T17:34:51.256+03:00,767025281.0476028,0,-11,100.3358,1,0.35,2025-04-22T17:33:08.763+03:00,78,1.3,2025-04-22T14:20:19.516+03:00,0.02197104130929222,0
2025-04-22T17:34:53.637+03:00,1745332493.05674,40.95225675339998,29.14028333183624,76.03829,-1,-1,-1,-1,30,22.82566558724317,-9999,40053.83239566667,-0.8111419677734375,0.4801177978515625,-0.316619873046875,40053.82735766667,-2.933231806789077,-1.199966699161408,-0.5048494659228421,-0.007299980614334345,-0.01428157091140747,0.008142100647091866,0.001407980918884277,-0.003344327211380005,0.002436578273773193,XArbitraryZVertical,0.5652072364022369,-0.1481582738218542,0.7801917734209534,-0.2233622839544893,-0.8157541155815125,0.4836756885051727,-0.317179799079895,0,0,0,-1,-1,40046.296696,unknown,2,2025-04-22T17:34:46.097+03:00,2025-04-21T17:08:51.449+03:00,9072,1.060317,0,0,7564.165,7,22,2025-04-22T17:34:51.256+03:00,767025281.0476028,0,-11,100.3358,1,0.35,2025-04-22T17:33:08.763+03:00,78,1.3,2025-04-22T14:20:19.516+03:00,0.02197104130929222,0
2025-04-22T17:34:53.647+03:00,1745332493.05674,40.95225675339998,29.14028333183624,76.03829,-1,-1,-1,-1,30,22.82566558724317,-9999,40053.84247166667,-0.814300537109375,0.481414794921875,-0.3148651123046875,40053.83743366667,-2.933233865368826,-1.200088217086803,-0.5049232665817959,0.0005052118794992566,-0.01230630464851856,0.004558550659567118,0.004617512226104736,-0.003851443529129028,-0.000132143497467041,XArbitraryZVertical,0.5652523798099134,-0.1481751572733506,0.7801479754341001,-0.2233897590513499,-0.8157593607902527,0.4837402701377869,-0.3170677423477173,0,0,0,-1,-1,40046.296696,unknown,2,2025-04-22T17:34:46.097+03:00,2025-04-21T17:08:51.449+03:00,9072,1.060317,0,0,7564.165,7,22,2025-04-22T17:34:51.256+03:00,767025281.0476028,0,-11,100.3358,1,0.35,2025-04-22T17:33:08.763+03:00,78,1.3,2025-04-22T14:20:19.516+03:00,0.02197104130929222,0
2025-04-22T17:34:53.657+03:00,1745332493.05674,40.95225675339998,29.14028333183624,76.03829,-1,-1,-1,-1,30,22.82566558724317,-9999,40053.85254766667,-0.816253662109375,0.4863128662109375,-0.311737060546875,40053.84750966667,-2.93319301278045,-1.200202770893339,-0.5049465632025892,0.0006805143784731627,-0.01462611742317677,0.0003143043140880764,0.0007522702217102051,-0.0026969313621521,0.003172993659973145,XArbitraryZVertical,0.5652994261067814,-0.1481602462833916,0.7801079651547049,-0.2234202662842543,-0.8157851696014404,0.4837606847286224,-0.3169701993465424,0,0,0,-1,-1,40046.296696,unknown,2,2025-04-22T17:34:46.097+03:00,2025-04-21T17:08:51.449+03:00,9072,1.060317,0,0,7564.165,7,22,2025-04-22T17:34:51.256+03:00,767025281.0476028,0,-11,100.3358,1,0.35,2025-04-22T17:33:08.763+03:00,78,1.3,2025-04-22T14:20:19.516+03:00,0.02197104130929222,0
2025-04-22T17:34:53.667+03:00,1745332493.05674,40.95225675339998,29.14028333183624,76.03829,-1,-1,-1,-1,30,22.82566558724317,-9999,40053.86262366667,-0.8144378662109375,0.490203857421875,-0.3123779296875,40053.85758566667,-2.933124259185383,-1.200354920205202,-0.5049093124261926,0.01128788478672504,-0.01960436441004276,-0.001809566630981863,-0.0006627440452575684,0.003027230501174927,0.005054354667663574,XArbitraryZVertical,0.5653649223937902,-0.1481087325805146,0.7800621975671707,-0.223448620568627,-0.8158501982688904,0.4837280809879303,-0.3168526291847229,0,0,0,-1,-1,40046.296696,unknown,2,2025-04-22T17:34:46.097+03:00,2025-04-21T17:08:51.449+03:00,9072,1.060317,0,0,7564.165,7,22,2025-04-22T17:34:51.256+03:00,767025281.0476028,0,-11,100.3358,1,0.35,2025-04-22T17:33:08.763+03:00,78,1.3,2025-04-22T14:20:19.516+03:00,0.02197104130929222,0
2025-04-22T17:34:53.677+03:00,1745332493.05674,40.95225675339998,29.14028333183624,76.03829,-1,-1,-1,-1,30,22.82566558724317,-9999,40053.87269966667,-0.8168182373046875,0.4849090576171875,-0.31353759765625,40053.86766166667,-2.93302224153046,-1.20049225144072,-0.5048280295620811,0.01262392662465572,-0.01915142685174942,-0.005193412303924561,0.001568913459777832,0.005417674779891968,0.004727602005004883,XArbitraryZVertical,0.5654283667126281,-0.1480316595288226,0.780022568758678,-0.2234773432537541,-0.8159303069114685,0.4836569428443909,-0.3167547881603241,0,0,0,-1,-1,40046.296696,unknown,2,2025-04-22T17:34:46.097+03:00,2025-04-21T17:08:51.449+03:00,9072,1.060317,0,0,7564.165,7,22,2025-04-22T17:34:51.256+03:00,767025281.0476028,0,-11,100.3358,1,0.35,2025-04-22T17:33:08.763+03:00,78,1.3,2025-04-22T14:20:19.516+03:00,0.02197104130929222,0
2025-04-22T17:34:53.688+03:00,1745332493.05674,40.95225675339998,29.14028333183624,76.03829,-1,-1,-1,-1,30,22.82566558724317,-9999,40053.88277566667,-0.8208160400390625,0.4817962646484375,-0.3139190673828125,40053.87773766667,-2.93289078716438,-1.200604312709468,-0.5047255368654995,0.01527803204953671,-0.01464615762233734,-0.002962216036394238,-0.001797914505004883,0.0006856620311737061,0.002594232559204102,XArbitraryZVertical,0.5654847182875228,-0.1479404884564893,0.7799896539481905,-0.223510123269277,-0.8160120844841003,0.4835672080516815,-0.316681295633316,0,0,0,-1,-1,40046.296696,unknown,2,2025-04-22T17:34:46.097+03:00,2025-04-21T17:08:51.449+03:00,9072,1.060317,0,0,7564.165,7,22,2025-04-22T17:34:51.256+03:00,767025281.0476028,0,-11,100.3358,1,0.35,2025-04-22T17:33:08.763+03:00,78,1.3,2025-04-22T14:20:19.516+03:00,0.02197104130929222,0
2025-04-22T17:34:53.698+03:00,1745332493.05674,40.95225675339998,29.14028333183624,76.03829,-1,-1,-1,-1,30,22.82566558724317,-9999,40053.89285266667,-0.817047119140625,0.476898193359375,-0.31243896484375,40053.88781466667,-2.932755668251545,-1.200733203453238,-0.5046272552861883,0.01255082339048386,-0.01840614154934883,-0.002462007803842425,-0.004413604736328125,-0.002142786979675293,0.001895874738693237,XArbitraryZVertical,0.5655477867872681,-0.1478481135456184,0.7799509080592611,-0.2235466702731021,-0.8160971403121948,0.4834811985492706,-0.3165932595729828,0,0,0,-1,-1,40046.296696,unknown,2,2025-04-22T17:34:46.097+03:00,2025-04-21T17:08:51.449+03:00,9072,1.060317,0,0,7564.165,7,22,2025-04-22T17:34:51.256+03:00,767025281.0476028,0,-11,100.3358,1,0.35,2025-04-22T17:33:08.763+03:00,78,1.3,2025-04-22T14:20:19.516+03:00,0.02197104130929222,0
2025-04-22T17:34:53.712+03:00,1745332493.05674,40.95225675339998,29.14028333183624,76.03829,-1,-1,-1,-1,30,22.82566558724317,-9999,40053.90292866667,-0.8121185302734375,0.47906494140625,-0.3075714111328125,40053.89789066667,-2.932680536385605,-1.200882609304111,-0.504546457392165,0.004409805405884981,-0.0175014641135931,-0.003705437760800123,-1.168251037597656e-05,-0.007443159818649292,0.00424465537071228,XArbitraryZVertical,0.5656139089380409,-0.1477774749953077,0.7799108040248173,-0.2235658980332143,-0.8161807656288147,0.4834104478359222,-0.3164854347705841,0,0,0,-1,-1,40046.296696,unknown,2,2025-04-22T17:34:46.097+03:00,2025-04-21T17:08:51.449+03:00,9072,1.060317,0,0,7564.165,7,22,2025-04-22T17:34:51.256+03:00,767025281.0476028,0,-11,100.3358,1,0.35,2025-04-22T17:33:08.763+03:00,78,1.3,2025-04-22T14:20:19.516+03:00,0.02197104130929222,0
2025-04-22T17:34:53.718+03:00,1745332493.05674,40.95225675339998,29.14028333183624,76.03829,-1,-1,-1,-1,30,22.82566558724317,-9999,40053.91300466667,-0.8090362548828125,0.480133056640625,-0.3109588623046875,40053.90796666667,-2.932657697920699,-1.201051044257054,-0.5045012672348949,-0.001121646724641323,-0.01944883540272713,-0.001223271712660789,0.004654884338378906,-0.00354313850402832,0.009165793657302856,XArbitraryZVertical,0.5656825630066836,-0.1477339006335859,0.7798665328940414,-0.2235754368017022,-0.8162544369697571,0.4833709001541138,-0.3163558542728424,0,0,0,-1,-1,40046.296696,unknown,2,2025-04-22T17:34:46.097+03:00,2025-04-21T17:08:51.449+03:00,9072,1.060317,0,0,7564.165,7,22,2025-04-22T17:34:51.256+03:00,767025281.0476028,0,-11,100.3358,1,0.35,2025-04-22T17:33:08.763+03:00,78,1.3,2025-04-22T14:20:19.516+03:00,0.02197104130929222,0
2025-04-22T17:34:53.728+03:00,1745332493.05674,40.95225675339998,29.14028333183624,76.03829,-1,-1,-1,-1,30,22.82566558724317,-9999,40053.92308066667,-0.8094024658203125,0.4760894775390625,-0.3146209716796875,40053.91804266667,-2.932732359747007,-1.201276354017925,-0.5044995845428171,-0.009904751554131508,-0.01977240853011608,-0.003452870296314359,0.008129596710205078,-0.003785789012908936,0.00463336706161499,XArbitraryZVertical,0.5657649438453741,-0.1477291478794245,0.7798114035026421,-0.2235625266205632,-0.8163264989852905,0.4833694398403168,-0.3161722421646118,0,0,0,-1,-1,40046.296696,unknown,2,2025-04-22T17:34:46.097+03:00,2025-04-21T17:08:51.449+03:00,9072,1.060317,0,0,7564.165,7,22,2025-04-22T17:34:51.256+03:00,767025281.0476028,0,-11,100.3358,1,0.35,2025-04-22T17:33:08.763+03:00,78,1.3,2025-04-22T14:20:19.516+03:00,0.02197104130929222,0
2025-04-22T17:34:53.738+03:00,1745332493.05674,40.95225675339998,29.14028333183624,76.03829,-1,-1,-1,-1,30,22.82566558724317,-9999,40053.93315666667,-0.814056396484375,0.4768524169921875,-0.315582275390625,40053.92811866667,-2.932854648872347,-1.201526355226819,-0.5045508866967229,-0.0146023677662015,-0.01814661733806133,0.003062786534428596,0.007361531257629395,-0.007752209901809692,0.001109212636947632,XArbitraryZVertical,0.5658519203477582,-0.1477565568817633,0.7797476231490424,-0.2235467282883922,-0.8163824081420898,0.483414351940155,-0.3159592151641846,0,0,0,-1,-1,40046.296696,unknown,2,2025-04-22T17:34:46.097+03:00,2025-04-21T17:08:51.449+03:00,9072,1.060317,0,0,7564.165,7,22,2025-04-22T17:34:51.256+03:00,767025281.0476028,0,-11,100.3358,1,0.35,2025-04-22T17:33:08.763+03:00,78,1.3,2025-04-22T14:20:19.516+03:00,0.02197104130929222,0
2025-04-22T17:34:53.748+03:00,1745332493.05674,40.95225675339998,29.14028333183624,76.03829,-1,-1,-1,-1,30,22.82566558724317,-9999,40053.94323266667,-0.8168182373046875,0.478363037109375,-0.3126068115234375,40053.93819466667,-2.932979138330085,-1.201756865978944,-0.5046357003481253,-0.0109053673222661,-0.01183732226490974,0.002818574663251638,0.001414597034454346,-0.006422638893127441,6.693601608276367e-05,XArbitraryZVertical,0.5659301636410691,-0.1478003273524271,0.779685218304383,-0.2235374059656752,-0.8164169788360596,0.4834885895252228,-0.315756231546402,0,0,0,-1,-1,40046.296696,unknown,2,2025-04-22T17:34:46.097+03:00,2025-04-21T17:08:51.449+03:00,9072,1.060317,0,0,7564.165,7,22,2025-04-22T17:34:51.256+03:00,767025281.0476028,0,-11,100.3358,1,0.35,2025-04-22T17:33:08.763+03:00,78,1.3,2025-04-22T14:20:19.516+03:00,0.02197104130929222,0
2025-04-22T17:34:53.758+03:00,1745332493.05674,40.95225675339998,29.14028333183624,76.03829,-1,-1,-1,-1,30,22.82566558724317,-9999,40053.95330866667,-0.8192291259765625,0.4843292236328125,-0.3068084716796875,40053.94827066667,-2.933080047340737,-1.201886930501408,-0.5047265056559157,-0.009261531755328178,-0.005063437391072512,0.002832755912095308,4.148483276367188e-05,-0.004533767700195312,0.003896981477737427,XArbitraryZVertical,0.5659708134931702,-0.1478510827631938,0.7796477717374775,-0.223531431728472,-0.8164170384407043,0.4835680723190308,-0.3156341910362244,0,0,0,-1,-1,40046.296696,unknown,2,2025-04-22T17:34:46.097+03:00,2025-04-21T17:08:51.449+03:00,9072,1.060317,0,0,7564.165,7,22,2025-04-22T17:34:51.256+03:00,767025281.0476028,0,-11,100.3358,1,0.35,2025-04-22T17:33:08.763+03:00,78,1.3,2025-04-22T14:20:19.516+03:00,0.02197104130929222,0
2025-04-22T17:34:53.768+03:00,1745332493.05674,40.95225675339998,29.14028333183624,76.03829,-1,-1,-1,-1,30,22.82566558724317,-9999,40053.96338466667,-0.8173980712890625,0.48345947265625,-0.3038787841796875,40053.95834666667,-2.933214465694328,-1.201982490056067,-0.5048354459151756,-0.02213152498006821,-0.0005131606012582779,0.005277271382510662,-0.002327382564544678,0.001047223806381226,0.009552478790283203,XArbitraryZVertical,0.5659950020002276,-0.1479225100378316,0.7796214851188611,-0.2235145941475287,-0.816398024559021,0.483663409948349,-0.3155371844768524,0,0,0,-1,-1,40046.296696,unknown,2,2025-04-22T17:34:46.097+03:00,2025-04-21T17:08:51.449+03:00,9072,1.060317,0,0,7564.165,7,22,2025-04-22T17:34:51.256+03:00,767025281.0476028,0,-11,100.3358,1,0.35,2025-04-22T17:33:08.763+03:00,78,1.3,2025-04-22T14:20:19.516+03:00,0.02197104130929222,0
2025-04-22T17:34:53.778+03:00,1745332493.05674,40.95225675339998,29.14028333183624,76.03829,-1,-1,-1,-1,30,22.82566558724317,-9999,40053.97346066667,-0.8122711181640625,0.478729248046875,-0.304351806640625,40053.96842266667,-2.933457579054857,-1.202145041552913,-0.5049737238777932,-0.02387296594679356,-0.003867945168167353,0.007065850310027599,-0.0004616975784301758,-0.00128638744354248,0.01195916533470154,XArbitraryZVertical,0.5660364052992133,-0.1480290813857622,0.7795845347521714,-0.2234680283046027,-0.8163869380950928,0.4837844371795654,-0.3153803646564484,0,0,0,-1,-1,40046.296696,unknown,2,2025-04-22T17:34:46.097+03:00,2025-04-21T17:08:51.449+03:00,9072,1.060317,0,0,7564.165,7,22,2025-04-22T17:34:51.256+03:00,767025281.0476028,0,-11,100.3358,1,0.35,2025-04-22T17:33:08.763+03:00,78,1.3,2025-04-22T14:20:19.516+03:00,0.02197104130929222,0
2025-04-22T17:34:53.788+03:00,1745332493.05674,40.95225675339998,29.14028333183624,76.03829,-1,-1,-1,-1,30,22.82566558724317,-9999,40053.98353666667,-0.8147430419921875,0.4814300537109375,-0.3063201904296875,40053.97849866667,-2.933576442716075,-1.202215958421728,-0.5050550477799071,-0.005803683772683144,0.002026962349191308,0.004262340720742941,0.00352180004119873,-0.005019634962081909,0.01144459843635559,XArbitraryZVertical,0.5660529094280194,-0.1480876941829437,0.7795670773822955,-0.2234482235568832,-0.8163725733757019,0.4838556051254272,-0.3153082728385925,0,0,0,-1,-1,40046.296696,unknown,2,2025-04-22T17:34:46.097+03:00,2025-04-21T17:08:51.449+03:00,9072,1.060317,0,0,7564.165,7,22,2025-04-22T17:34:51.256+03:00,767025281.0476028,0,-11,100.3358,1,0.35,2025-04-22T17:33:08.763+03:00,78,1.3,2025-04-22T14:20:19.516+03:00,0.02197104130929222,0
2025-04-22T17:34:53.798+03:00,1745332493.05674,40.95225675339998,29.14028333183624,76.03829,-1,-1,-1,-1,30,22.82566558724317,-9999,40053.99361266667,-0.8173370361328125,0.487335205078125,-0.3079986572265625,40053.98857466667,-2.933570680069888,-1.202192698457012,-0.5050953981154404,0.005231789778918028,0.004823680967092514,0.004455885849893093,0.001237988471984863,-0.001072406768798828,0.008328557014465332,XArbitraryZVertical,0.5660430899203127,-0.1481049651773738,0.7795678612531198,-0.2234593008324555,-0.8163471221923828,0.4838909208774567,-0.3153202831745148,0,0,0,-1,-1,40046.296696,unknown,2,2025-04-22T17:34:46.097+03:00,2025-04-21T17:08:51.449+03:00,9072,1.060317,0,0,7564.165,7,22,2025-04-22T17:34:51.256+03:00,767025281.0476028,0,-11,100.3358,1,0.35,2025-04-22T17:33:08.763+03:00,78,1.3,2025-04-22T14:20:19.516+03:00,0.02197104130929222,0
2025-04-22T17:34:53.808+03:00,1745332493.05674,40.95225675339998,29.14028333183624,76.03829,-1,-1,-1,-1,30,22.82566558724317,-9999,40054.00368966667,-0.813720703125,0.484619140625,-0.309661865234375,40053.99865166667,-2.933463085448966,-1.202134865147492,-0.5050873782151273,0.007957535795867443,-0.005496334750205278,-0.0004741578013636172,-0.0005771517753601074,0.003390192985534668,0.007476866245269775,XArbitraryZVertical,0.5660287411490448,-0.1480777283719307,0.7795732874427892,-0.2234948583519767,-0.8163325786590576,0.4838839173316956,-0.3153688907623291,0,0,0,-1,-1,40046.296696,unknown,2,2025-04-22T17:34:46.097+03:00,2025-04-21T17:08:51.449+03:00,9072,1.060317,0,0,7564.165,7,22,2025-04-22T17:34:51.256+03:00,767025281.0476028,0,-11,100.3358,1,0.35,2025-04-22T17:33:08.763+03:00,78,1.3,2025-04-22T14:20:19.516+03:00,0.02197104130929222,0
2025-04-22T17:34:53.819+03:00,1745332493.05674,40.95225675339998,29.14028333183624,76.03829,-1,-1,-1,-1,30,22.82566558724317,-9999,40054.01376566667,-0.812530517578125,0.481414794921875,-0.309844970703125,40054.00872766667,-2.933420026236142,-1.202207692487477,-0.5050476423976944,-0.001705744420178235,-0.01649785414338112,-0.002593767829239368,0.002500176429748535,-6.926059722900391e-05,0.005135506391525269,XArbitraryZVertical,0.5660614581094797,-0.1480413301553156,0.7795530765731378,-0.2235066376584005,-0.8163734674453735,0.4838491380214691,-0.315316379070282,0,0,0,-1,-1,40046.296696,unknown,2,2025-04-22T17:34:46.097+03:00,2025-04-21T17:08:51.449+03:00,9072,1.060317,0,0,7564.165,7,22,2025-04-22T17:34:51.256+03:00,767025281.0476028,0,-11,100.3358,1,0.35,2025-04-22T17:33:08.763+03:00,78,1.3,2025-04-22T14:20:19.516+03:00,0.02197104130929222,0
2025-04-22T17:34:53.829+03:00,1745332493.05674,40.95225675339998,29.14028333183624,76.03829,-1,-1,-1,-1,30,22.82566558724317,-9999,40054.02384166667,-0.8137969970703125,0.47698974609375,-0.3137664794921875,40054.01880366667,-2.933481541313022,-1.202437482858552,-0.50501412418219,-0.007419823203235865,-0.02335789054632187,-0.003970622085034847,0.003976404666900635,-0.002832293510437012,0.00532001256942749,XArbitraryZVertical,0.5661474352515238,-0.1480195081812687,0.7794992870409446,-0.2234908995888144,-0.8164610266685486,0.4838198125362396,-0.3151346147060394,0,0,0,-1,-1,40046.296696,unknown,2,2025-04-22T17:34:46.097+03:00,2025-04-21T17:08:51.449+03:00,9072,1.060317,0,0,7564.165,7,22,2025-04-22T17:34:51.256+03:00,767025281.0476028,0,-11,100.3358,1,0.35,2025-04-22T17:33:08.763+03:00,78,1.3,2025-04-22T14:20:19.516+03:00,0.02197104130929222,0
2025-04-22T17:34:53.839+03:00,1745332493.05674,40.95225675339998,29.14028333183624,76.03829,-1,-1,-1,-1,30,22.82566558724317,-9999,40054.03391766667,-0.8166961669921875,0.476806640625,-0.3145904541015625,40054.02887966667,-2.933610786372502,-1.202755342359738,-0.5049993422658883,-0.01476688496768475,-0.02791529148817062,-0.00617568613961339,0.002175748348236084,-0.007046014070510864,0.0001191198825836182,XArbitraryZVertical,0.5662621745276925,-0.1480146015553661,0.7794256871797713,-0.2234601841832111,-0.8165678381919861,0.4838068783283234,-0.3148776590824127,0,0,0,-1,-1,40046.296696,unknown,2,2025-04-22T17:34:46.097+03:00,2025-04-21T17:08:51.449+03:00,9072,1.060317,0,0,7564.165,7,22,2025-04-22T17:34:51.256+03:00,767025281.0476028,0,-11,100.3358,1,0.35,2025-04-22T17:33:08.763+03:00,78,1.3,2025-04-22T14:20:19.516+03:00,0.02197104130929222,0
2025-04-22T17:34:53.849+03:00,1745332493.05674,40.95225675339998,29.14028333183624,76.03829,-1,-1,-1,-1,30,22.82566558724317,-9999,40054.04399366667,-0.816802978515625,0.477752685546875,-0.3113861083984375,40054.03895566667,-2.933822824417818,-1.203194513180449,-0.5049948450701334,-0.0166164506226778,-0.03389142453670502,-0.006789544597268105,0.0002255439758300781,-0.006233364343643188,0.001256674528121948,XArbitraryZVertical,0.5664177488944786,-0.1480237607625173,0.7793256205339627,-0.2234088805730598,-0.8167080879211426,0.4838029146194458,-0.3145197927951813,0,0,0,-1,-1,40046.296696,unknown,2,2025-04-22T17:34:46.097+03:00,2025-04-21T17:08:51.449+03:00,9072,1.060317,0,0,7564.165,7,22,2025-04-22T17:34:51.256+03:00,767025281.0476028,0,-11,100.3358,1,0.35,2025-04-22T17:33:08.763+03:00,78,1.3,2025-04-22T14:20:19.516+03:00,0.02197104130929222,0
2025-04-22T17:34:53.859+03:00,1745332493.05674,40.95225675339998,29.14028333183624,76.03829,-1,-1,-1,-1,30,22.82566558724317,-9999,40054.05406966667,-0.8161468505859375,0.4758148193359375,-0.313995361328125,40054.04903166667,-2.934024171618231,-1.203670722436639,-0.5049822305632353,-0.01463612448424101,-0.03259313479065895,-0.007299007382243872,0.0002283453941345215,-0.006207138299942017,0.001907467842102051,XArbitraryZVertical,0.5665887744377293,-0.1480225177665061,0.7792147650362977,-0.2233623727704979,-0.8168633580207825,0.4837918877601624,-0.3141329884529114,0,0,0,-1,-1,40046.296696,unknown,2,2025-04-22T17:34:46.097+03:00,2025-04-21T17:08:51.449+03:00,9072,1.060317,0,0,7564.165,7,22,2025-04-22T17:34:51.256+03:00,767025281.0476028,0,-11,100.3358,1,0.35,2025-04-22T17:33:08.763+03:00,78,1.3,2025-04-22T14:20:19.516+03:00,0.02197104130929222,0
2025-04-22T17:34:53.869+03:00,1745332493.05674,40.95225675339998,29.14028333183624,76.03829,-1,-1,-1,-1,30,22.82566558724317,-9999,40054.06414566667,-0.8181610107421875,0.4795684814453125,-0.3102264404296875,40054.05910766667,-2.934169694571515,-1.204084336326133,-0.5049678108590768,-0.002223396440967917,-0.03004182502627373,-0.00540789682418108,0.0003799200057983398,-0.007613509893417358,-1.481175422668457e-05,XArbitraryZVertical,0.5667395472278395,-0.1480117180659886,0.7791158056165515,-0.2233325098572272,-0.8169997930526733,0.4837792813777924,-0.3137976229190826,0,0,0,-1,-1,40046.296696,unknown,2,2025-04-22T17:34:46.097+03:00,2025-04-21T17:08:51.449+03:00,9072,1.060317,0,0,7564.165,7,22,2025-04-22T17:34:51.256+03:00,767025281.0476028,0,-11,100.3358,1,0.35,2025-04-22T17:33:08.763+03:00,78,1.3,2025-04-22T14:20:19.516+03:00,0.02197104130929222,0
2025-04-22T17:34:53.879+03:00,1745332493.05674,40.95225675339998,29.14028333183624,76.03829,-1,-1,-1,-1,30,22.82566558724317,-9999,40054.07422166667,-0.8182525634765625,0.485137939453125,-0.309051513671875,40054.06918366667,-2.934232608327961,-1.204428940190049,-0.5049111700563852,-0.0005948733887635171,-0.02941624820232391,-0.008155480027198792,-0.0005086064338684082,-0.003138959407806396,0.003833293914794922,XArbitraryZVertical,0.566870774249436,-0.1479681756422384,0.7790325735647791,-0.2233186564422513,-0.8171334862709045,0.4837296903133392,-0.3135258853435516,0,0,0,-1,-1,40046.296696,unknown,2,2025-04-22T17:34:46.097+03:00,2025-04-21T17:08:51.449+03:00,9072,1.060317,0,0,7564.165,7,22,2025-04-22T17:34:51.256+03:00,767025281.0476028,0,-11,100.3358,1,0.35,2025-04-22T17:33:08.763+03:00,78,1.3,2025-04-22T14:20:19.516+03:00,0.02197104130929222,0
2025-04-22T17:34:53.894+03:00,1745332493.05674,40.95225675339998,29.14028333183624,76.03829,-1,-1,-1,-1,30,22.82566558724317,-9999,40054.08429766667,-0.8147430419921875,0.483673095703125,-0.3090057373046875,40054.07925966667,-2.934292168655177,-1.204786376215031,-0.5048337428780979,-0.0005685081123374403,-0.03194199129939079,-0.007626576349139214,-0.00100255012512207,0.0009266138076782227,0.003600388765335083,XArbitraryZVertical,0.5670078622428865,-0.1479138800217877,0.7789478595979958,-0.2233016030425862,-0.8172802925109863,0.4836619198322296,-0.3132471442222595,0,0,0,-1,-1,40046.296696,unknown,2,2025-04-22T17:34:46.097+03:00,2025-04-21T17:08:51.449+03:00,9072,1.060317,0,0,7564.165,7,22,2025-04-22T17:34:51.256+03:00,767025281.0476028,0,-11,100.3358,1,0.35,2025-04-22T17:33:08.763+03:00,78,1.3,2025-04-22T14:20:19.516+03:00,0.02197104130929222,0
2025-04-22T17:34:53.900+03:00,1745332493.05674,40.95225675339998,29.14028333183624,76.03829,-1,-1,-1,-1,30,22.82566558724317,-9999,40054.09437366667,-0.809234619140625,0.4787750244140625,-0.31005859375,40054.08933566667,-2.934368702444722,-1.20519267483349,-0.5047578350857629,-0.008651202544569969,-0.0384795181453228,-0.01137604098767042,0.003294050693511963,-0.0008532404899597168,0.003372997045516968,XArbitraryZVertical,0.5671626417468372,-0.1478595412812527,0.7788511552143642,-0.223281931736117,-0.8174418210983276,0.4835954904556274,-0.3129281997680664,0,0,0,-1,-1,40046.296696,unknown,2,2025-04-22T17:34:46.097+03:00,2025-04-21T17:08:51.449+03:00,9072,1.060317,0,0,7564.165,7,22,2025-04-22T17:34:51.256+03:00,767025281.0476028,0,-11,100.3358,1,0.35,2025-04-22T17:33:08.763+03:00,78,1.3,2025-04-22T14:20:19.516+03:00,0.02197104130929222,0
2025-04-22T17:34:53.909+03:00,1745332493.05674,40.95225675339998,29.14028333183624,76.03829,-1,-1,-1,-1,30,22.82566558724317,-9999,40054.10445066667,-0.810760498046875,0.48016357421875,-0.308441162109375,40054.09941266667,-2.93453619441741,-1.205672508690171,-0.5046766789973439,-0.01348510570824146,-0.04153336584568024,-0.0122191971167922,0.008256733417510986,-0.005649805068969727,0.002384364604949951,XArbitraryZVertical,0.56733947240087,-0.1478206921971956,0.7787443741912362,-0.2232308875014646,-0.8176285624504089,0.4835244417190552,-0.3125499188899994,0,0,0,-1,-1,40046.296696,unknown,2,2025-04-22T17:34:46.097+03:00,2025-04-21T17:08:51.449+03:00,9072,1.060317,0,0,7564.165,7,22,2025-04-22T17:34:51.256+03:00,767025281.0476028,0,-11,100.3358,1,0.35,2025-04-22T17:33:08.763+03:00,78,1.3,2025-04-22T14:20:19.516+03:00,0.02197104130929222,0
2025-04-22T17:34:53.919+03:00,1745332493.05674,40.95225675339998,29.14028333183624,76.03829,-1,-1,-1,-1,30,22.82566558724317,-9999,40054.11452666667,-0.8146514892578125,0.4786834716796875,-0.306060791015625,40054.10948866667,-2.934690550957623,-1.206170992607464,-0.5045790114968316,-0.009063459932804108,-0.04469293728470802,-0.01328552700579166,0.006411910057067871,-0.002985537052154541,0.004007786512374878,XArbitraryZVertical,0.5675250041003634,-0.1477694020753599,0.7786329038558969,-0.2231819919489888,-0.817828357219696,0.4834389686584473,-0.3121591508388519,0,0,0,-1,-1,40046.296696,unknown,2,2025-04-22T17:34:46.097+03:00,2025-04-21T17:08:51.449+03:00,9072,1.060317,0,0,7564.165,7,22,2025-04-22T17:34:51.256+03:00,767025281.0476028,0,-11,100.3358,1,0.35,2025-04-22T17:33:08.763+03:00,78,1.3,2025-04-22T14:20:19.516+03:00,0.02197104130929222,0
2025-04-22T17:34:53.929+03:00,1745332493.05674,40.95225675339998,29.14028333183624,76.03829,-1,-1,-1,-1,30,22.82566558724317,-9999,40054.12460266667,-0.8162384033203125,0.4775390625,-0.30560302734375,40054.11956466667,-2.934794859754214,-1.206635219483021,-0.5044646166958882,-0.001473716460168362,-0.03841320425271988,-0.01313106343150139,0.003220975399017334,-0.005219995975494385,0.005951821804046631,XArbitraryZVertical,0.5677013523334762,-0.1477009895392619,0.7785278196233009,-0.2231456358881222,-0.8180249333381653,0.4833388030529022,-0.3117991983890533,0,0,0,-1,-1,40046.296696,unknown,2,2025-04-22T17:34:46.097+03:00,2025-04-21T17:08:51.449+03:00,9072,1.060317,0,0,7564.165,7,22,2025-04-22T17:34:51.256+03:00,767025281.0476028,0,-11,100.3358,1,0.35,2025-04-22T17:33:08.763+03:00,78,1.3,2025-04-22T14:20:19.516+03:00,0.02197104130929222,0
2025-04-22T17:34:53.939+03:00,1745332493.05674,40.95225675339998,29.14028333183624,76.03829,-1,-1,-1,-1,30,22.82566558724317,-9999,40054.13467866667,-0.819976806640625,0.484130859375,-0.3087615966796875,40054.12964066667,-2.934820911856641,-1.207003205890496,-0.5043169222017446,0.007244407664984465,-0.03151082247495651,-0.01301574893295765,0.001784980297088623,-0.004510849714279175,0.005554139614105225,XArbitraryZVertical,0.5678469875973211,-0.1476076814694964,0.7784455484185269,-0.2231238658267883,-0.8182063102722168,0.4832095205783844,-0.3115235567092896,0,0,0,-1,-1,40046.296696,unknown,2,2025-04-22T17:34:46.097+03:00,2025-04-21T17:08:51.449+03:00,9072,1.060317,0,0,7564.165,7,22,2025-04-22T17:34:51.256+03:00,767025281.0476028,0,-11,100.3358,1,0.35,2025-04-22T17:33:08.763+03:00,78,1.3,2025-04-22T14:20:19.516+03:00,0.02197104130929222,0
2025-04-22T17:34:53.949+03:00,1745332493.05674,40.95225675339998,29.14028333183624,76.03829,-1,-1,-1,-1,30,22.82566558724317,-9999,40054.14475466667,-0.8232421875,0.479400634765625,-0.3104400634765625,40054.13971666667,-2.934840533102129,-1.20731890280422,-0.5041366414995094,-0.000758191745262593,-0.03001179918646812,-0.01807272434234619,-0.00279611349105835,0.0008501708507537842,0.002305537462234497,XArbitraryZVertical,0.5679736935517218,-0.1475052391980335,0.7783815892288808,-0.2230921507878291,-0.8183860182762146,0.4830516576766968,-0.3112961649894714,0,0,0,-1,-1,40046.296696,unknown,2,2025-04-22T17:34:46.097+03:00,2025-04-21T17:08:51.449+03:00,9072,1.060317,0,0,7564.165,7,22,2025-04-22T17:34:53.835+03:00,767025293.936412,0,-10.77,100.3328,1,0.35,2025-04-22T17:33:08.763+03:00,78,1.3,2025-04-22T14:20:19.516+03:00,0.02197104130929222,0
2025-04-22T17:34:53.960+03:00,1745332493.05674,40.95225675339998,29.14028333183624,76.03829,-1,-1,-1,-1,30,22.82566558724317,-9999,40054.15483066667,-0.8213653564453125,0.4739532470703125,-0.3137359619140625,40054.14979266667,-2.93497311961252,-1.207678701819536,-0.5040243798841954,-0.0112597681581974,-0.02988709323108196,-0.01444253791123629,-0.005029141902923584,-0.004163116216659546,0.0001229345798492432,XArbitraryZVertical,0.5681072192870604,-0.1474574288340141,0.7783089053245652,-0.2230375743750272,-0.8185487389564514,0.4829533696174622,-0.3110210001468658,0,0,0,-1,-1,40046.296696,unknown,2,2025-04-22T17:34:46.097+03:00,2025-04-21T17:08:51.449+03:00,9072,1.060317,0,0,7564.165,7,22,2025-04-22T17:34:53.835+03:00,767025293.936412,0,-10.77,100.3328,1,0.35,2025-04-22T17:33:08.763+03:00,78,1.3,2025-04-22T14:20:19.516+03:00,0.02197104130929222,0
2025-04-22T17:34:53.970+03:00,1745332493.05674,40.95225675339998,29.14028333183624,76.03829,-1,-1,-1,-1,30,22.82566558724317,-9999,40054.16490666667,-0.818450927734375,0.4716339111328125,-0.320556640625,40054.15986866667,-2.935259455399476,-1.208139714278584,-0.5039782999528103,-0.03358718007802963,-0.03329194337129593,-0.01299058180302382,-0.002621948719024658,-0.00892937183380127,-0.003222018480300903,XArbitraryZVertical,0.5682668743518579,-0.1474687900700799,0.7782157168386478,-0.222948031326853,-0.8187126517295837,0.4829130172729492,-0.310651421546936,0,0,0,-1,-1,40046.296696,unknown,2,2025-04-22T17:34:46.097+03:00,2025-04-21T17:08:51.449+03:00,9072,1.060317,0,0,7564.165,7,22,2025-04-22T17:34:53.835+03:00,767025293.936412,0,-10.77,100.3328,1,0.35,2025-04-22T17:33:08.763+03:00,78,1.3,2025-04-22T14:20:19.516+03:00,0.02197104130929222,0
2025-04-22T17:34:53.980+03:00,1745332493.05674,40.95225675339998,29.14028333183624,76.03829,-1,-1,-1,-1,30,22.82566558724317,-9999,40054.17498266667,-0.812347412109375,0.4691162109375,-0.3226776123046875,40054.16994466667,-2.935828372251975,-1.20882932284139,-0.5040531210911249,-0.06083371117711067,-0.0495699867606163,-0.009142180904746056,0.000686347484588623,-0.01143625378608704,-0.0110626220703125,XArbitraryZVertical,0.5684909961986319,-0.1475838087995328,0.7780734970210592,-0.2227972303621502,-0.8188930153846741,0.4829785525798798,-0.3100740015506744,0,0,0,-1,-1,40046.296696,unknown,2,2025-04-22T17:34:46.097+03:00,2025-04-21T17:08:51.449+03:00,9072,1.060317,0,0,7564.165,7,22,2025-04-22T17:34:53.835+03:00,767025293.936412,0,-10.77,100.3328,1,0.35,2025-04-22T17:33:08.763+03:00,78,1.3,2025-04-22T14:20:19.516+03:00,0.02197104130929222,0
2025-04-22T17:34:53.990+03:00,1745332493.05674,40.95225675339998,29.14028333183624,76.03829,-1,-1,-1,-1,30,22.82566558724317,-9999,40054.18505866667,-0.810577392578125,0.466033935546875,-0.3243560791015625,40054.18002066667,-2.936502913637856,-1.209710989363466,-0.5041879330906408,-0.0577942468225956,-0.0623619481921196,-0.003510926850140095,0.007017195224761963,-0.0141940712928772,-0.01322686672210693,XArbitraryZVertical,0.56878016500221,-0.1477318230252544,0.7778802932168363,-0.2226354298253012,-0.8191050887107849,0.483096569776535,-0.3093288540840149,0,0,0,-1,-1,40046.296696,unknown,2,2025-04-22T17:34:46.097+03:00,2025-04-21T17:08:51.449+03:00,9072,1.060317,0,0,7564.165,7,22,2025-04-22T17:34:53.835+03:00,767025293.936412,0,-10.77,100.3328,1,0.35,2025-04-22T17:33:08.763+03:00,78,1.3,2025-04-22T14:20:19.516+03:00,0.02197104130929222,0
2025-04-22T17:34:54.000+03:00,1745332493.05674,40.95225675339998,29.14028333183624,76.03829,-1,-1,-1,-1,30,22.82566558724317,-9999,40054.19513566667,-0.818328857421875,0.4758453369140625,-0.3183135986328125,40054.19009666667,-2.937041484836615,-1.210574420677917,-0.5042943605640069,-0.0334978960454464,-0.05630079284310341,-0.0115581676363945,0.008944928646087646,-0.01620984077453613,-0.01592069864273071,XArbitraryZVertical,0.5690729553695869,-0.1478318539661151,0.7776808772159941,-0.2225178232131403,-0.8193238377571106,0.4831897616386414,-0.308603435754776,0,0,0,-1,-1,40046.296696,unknown,2,2025-04-22T17:34:46.097+03:00,2025-04-21T17:08:51.449+03:00,9072,1.060317,0,0,7564.165,7,22,2025-04-22T17:34:53.835+03:00,767025293.936412,0,-10.77,100.3328,1,0.35,2025-04-22T17:33:08.763+03:00,78,1.3,2025-04-22T14:20:19.516+03:00,0.02197104130929222,0
2025-04-22T17:34:54.010+03:00,1745332493.05674,40.95225675339998,29.14028333183624,76.03829,-1,-1,-1,-1,30,22.82566558724317,-9999,40054.20521166667,-0.8278350830078125,0.488922119140625,-0.3033905029296875,40054.20017366667,-2.93724362545309,-1.211192277403894,-0.5042009797831818,0.005216742865741253,-0.04925726354122162,-0.01971516385674477,0.0004801154136657715,-0.006026804447174072,-0.008781701326370239,XArbitraryZVertical,0.569301056872945,-0.1477830028020303,0.7775395715795321,-0.2224602742537579,-0.8195565342903137,0.4831080138683319,-0.3081129789352417,0,0,0,-1,-1,40046.296696,unknown,2,2025-04-22T17:34:46.097+03:00,2025-04-21T17:08:51.449+03:00,9072,1.060317,0,0,7564.165,7,22,2025-04-22T17:34:53.835+03:00,767025293.936412,0,-10.77,100.3328,1,0.35,2025-04-22T17:33:08.763+03:00,78,1.3,2025-04-22T14:20:19.516+03:00,0.02197104130929222,0
2025-04-22T17:34:54.020+03:00,1745332493.05674,40.95225675339998,29.14028333183624,76.03829,-1,-1,-1,-1,30,22.82566558724317,-9999,40054.21528766667,-0.827056884765625,0.4925689697265625,-0.29229736328125,40054.21024966667,-2.937134541529832,-1.21160239629911,-0.5038802486401589,0.03152218461036682,-0.04313379153609276,-0.02981184050440788,-0.00828176736831665,0.007117211818695068,0.005798637866973877,XArbitraryZVertical,0.5694781588021395,-0.1475769933318474,0.777452468055214,-0.2224483591754698,-0.8198278546333313,0.4828271567821503,-0.3078313171863556,0,0,0,-1,-1,40046.296696,unknown,2,2025-04-22T17:34:46.097+03:00,2025-04-21T17:08:51.449+03:00,9072,1.060317,0,0,7564.165,7,22,2025-04-22T17:34:53.835+03:00,767025293.936412,0,-10.77,100.3328,1,0.35,2025-04-22T17:33:08.763+03:00,78,1.3,2025-04-22T14:20:19.516+03:00,0.02197104130929222,0
2025-04-22T17:34:54.030+03:00,1745332493.05674,40.95225675339998,29.14028333183624,76.03829,-1,-1,-1,-1,30,22.82566558724317,-9999,40054.22536366667,-0.825225830078125,0.4886627197265625,-0.288909912109375,40054.22032566667,-2.93689289686373,-1.211898099586057,-0.5034204583256702,0.03523755818605423,-0.04166159778833389,-0.03809160739183426,-0.006716489791870117,0.0101291835308075,0.01604068279266357,XArbitraryZVertical,0.5696246757296021,-0.1472898974330998,0.7774011986285917,-0.2224427662484618,-0.8201266527175903,0.4824244678020477,-0.3076668381690979,0,0,0,-1,-1,40046.296696,unknown,2,2025-04-22T17:34:46.097+03:00,2025-04-21T17:08:51.449+03:00,9072,1.060317,0,0,7564.165,7,22,2025-04-22T17:34:53.835+03:00,767025293.936412,0,-10.77,100.3328,1,0.35,2025-04-22T17:33:08.763+03:00,78,1.3,2025-04-22T14:20:19.516+03:00,0.02197104130929222,0
2025-04-22T17:34:54.040+03:00,1745332493.05674,40.95225675339998,29.14028333183624,76.03829,-1,-1,-1,-1,30,22.82566558724317,-9999,40054.23543966667,-0.8255157470703125,0.487030029296875,-0.2880096435546875,40054.23040166667,-2.936656633436011,-1.21220830525291,-0.5028898939054389,0.03478375822305679,-0.04327280819416046,-0.0416494607925415,-0.003985941410064697,0.006275802850723267,0.01851579546928406,XArbitraryZVertical,0.5697784548824438,-0.1469741776960354,0.7773555523894022,-0.2224173845667524,-0.8204616904258728,0.4819596409797668,-0.3075022101402283,0,0,0,-1,-1,40046.296696,unknown,2,2025-04-22T17:34:46.097+03:00,2025-04-21T17:08:51.449+03:00,9072,1.060317,0,0,7564.165,7,22,2025-04-22T17:34:53.835+03:00,767025293.936412,0,-10.77,100.3328,1,0.35,2025-04-22T17:33:08.763+03:00,78,1.3,2025-04-22T14:20:19.516+03:00,0.02197104130929222,0
