loggingTime(txt),locationTimestamp_since1970(s),locationLatitude(WGS84),locationLongitude(WGS84),locationAltitude(m),locationSpeed(m/s),locationSpeedAccuracy(m/s),locationCourse(°),locationCourseAccuracy(°),locationVerticalAccuracy(m),locationHorizontalAccuracy(m),locationFloor(Z),accelerometerTimestamp_sinceReboot(s),accelerometerAccelerationX(G),accelerometerAccelerationY(G),accelerometerAccelerationZ(G),motionTimestamp_sinceReboot(s),motionYaw(rad),motionRoll(rad),motionPitch(rad),motionRotationRateX(rad/s),motionRotationRateY(rad/s),motionRotationRateZ(rad/s),motionUserAccelerationX(G),motionUserAccelerationY(G),motionUserAccelerationZ(G),motionAttitudeReferenceFrame(txt),motionQuaternionX(R),motionQuaternionY(R),motionQuaternionZ(R),motionQuaternionW(R),motionGravityX(G),motionGravityY(G),motionGravityZ(G),motionMagneticFieldX(µT),motionMagneticFieldY(µT),motionMagneticFieldZ(µT),motionHeading(°),motionMagneticFieldCalibrationAccuracy(Z),activityTimestamp_sinceReboot(s),activity(txt),activityActivityConfidence(Z),activityActivityStartDate(txt),pedometerStartDate(txt),pedometerNumberofSteps(N),pedometerAverageActivePace(s/m),pedometerCurrentPace(s/m),pedometerCurrentCadence(steps/s),pedometerDistance(m),pedometerFloorAscended(N),pedometerFloorDescended(N),pedometerEndDate(txt),altimeterTimestamp_sinceReboot(s),altimeterReset(bool),altimeterRelativeAltitude(m),altimeterPressure(kPa),batteryState(N),batteryLevel(R),heartRateBPMTimestamp(txt),heartRateBPM(N),heartRateBPS(R),heartRateVariabilityTimestamp(txt),heartRateVariability(ms),label
2025-04-22T15:24:02.447+03:00,1745324637.109606,40.95225259131825,29.14030486462699,76.43298,-1,-1,-1,-1,30,27.21703004273423,-9999,35305.4064995,-0.70501708984375,0.615234375,-0.338592529296875,35305.4014605,-2.573684492107661,-1.119719987521658,-0.6810655121888349,-0.07236206531524658,0.04097388312220573,0.02327343448996544,-0.004234790802001953,-0.05186253786087036,0.008661210536956787,XArbitraryZVertical,0.5598098708174706,-0.1314293028238803,0.7169993718380847,-0.3940192447445842,-0.6991953253746033,0.6296212077140808,-0.3386784791946411,0,0,0,-1,-1,35287.42123979167,unknown,2,2025-04-22T15:22:54.949+03:00,2025-04-21T17:08:51.449+03:00,8236,1.039424,0,0,6852.579,7,22,2025-04-22T15:22:29.153+03:00,767017442.1177073,0,-15.45,100.3885,1,0.55,2025-04-22T15:22:53.954+03:00,108,1.8,2025-04-22T14:20:19.516+03:00,0.02197104130929222,0
2025-04-22T15:24:02.450+03:00,1745324637.109606,40.95225259131825,29.14030486462699,76.43298,-1,-1,-1,-1,30,27.21703004273423,-9999,35305.4165755,-0.7078704833984375,0.6839599609375,-0.346466064453125,35305.4115375,-2.573778537578302,-1.119123930265205,-0.6811552847772951,0.005831546150147915,0.0613984614610672,0.003583885729312897,-0.005693137645721436,-0.03841292858123779,0.004338294267654419,XArbitraryZVertical,0.5595923763812731,-0.1316096876040015,0.7171662218064518,-0.3939643353894192,-0.6989424824714661,0.629690945148468,-0.3390705287456512,0,0,0,-1,-1,35287.42123979167,unknown,2,2025-04-22T15:22:54.949+03:00,2025-04-21T17:08:51.449+03:00,8236,1.039424,0,0,6852.579,7,22,2025-04-22T15:22:29.153+03:00,767017442.1177073,0,-15.45,100.3885,1,0.55,2025-04-22T15:22:53.954+03:00,108,1.8,2025-04-22T14:20:19.516+03:00,0.02197104130929222,0
2025-04-22T15:24:02.453+03:00,1745324637.109606,40.95225259131825,29.14030486462699,76.43298,-1,-1,-1,-1,30,27.21703004273423,-9999,35305.42665250001,-0.694061279296875,0.653533935546875,-0.3383941650390625,35305.4216135,-2.573845606849265,-1.118895198937067,-0.6812886673022467,-0.02680935338139534,-0.0005910051986575127,-0.007244061212986708,-0.007158517837524414,0.03120088577270508,-0.004052966833114624,XArbitraryZVertical,0.5595095080279737,-0.1317279595764512,0.7172159621663918,-0.3939519680213086,-0.6987892985343933,0.6297945380210876,-0.3391937017440796,0,0,0,-1,-1,35287.42123979167,unknown,2,2025-04-22T15:22:54.949+03:00,2025-04-21T17:08:51.449+03:00,8236,1.039424,0,0,6852.579,7,22,2025-04-22T15:22:29.153+03:00,767017442.1177073,0,-15.45,100.3885,1,0.55,2025-04-22T15:22:53.954+03:00,108,1.8,2025-04-22T14:20:19.516+03:00,0.02197104130929222,0
2025-04-22T15:24:02.455+03:00,1745324637.109606,40.95225259131825,29.14030486462699,76.43298,-1,-1,-1,-1,30,27.21703004273423,-9999,35305.4367285,-0.6712799072265625,0.6044464111328125,-0.33575439453125,35305.4316905,-2.574096148934058,-1.118987015354354,-0.6814040748481862,-0.01723156124353409,0.02086102217435837,-0.005569465458393097,-0.008505105972290039,0.05174106359481812,-0.004347264766693115,XArbitraryZVertical,0.5595290283702457,-0.1318271207863239,0.7172157378916955,-0.3938912731779581,-0.6987549662590027,0.6298841834068298,-0.3390977680683136,0,0,0,-1,-1,35287.42123979167,unknown,2,2025-04-22T15:22:54.949+03:00,2025-04-21T17:08:51.449+03:00,8236,1.039424,0,0,6852.579,7,22,2025-04-22T15:22:29.153+03:00,767017442.1177073,0,-15.45,100.3885,1,0.55,2025-04-22T15:22:53.954+03:00,108,1.8,2025-04-22T14:20:19.516+03:00,0.02197104130929222,0
2025-04-22T15:24:02.459+03:00,1745324637.109606,40.95225259131825,29.14030486462699,76.43298,-1,-1,-1,-1,30,27.21703004273423,-9999,35305.4468045,-0.7068023681640625,0.6446533203125,-0.34619140625,35305.4417665,-2.574167413745483,-1.118781240968751,-0.6813461494423434,0.01089994143694639,0.02137128636240959,-0.004394479095935822,0.03055095672607422,-0.02133411169052124,0.006600469350814819,XArbitraryZVertical,0.5594489918293107,-0.1318639400291713,0.7172992392054898,-0.3938405303908325,-0.6987179517745972,0.6298391819000244,-0.3392574489116669,0,0,0,-1,-1,35287.42123979167,unknown,2,2025-04-22T15:22:54.949+03:00,2025-04-21T17:08:51.449+03:00,8236,1.039424,0,0,6852.579,7,22,2025-04-22T15:22:29.153+03:00,767017442.1177073,0,-15.45,100.3885,1,0.55,2025-04-22T15:22:53.954+03:00,108,1.8,2025-04-22T14:20:19.516+03:00,0.02197104130929222,0
2025-04-22T15:24:02.460+03:00,1745324637.109606,40.95225259131825,29.14030486462699,76.43298,-1,-1,-1,-1,30,27.21703004273423,-9999,35305.4568815,-0.6887969970703125,0.6480255126953125,-0.340118408203125,35305.4518435,-2.574041514489707,-1.118464018642378,-0.6813017706840732,0.007253807969391346,0.01902450807392597,-0.002706034807488322,0.0006375312805175781,-0.001524269580841064,-0.004625052213668823,XArbitraryZVertical,0.5593423221671977,-0.1318730610126254,0.7173723564871735,-0.3938558891319225,-0.698635458946228,0.6298047304153442,-0.3394913375377655,0,0,0,-1,-1,35287.42123979167,unknown,2,2025-04-22T15:22:54.949+03:00,2025-04-21T17:08:51.449+03:00,8236,1.039424,0,0,6852.579,7,22,2025-04-22T15:22:29.153+03:00,767017442.1177073,0,-15.45,100.3885,1,0.55,2025-04-22T15:22:53.954+03:00,108,1.8,2025-04-22T14:20:19.516+03:00,0.02197104130929222,0
2025-04-22T15:24:02.470+03:00,1745324637.109606,40.95225259131825,29.14030486462699,76.43298,-1,-1,-1,-1,30,27.21703004273423,-9999,35305.4669575,-0.6916961669921875,0.6188507080078125,-0.339263916015625,35305.46191950001,-2.574009325679797,-1.118168111330132,-0.6813508963434624,-0.01237495429813862,0.02639194205403328,-0.003760879626497626,0.0008906126022338867,0.02462166547775269,-0.003195911645889282,XArbitraryZVertical,0.5592396284418818,-0.1319424131191345,0.7174385826259482,-0.3938577418121313,-0.6985070705413818,0.6298428773880005,-0.3396844863891602,0,0,0,-1,-1,35287.42123979167,unknown,2,2025-04-22T15:22:54.949+03:00,2025-04-21T17:08:51.449+03:00,8236,1.039424,0,0,6852.579,7,22,2025-04-22T15:22:29.153+03:00,767017442.1177073,0,-15.45,100.3885,1,0.55,2025-04-22T15:22:53.954+03:00,108,1.8,2025-04-22T14:20:19.516+03:00,0.02197104130929222,0
2025-04-22T15:24:02.494+03:00,1745324637.109606,40.95225259131825,29.14030486462699,76.43298,-1,-1,-1,-1,30,27.21703004273423,-9999,35305.4770345,-0.700408935546875,0.6160888671875,-0.3384246826171875,35305.4719965,-2.574169445757211,-1.118019376250622,-0.6813404333070681,-0.01311717741191387,0.02291358821094036,-0.00343916960991919,0.01264113187789917,-0.001554250717163086,0.001564770936965942,XArbitraryZVertical,0.5591754213673086,-0.1320121906308644,0.7175138776580925,-0.3937883969484356,-0.6984624862670898,0.629834771156311,-0.3397912681102753,0,0,0,-1,-1,35287.42123979167,unknown,2,2025-04-22T15:22:54.949+03:00,2025-04-21T17:08:51.449+03:00,8236,1.039424,0,0,6852.579,7,22,2025-04-22T15:22:29.153+03:00,767017442.1177073,0,-15.45,100.3885,1,0.55,2025-04-22T15:22:53.954+03:00,108,1.8,2025-04-22T14:20:19.516+03:00,0.02197104130929222,0
2025-04-22T15:24:02.495+03:00,1745324637.109606,40.95225259131825,29.14030486462699,76.43298,-1,-1,-1,-1,30,27.21703004273423,-9999,35305.48711050001,-0.695831298828125,0.6306304931640625,-0.33587646484375,35305.4820725,-2.574384355227422,-1.117974976257457,-0.6811301605031975,-0.01166695263236761,0.0225073229521513,-0.001179277896881104,-0.0006826519966125488,-0.01681751012802124,0.001211225986480713,XArbitraryZVertical,0.5591396677098609,-0.1319951277639222,0.7176119542597348,-0.3936662577239557,-0.6985665559768677,0.6296713948249817,-0.3398802280426025,0,0,0,-1,-1,35287.42123979167,unknown,2,2025-04-22T15:22:54.949+03:00,2025-04-21T17:08:51.449+03:00,8236,1.039424,0,0,6852.579,7,22,2025-04-22T15:22:29.153+03:00,767017442.1177073,0,-15.45,100.3885,1,0.55,2025-04-22T15:22:53.954+03:00,108,1.8,2025-04-22T14:20:19.516+03:00,0.02197104130929222,0
2025-04-22T15:24:02.499+03:00,1745324637.109606,40.95225259131825,29.14030486462699,76.43298,-1,-1,-1,-1,30,27.21703004273423,-9999,35305.4971875,-0.6978912353515625,0.63128662109375,-0.3398284912109375,35305.4921495,-2.574546721152261,-1.117880170509018,-0.6809190784660256,-0.007975279353559017,0.02373823709785938,-0.000529466662555933,0.001327335834503174,-0.004003942012786865,0.004509478807449341,XArbitraryZVertical,0.5590892680633112,-0.1319729449799309,0.717713953639698,-0.3935594775244346,-0.6986539363861084,0.6295074224472046,-0.3400046527385712,0,0,0,-1,-1,35287.42123979167,unknown,2,2025-04-22T15:22:54.949+03:00,2025-04-21T17:08:51.449+03:00,8236,1.039424,0,0,6852.579,7,22,2025-04-22T15:22:29.153+03:00,767017442.1177073,0,-15.45,100.3885,1,0.55,2025-04-22T15:22:53.954+03:00,108,1.8,2025-04-22T14:20:19.516+03:00,0.02197104130929222,0
2025-04-22T15:24:02.509+03:00,1745324637.109606,40.95225259131825,29.14030486462699,76.43298,-1,-1,-1,-1,30,27.21703004273423,-9999,35305.5072635,-0.69683837890625,0.6308135986328125,-0.3430938720703125,35305.5022255,-2.574595287828759,-1.117686649960963,-0.6810369208131339,0.002951670670881867,0.02122634276747704,-0.004415018483996391,0.002507030963897705,0.003488063812255859,0.002536952495574951,XArbitraryZVertical,0.5590197786492801,-0.1320727481578138,0.7177532881250648,-0.3935528629312283,-0.6985213756561279,0.6295989751815796,-0.3401073515415192,0,0,0,-1,-1,35287.42123979167,unknown,2,2025-04-22T15:22:54.949+03:00,2025-04-21T17:08:51.449+03:00,8236,1.039424,0,0,6852.579,7,22,2025-04-22T15:22:29.153+03:00,767017442.1177073,0,-15.45,100.3885,1,0.55,2025-04-22T15:22:53.954+03:00,108,1.8,2025-04-22T14:20:19.516+03:00,0.02197104130929222,0
2025-04-22T15:24:02.519+03:00,1745324637.109606,40.95225259131825,29.14030486462699,76.43298,-1,-1,-1,-1,30,27.21703004273423,-9999,35305.5173405,-0.6939849853515625,0.6355438232421875,-0.3415374755859375,35305.5123015,-2.574608951130182,-1.117471785910237,-0.6812176906482647,0.00316126155667007,0.02425995096564293,-0.008028395473957062,0.0001495480537414551,-2.455711364746094e-05,-0.002230346202850342,XArbitraryZVertical,0.5589466059627766,-0.1321926825864072,0.7177788029361102,-0.3935699626883109,-0.6983458995819092,0.6297394037246704,-0.340207576751709,0,0,0,-1,-1,35287.42123979167,unknown,2,2025-04-22T15:22:54.949+03:00,2025-04-21T17:08:51.449+03:00,8236,1.039424,0,0,6852.579,7,22,2025-04-22T15:22:29.153+03:00,767017442.1177073,0,-15.45,100.3885,1,0.55,2025-04-22T15:22:53.954+03:00,108,1.8,2025-04-22T14:20:19.516+03:00,0.02197104130929222,0
2025-04-22T15:24:02.529+03:00,1745324637.109606,40.95225259131825,29.14030486462699,76.43298,-1,-1,-1,-1,30,27.21703004273423,-9999,35305.5274165,-0.693145751953125,0.6292724609375,-0.340362548828125,35305.52237850001,-2.574627963157366,-1.117203620273846,-0.6811749912092796,-0.008141460828483105,0.02173074521124363,-0.006960734259337187,0.003241121768951416,0.005211889743804932,-0.002489030361175537,XArbitraryZVertical,0.5588479523525953,-0.1322333123775419,0.7178663087158866,-0.393536872880235,-0.6982788443565369,0.6297062039375305,-0.3404066264629364,0,0,0,-1,-1,35287.42123979167,unknown,2,2025-04-22T15:22:54.949+03:00,2025-04-21T17:08:51.449+03:00,8236,1.039424,0,0,6852.579,7,22,2025-04-22T15:22:29.153+03:00,767017442.1177073,0,-15.45,100.3885,1,0.55,2025-04-22T15:22:53.954+03:00,108,1.8,2025-04-22T14:20:19.516+03:00,0.02197104130929222,0
2025-04-22T15:24:02.539+03:00,1745324637.109606,40.95225259131825,29.14030486462699,76.43298,-1,-1,-1,-1,30,27.21703004273423,-9999,35305.5374935,-0.6912078857421875,0.622589111328125,-0.344512939453125,35305.5324545,-2.574724247908266,-1.116984847913313,-0.6811478207790915,-0.008373422548174858,0.03003980778157711,-0.0009145596995949745,0.004265248775482178,0.003111958503723145,0.0003261864185333252,XArbitraryZVertical,0.5587623504760718,-0.1322922082325584,0.7179518250999842,-0.3934823621012714,-0.6982195973396301,0.62968510389328,-0.3405668139457703,0,0,0,-1,-1,35287.42123979167,unknown,2,2025-04-22T15:22:54.949+03:00,2025-04-21T17:08:51.449+03:00,8236,1.039424,0,0,6852.579,7,22,2025-04-22T15:22:29.153+03:00,767017442.1177073,0,-15.45,100.3885,1,0.55,2025-04-22T15:22:53.954+03:00,108,1.8,2025-04-22T14:20:19.516+03:00,0.02197104130929222,0
2025-04-22T15:24:02.553+03:00,1745324637.109606,40.95225259131825,29.14030486462699,76.43298,-1,-1,-1,-1,30,27.21703004273423,-9999,35305.5475695,-0.692626953125,0.6226654052734375,-0.3438873291015625,35305.5425315,-2.574818214072307,-1.116758539862551,-0.6813142092309996,-0.01060694921761751,0.02327864244580269,-0.001422524335794151,0.00652015209197998,-0.005119740962982178,-0.00166746973991394,XArbitraryZVertical,0.5586793477167272,-0.1324309498151044,0.7179992826864512,-0.3934669518497679,-0.6980483531951904,0.6298143863677979,-0.340678870677948,0,0,0,-1,-1,35287.42123979167,unknown,2,2025-04-22T15:22:54.949+03:00,2025-04-21T17:08:51.449+03:00,8236,1.039424,0,0,6852.579,7,22,2025-04-22T15:22:29.153+03:00,767017442.1177073,0,-15.45,100.3885,1,0.55,2025-04-22T15:22:53.954+03:00,108,1.8,2025-04-22T14:20:19.516+03:00,0.02197104130929222,0
2025-04-22T15:24:02.560+03:00,1745324637.109606,40.95225259131825,29.14030486462699,76.43298,-1,-1,-1,-1,30,27.21703004273423,-9999,35305.5576465,-0.6880035400390625,0.626556396484375,-0.3325653076171875,35305.5526075,-2.574982074652905,-1.116651476428362,-0.6814159135855399,-0.01612342149019241,0.01445851847529411,-0.0006568655371665955,0.005495369434356689,-0.00770103931427002,-0.00412324070930481,XArbitraryZVertical,0.5586327540744157,-0.1325392790522419,0.718040641511179,-0.3934214275864803,-0.6979544758796692,0.6298933625221252,-0.3407255709171295,0,0,0,-1,-1,35287.42123979167,unknown,2,2025-04-22T15:22:54.949+03:00,2025-04-21T17:08:51.449+03:00,8236,1.039424,0,0,6852.579,7,22,2025-04-22T15:22:29.153+03:00,767017442.1177073,0,-15.45,100.3885,1,0.55,2025-04-22T15:22:53.954+03:00,108,1.8,2025-04-22T14:20:19.516+03:00,0.02197104130929222,0
2025-04-22T15:24:02.570+03:00,1745324637.109606,40.95225259131825,29.14030486462699,76.43298,-1,-1,-1,-1,30,27.21703004273423,-9999,35305.5677225,-0.690155029296875,0.626556396484375,-0.3273468017578125,35305.5626845,-2.575183111564441,-1.11664104585753,-0.6813367419015458,-0.01408310607075691,0.01916332542896271,-0.001812644070014358,0.008466362953186035,-0.004694640636444092,0.002543509006500244,XArbitraryZVertical,0.5586135673602253,-0.132565136973271,0.7180994026612832,-0.3933327171799126,-0.6979957222938538,0.629831850528717,-0.3407547473907471,0,0,0,-1,-1,35287.42123979167,unknown,2,2025-04-22T15:22:54.949+03:00,2025-04-21T17:08:51.449+03:00,8236,1.039424,0,0,6852.579,7,22,2025-04-22T15:22:29.153+03:00,767017442.1177073,0,-15.45,100.3885,1,0.55,2025-04-22T15:22:53.954+03:00,108,1.8,2025-04-22T14:20:19.516+03:00,0.02197104130929222,0
2025-04-22T15:24:02.580+03:00,1745324637.109606,40.95225259131825,29.14030486462699,76.43298,-1,-1,-1,-1,30,27.21703004273423,-9999,35305.5777985,-0.69482421875,0.628173828125,-0.340179443359375,35305.5727605,-2.575325437498924,-1.116587111441179,-0.6813481548323428,-0.003514884039759636,0.01600002311170101,-0.001016891561448574,0.01033365726470947,-0.002567291259765625,0.0138695240020752,XArbitraryZVertical,0.5585850662820516,-0.1326201481105103,0.7181401349546216,-0.3932803301542849,-0.6979709267616272,0.6298407316207886,-0.3407892286777496,0,0,0,-1,-1,35287.42123979167,unknown,2,2025-04-22T15:22:54.949+03:00,2025-04-21T17:08:51.449+03:00,8236,1.039424,0,0,6852.579,7,22,2025-04-22T15:22:29.153+03:00,767017442.1177073,0,-15.45,100.3885,1,0.55,2025-04-22T15:22:53.954+03:00,108,1.8,2025-04-22T14:20:19.516+03:00,0.02197104130929222,0
2025-04-22T15:24:02.590+03:00,1745324637.109606,40.95225259131825,29.14030486462699,76.43298,-1,-1,-1,-1,30,27.21703004273423,-9999,35305.5878755,-0.689361572265625,0.6344757080078125,-0.338653564453125,35305.58283750001,-2.57540868185135,-1.116543209923298,-0.6813987162404024,-0.007171270903199911,0.01241687219589949,-0.002439086092635989,0.002996325492858887,-0.003216862678527832,0.005936354398727417,XArbitraryZVertical,0.5585651272151434,-0.1326726787501509,0.7181583790607604,-0.3932576515497751,-0.6979273557662964,0.6298800110816956,-0.3408059179782867,0,0,0,-1,-1,35287.42123979167,unknown,2,2025-04-22T15:22:54.949+03:00,2025-04-21T17:08:51.449+03:00,8236,1.039424,0,0,6852.579,7,22,2025-04-22T15:22:29.153+03:00,767017442.1177073,0,-15.45,100.3885,1,0.55,2025-04-22T15:22:53.954+03:00,108,1.8,2025-04-22T14:20:19.516+03:00,0.02197104130929222,0
2025-04-22T15:24:02.601+03:00,1745324637.109606,40.95225259131825,29.14030486462699,76.43298,-1,-1,-1,-1,30,27.21703004273423,-9999,35305.5979515,-0.6910552978515625,0.62664794921875,-0.334442138671875,35305.5929135,-2.575591031357931,-1.116501925803904,-0.681442060311215,-0.0277713555842638,0.01352288387715816,0.0002568317577242851,0.006665587425231934,0.002944409847259521,-0.0009591281414031982,XArbitraryZVertical,0.5585393868004732,-0.1327494884107335,0.7181966565264084,-0.3931980532644286,-0.6978885531425476,0.6299136877059937,-0.3408226668834686,0,0,0,-1,-1,35287.42123979167,unknown,2,2025-04-22T15:22:54.949+03:00,2025-04-21T17:08:51.449+03:00,8236,1.039424,0,0,6852.579,7,22,2025-04-22T15:22:29.153+03:00,767017442.1177073,0,-15.45,100.3885,1,0.55,2025-04-22T15:22:53.954+03:00,108,1.8,2025-04-22T14:20:19.516+03:00,0.02197104130929222,0
2025-04-22T15:24:02.610+03:00,1745324637.109606,40.95225259131825,29.14030486462699,76.43298,-1,-1,-1,-1,30,27.21703004273423,-9999,35305.6080285,-0.6916961669921875,0.6217193603515625,-0.3390655517578125,35305.6029905,-2.575973267210804,-1.116634246484835,-0.6816305965283626,-0.03977721557021141,0.003179365070536733,-0.003060701303184032,0.00852656364440918,0.0009212493896484375,0.006235897541046143,XArbitraryZVertical,0.5585665144833146,-0.1329072220511815,0.7181961217389468,-0.393107338747871,-0.6978269815444946,0.630060076713562,-0.3406782448291779,0,0,0,-1,-1,35287.42123979167,unknown,2,2025-04-22T15:22:54.949+03:00,2025-04-21T17:08:51.449+03:00,8236,1.039424,0,0,6852.579,7,22,2025-04-22T15:22:29.153+03:00,767017442.1177073,0,-15.45,100.3885,1,0.55,2025-04-22T15:22:53.954+03:00,108,1.8,2025-04-22T14:20:19.516+03:00,0.02197104130929222,0
2025-04-22T15:24:02.620+03:00,1745324637.109606,40.95225259131825,29.14030486462699,76.43298,-1,-1,-1,-1,30,27.21703004273423,-9999,35305.6181045,-0.6915283203125,0.624114990234375,-0.3397216796875,35305.6130665,-2.576410269189608,-1.11685524300285,-0.6817952317975214,-0.03256111592054367,0.005044110585004091,-0.004844220355153084,0.005639910697937012,-0.007919371128082275,0.002602994441986084,XArbitraryZVertical,0.5586211762984908,-0.1330531084472976,0.7181863679482994,-0.3929980588928198,-0.6978089809417725,0.6301879286766052,-0.3404785096645355,0,0,0,-1,-1,35287.42123979167,unknown,2,2025-04-22T15:22:54.949+03:00,2025-04-21T17:08:51.449+03:00,8236,1.039424,0,0,6852.579,7,22,2025-04-22T15:22:29.153+03:00,767017442.1177073,0,-15.45,100.3885,1,0.55,2025-04-22T15:22:53.954+03:00,108,1.8,2025-04-22T14:20:19.516+03:00,0.02197104130929222,0
2025-04-22T15:24:02.630+03:00,1745324637.109606,40.95225259131825,29.14030486462699,76.43298,-1,-1,-1,-1,30,27.21703004273423,-9999,35305.6281815,-0.698028564453125,0.636077880859375,-0.3403472900390625,35305.6231435,-2.576651653646802,-1.116862847739168,-0.6818261404584106,-0.01106028538197279,0.01721908524632454,-0.005529418587684631,0.007578074932098389,-0.007775545120239258,0.000986933708190918,XArbitraryZVertical,0.5586086647573985,-0.1331316736679086,0.7182252706444796,-0.3929180612265198,-0.6977940201759338,0.6302119493484497,-0.3404646217823029,0,0,0,-1,-1,35287.42123979167,unknown,2,2025-04-22T15:22:54.949+03:00,2025-04-21T17:08:51.449+03:00,8236,1.039424,0,0,6852.579,7,22,2025-04-22T15:22:29.153+03:00,767017442.1177073,0,-15.45,100.3885,1,0.55,2025-04-22T15:22:53.954+03:00,108,1.8,2025-04-22T14:20:19.516+03:00,0.02197104130929222,0
2025-04-22T15:24:02.640+03:00,1745324637.109606,40.95225259131825,29.14030486462699,76.43298,-1,-1,-1,-1,30,27.21703004273423,-9999,35305.6382575,-0.6940765380859375,0.6412811279296875,-0.3422393798828125,35305.6332195,-2.576700507727209,-1.116675740353441,-0.681736505153444,0.0009993072599172592,0.01283339038491249,-0.009769969619810581,0.0009122490882873535,0.001144111156463623,0.0009438693523406982,XArbitraryZVertical,0.5585358645997435,-0.1331454766807545,0.7183055092859002,-0.3928700941776685,-0.6977810263633728,0.6301423311233521,-0.3406199514865875,0,0,0,-1,-1,35287.42123979167,unknown,2,2025-04-22T15:22:54.949+03:00,2025-04-21T17:08:51.449+03:00,8236,1.039424,0,0,6852.579,7,22,2025-04-22T15:22:29.153+03:00,767017442.1177073,0,-15.45,100.3885,1,0.55,2025-04-22T15:22:53.954+03:00,108,1.8,2025-04-22T14:20:19.516+03:00,0.02197104130929222,0
2025-04-22T15:24:02.651+03:00,1745324637.109606,40.95225259131825,29.14030486462699,76.43298,-1,-1,-1,-1,30,27.21703004273423,-9999,35305.6483345,-0.688720703125,0.6318817138671875,-0.3417816162109375,35305.64329550001,-2.576742972008691,-1.116589124940363,-0.6816668184374156,0.001742262626066804,0.007334162946790457,-0.009620599448680878,0.001319050788879395,0.01088768243789673,-0.0003344118595123291,XArbitraryZVertical,0.5585000635089382,-0.1331458213865609,0.7183525574976647,-0.3928351745357668,-0.6977911591529846,0.630088210105896,-0.3406997323036194,0,0,0,-1,-1,35287.42123979167,unknown,2,2025-04-22T15:22:54.949+03:00,2025-04-21T17:08:51.449+03:00,8236,1.039424,0,0,6852.579,7,22,2025-04-22T15:22:29.153+03:00,767017442.1177073,0,-15.45,100.3885,1,0.55,2025-04-22T15:22:53.954+03:00,108,1.8,2025-04-22T14:20:19.516+03:00,0.02197104130929222,0
2025-04-22T15:24:02.660+03:00,1745324637.109606,40.95225259131825,29.14030486462699,76.43298,-1,-1,-1,-1,30,27.21703004273423,-9999,35305.6584105,-0.6888885498046875,0.6255340576171875,-0.3408050537109375,35305.6533725,-2.57691962632197,-1.116755482587953,-0.681690977068264,-0.00531431520357728,-0.00391476321965456,-0.009215000085532665,0.007770717144012451,0.005848705768585205,-0.001830399036407471,XArbitraryZVertical,0.5585486911725072,-0.1331723543772996,0.7183358125247711,-0.392787635350026,-0.6978341341018677,0.6301069855690002,-0.3405769765377045,0,0,0,-1,-1,35287.42123979167,unknown,2,2025-04-22T15:22:54.949+03:00,2025-04-21T17:08:51.449+03:00,8236,1.039424,0,0,6852.579,7,22,2025-04-22T15:22:29.153+03:00,767017442.1177073,0,-15.45,100.3885,1,0.55,2025-04-22T15:22:53.954+03:00,108,1.8,2025-04-22T14:20:19.516+03:00,0.02197104130929222,0
2025-04-22T15:24:02.670+03:00,1745324637.109606,40.95225259131825,29.14030486462699,76.43298,-1,-1,-1,-1,30,27.21703004273423,-9999,35305.6684875,-0.6877899169921875,0.6269378662109375,-0.3406524658203125,35305.6634485,-2.57710090403429,-1.116975118327439,-0.6816628504037531,-0.00889407005161047,-0.012452257797122,-0.006490286905318499,0.009448409080505371,-0.002826929092407227,-0.0001448988914489746,XArbitraryZVertical,0.5586147661067898,-0.1331683602347476,0.7183158597873697,-0.3927315186315957,-0.6979248523712158,0.6300851702690125,-0.3404314517974854,0,0,0,-1,-1,35287.42123979167,unknown,2,2025-04-22T15:22:54.949+03:00,2025-04-21T17:08:51.449+03:00,8236,1.039424,0,0,6852.579,7,22,2025-04-22T15:22:29.153+03:00,767017442.1177073,0,-15.45,100.3885,1,0.55,2025-04-22T15:22:53.954+03:00,108,1.8,2025-04-22T14:20:19.516+03:00,0.02197104130929222,0
2025-04-22T15:24:02.680+03:00,1745324637.109606,40.95225259131825,29.14030486462699,76.43298,-1,-1,-1,-1,30,27.21703004273423,-9999,35305.67856350001,-0.6907806396484375,0.628753662109375,-0.336212158203125,35305.6735255,-2.577219045917302,-1.117138343909427,-0.6816946809852971,-0.01000700518488884,-0.01073984615504742,-0.009170758537948132,0.009623229503631592,-0.004118084907531738,-0.0008474290370941162,XArbitraryZVertical,0.5586663567487538,-0.1331823115449121,0.7182869174212932,-0.3927063343176103,-0.6979624032974243,0.6301098465919495,-0.3403087556362152,0,0,0,-1,-1,35287.42123979167,unknown,2,2025-04-22T15:22:54.949+03:00,2025-04-21T17:08:51.449+03:00,8236,1.039424,0,0,6852.579,7,22,2025-04-22T15:22:29.153+03:00,767017442.1177073,0,-15.45,100.3885,1,0.55,2025-04-22T15:22:53.954+03:00,108,1.8,2025-04-22T14:20:19.516+03:00,0.02197104130929222,0
2025-04-22T15:24:02.691+03:00,1745324637.109606,40.95225259131825,29.14030486462699,76.43298,-1,-1,-1,-1,30,27.21703004273423,-9999,35305.6886405,-0.697296142578125,0.6266632080078125,-0.33636474609375,35305.6836015,-2.577450335160084,-1.117384214893154,-0.6817460161282743,-0.01309327501803637,-0.005929045844823122,-0.009627191349864006,0.009631991386413574,-0.00127410888671875,0.002461016178131104,XArbitraryZVertical,0.5587406029151946,-0.1332196303504008,0.7182530446593808,-0.3926499227654016,-0.6980169415473938,0.6301497220993042,-0.3401229381561279,0,0,0,-1,-1,35287.42123979167,unknown,2,2025-04-22T15:22:54.949+03:00,2025-04-21T17:08:51.449+03:00,8236,1.039424,0,0,6852.579,7,22,2025-04-22T15:22:29.153+03:00,767017442.1177073,0,-15.45,100.3885,1,0.55,2025-04-22T15:22:53.954+03:00,108,1.8,2025-04-22T14:20:19.516+03:00,0.02197104130929222,0
2025-04-22T15:24:02.701+03:00,1745324637.109606,40.95225259131825,29.14030486462699,76.43298,-1,-1,-1,-1,30,27.21703004273423,-9999,35305.6987165,-0.698272705078125,0.6307373046875,-0.3399810791015625,35305.6936785,-2.577665019998929,-1.117562004600287,-0.6816805922828992,-0.01226822845637798,-0.003162820357829332,-0.01025782711803913,0.002557933330535889,-0.003466308116912842,0.004414945840835571,XArbitraryZVertical,0.5587884289462586,-0.1332179529552509,0.7182590752027208,-0.3925715781040993,-0.6981145739555359,0.6300989389419556,-0.3400169312953949,0,0,0,-1,-1,35287.42123979167,unknown,2,2025-04-22T15:22:54.949+03:00,2025-04-21T17:08:51.449+03:00,8236,1.039424,0,0,6852.579,7,22,2025-04-22T15:22:29.153+03:00,767017442.1177073,0,-15.45,100.3885,1,0.55,2025-04-22T15:22:53.954+03:00,108,1.8,2025-04-22T14:20:19.516+03:00,0.02197104130929222,0
2025-04-22T15:24:02.711+03:00,1745324637.109606,40.95225259131825,29.14030486462699,76.43298,-1,-1,-1,-1,30,27.21703004273423,-9999,35305.7087925,-0.698699951171875,0.6301422119140625,-0.3430938720703125,35305.70375450001,-2.577794399102762,-1.117611440727322,-0.6816111819693065,-0.006130307912826538,0.003322376869618893,-0.01200253143906593,-0.0004072785377502441,-0.001276254653930664,0.002049714326858521,XArbitraryZVertical,0.558795785706288,-0.1332161071128509,0.7182847455224105,-0.3925144341668051,-0.6981704831123352,0.6300449967384338,-0.3400014638900757,0,0,0,-1,-1,35287.42123979167,unknown,2,2025-04-22T15:22:54.949+03:00,2025-04-21T17:08:51.449+03:00,8236,1.039424,0,0,6852.579,7,22,2025-04-22T15:22:29.153+03:00,767017442.1177073,0,-15.45,100.3885,1,0.55,2025-04-22T15:22:53.954+03:00,108,1.8,2025-04-22T14:20:19.516+03:00,0.02197104130929222,0
2025-04-22T15:24:02.721+03:00,1745324637.109606,40.95225259131825,29.14030486462699,76.43298,-1,-1,-1,-1,30,27.21703004273423,-9999,35305.7188695,-0.696868896484375,0.628021240234375,-0.345001220703125,35305.7138315,-2.57787217780021,-1.117614056795028,-0.6815649991631338,0.001353973755612969,0.005579672288149595,-0.006833868101239204,-5.97834587097168e-05,0.001796126365661621,-0.001433700323104858,XArbitraryZVertical,0.5587903449658164,-0.1332184679989402,0.7183087548731599,-0.3924774061969566,-0.6981975436210632,0.6300091743469238,-0.3400123715400696,0,0,0,-1,-1,35287.42123979167,unknown,2,2025-04-22T15:22:54.949+03:00,2025-04-21T17:08:51.449+03:00,8236,1.039424,0,0,6852.579,7,22,2025-04-22T15:22:29.153+03:00,767017442.1177073,0,-15.45,100.3885,1,0.55,2025-04-22T15:22:53.954+03:00,108,1.8,2025-04-22T14:20:19.516+03:00,0.02197104130929222,0
2025-04-22T15:24:02.731+03:00,1745324637.109606,40.95225259131825,29.14030486462699,76.43298,-1,-1,-1,-1,30,27.21703004273423,-9999,35305.7289455,-0.6953125,0.6319122314453125,-0.3448486328125,35305.7239075,-2.577843069668337,-1.117514114574969,-0.6815852278626311,0.01032682880759239,0.008778528310358524,-0.005372791085392237,-0.0006240010261535645,-0.001912236213684082,-0.004344910383224487,XArbitraryZVertical,0.5587569117501706,-0.1332382027086435,0.7183268308631631,-0.3924852671642436,-0.6981521248817444,0.6300248503684998,-0.3400765955448151,0,0,0,-1,-1,35287.42123979167,unknown,2,2025-04-22T15:22:54.949+03:00,2025-04-21T17:08:51.449+03:00,8236,1.039424,0,0,6852.579,7,22,2025-04-22T15:22:29.153+03:00,767017442.1177073,0,-15.45,100.3885,1,0.55,2025-04-22T15:22:53.954+03:00,108,1.8,2025-04-22T14:20:19.516+03:00,0.02197104130929222,0
2025-04-22T15:24:02.741+03:00,1745324637.109606,40.95225259131825,29.14030486462699,76.43298,-1,-1,-1,-1,30,27.21703004273423,-9999,35305.73902250001,-0.6949920654296875,0.6303863525390625,-0.3428192138671875,35305.7339845,-2.577650752431593,-1.117262633716645,-0.6815719206997072,0.01352475211024284,0.008626195602118969,-0.003586342791095376,0.003280520439147949,0.0003258585929870605,-0.003997892141342163,XArbitraryZVertical,0.5586790557979608,-0.1332284054053377,0.7183620482029177,-0.3925349128366031,-0.6980740427970886,0.6300145387649536,-0.3402557969093323,0,0,0,-1,-1,35287.42123979167,unknown,2,2025-04-22T15:22:54.949+03:00,2025-04-21T17:08:51.449+03:00,8236,1.039424,0,0,6852.579,7,22,2025-04-22T15:22:29.153+03:00,767017442.1177073,0,-15.45,100.3885,1,0.55,2025-04-22T15:22:53.954+03:00,108,1.8,2025-04-22T14:20:19.516+03:00,0.02197104130929222,0
2025-04-22T15:24:02.751+03:00,1745324637.109606,40.95225259131825,29.14030486462699,76.43298,-1,-1,-1,-1,30,27.21703004273423,-9999,35305.7490985,-0.693389892578125,0.633941650390625,-0.338226318359375,35305.7440605,-2.57743810696837,-1.117015904364652,-0.6814698375244453,0.01805518940091133,0.006629223935306072,-0.006654770113527775,0.002598285675048828,0.001244485378265381,-0.003644824028015137,XArbitraryZVertical,0.5586018997421501,-0.1331756857920717,0.7184103762268796,-0.3925744444048251,-0.6980480551719666,0.6299352645874023,-0.3404563069343567,0,0,0,-1,-1,35287.42123979167,unknown,2,2025-04-22T15:22:54.949+03:00,2025-04-21T17:08:51.449+03:00,8236,1.039424,0,0,6852.579,7,22,2025-04-22T15:22:29.153+03:00,767017442.1177073,0,-15.45,100.3885,1,0.55,2025-04-22T15:22:53.954+03:00,108,1.8,2025-04-22T14:20:19.516+03:00,0.02197104130929222,0
2025-04-22T15:24:02.761+03:00,1745324637.109606,40.95225259131825,29.14030486462699,76.43298,-1,-1,-1,-1,30,27.21703004273423,-9999,35305.7591755,-0.6937255859375,0.6375885009765625,-0.338165283203125,35305.7541375,-2.577157542227065,-1.116715334305631,-0.6813191213152159,0.02403265424072742,0.01076564565300941,-0.006873149424791336,0.004168093204498291,0.001331031322479248,0.001214772462844849,XArbitraryZVertical,0.5585086451006545,-0.1330947546685592,0.7184702571617263,-0.3926250273949376,-0.6980310082435608,0.6298182010650635,-0.3407077491283417,0,0,0,-1,-1,35287.42123979167,unknown,2,2025-04-22T15:22:54.949+03:00,2025-04-21T17:08:51.449+03:00,8236,1.039424,0,0,6852.579,7,22,2025-04-22T15:22:29.153+03:00,767017442.1177073,0,-15.45,100.3885,1,0.55,2025-04-22T15:22:53.954+03:00,108,1.8,2025-04-22T14:20:19.516+03:00,0.02197104130929222,0
2025-04-22T15:24:02.771+03:00,1745324637.109606,40.95225259131825,29.14030486462699,76.43298,-1,-1,-1,-1,30,27.21703004273423,-9999,35305.7692515,-0.6975555419921875,0.629852294921875,-0.3394317626953125,35305.7642135,-2.576949572633835,-1.116446626157556,-0.6812249064364437,0.01564083434641361,0.01284031476825476,-0.006743020843714476,0.00589984655380249,0.008590996265411377,0.003122061491012573,XArbitraryZVertical,0.5584234930162401,-0.1330509979728746,0.7185236678518758,-0.3926629423941111,-0.6979926228523254,0.6297450065612793,-0.3409212827682495,0,0,0,-1,-1,35287.42123979167,unknown,2,2025-04-22T15:22:54.949+03:00,2025-04-21T17:08:51.449+03:00,8236,1.039424,0,0,6852.579,7,22,2025-04-22T15:22:29.153+03:00,767017442.1177073,0,-15.45,100.3885,1,0.55,2025-04-22T15:22:53.954+03:00,108,1.8,2025-04-22T14:20:19.516+03:00,0.02197104130929222,0
2025-04-22T15:24:02.781+03:00,1745324637.109606,40.95225259131825,29.14030486462699,76.43298,-1,-1,-1,-1,30,27.21703004273423,-9999,35305.7793285,-0.697662353515625,0.6209869384765625,-0.3389434814453125,35305.7742895,-2.576898930913615,-1.116327299364256,-0.6811335270922412,0.007626849692314863,0.01339638233184814,-0.003709414042532444,0.001531600952148438,0.004740476608276367,0.0009112656116485596,XArbitraryZVertical,0.5583815768987109,-0.1330229500481807,0.7185658348679804,-0.3926549007304627,-0.6980036497116089,0.6296740174293518,-0.3410298228263855,0,0,0,-1,-1,35287.42123979167,unknown,2,2025-04-22T15:22:54.949+03:00,2025-04-21T17:08:51.449+03:00,8236,1.039424,0,0,6852.579,7,22,2025-04-22T15:22:29.153+03:00,767017442.1177073,0,-15.45,100.3885,1,0.55,2025-04-22T15:22:53.954+03:00,108,1.8,2025-04-22T14:20:19.516+03:00,0.02197104130929222,0
2025-04-22T15:24:02.792+03:00,1745324637.109606,40.95225259131825,29.14030486462699,76.43298,-1,-1,-1,-1,30,27.21703004273423,-9999,35305.7894045,-0.696624755859375,0.6189422607421875,-0.3411865234375,35305.7843665,-2.576933401131698,-1.116259106311737,-0.6810707661228962,-0.002270055934786797,0.01119681168347597,-0.005905623082071543,0.0003842711448669434,-0.006425857543945312,0.002853065729141235,XArbitraryZVertical,0.5583531007800709,-0.1330202703543544,0.7186046931951271,-0.3926254552634565,-0.6980160474777222,0.6296252608299255,-0.3410948514938354,0,0,0,-1,-1,35287.42123979167,unknown,2,2025-04-22T15:22:54.949+03:00,2025-04-21T17:08:51.449+03:00,8236,1.039424,0,0,6852.579,7,22,2025-04-22T15:22:29.153+03:00,767017442.1177073,0,-15.45,100.3885,1,0.55,2025-04-22T15:22:53.954+03:00,108,1.8,2025-04-22T14:20:19.516+03:00,0.02197104130929222,0
2025-04-22T15:24:02.802+03:00,1745324637.109606,40.95225259131825,29.14030486462699,76.43298,-1,-1,-1,-1,30,27.21703004273423,-9999,35305.79948150001,-0.700592041015625,0.62005615234375,-0.34197998046875,35305.7944425,-2.576975607470278,-1.116136787806562,-0.6810673355130012,-0.0004074409662280232,0.0178600400686264,-0.002659495919942856,0.001290380954742432,-0.01045161485671997,0.000787883996963501,XArbitraryZVertical,0.5583062808868242,-0.1330547225620423,0.7186476463640378,-0.3926014136590761,-0.6979760527610779,0.6296225786209106,-0.3411810696125031,0,0,0,-1,-1,35287.42123979167,unknown,2,2025-04-22T15:22:54.949+03:00,2025-04-21T17:08:51.449+03:00,8236,1.039424,0,0,6852.579,7,22,2025-04-22T15:22:29.153+03:00,767017442.1177073,0,-15.45,100.3885,1,0.55,2025-04-22T15:22:53.954+03:00,108,1.8,2025-04-22T14:20:19.516+03:00,0.02197104130929222,0
2025-04-22T15:24:02.812+03:00,1745324637.109606,40.95225259131825,29.14030486462699,76.43298,-1,-1,-1,-1,30,27.21703004273423,-9999,35305.8095575,-0.699554443359375,0.620758056640625,-0.3457794189453125,35305.8045195,-2.576966351533337,-1.115914763116126,-0.6810218343177752,0.001123410649597645,0.01969342678785324,-0.002152263885363936,-0.001216232776641846,-0.009226024150848389,-0.0001279115676879883,XArbitraryZVertical,0.5582258858848467,-0.1330770790058605,0.7187173138499939,-0.3925809028742993,-0.6979261636734009,0.6295872330665588,-0.3413487076759338,0,0,0,-1,-1,35287.42123979167,unknown,2,2025-04-22T15:22:54.949+03:00,2025-04-21T17:08:51.449+03:00,8236,1.039424,0,0,6852.579,7,22,2025-04-22T15:22:29.153+03:00,767017442.1177073,0,-15.45,100.3885,1,0.55,2025-04-22T15:22:53.954+03:00,108,1.8,2025-04-22T14:20:19.516+03:00,0.02197104130929222,0
2025-04-22T15:24:02.822+03:00,1745324637.109606,40.95225259131825,29.14030486462699,76.43298,-1,-1,-1,-1,30,27.21703004273423,-9999,35305.8196345,-0.692138671875,0.6282806396484375,-0.3458404541015625,35305.8145955,-2.576898612877336,-1.115684312840653,-0.6809739968904122,0.01311376038938761,0.01269757002592087,-0.006586160510778427,-0.003144681453704834,-0.00917363166809082,-0.002700448036193848,XArbitraryZVertical,0.5581463154078845,-0.1330838758806297,0.7187781218902051,-0.3925803236839485,-0.6978744864463806,0.6295500993728638,-0.341522753238678,0,0,0,-1,-1,35287.42123979167,unknown,2,2025-04-22T15:22:54.949+03:00,2025-04-21T17:08:51.449+03:00,8236,1.039424,0,0,6852.579,7,22,2025-04-22T15:22:29.153+03:00,767017442.1177073,0,-15.45,100.3885,1,0.55,2025-04-22T15:22:53.954+03:00,108,1.8,2025-04-22T14:20:19.516+03:00,0.02197104130929222,0
2025-04-22T15:24:02.832+03:00,1745324637.109606,40.95225259131825,29.14030486462699,76.43298,-1,-1,-1,-1,30,27.21703004273423,-9999,35305.8297105,-0.689483642578125,0.6376800537109375,-0.3441162109375,35305.8246725,-2.576733324725585,-1.115420184524969,-0.6808695470070889,0.01703526638448238,0.01360251195728779,-0.007611744105815887,0.002576708793640137,-0.005140423774719238,-0.004730224609375,XArbitraryZVertical,0.5580596047199883,-0.1330469038408933,0.7188408876316468,-0.3926012648391677,-0.6978433728218079,0.6294689178466797,-0.3417359888553619,0,0,0,-1,-1,35287.42123979167,unknown,2,2025-04-22T15:22:54.949+03:00,2025-04-21T17:08:51.449+03:00,8236,1.039424,0,0,6852.579,7,22,2025-04-22T15:22:29.153+03:00,767017442.1177073,0,-15.45,100.3885,1,0.55,2025-04-22T15:22:53.954+03:00,108,1.8,2025-04-22T14:20:19.516+03:00,0.02197104130929222,0
2025-04-22T15:24:02.842+03:00,1745324637.109606,40.95225259131825,29.14030486462699,76.43298,-1,-1,-1,-1,30,27.21703004273423,-9999,35305.8397865,-0.69903564453125,0.632110595703125,-0.340576171875,35305.8347485,-2.5765999091263,-1.115147236232267,-0.6807880726061809,0.01475133839994669,0.02039863169193268,-0.007456748280674219,0.008846521377563477,0.006702601909637451,-0.002762526273727417,XArbitraryZVertical,0.5579682219017268,-0.1330300030607447,0.7189074769322922,-0.3926147292481316,-0.6977959871292114,0.6294056177139282,-0.3419489562511444,0,0,0,-1,-1,35287.42123979167,unknown,2,2025-04-22T15:22:54.949+03:00,2025-04-21T17:08:51.449+03:00,8236,1.039424,0,0,6852.579,7,22,2025-04-22T15:22:29.153+03:00,767017442.1177073,0,-15.45,100.3885,1,0.55,2025-04-22T15:22:53.954+03:00,108,1.8,2025-04-22T14:20:19.516+03:00,0.02197104130929222,0
2025-04-22T15:24:02.852+03:00,1745324637.109606,40.95225259131825,29.14030486462699,76.43298,-1,-1,-1,-1,30,27.21703004273423,-9999,35305.8498635,-0.6961669921875,0.6235198974609375,-0.337493896484375,35305.8448255,-2.576545151266975,-1.1149491488271,-0.6807908373057971,0.007169851567596197,0.01399665884673595,-0.008372874930500984,0.001224219799041748,0.005342483520507812,-0.0002293586730957031,XArbitraryZVertical,0.5579007089254264,-0.1330546949058345,0.7189515705239629,-0.3926218322475831,-0.697726845741272,0.6294077634811401,-0.3420864939689636,0,0,0,-1,-1,35287.42123979167,unknown,2,2025-04-22T15:22:54.949+03:00,2025-04-21T17:08:51.449+03:00,8236,1.039424,0,0,6852.579,7,22,2025-04-22T15:22:29.153+03:00,767017442.1177073,0,-15.45,100.3885,1,0.55,2025-04-22T15:22:53.954+03:00,108,1.8,2025-04-22T14:20:19.516+03:00,0.02197104130929222,0
2025-04-22T15:24:02.862+03:00,1745324637.109606,40.95225259131825,29.14030486462699,76.43298,-1,-1,-1,-1,30,27.21703004273423,-9999,35305.859938625,-0.69439697265625,0.624908447265625,-0.3402252197265625,35305.854900625,-2.576516450229321,-1.114800670880205,-0.6807459222772192,0.0064635812304914,0.0137585736811161,-0.005262569524347782,-0.0003728866577148438,-0.003838896751403809,0.003747165203094482,XArbitraryZVertical,0.5578480428421569,-0.1330574780404193,0.7189965868585861,-0.3926132916785448,-0.6977013945579529,0.6293728351593018,-0.3422025442123413,0,0,0,-1,-1,35287.42123979167,unknown,2,2025-04-22T15:22:54.949+03:00,2025-04-21T17:08:51.449+03:00,8236,1.039424,0,0,6852.579,7,22,2025-04-22T15:22:29.153+03:00,767017442.1177073,0,-15.45,100.3885,1,0.55,2025-04-22T15:22:53.954+03:00,108,1.8,2025-04-22T14:20:19.516+03:00,0.02197104130929222,0
2025-04-22T15:24:02.873+03:00,1745324637.109606,40.95225259131825,29.14030486462699,76.43298,-1,-1,-1,-1,30,27.21703004273423,-9999,35305.87001562501,-0.6945648193359375,0.62237548828125,-0.3419342041015625,35305.864977625,-2.576599861188078,-1.114794393135399,-0.6806546977618718,-0.008690071292221546,0.007274041883647442,-0.004971752408891916,0.00326228141784668,-0.004973411560058594,0.003105431795120239,XArbitraryZVertical,0.5578378038290266,-0.1330446962996819,0.7190334374889714,-0.3925646403801411,-0.6977508068084717,0.6293019652366638,-0.3422321975231171,0,0,0,-1,-1,35287.42123979167,unknown,2,2025-04-22T15:22:54.949+03:00,2025-04-21T17:08:51.449+03:00,8236,1.039424,0,0,6852.579,7,22,2025-04-22T15:22:29.153+03:00,767017442.1177073,0,-15.45,100.3885,1,0.55,2025-04-22T15:22:53.954+03:00,108,1.8,2025-04-22T14:20:19.516+03:00,0.02197104130929222,0
2025-04-22T15:24:02.882+03:00,1745324637.109606,40.95225259131825,29.14030486462699,76.43298,-1,-1,-1,-1,30,27.21703004273423,-9999,35305.880091625,-0.6933746337890625,0.6143798828125,-0.3369140625,35305.875053625,-2.576816653739384,-1.114871771731186,-0.6806274053908282,-0.01954305171966553,0.007413791492581367,-0.0005836950149387121,0.002037763595581055,-0.00406724214553833,-0.0001147985458374023,XArbitraryZVertical,0.5578504701408384,-0.1330788198272539,0.7190600207443593,-0.3924863911487897,-0.6977927088737488,0.6292807459831238,-0.342185765504837,0,0,0,-1,-1,35287.42123979167,unknown,2,2025-04-22T15:22:54.949+03:00,2025-04-21T17:08:51.449+03:00,8236,1.039424,0,0,6852.579,7,22,2025-04-22T15:22:29.153+03:00,767017442.1177073,0,-15.45,100.3885,1,0.55,2025-04-22T15:22:53.954+03:00,108,1.8,2025-04-22T14:20:19.516+03:00,0.02197104130929222,0
2025-04-22T15:24:02.892+03:00,1745324637.109606,40.95225259131825,29.14030486462699,76.43298,-1,-1,-1,-1,30,27.21703004273423,-9999,35305.890168625,-0.6951141357421875,0.6185455322265625,-0.3389739990234375,35305.885130625,-2.577065853505716,-1.114960129458776,-0.6806302357432672,-0.01855355501174927,0.008966813795268536,-0.003042924450710416,0.004080533981323242,-0.01272112131118774,0.002889722585678101,XArbitraryZVertical,0.5578657236423985,-0.133132138287837,0.7190837222349137,-0.3924032500797836,-0.6978213787078857,0.6292829513549805,-0.3421233296394348,0,0,0,-1,-1,35287.42123979167,unknown,2,2025-04-22T15:22:54.949+03:00,2025-04-21T17:08:51.449+03:00,8236,1.039424,0,0,6852.579,7,22,2025-04-22T15:22:29.153+03:00,767017442.1177073,0,-15.45,100.3885,1,0.55,2025-04-22T15:22:53.954+03:00,108,1.8,2025-04-22T14:20:19.516+03:00,0.02197104130929222,0
2025-04-22T15:24:02.903+03:00,1745324637.109606,40.95225259131825,29.14030486462699,76.43298,-1,-1,-1,-1,30,27.21703004273423,-9999,35305.900244625,-0.6954193115234375,0.6259765625,-0.3458404541015625,35305.895206625,-2.577219783402026,-1.114950191977591,-0.6805677031828189,-0.009415715932846069,0.01264543831348419,-0.00169456610456109,0.003380060195922852,-0.0135117769241333,0.005660563707351685,XArbitraryZVertical,0.5578502411523413,-0.1331514656751656,0.7191295368278974,-0.3923347318037432,-0.6978532671928406,0.6292343735694885,-0.3421475887298584,0,0,0,-1,-1,35287.42123979167,unknown,2,2025-04-22T15:22:54.949+03:00,2025-04-21T17:08:51.449+03:00,8236,1.039424,0,0,6852.579,7,22,2025-04-22T15:22:29.153+03:00,767017442.1177073,0,-15.45,100.3885,1,0.55,2025-04-22T15:22:53.954+03:00,108,1.8,2025-04-22T14:20:19.516+03:00,0.02197104130929222,0
2025-04-22T15:24:02.912+03:00,1745324637.109606,40.95225259131825,29.14030486462699,76.43298,-1,-1,-1,-1,30,27.21703004273423,-9999,35305.910321625,-0.6962127685546875,0.632354736328125,-0.343536376953125,35305.905283625,-2.577238880763933,-1.114783986924473,-0.6805258410470584,0.002151723718270659,0.01299058273434639,-0.003968239761888981,0.003438413143157959,-0.005193710327148438,-0.002314209938049316,XArbitraryZVertical,0.5577880942985851,-0.1331722876483054,0.7191882286965839,-0.3923084212998876,-0.6978200674057007,0.6292018294334412,-0.3422751724720001,0,0,0,-1,-1,35287.42123979167,unknown,2,2025-04-22T15:22:54.949+03:00,2025-04-21T17:08:51.449+03:00,8236,1.039424,0,0,6852.579,7,22,2025-04-22T15:22:29.153+03:00,767017442.1177073,0,-15.45,100.3885,1,0.55,2025-04-22T15:22:53.954+03:00,108,1.8,2025-04-22T14:20:19.516+03:00,0.02197104130929222,0
2025-04-22T15:24:02.922+03:00,1745324637.109606,40.95225259131825,29.14030486462699,76.43298,-1,-1,-1,-1,30,27.21703004273423,-9999,35305.920397625,-0.695068359375,0.6324615478515625,-0.345306396484375,35305.915359625,-2.577182015179171,-1.114557640276073,-0.6805816755741058,0.003677981207147241,0.01497996412217617,-0.003857985138893127,0.001513481140136719,0.001385152339935303,-0.001927673816680908,XArbitraryZVertical,0.5577119868790921,-0.1332236821229552,0.7192286322976575,-0.392324936172272,-0.6977109313011169,0.6292452216148376,-0.3424175679683685,0,0,0,-1,-1,35287.42123979167,unknown,2,2025-04-22T15:22:54.949+03:00,2025-04-21T17:08:51.449+03:00,8236,1.039424,0,0,6852.579,7,22,2025-04-22T15:22:29.153+03:00,767017442.1177073,0,-15.45,100.3885,1,0.55,2025-04-22T15:22:53.954+03:00,108,1.8,2025-04-22T14:20:19.516+03:00,0.02197104130929222,0
2025-04-22T15:24:02.932+03:00,1745324637.109606,40.95225259131825,29.14030486462699,76.43298,-1,-1,-1,-1,30,27.21703004273423,-9999,35305.93047462501,-0.6989898681640625,0.6258544921875,-0.34332275390625,35305.925435625,-2.577119315473194,-1.1143429779108,-0.6805872936844796,0.005178939085453749,0.02056301571428776,-0.000251132994890213,0.003206849098205566,0.004371464252471924,-0.001977831125259399,XArbitraryZVertical,0.5576391195693879,-0.1332506134496223,0.7192750079083535,-0.392334299781367,-0.697634220123291,0.6292495727539062,-0.3425657749176025,0,0,0,-1,-1,35287.42123979167,unknown,2,2025-04-22T15:22:54.949+03:00,2025-04-21T17:08:51.449+03:00,8236,1.039424,0,0,6852.579,7,22,2025-04-22T15:22:29.153+03:00,767017442.1177073,0,-15.45,100.3885,1,0.55,2025-04-22T15:22:53.954+03:00,108,1.8,2025-04-22T14:20:19.516+03:00,0.02197104130929222,0
2025-04-22T15:24:02.942+03:00,1745324637.109606,40.95225259131825,29.14030486462699,76.43298,-1,-1,-1,-1,30,27.21703004273423,-9999,35305.940550625,-0.6988525390625,0.6269073486328125,-0.3433837890625,35305.935512625,-2.577137757120611,-1.11421309113142,-0.6805294589487996,0.003135229228064418,0.01441963575780392,-0.004497809335589409,-0.0001314878463745117,-0.001839697360992432,-0.001123517751693726,XArbitraryZVertical,0.5575896409788107,-0.1332576039647534,0.7193266803379317,-0.392307439708048,-0.6976222991943359,0.6292046308517456,-0.3426724076271057,0,0,0,-1,-1,35287.42123979167,unknown,2,2025-04-22T15:22:54.949+03:00,2025-04-21T17:08:51.449+03:00,8236,1.039424,0,0,6852.579,7,22,2025-04-22T15:22:29.153+03:00,767017442.1177073,0,-15.45,100.3885,1,0.55,2025-04-22T15:22:53.954+03:00,108,1.8,2025-04-22T14:20:19.516+03:00,0.02197104130929222,0
2025-04-22T15:24:02.953+03:00,1745324637.109606,40.95225259131825,29.14030486462699,76.43298,-1,-1,-1,-1,30,27.21703004273423,-9999,35305.950627625,-0.6943206787109375,0.6260528564453125,-0.3436431884765625,35305.945588625,-2.577170712494561,-1.114139189951206,-0.6804580883774956,0.0008426468702964485,0.008260676637291908,-0.006940660532563925,-0.002206861972808838,-0.003371059894561768,0.0005958080291748047,XArbitraryZVertical,0.5575589400010096,-0.1332520677846082,0.7193685391007624,-0.392276433041388,-0.6976374387741089,0.6291491389274597,-0.342743843793869,0,0,0,-1,-1,35287.42123979167,unknown,2,2025-04-22T15:22:54.949+03:00,2025-04-21T17:08:51.449+03:00,8236,1.039424,0,0,6852.579,7,22,2025-04-22T15:22:29.153+03:00,767017442.1177073,0,-15.45,100.3885,1,0.55,2025-04-22T15:22:53.954+03:00,108,1.8,2025-04-22T14:20:19.516+03:00,0.02197104130929222,0
2025-04-22T15:24:02.963+03:00,1745324637.109606,40.95225259131825,29.14030486462699,76.43298,-1,-1,-1,-1,30,27.21703004273423,-9999,35305.960703625,-0.6919403076171875,0.6272430419921875,-0.340606689453125,35305.955665625,-2.577194973072545,-1.114050647115879,-0.6804044330573567,-0.002037561731413007,0.01127723976969719,-0.002899846294894814,0.002096056938171387,-0.001940786838531494,-0.002165645360946655,XArbitraryZVertical,0.5575240386271825,-0.1332542526704059,0.7194090295149616,-0.3922510898270048,-0.6976373791694641,0.6291074752807617,-0.3428204953670502,0,0,0,-1,-1,35287.42123979167,unknown,2,2025-04-22T15:22:54.949+03:00,2025-04-21T17:08:51.449+03:00,8236,1.039424,0,0,6852.579,7,22,2025-04-22T15:22:29.153+03:00,767017442.1177073,0,-15.45,100.3885,1,0.55,2025-04-22T15:22:53.954+03:00,108,1.8,2025-04-22T14:20:19.516+03:00,0.02197104130929222,0
2025-04-22T15:24:02.973+03:00,1745324637.109606,40.95225259131825,29.14030486462699,76.43298,-1,-1,-1,-1,30,27.21703004273423,-9999,35305.970780625,-0.6942596435546875,0.626922607421875,-0.3388671875,35305.965741625,-2.577245767494549,-1.113942281519593,-0.6803382475276614,0.000507820921484381,0.01810711622238159,-0.002641020342707634,0.005407452583312988,-0.002774357795715332,0.001697242259979248,XArbitraryZVertical,0.5574799052221521,-0.1332626039810177,0.7194627955030006,-0.3922123692745121,-0.6976376175880432,0.6290559768676758,-0.3429144620895386,0,0,0,-1,-1,35287.42123979167,unknown,2,2025-04-22T15:22:54.949+03:00,2025-04-21T17:08:51.449+03:00,8236,1.039424,0,0,6852.579,7,22,2025-04-22T15:22:29.153+03:00,767017442.1177073,0,-15.45,100.3885,1,0.55,2025-04-22T15:22:53.954+03:00,108,1.8,2025-04-22T14:20:19.516+03:00,0.02197104130929222,0
2025-04-22T15:24:02.983+03:00,1745324637.109606,40.95225259131825,29.14030486462699,76.43298,-1,-1,-1,-1,30,27.21703004273423,-9999,35305.980856625,-0.6959075927734375,0.6243438720703125,-0.340728759765625,35305.975818625,-2.577362728377585,-1.113891954920849,-0.680255336336212,-0.009823646396398544,0.01719231903553009,-0.003962214570492506,0.004307806491851807,-0.002130091190338135,0.003159165382385254,XArbitraryZVertical,0.5574518008628514,-0.133271192143999,0.7195167343190486,-0.3921503522910947,-0.697667121887207,0.6289915442466736,-0.3429725468158722,0,0,0,-1,-1,35287.42123979167,unknown,2,2025-04-22T15:22:54.949+03:00,2025-04-21T17:08:51.449+03:00,8236,1.039424,0,0,6852.579,7,22,2025-04-22T15:22:29.153+03:00,767017442.1177073,0,-15.45,100.3885,1,0.55,2025-04-22T15:22:53.954+03:00,108,1.8,2025-04-22T14:20:19.516+03:00,0.02197104130929222,0
2025-04-22T15:24:02.993+03:00,1745324637.109606,40.95225259131825,29.14030486462699,76.43298,-1,-1,-1,-1,30,27.21703004273423,-9999,35305.99093362501,-0.697235107421875,0.6252288818359375,-0.3469390869140625,35305.985894625,-2.577415138413535,-1.113737050605121,-0.6802270189732994,-0.001690551871433854,0.0179953295737505,-0.002086117397993803,0.001569867134094238,-0.004366397857666016,0.004495799541473389,XArbitraryZVertical,0.5573918184091813,-0.1333045871152117,0.7195760174511706,-0.3921155184990683,-0.697629988193512,0.6289695501327515,-0.3430885076522827,0,0,0,-1,-1,35287.42123979167,unknown,2,2025-04-22T15:22:54.949+03:00,2025-04-21T17:08:51.449+03:00,8236,1.039424,0,0,6852.579,7,22,2025-04-22T15:22:29.153+03:00,767017442.1177073,0,-15.45,100.3885,1,0.55,2025-04-22T15:22:53.954+03:00,108,1.8,2025-04-22T14:20:19.516+03:00,0.02197104130929222,0
2025-04-22T15:24:03.003+03:00,1745324637.109606,40.95225259131825,29.14030486462699,76.43298,-1,-1,-1,-1,30,27.21703004273423,-9999,35306.001009625,-0.701080322265625,0.62420654296875,-0.3470458984375,35305.995971625,-2.577399028451429,-1.11350507644458,-0.680251239045659,-0.001829568878747523,0.02321911975741386,0.0003485444467514753,0.001110374927520752,-0.003927469253540039,-0.002398639917373657,XArbitraryZVertical,0.5573100811170304,-0.1333554936279772,0.719632491050557,-0.3921106790080017,-0.6975366473197937,0.6289883852005005,-0.3432435691356659,0,0,0,-1,-1,35287.42123979167,unknown,2,2025-04-22T15:22:54.949+03:00,2025-04-21T17:08:51.449+03:00,8236,1.039424,0,0,6852.579,7,22,2025-04-22T15:22:29.153+03:00,767017442.1177073,0,-15.45,100.3885,1,0.55,2025-04-22T15:22:53.954+03:00,108,1.8,2025-04-22T14:20:19.516+03:00,0.02197104130929222,0
2025-04-22T15:24:03.013+03:00,1745324637.109606,40.95225259131825,29.14030486462699,76.43298,-1,-1,-1,-1,30,27.21703004273423,-9999,35306.011085625,-0.69964599609375,0.625091552734375,-0.3480682373046875,35306.006047625,-2.577377867282745,-1.113251018801795,-0.6803121704068101,-0.002163729164749384,0.01982125826179981,0.001017297385260463,-0.002551257610321045,-0.004066348075866699,-0.00371849536895752,XArbitraryZVertical,0.5572217016205008,-0.1334243156871975,0.7196866377228022,-0.3921135277061166,-0.6974150538444519,0.6290357112884521,-0.3434038460254669,0,0,0,-1,-1,35287.42123979167,unknown,2,2025-04-22T15:22:54.949+03:00,2025-04-21T17:08:51.449+03:00,8236,1.039424,0,0,6852.579,7,22,2025-04-22T15:22:29.153+03:00,767017442.1177073,0,-15.45,100.3885,1,0.55,2025-04-22T15:22:53.954+03:00,108,1.8,2025-04-22T14:20:19.516+03:00,0.02197104130929222,0
2025-04-22T15:24:03.023+03:00,1745324637.109606,40.95225259131825,29.14030486462699,76.43298,-1,-1,-1,-1,30,27.21703004273423,-9999,35306.021162625,-0.693359375,0.623687744140625,-0.34564208984375,35306.016124625,-2.577428003321758,-1.113090986518457,-0.6803184146096959,-0.00832308828830719,0.01876611448824406,0.002862868132069707,-0.004242420196533203,-0.004544198513031006,-0.003837555646896362,XArbitraryZVertical,0.5571609274686702,-0.1334721961894134,0.7197398150859777,-0.3920860684076218,-0.697356641292572,0.6290405988693237,-0.3435137569904327,0,0,0,-1,-1,35287.42123979167,unknown,2,2025-04-22T15:22:54.949+03:00,2025-04-21T17:08:51.449+03:00,8236,1.039424,0,0,6852.579,7,22,2025-04-22T15:22:29.153+03:00,767017442.1177073,0,-15.45,100.3885,1,0.55,2025-04-22T15:22:53.954+03:00,108,1.8,2025-04-22T14:20:19.516+03:00,0.02197104130929222,0
2025-04-22T15:24:03.033+03:00,1745324637.109606,40.95225259131825,29.14030486462699,76.43298,-1,-1,-1,-1,30,27.21703004273423,-9999,35306.031238625,-0.6929779052734375,0.6241302490234375,-0.34423828125,35306.02620062501,-2.577503884566629,-1.112936499580606,-0.6803530274485363,-0.005647676531225443,0.02488579228520393,0.004783806391060352,0.001056015491485596,-0.004250764846801758,-0.003419011831283569,XArbitraryZVertical,0.5571012136872804,-0.1335378191389152,0.7197904755499335,-0.3920553195064447,-0.6972838640213013,0.6290674805641174,-0.3436117768287659,0,0,0,-1,-1,35287.42123979167,unknown,2,2025-04-22T15:22:54.949+03:00,2025-04-21T17:08:51.449+03:00,8236,1.039424,0,0,6852.579,7,22,2025-04-22T15:22:29.153+03:00,767017442.1177073,0,-15.45,100.3885,1,0.55,2025-04-22T15:22:53.954+03:00,108,1.8,2025-04-22T14:20:19.516+03:00,0.02197104130929222,0
2025-04-22T15:24:03.057+03:00,1745324637.109606,40.95225259131825,29.14030486462699,76.43298,-1,-1,-1,-1,30,27.21703004273423,-9999,35306.041315625,-0.6934051513671875,0.6302337646484375,-0.343292236328125,35306.036277625,-2.577499085513821,-1.112655516053588,-0.680392966914432,0.001582539640367031,0.0280778557062149,0.00286579760722816,0.00513303279876709,-0.006662189960479736,-0.001021653413772583,XArbitraryZVertical,0.5570014701193968,-0.1336078882431455,0.7198596181775253,-0.3920462623613337,-0.69716477394104,0.6290985345840454,-0.343796581029892,0,0,0,-1,-1,35287.42123979167,unknown,2,2025-04-22T15:22:54.949+03:00,2025-04-21T17:08:51.449+03:00,8236,1.039424,0,0,6852.579,7,22,2025-04-22T15:22:29.153+03:00,767017442.1177073,0,-15.45,100.3885,1,0.55,2025-04-22T15:22:53.954+03:00,108,1.8,2025-04-22T14:20:19.516+03:00,0.02197104130929222,0
2025-04-22T15:24:03.060+03:00,1745324637.109606,40.95225259131825,29.14030486462699,76.43298,-1,-1,-1,-1,30,27.21703004273423,-9999,35306.05139162501,-0.6939697265625,0.63580322265625,-0.342010498046875,35306.046353625,-2.577468242751543,-1.11232613659252,-0.6804116471984716,0.001916366862133145,0.03305410593748093,0.002054665237665176,0.003086686134338379,-0.0009241104125976562,-3.814697265625e-06,XArbitraryZVertical,0.5568854582811505,-0.1336714779544987,0.7199415424589072,-0.3920391077100606,-0.6970410346984863,0.6291130781173706,-0.3440210521221161,0,0,0,-1,-1,35287.42123979167,unknown,2,2025-04-22T15:22:54.949+03:00,2025-04-21T17:08:51.449+03:00,8236,1.039424,0,0,6852.579,7,22,2025-04-22T15:22:29.153+03:00,767017442.1177073,0,-15.45,100.3885,1,0.55,2025-04-22T15:22:53.954+03:00,108,1.8,2025-04-22T14:20:19.516+03:00,0.02197104130929222,0
2025-04-22T15:24:03.064+03:00,1745324637.109606,40.95225259131825,29.14030486462699,76.43298,-1,-1,-1,-1,30,27.21703004273423,-9999,35306.061468625,-0.69390869140625,0.6302490234375,-0.3433074951171875,35306.056430625,-2.577459700824453,-1.111989433228703,-0.680446883265758,-0.00350849237293005,0.03694578260183334,0.00407813536003232,0.003271341323852539,0.005548775196075439,0.001960575580596924,XArbitraryZVertical,0.5567657618451013,-0.1337495061290441,0.7200263909600175,-0.3920267076302955,-0.6969053149223328,0.6291404366493225,-0.3442459106445312,0,0,0,-1,-1,35287.42123979167,unknown,2,2025-04-22T15:22:54.949+03:00,2025-04-21T17:08:51.449+03:00,8236,1.039424,0,0,6852.579,7,22,2025-04-22T15:22:29.153+03:00,767017442.1177073,0,-15.45,100.3885,1,0.55,2025-04-22T15:22:53.954+03:00,108,1.8,2025-04-22T14:20:19.516+03:00,0.02197104130929222,0
2025-04-22T15:24:03.074+03:00,1745324637.109606,40.95225259131825,29.14030486462699,76.43298,-1,-1,-1,-1,30,27.21703004273423,-9999,35306.071544625,-0.691680908203125,0.6217498779296875,-0.3436126708984375,35306.066506625,-2.577536224914926,-1.111719284648811,-0.6804852118137281,-0.006334039382636547,0.035303745418787,0.005244100000709295,0.002164900302886963,0.00477135181427002,0.0011005699634552,XArbitraryZVertical,0.5566644028013666,-0.1338394223650658,0.7201087578568157,-0.3919887412190687,-0.6967907547950745,0.6291702389717102,-0.3444235026836395,0,0,0,-1,-1,35287.42123979167,unknown,2,2025-04-22T15:22:54.949+03:00,2025-04-21T17:08:51.449+03:00,8236,1.039424,0,0,6852.579,7,22,2025-04-22T15:22:29.153+03:00,767017442.1177073,0,-15.45,100.3885,1,0.55,2025-04-22T15:22:53.954+03:00,108,1.8,2025-04-22T14:20:19.516+03:00,0.02197104130929222,0
2025-04-22T15:24:03.084+03:00,1745324637.109606,40.95225259131825,29.14030486462699,76.43298,-1,-1,-1,-1,30,27.21703004273423,-9999,35306.081621625,-0.690093994140625,0.62249755859375,-0.3421173095703125,35306.076582625,-2.577615455411553,-1.111413531459859,-0.6805592265200019,-0.01650571636855602,0.03367415815591812,0.007970377802848816,0.003894686698913574,-0.004395663738250732,0.0009114444255828857,XArbitraryZVertical,0.5565509906233598,-0.1339516700955637,0.7201941893293451,-0.3919545049794613,-0.6966436505317688,0.6292277574539185,-0.3446158766746521,0,0,0,-1,-1,35287.42123979167,unknown,2,2025-04-22T15:22:54.949+03:00,2025-04-21T17:08:51.449+03:00,8236,1.039424,0,0,6852.579,7,22,2025-04-22T15:22:29.153+03:00,767017442.1177073,0,-15.45,100.3885,1,0.55,2025-04-22T15:22:53.954+03:00,108,1.8,2025-04-22T14:20:19.516+03:00,0.02197104130929222,0
