loggingTime(txt),locationTimestamp_since1970(s),locationLatitude(WGS84),locationLongitude(WGS84),locationAltitude(m),locationSpeed(m/s),locationSpeedAccuracy(m/s),locationCourse(°),locationCourseAccuracy(°),locationVerticalAccuracy(m),locationHorizontalAccuracy(m),locationFloor(Z),accelerometerTimestamp_sinceReboot(s),accelerometerAccelerationX(G),accelerometerAccelerationY(G),accelerometerAccelerationZ(G),motionTimestamp_sinceReboot(s),motionYaw(rad),motionRoll(rad),motionPitch(rad),motionRotationRateX(rad/s),motionRotationRateY(rad/s),motionRotationRateZ(rad/s),motionUserAccelerationX(G),motionUserAccelerationY(G),motionUserAccelerationZ(G),motionAttitudeReferenceFrame(txt),motionQuaternionX(R),motionQuaternionY(R),motionQuaternionZ(R),motionQuaternionW(R),motionGravityX(G),motionGravityY(G),motionGravityZ(G),motionMagneticFieldX(µT),motionMagneticFieldY(µT),motionMagneticFieldZ(µT),motionHeading(°),motionMagneticFieldCalibrationAccuracy(Z),activityTimestamp_sinceReboot(s),activity(txt),activityActivityConfidence(Z),activityActivityStartDate(txt),pedometerStartDate(txt),pedometerNumberofSteps(N),pedometerAverageActivePace(s/m),pedometerCurrentPace(s/m),pedometerCurrentCadence(steps/s),pedometerDistance(m),pedometerFloorAscended(N),pedometerFloorDescended(N),pedometerEndDate(txt),altimeterTimestamp_sinceReboot(s),altimeterReset(bool),altimeterRelativeAltitude(m),altimeterPressure(kPa),batteryState(N),batteryLevel(R),heartRateBPMTimestamp(txt),heartRateBPM(N),heartRateBPS(R),heartRateVariabilityTimestamp(txt),heartRateVariability(ms),label
2025-04-22T15:44:16.271+03:00,1745325854.854241,40.95221216915948,29.14026661759164,76.43822,-1,-1,-1,-1,30,21.17508972138302,-9999,36137.03024504167,-0.8188323974609375,0.63006591796875,-0.322021484375,36137.02016904167,-2.565095549510444,-1.097456682073672,-0.7107550997230763,0.05073567107319832,-0.001797873992472887,-0.02960914932191372,0.07944959402084351,0.008512794971466064,0.03749975562095642,XArbitraryZVertical,-0.5532254946639885,0.145601887890421,-0.7152843208019312,0.4013849084044921,-0.674542248249054,0.6524062156677246,-0.345483273267746,0,0,0,-1,-1,36114.55714354167,unknown,2,2025-04-22T15:43:53.759+03:00,2025-04-21T17:08:51.449+03:00,8272,1.043277,0,0,6880.045,7,22,2025-04-22T15:44:14.394+03:00,767018651.9156554,0,-13.21,100.3623,1,0.5,2025-04-22T15:44:06.954+03:00,101,1.683333333333333,2025-04-22T14:20:19.516+03:00,0.02197104130929222,0
2025-04-22T15:44:16.273+03:00,1745325854.854241,40.95221216915948,29.14026661759164,76.43822,-1,-1,-1,-1,30,21.17508972138302,-9999,36137.04032104167,-0.781585693359375,0.6384429931640625,-0.3230438232421875,36137.03024504167,-2.564843759724473,-1.095861229265514,-0.7106979520775396,-0.01038867142051458,0.2381515949964523,0.03281854093074799,-0.08529961109161377,-0.01802462339401245,0.04001164436340332,XArbitraryZVertical,-0.5526715277256713,0.1458290256413458,-0.7156871104868805,0.4013478008466315,-0.674023449420929,0.6523628830909729,-0.3465761542320251,0,0,0,-1,-1,36114.55714354167,unknown,2,2025-04-22T15:43:53.759+03:00,2025-04-21T17:08:51.449+03:00,8272,1.043277,0,0,6880.045,7,22,2025-04-22T15:44:14.394+03:00,767018651.9156554,0,-13.21,100.3623,1,0.5,2025-04-22T15:44:06.954+03:00,101,1.683333333333333,2025-04-22T14:20:19.516+03:00,0.02197104130929222,0
2025-04-22T15:44:16.274+03:00,1745325854.854241,40.95221216915948,29.14026661759164,76.43822,-1,-1,-1,-1,30,21.17508972138302,-9999,36137.05039704167,-0.6373443603515625,0.63873291015625,-0.3317108154296875,36137.04032104167,-2.564866747251746,-1.093806139774552,-0.7110467016055735,-0.02370274625718594,0.1451653391122818,0.01742527261376381,-0.1526979804039001,-0.01868563890457153,0.02044808864593506,XArbitraryZVertical,-0.5519436140773065,0.1463905463459406,-0.7161853375682694,0.401256265495305,-0.6731076240539551,0.652627170085907,-0.3478561043739319,0,0,0,-1,-1,36114.55714354167,unknown,2,2025-04-22T15:43:53.759+03:00,2025-04-21T17:08:51.449+03:00,8272,1.043277,0,0,6880.045,7,22,2025-04-22T15:44:14.394+03:00,767018651.9156554,0,-13.21,100.3623,1,0.5,2025-04-22T15:44:06.954+03:00,101,1.683333333333333,2025-04-22T14:20:19.516+03:00,0.02197104130929222,0
2025-04-22T15:44:16.275+03:00,1745325854.854241,40.95221216915948,29.14026661759164,76.43822,-1,-1,-1,-1,30,21.17508972138302,-9999,36137.06047304167,-0.5946502685546875,0.6439971923828125,-0.351715087890625,36137.05039704167,-2.565088011606467,-1.093393865804016,-0.7112240923319529,-0.01897483691573143,-0.02422075904905796,-0.0049562007188797,-0.01160216331481934,-0.01241135597229004,0.02381569147109985,XArbitraryZVertical,-0.5517845671146473,0.1466069698876397,-0.7163058873961102,0.4011807709482922,-0.6728612780570984,0.6527615785598755,-0.3480803668498993,0,0,0,-1,-1,36114.55714354167,unknown,2,2025-04-22T15:43:53.759+03:00,2025-04-21T17:08:51.449+03:00,8272,1.043277,0,0,6880.045,7,22,2025-04-22T15:44:14.394+03:00,767018651.9156554,0,-13.21,100.3623,1,0.5,2025-04-22T15:44:06.954+03:00,101,1.683333333333333,2025-04-22T14:20:19.516+03:00,0.02197104130929222,0
2025-04-22T15:44:16.278+03:00,1745325854.854241,40.95221216915948,29.14026661759164,76.43822,-1,-1,-1,-1,30,21.17508972138302,-9999,36137.07054904167,-0.64715576171875,0.6563873291015625,-0.3571319580078125,36137.06047304167,-2.565301343798456,-1.093986278516863,-0.7112448010684846,-0.01167903933674097,-0.04309398308396339,-0.00749415997415781,0.07756590843200684,-0.01335775852203369,0.001895934343338013,XArbitraryZVertical,-0.5519816378674329,0.1465554717603643,-0.7161808769826834,0.4011517707006639,-0.6730554103851318,0.6527772545814514,-0.3476755321025848,0,0,0,-1,-1,36114.55714354167,unknown,2,2025-04-22T15:43:53.759+03:00,2025-04-21T17:08:51.449+03:00,8272,1.043277,0,0,6880.045,7,22,2025-04-22T15:44:14.394+03:00,767018651.9156554,0,-13.21,100.3623,1,0.5,2025-04-22T15:44:06.954+03:00,101,1.683333333333333,2025-04-22T14:20:19.516+03:00,0.02197104130929222,0
2025-04-22T15:44:16.290+03:00,1745325854.854241,40.95221216915948,29.14026661759164,76.43822,-1,-1,-1,-1,30,21.17508972138302,-9999,36137.08062504167,-0.69232177734375,0.663330078125,-0.35528564453125,36137.07054904167,-2.565423952182808,-1.094115723069147,-0.7112902091804386,-0.008236105553805828,0.03374434262514114,0.005652534775435925,0.05132412910461426,-0.0001323819160461426,-0.008763939142227173,XArbitraryZVertical,-0.5520202560324946,0.1465820064543361,-0.7161599430076008,0.4011259967857326,-0.6730738878250122,0.6528116464614868,-0.3475747108459473,0,0,0,-1,-1,36114.55714354167,unknown,2,2025-04-22T15:43:53.759+03:00,2025-04-21T17:08:51.449+03:00,8272,1.043277,0,0,6880.045,7,22,2025-04-22T15:44:14.394+03:00,767018651.9156554,0,-13.21,100.3623,1,0.5,2025-04-22T15:44:06.954+03:00,101,1.683333333333333,2025-04-22T14:20:19.516+03:00,0.02197104130929222,0
2025-04-22T15:44:16.298+03:00,1745325854.854241,40.95221216915948,29.14026661759164,76.43822,-1,-1,-1,-1,30,21.17508972138302,-9999,36137.09070104167,-0.6733856201171875,0.663604736328125,-0.3544464111328125,36137.08062504167,-2.565406354659387,-1.093596931595749,-0.7113865837012349,0.00102703517768532,0.05369874089956284,0.01018530130386353,-0.00973355770111084,0.008614242076873779,-0.008092701435089111,XArbitraryZVertical,-0.5518383290055673,0.1467206106635913,-0.7162793425384959,0.4011127606892786,-0.6728377938270569,0.6528846621513367,-0.3478950560092926,0,0,0,-1,-1,36114.55714354167,unknown,2,2025-04-22T15:43:53.759+03:00,2025-04-21T17:08:51.449+03:00,8272,1.043277,0,0,6880.045,7,22,2025-04-22T15:44:14.394+03:00,767018651.9156554,0,-13.21,100.3623,1,0.5,2025-04-22T15:44:06.954+03:00,101,1.683333333333333,2025-04-22T14:20:19.516+03:00,0.02197104130929222,0
2025-04-22T15:44:16.307+03:00,1745325854.854241,40.95221216915948,29.14026661759164,76.43822,-1,-1,-1,-1,30,21.17508972138302,-9999,36137.10077704167,-0.6390228271484375,0.6608428955078125,-0.35284423828125,36137.09070104167,-2.565314383030356,-1.093247099681103,-0.7114013603201141,0.01004796009510756,-0.0008385367691516876,-0.004375531803816557,-0.01351082324981689,0.01102912425994873,-0.005969732999801636,XArbitraryZVertical,-0.5517202107802278,0.1467715150298126,-0.7163540919131186,0.4011228059910123,-0.6727072596549988,0.6528958678245544,-0.3481258749961853,0,0,0,-1,-1,36114.55714354167,unknown,2,2025-04-22T15:43:53.759+03:00,2025-04-21T17:08:51.449+03:00,8272,1.043277,0,0,6880.045,7,22,2025-04-22T15:44:14.394+03:00,767018651.9156554,0,-13.21,100.3623,1,0.5,2025-04-22T15:44:06.954+03:00,101,1.683333333333333,2025-04-22T14:20:19.516+03:00,0.02197104130929222,0
2025-04-22T15:44:16.317+03:00,1745325854.854241,40.95221216915948,29.14026661759164,76.43822,-1,-1,-1,-1,30,21.17508972138302,-9999,36137.11085304167,-0.6431427001953125,0.65484619140625,-0.35101318359375,36137.10077704167,-2.565236841298379,-1.093417784269029,-0.7113012261481222,0.008833892643451691,-0.03442519158124924,-0.01333463937044144,0.0232582688331604,0.009640157222747803,-0.006008714437484741,XArbitraryZVertical,-0.551784324543227,0.1466748652919522,-0.7163126891478592,0.401143948043451,-0.6728247404098511,0.6528199911117554,-0.3480410873889923,0,0,0,-1,-1,36114.55714354167,unknown,2,2025-04-22T15:43:53.759+03:00,2025-04-21T17:08:51.449+03:00,8272,1.043277,0,0,6880.045,7,22,2025-04-22T15:44:14.394+03:00,767018651.9156554,0,-13.21,100.3623,1,0.5,2025-04-22T15:44:06.954+03:00,101,1.683333333333333,2025-04-22T14:20:19.516+03:00,0.02197104130929222,0
2025-04-22T15:44:16.327+03:00,1745325854.854241,40.95221216915948,29.14026661759164,76.43822,-1,-1,-1,-1,30,21.17508972138302,-9999,36137.12092804167,-0.670257568359375,0.64422607421875,-0.349884033203125,36137.11085304167,-2.565269802898844,-1.093701636963858,-0.7111832254317113,-0.004649958573281765,-0.009482825174927711,-0.007395789492875338,0.03667014837265015,0.004663705825805664,-0.002715855836868286,XArbitraryZVertical,-0.5518803556582629,0.1465786403011797,-0.7162661414841451,0.4011304160538954,-0.6729921102523804,0.6527306437492371,-0.3478855490684509,0,0,0,-1,-1,36114.55714354167,unknown,2,2025-04-22T15:43:53.759+03:00,2025-04-21T17:08:51.449+03:00,8272,1.043277,0,0,6880.045,7,22,2025-04-22T15:44:14.394+03:00,767018651.9156554,0,-13.21,100.3623,1,0.5,2025-04-22T15:44:06.954+03:00,101,1.683333333333333,2025-04-22T14:20:19.516+03:00,0.02197104130929222,0
2025-04-22T15:44:16.337+03:00,1745325854.854241,40.95221216915948,29.14026661759164,76.43822,-1,-1,-1,-1,30,21.17508972138302,-9999,36137.13100404167,-0.6798095703125,0.6386871337890625,-0.3492889404296875,36137.12092804167,-2.565470582376815,-1.093723073972303,-0.7112176088269989,-0.02555670589208603,0.03069908358156681,0.005179990082979202,0.01201474666595459,-0.004899144172668457,-0.002114951610565186,XArbitraryZVertical,-0.5518742480488865,0.1466438392059965,-0.7162931724170231,0.4010666521197481,-0.6729795932769775,0.6527566909790039,-0.3478607833385468,0,0,0,-1,-1,36114.55714354167,unknown,2,2025-04-22T15:43:53.759+03:00,2025-04-21T17:08:51.449+03:00,8272,1.043277,0,0,6880.045,7,22,2025-04-22T15:44:14.394+03:00,767018651.9156554,0,-13.21,100.3623,1,0.5,2025-04-22T15:44:06.954+03:00,101,1.683333333333333,2025-04-22T14:20:19.516+03:00,0.02197104130929222,0
2025-04-22T15:44:16.347+03:00,1745325854.854241,40.95221216915948,29.14026661759164,76.43822,-1,-1,-1,-1,30,21.17508972138302,-9999,36137.14108004167,-0.667938232421875,0.6424102783203125,-0.3488006591796875,36137.13100404167,-2.565842726534147,-1.093632104074885,-0.7114222600771128,-0.04102674126625061,0.03150016069412231,0.006866303738206625,-0.006705582141876221,-0.01343125104904175,-0.001352190971374512,XArbitraryZVertical,-0.5518198681294872,0.1468485897741023,-0.716349528546393,0.4009658664530277,-0.672829270362854,0.6529117226600647,-0.3478606641292572,0,0,0,-1,-1,36114.55714354167,unknown,2,2025-04-22T15:43:53.759+03:00,2025-04-21T17:08:51.449+03:00,8272,1.043277,0,0,6880.045,7,22,2025-04-22T15:44:14.394+03:00,767018651.9156554,0,-13.21,100.3623,1,0.5,2025-04-22T15:44:06.954+03:00,101,1.683333333333333,2025-04-22T14:20:19.516+03:00,0.02197104130929222,0
2025-04-22T15:44:16.357+03:00,1745325854.854241,40.95221216915948,29.14026661759164,76.43822,-1,-1,-1,-1,30,21.17508972138302,-9999,36137.15115604167,-0.654937744140625,0.65447998046875,-0.3506622314453125,36137.14108004167,-2.566280945194868,-1.093680690036825,-0.7116673074369076,-0.03757954761385918,0.0104870218783617,0.004107801709324121,-0.001673281192779541,-0.01262497901916504,-0.0008937716484069824,XArbitraryZVertical,-0.5518116302776405,0.1470601142125742,-0.7163720971527989,0.4008594035396705,-0.6727040410041809,0.6530972719192505,-0.3477545082569122,0,0,0,-1,-1,36114.55714354167,unknown,2,2025-04-22T15:43:53.759+03:00,2025-04-21T17:08:51.449+03:00,8272,1.043277,0,0,6880.045,7,22,2025-04-22T15:44:14.394+03:00,767018651.9156554,0,-13.21,100.3623,1,0.5,2025-04-22T15:44:06.954+03:00,101,1.683333333333333,2025-04-22T14:20:19.516+03:00,0.02197104130929222,0
2025-04-22T15:44:16.368+03:00,1745325854.854241,40.95221216915948,29.14026661759164,76.43822,-1,-1,-1,-1,30,21.17508972138302,-9999,36137.16123204167,-0.65673828125,0.6669158935546875,-0.3528289794921875,36137.15115604167,-2.566578233251717,-1.093794759293065,-0.7118044715006926,-0.01523828785866499,0.003798759309574962,4.648079629987478e-05,0.01476621627807617,-0.003970324993133545,-0.00157618522644043,XArbitraryZVertical,-0.5518342766180232,0.1471754519037345,-0.7163711673004514,0.4007875821001867,-0.6726641654968262,0.653201162815094,-0.3476366400718689,0,0,0,-1,-1,36114.55714354167,unknown,2,2025-04-22T15:43:53.759+03:00,2025-04-21T17:08:51.449+03:00,8272,1.043277,0,0,6880.045,7,22,2025-04-22T15:44:14.394+03:00,767018651.9156554,0,-13.21,100.3623,1,0.5,2025-04-22T15:44:06.954+03:00,101,1.683333333333333,2025-04-22T14:20:19.516+03:00,0.02197104130929222,0
2025-04-22T15:44:16.377+03:00,1745325854.854241,40.95221216915948,29.14026661759164,76.43822,-1,-1,-1,-1,30,21.17508972138302,-9999,36137.17130804167,-0.6660919189453125,0.6646728515625,-0.353240966796875,36137.16123204167,-2.566701435479988,-1.093799873207353,-0.7118097325360312,-0.0001805752399377525,0.01278659515082836,-0.005785209126770496,0.01804566383361816,0.01015537977218628,-0.003580093383789062,XArbitraryZVertical,-0.5518271750385347,0.1472105623181179,-0.716393368168437,0.4007448471924152,-0.6726629137992859,0.6532051563262939,-0.3476316332817078,0,0,0,-1,-1,36114.55714354167,unknown,2,2025-04-22T15:43:53.759+03:00,2025-04-21T17:08:51.449+03:00,8272,1.043277,0,0,6880.045,7,22,2025-04-22T15:44:14.394+03:00,767018651.9156554,0,-13.21,100.3623,1,0.5,2025-04-22T15:44:06.954+03:00,101,1.683333333333333,2025-04-22T14:20:19.516+03:00,0.02197104130929222,0
2025-04-22T15:44:16.389+03:00,1745325854.854241,40.95221216915948,29.14026661759164,76.43822,-1,-1,-1,-1,30,21.17508972138302,-9999,36137.18138404167,-0.665374755859375,0.6522979736328125,-0.350128173828125,36137.17130804167,-2.566739431864804,-1.093692648024892,-0.7117432697465839,0.0008420785889029503,0.01348381023854017,-0.01041724532842636,0.008861064910888672,0.01382201910018921,-0.005059719085693359,XArbitraryZVertical,-0.5517842190529375,0.1472153474041785,-0.7164445248092052,0.4007105809743652,-0.6726640462875366,0.6531547904014587,-0.3477236330509186,0,0,0,-1,-1,36114.55714354167,unknown,2,2025-04-22T15:43:53.759+03:00,2025-04-21T17:08:51.449+03:00,8272,1.043277,0,0,6880.045,7,22,2025-04-22T15:44:14.394+03:00,767018651.9156554,0,-13.21,100.3623,1,0.5,2025-04-22T15:44:06.954+03:00,101,1.683333333333333,2025-04-22T14:20:19.516+03:00,0.02197104130929222,0
2025-04-22T15:44:16.398+03:00,1745325854.854241,40.95221216915948,29.14026661759164,76.43822,-1,-1,-1,-1,30,21.17508972138302,-9999,36137.19146004167,-0.6627960205078125,0.643035888671875,-0.349609375,36137.18138404167,-2.566906058095973,-1.093699836540762,-0.711678364507787,-0.01492396742105484,0.00579353328794241,-0.01360218599438667,0.005529046058654785,0.004044473171234131,-0.003412425518035889,XArbitraryZVertical,-0.551772798015736,0.1472332855975217,-0.7164896915489944,0.4006389938269311,-0.67270427942276,0.6531056761741638,-0.3477382659912109,0,0,0,-1,-1,36114.55714354167,unknown,2,2025-04-22T15:43:53.759+03:00,2025-04-21T17:08:51.449+03:00,8272,1.043277,0,0,6880.045,7,22,2025-04-22T15:44:14.394+03:00,767018651.9156554,0,-13.21,100.3623,1,0.5,2025-04-22T15:44:06.954+03:00,101,1.683333333333333,2025-04-22T14:20:19.516+03:00,0.02197104130929222,0
2025-04-22T15:44:16.408+03:00,1745325854.854241,40.95221216915948,29.14026661759164,76.43822,-1,-1,-1,-1,30,21.17508972138302,-9999,36137.20153604167,-0.66436767578125,0.6388092041015625,-0.3510894775390625,36137.19146004167,-2.567311887578202,-1.093920877712147,-0.7117155910650268,-0.03884181752800941,0.002355392323806882,-0.01037496794015169,0.009749948978424072,-0.007687151432037354,-0.001512348651885986,XArbitraryZVertical,-0.5518230857263442,0.1473162212567073,-0.7165021289851532,0.4005170217512069,-0.6727595329284668,0.6531338691711426,-0.3475784361362457,0,0,0,-1,-1,36114.55714354167,unknown,2,2025-04-22T15:43:53.759+03:00,2025-04-21T17:08:51.449+03:00,8272,1.043277,0,0,6880.045,7,22,2025-04-22T15:44:14.394+03:00,767018651.9156554,0,-13.21,100.3623,1,0.5,2025-04-22T15:44:06.954+03:00,101,1.683333333333333,2025-04-22T14:20:19.516+03:00,0.02197104130929222,0
2025-04-22T15:44:16.418+03:00,1745325854.854241,40.95221216915948,29.14026661759164,76.43822,-1,-1,-1,-1,30,21.17508972138302,-9999,36137.21161204167,-0.6666107177734375,0.6391143798828125,-0.350799560546875,36137.20153604167,-2.567932293163989,-1.094272617923261,-0.7118555074844961,-0.05883323773741722,0.007618730887770653,-0.00918220542371273,0.008921265602111816,-0.012798011302948,-0.003194689750671387,XArbitraryZVertical,-0.5519070614988988,0.1474742799240978,-0.7164996970965931,0.400347514361331,-0.6728005409240723,0.6532397866249084,-0.3472998738288879,0,0,0,-1,-1,36114.55714354167,unknown,2,2025-04-22T15:43:53.759+03:00,2025-04-21T17:08:51.449+03:00,8272,1.043277,0,0,6880.045,7,22,2025-04-22T15:44:14.394+03:00,767018651.9156554,0,-13.21,100.3623,1,0.5,2025-04-22T15:44:06.954+03:00,101,1.683333333333333,2025-04-22T14:20:19.516+03:00,0.02197104130929222,0
2025-04-22T15:44:16.429+03:00,1745325854.854241,40.95221216915948,29.14026661759164,76.43822,-1,-1,-1,-1,30,21.17508972138302,-9999,36137.22168804167,-0.6655426025390625,0.6434783935546875,-0.34869384765625,36137.21161204167,-2.568739184192969,-1.0947191882816,-0.712075229800841,-0.07016871869564056,0.01094129122793674,-0.001121082343161106,0.006934523582458496,-0.01485645771026611,-0.004018723964691162,XArbitraryZVertical,-0.5520132516441242,0.14769757615168,-0.7164914228426245,0.4001335540226686,-0.6728280186653137,0.6534061431884766,-0.3469336032867432,0,0,0,-1,-1,36114.55714354167,unknown,2,2025-04-22T15:43:53.759+03:00,2025-04-21T17:08:51.449+03:00,8272,1.043277,0,0,6880.045,7,22,2025-04-22T15:44:14.394+03:00,767018651.9156554,0,-13.21,100.3623,1,0.5,2025-04-22T15:44:06.954+03:00,101,1.683333333333333,2025-04-22T14:20:19.516+03:00,0.02197104130929222,0
2025-04-22T15:44:16.438+03:00,1745325854.854241,40.95221216915948,29.14026661759164,76.43822,-1,-1,-1,-1,30,21.17508972138302,-9999,36137.23176404167,-0.66485595703125,0.65057373046875,-0.3487091064453125,36137.22168804167,-2.569625349278759,-1.095174769643558,-0.7123530766482017,-0.07555462419986725,0.01297814212739468,-0.004905001726001501,0.006976783275604248,-0.01207607984542847,-0.003554016351699829,XArbitraryZVertical,-0.5521181811035907,0.14796488070743,-0.7164839751150729,0.3999030748352835,-0.6728244423866272,0.6536164283752441,-0.3465438187122345,0,0,0,-1,-1,36114.55714354167,unknown,2,2025-04-22T15:43:53.759+03:00,2025-04-21T17:08:51.449+03:00,8272,1.043277,0,0,6880.045,7,22,2025-04-22T15:44:14.394+03:00,767018651.9156554,0,-13.21,100.3623,1,0.5,2025-04-22T15:44:06.954+03:00,101,1.683333333333333,2025-04-22T14:20:19.516+03:00,0.02197104130929222,0
2025-04-22T15:44:16.448+03:00,1745325854.854241,40.95221216915948,29.14026661759164,76.43822,-1,-1,-1,-1,30,21.17508972138302,-9999,36137.24184004167,-0.665496826171875,0.6513671875,-0.348785400390625,36137.23176404167,-2.570570687433972,-1.095607099385052,-0.712705995960464,-0.08440910279750824,0.01842270977795124,-0.002870612777769566,0.007546961307525635,-0.005720794200897217,-0.00242459774017334,XArbitraryZVertical,-0.5522120883759668,0.1482839365452564,-0.7164789354374667,0.3996642607865198,-0.6727690696716309,0.6538835167884827,-0.346147358417511,0,0,0,-1,-1,36114.55714354167,unknown,2,2025-04-22T15:43:53.759+03:00,2025-04-21T17:08:51.449+03:00,8272,1.043277,0,0,6880.045,7,22,2025-04-22T15:44:14.394+03:00,767018651.9156554,0,-13.21,100.3623,1,0.5,2025-04-22T15:44:06.954+03:00,101,1.683333333333333,2025-04-22T14:20:19.516+03:00,0.02197104130929222,0
2025-04-22T15:44:16.458+03:00,1745325854.854241,40.95221216915948,29.14026661759164,76.43822,-1,-1,-1,-1,30,21.17508972138302,-9999,36137.25191604167,-0.66973876953125,0.64764404296875,-0.3504791259765625,36137.24184004167,-2.571608354770459,-1.096055455537483,-0.713103991027472,-0.08861196786165237,0.02496915869414806,-0.0056647346355021,0.007287561893463135,-0.002466499805450439,-0.003211408853530884,XArbitraryZVertical,-0.5523057473994875,0.1486437999201865,-0.7164783128511851,0.3994023778349042,-0.6726928353309631,0.6541845798492432,-0.3457267582416534,0,0,0,-1,-1,36114.55714354167,unknown,2,2025-04-22T15:43:53.759+03:00,2025-04-21T17:08:51.449+03:00,8272,1.043277,0,0,6880.045,7,22,2025-04-22T15:44:14.394+03:00,767018651.9156554,0,-13.21,100.3623,1,0.5,2025-04-22T15:44:06.954+03:00,101,1.683333333333333,2025-04-22T14:20:19.516+03:00,0.02197104130929222,0
2025-04-22T15:44:16.468+03:00,1745325854.854241,40.95221216915948,29.14026661759164,76.43822,-1,-1,-1,-1,30,21.17508972138302,-9999,36137.26199204167,-0.66943359375,0.6484375,-0.3542022705078125,36137.25191604167,-2.572702402136206,-1.096474783854931,-0.7134785705422529,-0.09013716131448746,0.03013302758336067,-0.009803553111851215,0.00404059886932373,-0.005893111228942871,-0.004261612892150879,XArbitraryZVertical,-0.552383944681879,0.1490156016565346,-0.7165015596232575,0.3991137138401717,-0.6726195812225342,0.6544678211212158,-0.3453326523303986,0,0,0,-1,-1,36114.55714354167,unknown,2,2025-04-22T15:43:53.759+03:00,2025-04-21T17:08:51.449+03:00,8272,1.043277,0,0,6880.045,7,22,2025-04-22T15:44:14.394+03:00,767018651.9156554,0,-13.21,100.3623,1,0.5,2025-04-22T15:44:06.954+03:00,101,1.683333333333333,2025-04-22T14:20:19.516+03:00,0.02197104130929222,0
2025-04-22T15:44:16.478+03:00,1745325854.854241,40.95221216915948,29.14026661759164,76.43822,-1,-1,-1,-1,30,21.17508972138302,-9999,36137.27206804167,-0.6679840087890625,0.6563568115234375,-0.3548126220703125,36137.26199204167,-2.573782988823683,-1.096851709099188,-0.7137875827319987,-0.0810401439666748,0.03230929747223854,-0.01372628938406706,0.002556443214416504,-0.007820427417755127,-0.008193254470825195,XArbitraryZVertical,-0.5524460011223166,0.1493653365117793,-0.7165477101857314,0.3988142428039747,-0.6725698113441467,0.6547014713287354,-0.3449868261814117,0,0,0,-1,-1,36114.55714354167,unknown,2,2025-04-22T15:43:53.759+03:00,2025-04-21T17:08:51.449+03:00,8272,1.043277,0,0,6880.045,7,22,2025-04-22T15:44:14.394+03:00,767018651.9156554,0,-13.21,100.3623,1,0.5,2025-04-22T15:44:06.954+03:00,101,1.683333333333333,2025-04-22T14:20:19.516+03:00,0.02197104130929222,0
2025-04-22T15:44:16.488+03:00,1745325854.854241,40.95221216915948,29.14026661759164,76.43822,-1,-1,-1,-1,30,21.17508972138302,-9999,36137.28214304167,-0.6684722900390625,0.6573638916015625,-0.354461669921875,36137.27206804167,-2.57475714430708,-1.097168700763526,-0.7139961097699514,-0.07010280340909958,0.03123311325907707,-0.01524562295526266,0.004665195941925049,-0.001142144203186035,-0.009567379951477051,XArbitraryZVertical,-0.5524918439691534,0.1496565848772582,-0.7166102444625829,0.3985291156701884,-0.6725575923919678,0.6548590660095215,-0.3447113335132599,0,0,0,-1,-1,36114.55714354167,unknown,2,2025-04-22T15:43:53.759+03:00,2025-04-21T17:08:51.449+03:00,8272,1.043277,0,0,6880.045,7,22,2025-04-22T15:44:14.394+03:00,767018651.9156554,0,-13.21,100.3623,1,0.5,2025-04-22T15:44:06.954+03:00,101,1.683333333333333,2025-04-22T14:20:19.516+03:00,0.02197104130929222,0
2025-04-22T15:44:16.498+03:00,1745325854.854241,40.95221216915948,29.14026661759164,76.43822,-1,-1,-1,-1,30,21.17508972138302,-9999,36137.29221904167,-0.6708984375,0.6544647216796875,-0.35137939453125,36137.28214304167,-2.575686624746471,-1.097433625498289,-0.7141383733568109,-0.07469023019075394,0.03674013167619705,-0.01905414275825024,0.004398822784423828,0.00317537784576416,-0.01142081618309021,XArbitraryZVertical,-0.5525206272940892,0.1499188646447263,-0.7166919546187445,0.3982433007432822,-0.6725658178329468,0.6549665927886963,-0.3444905877113342,0,0,0,-1,-1,36114.55714354167,unknown,2,2025-04-22T15:43:53.759+03:00,2025-04-21T17:08:51.449+03:00,8272,1.043277,0,0,6880.045,7,22,2025-04-22T15:44:14.394+03:00,767018651.9156554,0,-13.21,100.3623,1,0.5,2025-04-22T15:44:06.954+03:00,101,1.683333333333333,2025-04-22T14:20:19.516+03:00,0.02197104130929222,0
2025-04-22T15:44:16.508+03:00,1745325854.854241,40.95221216915948,29.14026661759164,76.43822,-1,-1,-1,-1,30,21.17508972138302,-9999,36137.30229504167,-0.6726837158203125,0.647003173828125,-0.3560333251953125,36137.29221904167,-2.576868981501518,-1.097795800902515,-0.7143045494634397,-0.1089744344353676,0.04088267683982849,-0.02720315009355545,0.003282248973846436,0.001417100429534912,-0.007670432329177856,XArbitraryZVertical,-0.5525656667544123,0.1502414316570918,-0.7167921138037479,0.3978788476132543,-0.6725936532020569,0.6550921201705933,-0.3441973924636841,0,0,0,-1,-1,36114.55714354167,unknown,2,2025-04-22T15:43:53.759+03:00,2025-04-21T17:08:51.449+03:00,8272,1.043277,0,0,6880.045,7,22,2025-04-22T15:44:14.394+03:00,767018651.9156554,0,-13.21,100.3623,1,0.5,2025-04-22T15:44:06.954+03:00,101,1.683333333333333,2025-04-22T14:20:19.516+03:00,0.02197104130929222,0
2025-04-22T15:44:16.519+03:00,1745325854.854241,40.95221216915948,29.14026661759164,76.43822,-1,-1,-1,-1,30,21.17508972138302,-9999,36137.31237104167,-0.6666107177734375,0.627838134765625,-0.355194091796875,36137.30229504167,-2.578759916750607,-1.09864370180631,-0.7147214091252894,-0.1875701099634171,0.0328112356364727,-0.02446511946618557,-0.0009265542030334473,-0.004253566265106201,-0.01134049892425537,XArbitraryZVertical,-0.5527370426905588,0.1507659169719452,-0.7168457731595741,0.3973455500623157,-0.6726421117782593,0.6554070115089417,-0.3435027897357941,0,0,0,-1,-1,36114.55714354167,unknown,2,2025-04-22T15:43:53.759+03:00,2025-04-21T17:08:51.449+03:00,8272,1.043277,0,0,6880.045,7,22,2025-04-22T15:44:14.394+03:00,767018651.9156554,0,-13.21,100.3623,1,0.5,2025-04-22T15:44:06.954+03:00,101,1.683333333333333,2025-04-22T14:20:19.516+03:00,0.02197104130929222,0
2025-04-22T15:44:16.529+03:00,1745325854.854241,40.95221216915948,29.14026661759164,76.43822,-1,-1,-1,-1,30,21.17508972138302,-9999,36137.32244704167,-0.6596221923828125,0.6075897216796875,-0.3517608642578125,36137.31237104167,-2.581716256677994,-1.100304020093212,-0.7156392579928069,-0.2981634736061096,0.01891779154539108,-0.01502954121679068,0.002753257751464844,-0.01951867341995239,-0.01375293731689453,XArbitraryZVertical,-0.5531295067917171,0.1516291432996063,-0.7167797599634391,0.3965893835278989,-0.6726750731468201,0.6560999751091003,-0.3421126902103424,0,0,0,-1,-1,36114.55714354167,unknown,2,2025-04-22T15:43:53.759+03:00,2025-04-21T17:08:51.449+03:00,8272,1.043277,0,0,6880.045,7,22,2025-04-22T15:44:14.394+03:00,767018651.9156554,0,-13.21,100.3623,1,0.5,2025-04-22T15:44:06.954+03:00,101,1.683333333333333,2025-04-22T14:20:19.516+03:00,0.02197104130929222,0
2025-04-22T15:44:16.539+03:00,1745325854.854241,40.95221216915948,29.14026661759164,76.43822,-1,-1,-1,-1,30,21.17508972138302,-9999,36137.33252304167,-0.6581268310546875,0.599517822265625,-0.3339996337890625,36137.32244704167,-2.586067380197869,-1.103047584321852,-0.7172207500804628,-0.4301291406154633,0.005703784991055727,-0.001078138826414943,0.009964466094970703,-0.04379785060882568,-0.01445063948631287,XArbitraryZVertical,-0.5538154956513892,0.1529365118103627,-0.7165484161109016,0.3955467523615712,-0.6726841330528259,0.6572926640510559,-0.3397976458072662,0,0,0,-1,-1,36114.55714354167,unknown,2,2025-04-22T15:43:53.759+03:00,2025-04-21T17:08:51.449+03:00,8272,1.043277,0,0,6880.045,7,22,2025-04-22T15:44:14.394+03:00,767018651.9156554,0,-13.21,100.3623,1,0.5,2025-04-22T15:44:06.954+03:00,101,1.683333333333333,2025-04-22T14:20:19.516+03:00,0.02197104130929222,0
2025-04-22T15:44:16.549+03:00,1745325854.854241,40.95221216915948,29.14026661759164,76.43822,-1,-1,-1,-1,30,21.17508972138302,-9999,36137.34259904167,-0.6608734130859375,0.598846435546875,-0.3147430419921875,36137.33252304167,-2.59170466593257,-1.106711739719948,-0.7195174611679289,-0.5253792405128479,0.00171490223146975,0.02878069132566452,0.01424777507781982,-0.05745941400527954,-0.006882637739181519,XArbitraryZVertical,-0.5547402469174004,0.1547135588715397,-0.7161615133602118,0.394258420290746,-0.6725729703903198,0.65902179479599,-0.3366539478302002,0,0,0,-1,-1,36114.55714354167,unknown,2,2025-04-22T15:43:53.759+03:00,2025-04-21T17:08:51.449+03:00,8272,1.043277,0,0,6880.045,7,22,2025-04-22T15:44:14.394+03:00,767018651.9156554,0,-13.21,100.3623,1,0.5,2025-04-22T15:44:06.954+03:00,101,1.683333333333333,2025-04-22T14:20:19.516+03:00,0.02197104130929222,0
2025-04-22T15:44:16.560+03:00,1745325854.854241,40.95221216915948,29.14026661759164,76.43822,-1,-1,-1,-1,30,21.17508972138302,-9999,36137.35267504167,-0.6672515869140625,0.621246337890625,-0.318634033203125,36137.34259904167,-2.598081925984259,-1.11078193939773,-0.7222974323562501,-0.5690634846687317,0.0220906138420105,0.03959132358431816,0.01334261894226074,-0.06290465593338013,0.01393073797225952,XArbitraryZVertical,-0.5557506208767345,0.1568176218642774,-0.7157001467535354,0.3928392940232114,-0.6722933650016785,0.6611101627349854,-0.3330989480018616,0,0,0,-1,-1,36114.55714354167,unknown,2,2025-04-22T15:43:53.759+03:00,2025-04-21T17:08:51.449+03:00,8272,1.043277,0,0,6880.045,7,22,2025-04-22T15:44:14.394+03:00,767018651.9156554,0,-13.21,100.3623,1,0.5,2025-04-22T15:44:06.954+03:00,101,1.683333333333333,2025-04-22T14:20:19.516+03:00,0.02197104130929222,0
2025-04-22T15:44:16.569+03:00,1745325854.854241,40.95221216915948,29.14026661759164,76.43822,-1,-1,-1,-1,30,21.17508972138302,-9999,36137.36275104167,-0.6715240478515625,0.661163330078125,-0.33319091796875,36137.35267504167,-2.604524382049611,-1.114687092222908,-0.7251594116767844,-0.5441192388534546,0.04312825575470924,0.04853928089141846,0.007214903831481934,-0.05449020862579346,0.01367238163948059,XArbitraryZVertical,-0.5566844314522147,0.1590102931957402,-0.7152741094013368,0.3914092414491172,-0.6718876957893372,0.6632547378540039,-0.3296363353729248,0,0,0,-1,-1,36114.55714354167,unknown,2,2025-04-22T15:43:53.759+03:00,2025-04-21T17:08:51.449+03:00,8272,1.043277,0,0,6880.045,7,22,2025-04-22T15:44:14.394+03:00,767018651.9156554,0,-13.21,100.3623,1,0.5,2025-04-22T15:44:06.954+03:00,101,1.683333333333333,2025-04-22T14:20:19.516+03:00,0.02197104130929222,0
2025-04-22T15:44:16.579+03:00,1745325854.854241,40.95221216915948,29.14026661759164,76.43822,-1,-1,-1,-1,30,21.17508972138302,-9999,36137.37282704167,-0.665771484375,0.69189453125,-0.33636474609375,36137.36275104167,-2.610384533209986,-1.118015123463544,-0.7278619608668421,-0.4747356474399567,0.05987714231014252,0.0458497554063797,0.0006818771362304688,-0.01845502853393555,-0.0002761781215667725,XArbitraryZVertical,-0.5574428969683212,0.1610928783536484,-0.7149225368378447,0.3901180226988828,-0.6713665127754211,0.6652749180793762,-0.3266130089759827,0,0,0,-1,-1,36114.55714354167,unknown,2,2025-04-22T15:43:53.759+03:00,2025-04-21T17:08:51.449+03:00,8272,1.043277,0,0,6880.045,7,22,2025-04-22T15:44:14.394+03:00,767018651.9156554,0,-13.21,100.3623,1,0.5,2025-04-22T15:44:06.954+03:00,101,1.683333333333333,2025-04-22T14:20:19.516+03:00,0.02197104130929222,0
2025-04-22T15:44:16.589+03:00,1745325854.854241,40.95221216915948,29.14026661759164,76.43822,-1,-1,-1,-1,30,21.17508972138302,-9999,36137.38290304167,-0.6616363525390625,0.707183837890625,-0.32586669921875,36137.37282704167,-2.615224278808566,-1.120621203966125,-0.729960155567646,-0.3621563613414764,0.0536261685192585,0.01961042918264866,0.002698659896850586,0.01576179265975952,-0.01287367939949036,XArbitraryZVertical,-0.5580078854942335,0.1627885329980988,-0.7146966722424331,0.3890187836797466,-0.6709571480751038,0.6668399572372437,-0.324254184961319,0,0,0,-1,-1,36114.55714354167,unknown,2,2025-04-22T15:43:53.759+03:00,2025-04-21T17:08:51.449+03:00,8272,1.043277,0,0,6880.045,7,22,2025-04-22T15:44:14.394+03:00,767018651.9156554,0,-13.21,100.3623,1,0.5,2025-04-22T15:44:06.954+03:00,101,1.683333333333333,2025-04-22T14:20:19.516+03:00,0.02197104130929222,0
2025-04-22T15:44:16.599+03:00,1745325854.854241,40.95221216915948,29.14026661759164,76.43822,-1,-1,-1,-1,30,21.17508972138302,-9999,36137.39297904167,-0.661163330078125,0.717041015625,-0.313232421875,36137.38290304167,-2.618873632804562,-1.122508677315266,-0.731348661667213,-0.2533529102802277,0.05069482699036598,-0.002548936055973172,0.007418155670166016,0.03447264432907104,-0.008576095104217529,XArbitraryZVertical,-0.5583991474110718,0.1640049029048899,-0.7145866317407904,0.3881476145410375,-0.6707329154014587,0.6678740382194519,-0.3225855827331543,0,0,0,-1,-1,36114.55714354167,unknown,2,2025-04-22T15:43:53.759+03:00,2025-04-21T17:08:51.449+03:00,8272,1.043277,0,0,6880.045,7,22,2025-04-22T15:44:14.394+03:00,767018651.9156554,0,-13.21,100.3623,1,0.5,2025-04-22T15:44:06.954+03:00,101,1.683333333333333,2025-04-22T14:20:19.516+03:00,0.02197104130929222,0
2025-04-22T15:44:16.609+03:00,1745325854.854241,40.95221216915948,29.14026661759164,76.43822,-1,-1,-1,-1,30,21.17508972138302,-9999,36137.40305504167,-0.671478271484375,0.71435546875,-0.3196563720703125,36137.39297904167,-2.62153325992885,-1.123732408879987,-0.7321254505670491,-0.1727334409952164,0.06147397309541702,-0.02618049457669258,0.01050299406051636,0.04593390226364136,0.004340231418609619,XArbitraryZVertical,-0.5586253725075941,0.1648260224127759,-0.7145971899516864,0.3874542361236566,-0.6706591844558716,0.6684519648551941,-0.3215401470661163,0,0,0,-1,-1,36114.55714354167,unknown,2,2025-04-22T15:43:53.759+03:00,2025-04-21T17:08:51.449+03:00,8272,1.043277,0,0,6880.045,7,22,2025-04-22T15:44:14.394+03:00,767018651.9156554,0,-13.21,100.3623,1,0.5,2025-04-22T15:44:06.954+03:00,101,1.683333333333333,2025-04-22T14:20:19.516+03:00,0.02197104130929222,0
2025-04-22T15:44:16.620+03:00,1745325854.854241,40.95221216915948,29.14026661759164,76.43822,-1,-1,-1,-1,30,21.17508972138302,-9999,36137.41313104167,-0.6744842529296875,0.6973876953125,-0.3306884765625,36137.40305504167,-2.623541592950167,-1.124378855318385,-0.7324837384687469,-0.128713384270668,0.07336192578077316,-0.03779993206262589,0.003643572330474854,0.04818516969680786,0.005649566650390625,XArbitraryZVertical,-0.5586938396380854,0.1654074158816806,-0.7147301420173626,0.3868622062113801,-0.6706508994102478,0.6687183976173401,-0.3210031688213348,0,0,0,-1,-1,36114.55714354167,unknown,2,2025-04-22T15:43:53.759+03:00,2025-04-21T17:08:51.449+03:00,8272,1.043277,0,0,6880.045,7,22,2025-04-22T15:44:14.394+03:00,767018651.9156554,0,-13.21,100.3623,1,0.5,2025-04-22T15:44:06.954+03:00,101,1.683333333333333,2025-04-22T14:20:19.516+03:00,0.02197104130929222,0
2025-04-22T15:44:16.629+03:00,1745325854.854241,40.95221216915948,29.14026661759164,76.43822,-1,-1,-1,-1,30,21.17508972138302,-9999,36137.42320704167,-0.6689453125,0.6763153076171875,-0.330474853515625,36137.41313104167,-2.625302379756825,-1.124820284665371,-0.7326704399571216,-0.1272446513175964,0.06901537626981735,-0.04386235773563385,-0.003651678562164307,0.03648024797439575,-0.007288813591003418,XArbitraryZVertical,-0.558707393122218,0.1658898002246242,-0.7149079862499397,0.3863071418152157,-0.6706799268722534,0.668857216835022,-0.3206532597541809,0,0,0,-1,-1,36114.55714354167,unknown,2,2025-04-22T15:43:53.759+03:00,2025-04-21T17:08:51.449+03:00,8272,1.043277,0,0,6880.045,7,22,2025-04-22T15:44:14.394+03:00,767018651.9156554,0,-13.21,100.3623,1,0.5,2025-04-22T15:44:06.954+03:00,101,1.683333333333333,2025-04-22T14:20:19.516+03:00,0.02197104130929222,0
2025-04-22T15:44:16.639+03:00,1745325854.854241,40.95221216915948,29.14026661759164,76.43822,-1,-1,-1,-1,30,21.17508972138302,-9999,36137.43328304167,-0.6643524169921875,0.65863037109375,-0.3259735107421875,36137.42320704167,-2.627260374837112,-1.125535934271165,-0.7328486804571056,-0.1490030735731125,0.05280777812004089,-0.0492076501250267,-0.000813901424407959,0.01474130153656006,-0.0116196870803833,XArbitraryZVertical,-0.5588020545632627,0.1663710910488514,-0.7150485378923841,0.3857026613900156,-0.6708016395568848,0.6689897179603577,-0.3201218545436859,0,0,0,-1,-1,36114.55714354167,unknown,2,2025-04-22T15:43:53.759+03:00,2025-04-21T17:08:51.449+03:00,8272,1.043277,0,0,6880.045,7,22,2025-04-22T15:44:14.394+03:00,767018651.9156554,0,-13.21,100.3623,1,0.5,2025-04-22T15:44:06.954+03:00,101,1.683333333333333,2025-04-22T14:20:19.516+03:00,0.02197104130929222,0
2025-04-22T15:44:16.650+03:00,1745325854.854241,40.95221216915948,29.14026661759164,76.43822,-1,-1,-1,-1,30,21.17508972138302,-9999,36137.44335804167,-0.6629638671875,0.6516265869140625,-0.32330322265625,36137.43328304167,-2.629730062971879,-1.126722963562696,-0.7331725273809571,-0.2093804031610489,0.04289522767066956,-0.0525674968957901,0.00512242317199707,-0.005518972873687744,-0.008267372846603394,XArbitraryZVertical,-0.5590231609952478,0.1669641126189414,-0.7151245514043657,0.3849841285617907,-0.6709852814674377,0.6692303419113159,-0.3192321956157684,0,0,0,-1,-1,36114.55714354167,unknown,2,2025-04-22T15:43:53.759+03:00,2025-04-21T17:08:51.449+03:00,8272,1.043277,0,0,6880.045,7,22,2025-04-22T15:44:14.394+03:00,767018651.9156554,0,-13.21,100.3623,1,0.5,2025-04-22T15:44:06.954+03:00,101,1.683333333333333,2025-04-22T14:20:19.516+03:00,0.02197104130929222,0
2025-04-22T15:44:16.660+03:00,1745325854.854241,40.95221216915948,29.14026661759164,76.43822,-1,-1,-1,-1,30,21.17508972138302,-9999,36137.45343404167,-0.6647186279296875,0.6470947265625,-0.325653076171875,36137.44335804167,-2.633079067920268,-1.128531186174996,-0.7337474849346058,-0.2847060263156891,0.04367526993155479,-0.05784521624445915,0.008066713809967041,-0.01671880483627319,-0.006517857313156128,XArbitraryZVertical,-0.5593933885676301,0.167786257691392,-0.7151423120296806,0.3840547456911433,-0.6712135672569275,0.6696574687957764,-0.3178536295890808,0,0,0,-1,-1,36114.55714354167,unknown,2,2025-04-22T15:43:53.759+03:00,2025-04-21T17:08:51.449+03:00,8272,1.043277,0,0,6880.045,7,22,2025-04-22T15:44:14.394+03:00,767018651.9156554,0,-13.21,100.3623,1,0.5,2025-04-22T15:44:06.954+03:00,101,1.683333333333333,2025-04-22T14:20:19.516+03:00,0.02197104130929222,0
2025-04-22T15:44:16.670+03:00,1745325854.854241,40.95221216915948,29.14026661759164,76.43822,-1,-1,-1,-1,30,21.17508972138302,-9999,36137.46351004167,-0.6616363525390625,0.651641845703125,-0.3313140869140625,36137.45343404167,-2.637161273789755,-1.130834695614536,-0.7347020743438956,-0.3401336073875427,0.03740725293755531,-0.02604254335165024,0.00721132755279541,-0.02267646789550781,-0.008138865232467651,XArbitraryZVertical,-0.5598789438334936,0.1688740801225618,-0.7150807206499272,0.3829836095496742,-0.6713652610778809,0.670366108417511,-0.3160342276096344,0,0,0,-1,-1,36114.55714354167,unknown,2,2025-04-22T15:43:53.759+03:00,2025-04-21T17:08:51.449+03:00,8272,1.043277,0,0,6880.045,7,22,2025-04-22T15:44:14.394+03:00,767018651.9156554,0,-13.21,100.3623,1,0.5,2025-04-22T15:44:06.954+03:00,101,1.683333333333333,2025-04-22T14:20:19.516+03:00,0.02197104130929222,0
2025-04-22T15:44:16.682+03:00,1745325854.854241,40.95221216915948,29.14026661759164,76.43822,-1,-1,-1,-1,30,21.17508972138302,-9999,36137.47358604167,-0.6570587158203125,0.6652374267578125,-0.3382568359375,36137.46351004167,-2.641746716470637,-1.133611134619084,-0.7359735660556277,-0.3750991225242615,0.02051661908626556,-0.03375163301825523,0.00737464427947998,-0.02352774143218994,-0.01524803042411804,XArbitraryZVertical,-0.5604885247735282,0.1701429424179201,-0.7149141844773124,0.3818399790514591,-0.671467661857605,0.6713090538978577,-0.3138079941272736,0,0,0,-1,-1,36114.55714354167,unknown,2,2025-04-22T15:43:53.759+03:00,2025-04-21T17:08:51.449+03:00,8272,1.043277,0,0,6880.045,7,22,2025-04-22T15:44:14.394+03:00,767018651.9156554,0,-13.21,100.3623,1,0.5,2025-04-22T15:44:06.954+03:00,101,1.683333333333333,2025-04-22T14:20:19.516+03:00,0.02197104130929222,0
2025-04-22T15:44:16.690+03:00,1745325854.854241,40.95221216915948,29.14026661759164,76.43822,-1,-1,-1,-1,30,21.17508972138302,-9999,36137.48366204167,-0.6582183837890625,0.6800079345703125,-0.34112548828125,36137.47358604167,-2.646609862719326,-1.136720383940618,-0.7372824260758772,-0.375548928976059,0.009680483490228653,-0.0287368968129158,0.01388174295425415,-0.01293110847473145,-0.02478715777397156,XArbitraryZVertical,-0.5611884393133648,0.1714441490388038,-0.7146958810388679,0.380636607155361,-0.6716423034667969,0.6722785830497742,-0.3113488852977753,0,0,0,-1,-1,36114.55714354167,unknown,2,2025-04-22T15:43:53.759+03:00,2025-04-21T17:08:51.449+03:00,8272,1.043277,0,0,6880.045,7,22,2025-04-22T15:44:14.394+03:00,767018651.9156554,0,-13.21,100.3623,1,0.5,2025-04-22T15:44:06.954+03:00,101,1.683333333333333,2025-04-22T14:20:19.516+03:00,0.02197104130929222,0
2025-04-22T15:44:16.700+03:00,1745325854.854241,40.95221216915948,29.14026661759164,76.43822,-1,-1,-1,-1,30,21.17508972138302,-9999,36137.49373804167,-0.66180419921875,0.6849212646484375,-0.34149169921875,36137.48366204167,-2.651421981061426,-1.139908529143793,-0.7385843932907765,-0.3797436654567719,0.0009943176992237568,-0.03430436924099922,0.01354098320007324,0.001974642276763916,-0.03111061453819275,XArbitraryZVertical,-0.5619154889616702,0.1727163683537242,-0.7144434110383717,0.3794607205119808,-0.6718354821205139,0.6732418537139893,-0.3088400661945343,0,0,0,-1,-1,36114.55714354167,unknown,2,2025-04-22T15:43:53.759+03:00,2025-04-21T17:08:51.449+03:00,8272,1.043277,0,0,6880.045,7,22,2025-04-22T15:44:14.394+03:00,767018651.9156554,0,-13.21,100.3623,1,0.5,2025-04-22T15:44:06.954+03:00,101,1.683333333333333,2025-04-22T14:20:19.516+03:00,0.02197104130929222,0
2025-04-22T15:44:16.719+03:00,1745325854.854241,40.95221216915948,29.14026661759164,76.43822,-1,-1,-1,-1,30,21.17508972138302,-9999,36137.50381404167,-0.6702423095703125,0.67425537109375,-0.3340606689453125,36137.49373804167,-2.656647041948025,-1.143358964202212,-0.7399068355103803,-0.44073486328125,0.01840766333043575,-0.03819817677140236,0.01307463645935059,0.01123607158660889,-0.03637868165969849,XArbitraryZVertical,-0.5626948146910846,0.1740664784867525,-0.7141875748725435,0.3781684727405186,-0.6720863580703735,0.6742191314697266,-0.3061508238315582,0,0,0,-1,-1,36114.55714354167,unknown,2,2025-04-22T15:43:53.759+03:00,2025-04-21T17:08:51.449+03:00,8272,1.043277,0,0,6880.045,7,22,2025-04-22T15:44:14.394+03:00,767018651.9156554,0,-13.21,100.3623,1,0.5,2025-04-22T15:44:06.954+03:00,101,1.683333333333333,2025-04-22T14:20:19.516+03:00,0.02197104130929222,0
2025-04-22T15:44:16.721+03:00,1745325854.854241,40.95221216915948,29.14026661759164,76.43822,-1,-1,-1,-1,30,21.17508972138302,-9999,36137.51389004167,-0.673065185546875,0.651947021484375,-0.3341827392578125,36137.50381404167,-2.663005575853577,-1.147422664066624,-0.7416262887906984,-0.5442901253700256,0.02839365042746067,-0.0286979153752327,0.004038989543914795,0.004031598567962646,-0.03418746590614319,XArbitraryZVertical,-0.5635864052038557,0.175784375571638,-0.7138856385186391,0.3766131477285745,-0.6722670793533325,0.6754879951477051,-0.3029404282569885,0,0,0,-1,-1,36114.55714354167,unknown,2,2025-04-22T15:43:53.759+03:00,2025-04-21T17:08:51.449+03:00,8272,1.043277,0,0,6880.045,7,22,2025-04-22T15:44:14.394+03:00,767018651.9156554,0,-13.21,100.3623,1,0.5,2025-04-22T15:44:06.954+03:00,101,1.683333333333333,2025-04-22T14:20:19.516+03:00,0.02197104130929222,0
2025-04-22T15:44:16.737+03:00,1745325854.854241,40.95221216915948,29.14026661759164,76.43822,-1,-1,-1,-1,30,21.17508972138302,-9999,36137.52396604167,-0.66278076171875,0.6326141357421875,-0.359466552734375,36137.51389004167,-2.670897353494755,-1.15241922093156,-0.7441518112203561,-0.7323665022850037,0.03731684014201164,0.01578939147293568,-0.00129622220993042,-0.01589494943618774,-0.03214073181152344,XArbitraryZVertical,-0.5646610447068822,0.1780901335501619,-0.7134344841238663,0.374770663036313,-0.6722114086151123,0.6773480772972107,-0.2988836169242859,0,0,0,-1,-1,36114.55714354167,unknown,2,2025-04-22T15:43:53.759+03:00,2025-04-21T17:08:51.449+03:00,8272,1.043277,0,0,6880.045,7,22,2025-04-22T15:44:14.394+03:00,767018651.9156554,0,-13.21,100.3623,1,0.5,2025-04-22T15:44:06.954+03:00,101,1.683333333333333,2025-04-22T14:20:19.516+03:00,0.02197104130929222,0
2025-04-22T15:44:16.740+03:00,1745325854.854241,40.95221216915948,29.14026661759164,76.43822,-1,-1,-1,-1,30,21.17508972138302,-9999,36137.53404204167,-0.6368408203125,0.6179351806640625,-0.378204345703125,36137.52396604167,-2.681448955775169,-1.159413839546521,-0.7480802483418267,-0.9829367995262146,-0.003672539722174406,0.07888919860124588,0.003125011920928955,-0.0410880446434021,-0.05607414245605469,XArbitraryZVertical,-0.5661793175534292,0.1813474655546435,-0.712614227524701,0.3724714614785403,-0.6718413829803467,0.68023282289505,-0.2931081652641296,0,0,0,-1,-1,36114.55714354167,unknown,2,2025-04-22T15:43:53.759+03:00,2025-04-21T17:08:51.449+03:00,8272,1.043277,0,0,6880.045,7,22,2025-04-22T15:44:14.394+03:00,767018651.9156554,0,-13.21,100.3623,1,0.5,2025-04-22T15:44:06.954+03:00,101,1.683333333333333,2025-04-22T14:20:19.516+03:00,0.02197104130929222,0
2025-04-22T15:44:16.750+03:00,1745325854.854241,40.95221216915948,29.14026661759164,76.43822,-1,-1,-1,-1,30,21.17508972138302,-9999,36137.54411804167,-0.611083984375,0.6092681884765625,-0.4092864990234375,36137.53404204167,-2.694364598689424,-1.168713124340018,-0.7534288632443025,-1.152431845664978,-0.09756415337324142,0.1515069454908371,0.02385663986206055,-0.05976933240890503,-0.08532297611236572,XArbitraryZVertical,-0.5682475864800511,0.1854310443031072,-0.7112681359006324,0.3698750621150659,-0.6711801886558533,0.684143602848053,-0.2854200303554535,0,0,0,-1,-1,36114.55714354167,unknown,2,2025-04-22T15:43:53.759+03:00,2025-04-21T17:08:51.449+03:00,8272,1.043277,0,0,6880.045,7,22,2025-04-22T15:44:14.394+03:00,767018651.9156554,0,-13.21,100.3623,1,0.5,2025-04-22T15:44:06.954+03:00,101,1.683333333333333,2025-04-22T14:20:19.516+03:00,0.02197104130929222,0
2025-04-22T15:44:16.760+03:00,1745325854.854241,40.95221216915948,29.14026661759164,76.43822,-1,-1,-1,-1,30,21.17508972138302,-9999,36137.55419404167,-0.605010986328125,0.6327056884765625,-0.4168548583984375,36137.54411804167,-2.708731238742935,-1.180117938624239,-0.7597396121442538,-1.224086403846741,-0.2117957174777985,0.1999472826719284,0.05141341686248779,-0.07876265048980713,-0.1214858889579773,XArbitraryZVertical,-0.5708525812274864,0.1899439184371665,-0.7093663369986437,0.3672165579488317,-0.6703860759735107,0.6887326836585999,-0.2760972678661346,0,0,0,-1,-1,36114.55714354167,unknown,2,2025-04-22T15:43:53.759+03:00,2025-04-21T17:08:51.449+03:00,8272,1.043277,0,0,6880.045,7,22,2025-04-22T15:44:14.394+03:00,767018651.9156554,0,-13.21,100.3623,1,0.5,2025-04-22T15:44:06.954+03:00,101,1.683333333333333,2025-04-22T14:20:19.516+03:00,0.02197104130929222,0
2025-04-22T15:44:16.771+03:00,1745325854.854241,40.95221216915948,29.14026661759164,76.43822,-1,-1,-1,-1,30,21.17508972138302,-9999,36137.56427004167,-0.6289215087890625,0.66455078125,-0.408477783203125,36137.55419404167,-2.72304837819993,-1.192508528962486,-0.7661209426253358,-1.12692391872406,-0.2698694169521332,0.2026794254779816,0.06603521108627319,-0.07251089811325073,-0.1526669859886169,XArbitraryZVertical,-0.5737347735135244,0.194313735273306,-0.7071282868614513,0.3647466855626083,-0.6696575880050659,0.6933451890945435,-0.2661411762237549,0,0,0,-1,-1,36114.55714354167,unknown,2,2025-04-22T15:43:53.759+03:00,2025-04-21T17:08:51.449+03:00,8272,1.043277,0,0,6880.045,7,22,2025-04-22T15:44:14.394+03:00,767018651.9156554,0,-13.21,100.3623,1,0.5,2025-04-22T15:44:06.954+03:00,101,1.683333333333333,2025-04-22T14:20:19.516+03:00,0.02197104130929222,0
2025-04-22T15:44:16.781+03:00,1745325854.854241,40.95221216915948,29.14026661759164,76.43822,-1,-1,-1,-1,30,21.17508972138302,-9999,36137.57434604167,-0.665496826171875,0.6890106201171875,-0.4027862548828125,36137.56427004167,-2.735308096758346,-1.203698574627234,-0.7717855797268544,-0.9126960039138794,-0.2713599801063538,0.2039183229207993,0.05241632461547852,-0.04376012086868286,-0.1528017222881317,XArbitraryZVertical,-0.5763402799736052,0.1980484781853334,-0.7049788008926128,0.3627857293102416,-0.6689170598983765,0.6974160075187683,-0.2572173774242401,0,0,0,-1,-1,36114.55714354167,unknown,2,2025-04-22T15:43:53.759+03:00,2025-04-21T17:08:51.449+03:00,8272,1.043277,0,0,6880.045,7,22,2025-04-22T15:44:14.394+03:00,767018651.9156554,0,-13.21,100.3623,1,0.5,2025-04-22T15:44:06.954+03:00,101,1.683333333333333,2025-04-22T14:20:19.516+03:00,0.02197104130929222,0
2025-04-22T15:44:16.791+03:00,1745325854.854241,40.95221216915948,29.14026661759164,76.43822,-1,-1,-1,-1,30,21.17508972138302,-9999,36137.58442204167,-0.70037841796875,0.69232177734375,-0.3696136474609375,36137.57434604167,-2.745046067665615,-1.21359485591305,-0.7765325326143736,-0.7173590064048767,-0.3216548264026642,0.196412205696106,0.01638877391815186,-0.01929175853729248,-0.1574816554784775,XArbitraryZVertical,-0.5787138873955241,0.2009425460424943,-0.7029126303510408,0.3614221368207666,-0.6683204174041748,0.7008101344108582,-0.2494246661663055,0,0,0,-1,-1,36114.55714354167,unknown,2,2025-04-22T15:43:53.759+03:00,2025-04-21T17:08:51.449+03:00,8272,1.043277,0,0,6880.045,7,22,2025-04-22T15:44:14.394+03:00,767018651.9156554,0,-13.21,100.3623,1,0.5,2025-04-22T15:44:06.954+03:00,101,1.683333333333333,2025-04-22T14:20:19.516+03:00,0.02197104130929222,0
2025-04-22T15:44:16.801+03:00,1745325854.854241,40.95221216915948,29.14026661759164,76.43822,-1,-1,-1,-1,30,21.17508972138302,-9999,36137.59449804167,-0.7171783447265625,0.6729888916015625,-0.3396759033203125,36137.58442204167,-2.752177337330509,-1.221764365270661,-0.7805919238199142,-0.5232737064361572,-0.3186129927635193,0.21103136241436,-0.02059066295623779,-0.00928807258605957,-0.1407313048839569,XArbitraryZVertical,-0.5807294844997906,0.2031316312505038,-0.7010025140649779,0.3606744150444887,-0.6676568984985352,0.7037001252174377,-0.2429816126823425,0,0,0,-1,-1,36114.55714354167,unknown,2,2025-04-22T15:43:53.759+03:00,2025-04-21T17:08:51.449+03:00,8272,1.043277,0,0,6880.045,7,22,2025-04-22T15:44:14.394+03:00,767018651.9156554,0,-13.21,100.3623,1,0.5,2025-04-22T15:44:06.954+03:00,101,1.683333333333333,2025-04-22T14:20:19.516+03:00,0.02197104130929222,0
2025-04-22T15:44:16.811+03:00,1745325854.854241,40.95221216915948,29.14026661759164,76.43822,-1,-1,-1,-1,30,21.17508972138302,-9999,36137.60457404167,-0.720947265625,0.669921875,-0.3013153076171875,36137.59449804167,-2.757921396230252,-1.229012231709338,-0.7843680253408818,-0.5072915554046631,-0.3154659271240234,0.2177433222532272,-0.046303391456604,-0.02551567554473877,-0.1136321276426315,XArbitraryZVertical,-0.582548399043826,0.2049766002407278,-0.6991592555039369,0.3602751417509752,-0.6668922901153564,0.7063779830932617,-0.2372439056634903,0,0,0,-1,-1,36114.55714354167,unknown,2,2025-04-22T15:43:53.759+03:00,2025-04-21T17:08:51.449+03:00,8272,1.043277,0,0,6880.045,7,22,2025-04-22T15:44:14.394+03:00,767018651.9156554,0,-13.21,100.3623,1,0.5,2025-04-22T15:44:06.954+03:00,101,1.683333333333333,2025-04-22T14:20:19.516+03:00,0.02197104130929222,0
2025-04-22T15:44:16.821+03:00,1745325854.854241,40.95221216915948,29.14026661759164,76.43822,-1,-1,-1,-1,30,21.17508972138302,-9999,36137.61465004167,-0.7188262939453125,0.6763763427734375,-0.28253173828125,36137.60457404167,-2.763958180547335,-1.236541485209093,-0.7881056351918844,-0.5433236956596375,-0.3320420980453491,0.1993710398674011,-0.05425220727920532,-0.04118740558624268,-0.08498190343379974,XArbitraryZVertical,-0.5844155355378603,0.2068437896638691,-0.6972870015886877,0.3598122067844048,-0.6661608815193176,0.7090186476707458,-0.2313482612371445,0,0,0,-1,-1,36114.55714354167,unknown,2,2025-04-22T15:43:53.759+03:00,2025-04-21T17:08:51.449+03:00,8272,1.043277,0,0,6880.045,7,22,2025-04-22T15:44:14.394+03:00,767018651.9156554,0,-13.21,100.3623,1,0.5,2025-04-22T15:44:06.954+03:00,101,1.683333333333333,2025-04-22T14:20:19.516+03:00,0.02197104130929222,0
2025-04-22T15:44:16.831+03:00,1745325854.854241,40.95221216915948,29.14026661759164,76.43822,-1,-1,-1,-1,30,21.17508972138302,-9999,36137.62472604167,-0.70819091796875,0.6888275146484375,-0.2807464599609375,36137.61465004167,-2.770972217611274,-1.244891408425985,-0.7918674266554823,-0.6440141201019287,-0.3355239033699036,0.1973574161529541,-0.05421900749206543,-0.03811299800872803,-0.05998995900154114,XArbitraryZVertical,-0.5864429562716286,0.2088623115381469,-0.6953373164670629,0.3591200897035211,-0.6655380129814148,0.7116664052009583,-0.224922388792038,0,0,0,-1,-1,36114.55714354167,unknown,2,2025-04-22T15:43:53.759+03:00,2025-04-21T17:08:51.449+03:00,8272,1.043277,0,0,6880.045,7,22,2025-04-22T15:44:14.394+03:00,767018651.9156554,0,-13.21,100.3623,1,0.5,2025-04-22T15:44:06.954+03:00,101,1.683333333333333,2025-04-22T14:20:19.516+03:00,0.02197104130929222,0
2025-04-22T15:44:16.841+03:00,1745325854.854241,40.95221216915948,29.14026661759164,76.43822,-1,-1,-1,-1,30,21.17508972138302,-9999,36137.63480104167,-0.6892852783203125,0.7106170654296875,-0.2657470703125,36137.62472604167,-2.780213459681764,-1.254845646907597,-0.7961413571475642,-0.8509128093719482,-0.3349607884883881,0.1955388188362122,-0.04914247989654541,-0.03276258707046509,-0.06520788371562958,XArbitraryZVertical,-0.5887429026729623,0.2114524504232804,-0.6932006470716956,0.3579698897265812,-0.6648467183113098,0.7146624326705933,-0.2173393070697784,0,0,0,-1,-1,36114.55714354167,unknown,2,2025-04-22T15:43:53.759+03:00,2025-04-21T17:08:51.449+03:00,8272,1.043277,0,0,6880.045,7,22,2025-04-22T15:44:14.394+03:00,767018651.9156554,0,-13.21,100.3623,1,0.5,2025-04-22T15:44:06.954+03:00,101,1.683333333333333,2025-04-22T14:20:19.516+03:00,0.02197104130929222,0
2025-04-22T15:44:16.851+03:00,1745325854.854241,40.95221216915948,29.14026661759164,76.43822,-1,-1,-1,-1,30,21.17508972138302,-9999,36137.64487704167,-0.6817779541015625,0.71649169921875,-0.265472412109375,36137.63480104167,-2.792387994791774,-1.267038761960105,-0.8007484108904624,-1.023159980773926,-0.3655780851840973,0.1563424170017242,-0.03115123510360718,-0.01521015167236328,-0.06355994939804077,XArbitraryZVertical,-0.5914483809615111,0.2146483311899365,-0.6908437231281763,0.3561599133869777,-0.6642985343933105,0.7178773283958435,-0.2082298099994659,0,0,0,-1,-1,36114.55714354167,unknown,2,2025-04-22T15:43:53.759+03:00,2025-04-21T17:08:51.449+03:00,8272,1.043277,0,0,6880.045,7,22,2025-04-22T15:44:14.394+03:00,767018651.9156554,0,-13.21,100.3623,1,0.5,2025-04-22T15:44:06.954+03:00,101,1.683333333333333,2025-04-22T14:20:19.516+03:00,0.02197104130929222,0
2025-04-22T15:44:16.861+03:00,1745325854.854241,40.95221216915948,29.14026661759164,76.43822,-1,-1,-1,-1,30,21.17508972138302,-9999,36137.65495304167,-0.677886962890625,0.7193145751953125,-0.2686309814453125,36137.64487704167,-2.806668848609057,-1.281168098312801,-0.8052981414344496,-1.113343000411987,-0.3899759650230408,0.1401914805173874,-0.01984643936157227,-0.004240512847900391,-0.06499026715755463,XArbitraryZVertical,-0.594540220702134,0.2181232653722203,-0.6882729449665074,0.3538705684144818,-0.6640371084213257,0.7210372686386108,-0.1978883296251297,0,0,0,-1,-1,36114.55714354167,unknown,2,2025-04-22T15:43:53.759+03:00,2025-04-21T17:08:51.449+03:00,8272,1.043277,0,0,6880.045,7,22,2025-04-22T15:44:14.394+03:00,767018651.9156554,0,-13.21,100.3623,1,0.5,2025-04-22T15:44:06.954+03:00,101,1.683333333333333,2025-04-22T14:20:19.516+03:00,0.02197104130929222,0
2025-04-22T15:44:16.871+03:00,1745325854.854241,40.95221216915948,29.14026661759164,76.43822,-1,-1,-1,-1,30,21.17508972138302,-9999,36137.66502904167,-0.68011474609375,0.7393798828125,-0.2550506591796875,36137.65495304167,-2.821820288368298,-1.296186999942493,-0.8098871497484726,-1.132787704467773,-0.4124431908130646,0.1558524668216705,-0.0157313346862793,-0.007458329200744629,-0.08166760206222534,XArbitraryZVertical,-0.5977730111786075,0.2217439363827517,-0.6855502391358841,0.3514512487190216,-0.6637424826622009,0.7242093682289124,-0.1869941055774689,0,0,0,-1,-1,36114.55714354167,unknown,2,2025-04-22T15:43:53.759+03:00,2025-04-21T17:08:51.449+03:00,8272,1.043277,0,0,6880.045,7,22,2025-04-22T15:44:14.394+03:00,767018651.9156554,0,-13.21,100.3623,1,0.5,2025-04-22T15:44:06.954+03:00,101,1.683333333333333,2025-04-22T14:20:19.516+03:00,0.02197104130929222,0
2025-04-22T15:44:16.882+03:00,1745325854.854241,40.95221216915948,29.14026661759164,76.43822,-1,-1,-1,-1,30,21.17508972138302,-9999,36137.67510504167,-0.699920654296875,0.772003173828125,-0.25238037109375,36137.66502904167,-2.836876152959107,-1.311264078739299,-0.8142770779566054,-1.064577341079712,-0.4101731777191162,0.135436624288559,-0.01336610317230225,0.002430319786071777,-0.08485351502895355,XArbitraryZVertical,-0.6009778521291909,0.2252808973719371,-0.6827973081883408,0.3490870728359251,-0.6634068489074707,0.7272295951843262,-0.1761482805013657,0,0,0,-1,-1,36114.55714354167,unknown,2,2025-04-22T15:43:53.759+03:00,2025-04-21T17:08:51.449+03:00,8272,1.043277,0,0,6880.045,7,22,2025-04-22T15:44:14.394+03:00,767018651.9156554,0,-13.21,100.3623,1,0.5,2025-04-22T15:44:06.954+03:00,101,1.683333333333333,2025-04-22T14:20:19.516+03:00,0.02197104130929222,0
2025-04-22T15:44:16.892+03:00,1745325854.854241,40.95221216915948,29.14026661759164,76.43822,-1,-1,-1,-1,30,21.17508972138302,-9999,36137.68518104167,-0.7170257568359375,0.8116455078125,-0.259521484375,36137.67510504167,-2.850820051239839,-1.325593624208101,-0.8178631358185605,-0.9419683218002319,-0.4163794219493866,0.08250044286251068,-0.02818429470062256,0.0293925404548645,-0.08433055877685547,XArbitraryZVertical,-0.6040413657502164,0.2283396267019385,-0.6802008942177545,0.3468741833963441,-0.6633287072181702,0.7296863198280334,-0.1659900844097137,0,0,0,-1,-1,36114.55714354167,unknown,2,2025-04-22T15:43:53.759+03:00,2025-04-21T17:08:51.449+03:00,8272,1.043277,0,0,6880.045,7,22,2025-04-22T15:44:14.394+03:00,767018651.9156554,0,-13.21,100.3623,1,0.5,2025-04-22T15:44:06.954+03:00,101,1.683333333333333,2025-04-22T14:20:19.516+03:00,0.02197104130929222,0
2025-04-22T15:44:16.902+03:00,1745325854.854241,40.95221216915948,29.14026661759164,76.43822,-1,-1,-1,-1,30,21.17508972138302,-9999,36137.69525704167,-0.7223358154296875,0.84088134765625,-0.2569580078125,36137.68518104167,-2.863052971144922,-1.338707038534247,-0.8204476035450292,-0.7850044369697571,-0.4078622162342072,0.02403533831238747,-0.04769283533096313,0.06524062156677246,-0.1006337255239487,XArbitraryZVertical,-0.6069070085155481,0.2307428372711167,-0.6778420687118148,0.3448936253156923,-0.6636107563972473,0.7314510941505432,-0.1568432450294495,0,0,0,-1,-1,36114.55714354167,unknown,2,2025-04-22T15:43:53.759+03:00,2025-04-21T17:08:51.449+03:00,8272,1.043277,0,0,6880.045,7,22,2025-04-22T15:44:14.394+03:00,767018651.9156554,0,-13.21,100.3623,1,0.5,2025-04-22T15:44:06.954+03:00,101,1.683333333333333,2025-04-22T14:20:19.516+03:00,0.02197104130929222,0
