loggingTime(txt),locationTimestamp_since1970(s),locationLatitude(WGS84),locationLongitude(WGS84),locationAltitude(m),locationSpeed(m/s),locationSpeedAccuracy(m/s),locationCourse(°),locationCourseAccuracy(°),locationVerticalAccuracy(m),locationHorizontalAccuracy(m),locationFloor(Z),accelerometerTimestamp_sinceReboot(s),accelerometerAccelerationX(G),accelerometerAccelerationY(G),accelerometerAccelerationZ(G),motionTimestamp_sinceReboot(s),motionYaw(rad),motionRoll(rad),motionPitch(rad),motionRotationRateX(rad/s),motionRotationRateY(rad/s),motionRotationRateZ(rad/s),motionUserAccelerationX(G),motionUserAccelerationY(G),motionUserAccelerationZ(G),motionAttitudeReferenceFrame(txt),motionQuaternionX(R),motionQuaternionY(R),motionQuaternionZ(R),motionQuaternionW(R),motionGravityX(G),motionGravityY(G),motionGravityZ(G),motionMagneticFieldX(µT),motionMagneticFieldY(µT),motionMagneticFieldZ(µT),motionHeading(°),motionMagneticFieldCalibrationAccuracy(Z),activityTimestamp_sinceReboot(s),activity(txt),activityActivityConfidence(Z),activityActivityStartDate(txt),pedometerStartDate(txt),pedometerNumberofSteps(N),pedometerAverageActivePace(s/m),pedometerCurrentPace(s/m),pedometerCurrentCadence(steps/s),pedometerDistance(m),pedometerFloorAscended(N),pedometerFloorDescended(N),pedometerEndDate(txt),altimeterTimestamp_sinceReboot(s),altimeterReset(bool),altimeterRelativeAltitude(m),altimeterPressure(kPa),batteryState(N),batteryLevel(R),heartRateBPMTimestamp(txt),heartRateBPM(N),heartRateBPS(R),heartRateVariabilityTimestamp(txt),heartRateVariability(ms),label
2025-04-30T12:20:05.816+03:00,1746004804.93202,40.95222111515021,29.14027566195204,76.19596,-1,-1,-1,-1,30,20.79919806636867,-9999,12408.40448591667,-0.66754150390625,0.67364501953125,-0.3628082275390625,12408.39440991667,2.798274824163973,-1.057406575782754,-0.730164107147146,-0.006138593424111605,0.044382244348526,-0.00141445582266897,0.003323793411254883,-0.05915796756744385,0.02196225523948669,XArbitraryZVertical,-0.4115862709123406,0.3842314145473572,-0.825463220139132,0.03966861301584011,-0.6490148305892944,0.6669918894767761,-0.3659259378910065,0,0,0,-1,-1,12397.10866675,unknown,2,2025-04-30T12:19:54.497+03:00,2025-04-30T12:00:08.093+03:00,150,1.37288,0,0,123.4218,0,0,2025-04-30T12:20:04.815+03:00,767697604.9175572,0,2.11,100.9393,1,0.8,2025-04-30T12:20:01.402+03:00,86,1.433333333333333,2025-04-22T14:20:19.516+03:00,0.02197104130929222,0
2025-04-30T12:20:05.818+03:00,1746004804.93202,40.95222111515021,29.14027566195204,76.19596,-1,-1,-1,-1,30,20.79919806636867,-9999,12408.41456291667,-0.6044158935546875,0.6374359130859375,-0.3587493896484375,12408.40448591667,2.797962948226246,-1.057557018457389,-0.7301812473414441,-0.03492989391088486,-0.01378239225596189,0.003684765426442027,-0.07902848720550537,0.03674602508544922,0.01621332764625549,XArbitraryZVertical,-0.4115857149103017,0.3842991591451669,-0.8254366072312991,0.03957316249739881,-0.6490599513053894,0.6670047044754028,-0.3658227026462555,0,0,0,-1,-1,12397.10866675,unknown,2,2025-04-30T12:19:54.497+03:00,2025-04-30T12:00:08.093+03:00,150,1.37288,0,0,123.4218,0,0,2025-04-30T12:20:04.815+03:00,767697604.9175572,0,2.11,100.9393,1,0.8,2025-04-30T12:20:01.402+03:00,86,1.433333333333333,2025-04-22T14:20:19.516+03:00,0.02197104130929222,0
2025-04-30T12:20:05.818+03:00,1746004804.93202,40.95222111515021,29.14027566195204,76.19596,-1,-1,-1,-1,30,20.79919806636867,-9999,12408.42463891667,-0.645904541015625,0.6612701416015625,-0.35943603515625,12408.41456291667,2.79758228881134,-1.057840697537082,-0.7304385317445832,-0.03624975681304932,0.01053759548813105,0.001834401162341237,-0.01852750778198242,0.006448626518249512,0.002746075391769409,XArbitraryZVertical,-0.4115890901205301,0.3844701438182642,-0.8253568997962907,0.03953722577940525,-0.6490139961242676,0.6671963334083557,-0.3655542731285095,0,0,0,-1,-1,12397.10866675,unknown,2,2025-04-30T12:19:54.497+03:00,2025-04-30T12:00:08.093+03:00,150,1.37288,0,0,123.4218,0,0,2025-04-30T12:20:04.815+03:00,767697604.9175572,0,2.11,100.9393,1,0.8,2025-04-30T12:20:01.402+03:00,86,1.433333333333333,2025-04-22T14:20:19.516+03:00,0.02197104130929222,0
2025-04-30T12:20:05.827+03:00,1746004804.93202,40.95222111515021,29.14027566195204,76.19596,-1,-1,-1,-1,30,20.79919806636867,-9999,12408.43471591667,-0.6613006591796875,0.684722900390625,-0.3628997802734375,12408.42463891667,2.797283904960362,-1.057750799093256,-0.7306811059850638,-0.0178181529045105,0.03227498009800911,-0.003598247654736042,0.04442429542541504,-0.02994102239608765,0.006783783435821533,XArbitraryZVertical,-0.4114563082710662,0.3846259296402266,-0.8253543128396179,0.03945945493829454,-0.6488401889801025,0.6673769950866699,-0.3655332028865814,0,0,0,-1,-1,12397.10866675,unknown,2,2025-04-30T12:19:54.497+03:00,2025-04-30T12:00:08.093+03:00,150,1.37288,0,0,123.4218,0,0,2025-04-30T12:20:04.815+03:00,767697604.9175572,0,2.11,100.9393,1,0.8,2025-04-30T12:20:01.402+03:00,86,1.433333333333333,2025-04-22T14:20:19.516+03:00,0.02197104130929222,0
2025-04-30T12:20:05.837+03:00,1746004804.93202,40.95222111515021,29.14027566195204,76.19596,-1,-1,-1,-1,30,20.79919806636867,-9999,12408.44479291667,-0.634979248046875,0.68963623046875,-0.3614349365234375,12408.43471591667,2.79719389053821,-1.057520418293131,-0.7306851187677892,0.003295920789241791,0.01768485270440578,-0.008025486022233963,0.002848982810974121,-0.006109893321990967,0.006245285272598267,XArbitraryZVertical,-0.4113433287772222,0.3846505246395995,-0.8254028875839419,0.03937915320247552,-0.6487535238265991,0.6673800349235535,-0.3656812906265259,0,0,0,-1,-1,12397.10866675,unknown,2,2025-04-30T12:19:54.497+03:00,2025-04-30T12:00:08.093+03:00,150,1.37288,0,0,123.4218,0,0,2025-04-30T12:20:04.815+03:00,767697604.9175572,0,2.11,100.9393,1,0.8,2025-04-30T12:20:01.402+03:00,86,1.433333333333333,2025-04-22T14:20:19.516+03:00,0.02197104130929222,0
2025-04-30T12:20:05.849+03:00,1746004804.93202,40.95222111515021,29.14027566195204,76.19596,-1,-1,-1,-1,30,20.79919806636867,-9999,12408.45486891667,-0.63311767578125,0.685638427734375,-0.3656463623046875,12408.44479291667,2.797283490088167,-1.057305956917805,-0.7305555507134104,0.02410459704697132,0.01226458884775639,-0.00837938766926527,-0.01255029439926147,0.01743942499160767,0.002963125705718994,XArbitraryZVertical,-0.4112924957889356,0.3845868429352582,-0.8254597057697262,0.03934138131609788,-0.6487504243850708,0.6672835350036621,-0.3658628761768341,0,0,0,-1,-1,12397.10866675,unknown,2,2025-04-30T12:19:54.497+03:00,2025-04-30T12:00:08.093+03:00,150,1.37288,0,0,123.4218,0,0,2025-04-30T12:20:04.815+03:00,767697604.9175572,0,2.11,100.9393,1,0.8,2025-04-30T12:20:01.402+03:00,86,1.433333333333333,2025-04-22T14:20:19.516+03:00,0.02197104130929222,0
2025-04-30T12:20:05.857+03:00,1746004804.93202,40.95222111515021,29.14027566195204,76.19596,-1,-1,-1,-1,30,20.79919806636867,-9999,12408.46494591667,-0.6424560546875,0.672760009765625,-0.3653564453125,12408.45486891667,2.797524357980895,-1.056986840251554,-0.7303507706627781,0.02805512957274914,0.01606012508273125,-0.01315203867852688,0.01377338171005249,0.02250528335571289,0.004702150821685791,XArbitraryZVertical,-0.4112393878902202,0.3844653796177128,-0.8255434919272002,0.03932648016522519,-0.6487526893615723,0.6671310067176819,-0.3661370873451233,0,0,0,-1,-1,12397.10866675,unknown,2,2025-04-30T12:19:54.497+03:00,2025-04-30T12:00:08.093+03:00,150,1.37288,0,0,123.4218,0,0,2025-04-30T12:20:04.815+03:00,767697604.9175572,0,2.11,100.9393,1,0.8,2025-04-30T12:20:01.402+03:00,86,1.433333333333333,2025-04-22T14:20:19.516+03:00,0.02197104130929222,0
2025-04-30T12:20:05.867+03:00,1746004804.93202,40.95222111515021,29.14027566195204,76.19596,-1,-1,-1,-1,30,20.79919806636867,-9999,12408.47502191667,-0.6395416259765625,0.6634674072265625,-0.361297607421875,12408.46494591667,2.797795606853209,-1.056666039905557,-0.7301002808842799,0.02651182748377323,0.008168380707502365,-0.01146971993148327,0.01566290855407715,0.01869410276412964,0.0007809996604919434,XArbitraryZVertical,-0.4111986065791521,0.384320231749691,-0.8256320487544797,0.03931209547723244,-0.6487806439399719,0.6669443845748901,-0.3664273321628571,0,0,0,-1,-1,12397.10866675,unknown,2,2025-04-30T12:19:54.497+03:00,2025-04-30T12:00:08.093+03:00,150,1.37288,0,0,123.4218,0,0,2025-04-30T12:20:04.815+03:00,767697604.9175572,0,2.11,100.9393,1,0.8,2025-04-30T12:20:01.402+03:00,86,1.433333333333333,2025-04-22T14:20:19.516+03:00,0.02197104130929222,0
2025-04-30T12:20:05.877+03:00,1746004804.93202,40.95222111515021,29.14027566195204,76.19596,-1,-1,-1,-1,30,20.79919806636867,-9999,12408.48509891667,-0.639678955078125,0.6615142822265625,-0.360137939453125,12408.47502191667,2.797992444158914,-1.056494061397467,-0.7298881083602192,0.01933061517775059,0.001883053919300437,-0.008313873782753944,0.006384730339050293,0.005973756313323975,0.001252084970474243,XArbitraryZVertical,-0.4111988692457559,0.3842020791315918,-0.825687219563509,0.03930550583161778,-0.6488407850265503,0.666786253452301,-0.3666085004806519,0,0,0,-1,-1,12397.10866675,unknown,2,2025-04-30T12:19:54.497+03:00,2025-04-30T12:00:08.093+03:00,150,1.37288,0,0,123.4218,0,0,2025-04-30T12:20:04.815+03:00,767697604.9175572,0,2.11,100.9393,1,0.8,2025-04-30T12:20:01.402+03:00,86,1.433333333333333,2025-04-22T14:20:19.516+03:00,0.02197104130929222,0
2025-04-30T12:20:05.888+03:00,1746004804.93202,40.95222111515021,29.14027566195204,76.19596,-1,-1,-1,-1,30,20.79919806636867,-9999,12408.49517491667,-0.644775390625,0.6666259765625,-0.3642120361328125,12408.48509891667,2.798085724232494,-1.056456689359172,-0.7297274162383927,0.009640635922551155,0.00202120584435761,-0.008521366864442825,0.009378731250762939,-0.003199100494384766,0.005387872457504272,XArbitraryZVertical,-0.4112266849519136,0.384122234450612,-0.8257109762894128,0.03929535524686823,-0.6489203572273254,0.6666665077209473,-0.3666854500770569,0,0,0,-1,-1,12397.10866675,unknown,2,2025-04-30T12:19:54.497+03:00,2025-04-30T12:00:08.093+03:00,150,1.37288,0,0,123.4218,0,0,2025-04-30T12:20:04.815+03:00,767697604.9175572,0,2.11,100.9393,1,0.8,2025-04-30T12:20:01.402+03:00,86,1.433333333333333,2025-04-22T14:20:19.516+03:00,0.02197104130929222,0
2025-04-30T12:20:05.897+03:00,1746004804.93202,40.95222111515021,29.14027566195204,76.19596,-1,-1,-1,-1,30,20.79919806636867,-9999,12408.50525191667,-0.645843505859375,0.6652984619140625,-0.3671112060546875,12408.49517491667,2.798152286192269,-1.056430176912713,-0.7295933920374978,0.01220499351620674,-0.002846520394086838,-0.007370082661509514,0.00930941104888916,-0.005052328109741211,0.006608694791793823,XArbitraryZVertical,-0.4112496358069657,0.3840578543498012,-0.8257300723176233,0.03928313065078564,-0.6489883661270142,0.6665666103363037,-0.3667466044425964,0,0,0,-1,-1,12397.10866675,unknown,2,2025-04-30T12:19:54.497+03:00,2025-04-30T12:00:08.093+03:00,150,1.37288,0,0,123.4218,0,0,2025-04-30T12:20:04.815+03:00,767697604.9175572,0,2.11,100.9393,1,0.8,2025-04-30T12:20:01.402+03:00,86,1.433333333333333,2025-04-22T14:20:19.516+03:00,0.02197104130929222,0
2025-04-30T12:20:05.908+03:00,1746004804.93202,40.95222111515021,29.14027566195204,76.19596,-1,-1,-1,-1,30,20.79919806636867,-9999,12408.51532791667,-0.64422607421875,0.661773681640625,-0.3673248291015625,12408.50525191667,2.798244478626526,-1.056377476899409,-0.7295093291173645,0.006457825656980276,-0.002324873115867376,-0.005377405788749456,0.004242479801177979,0.0001220107078552246,0.002596348524093628,XArbitraryZVertical,-0.4112588179921842,0.3840078071557019,-0.8257484848417496,0.03928935756916796,-0.649017870426178,0.66650390625,-0.3668083846569061,0,0,0,-1,-1,12397.10866675,unknown,2,2025-04-30T12:19:54.497+03:00,2025-04-30T12:00:08.093+03:00,150,1.37288,0,0,123.4218,0,0,2025-04-30T12:20:04.815+03:00,767697604.9175572,0,2.11,100.9393,1,0.8,2025-04-30T12:20:01.402+03:00,86,1.433333333333333,2025-04-22T14:20:19.516+03:00,0.02197104130929222,0
2025-04-30T12:20:05.917+03:00,1746004804.93202,40.95222111515021,29.14027566195204,76.19596,-1,-1,-1,-1,30,20.79919806636867,-9999,12408.52540491667,-0.647369384765625,0.6673583984375,-0.3669891357421875,12408.51532791667,2.7982746444131,-1.056413970598757,-0.7294375506398392,0.006324933841824532,-0.006304434966295958,-0.002914514392614365,0.003229379653930664,-0.001151978969573975,-0.0003029406070709229,XArbitraryZVertical,-0.4112909851865668,0.3839734564576403,-0.8257483811687709,0.03929029285691472,-0.6490728855133057,0.6664503812789917,-0.3668082058429718,0,0,0,-1,-1,12397.10866675,unknown,2,2025-04-30T12:19:54.497+03:00,2025-04-30T12:00:08.093+03:00,150,1.37288,0,0,123.4218,0,0,2025-04-30T12:20:04.815+03:00,767697604.9175572,0,2.11,100.9393,1,0.8,2025-04-30T12:20:01.402+03:00,86,1.433333333333333,2025-04-22T14:20:19.516+03:00,0.02197104130929222,0
2025-04-30T12:20:05.928+03:00,1746004804.93202,40.95222111515021,29.14027566195204,76.19596,-1,-1,-1,-1,30,20.79919806636867,-9999,12408.53548191667,-0.64801025390625,0.6732635498046875,-0.3684844970703125,12408.52540491667,2.798308032632974,-1.056443037066671,-0.7293758921747797,0.007803787011653185,-0.0007136608473956585,-0.005575545132160187,0.004893243312835693,-0.004630804061889648,-0.0005152523517608643,XArbitraryZVertical,-0.4113191069352891,0.3839424552993208,-0.8257486203428973,0.03929373803436783,-0.6491193175315857,0.6664044260978699,-0.3668095767498016,0,0,0,-1,-1,12397.10866675,unknown,2,2025-04-30T12:19:54.497+03:00,2025-04-30T12:00:08.093+03:00,150,1.37288,0,0,123.4218,0,0,2025-04-30T12:20:04.815+03:00,767697604.9175572,0,2.11,100.9393,1,0.8,2025-04-30T12:20:01.402+03:00,86,1.433333333333333,2025-04-22T14:20:19.516+03:00,0.02197104130929222,0
2025-04-30T12:20:05.938+03:00,1746004804.93202,40.95222111515021,29.14027566195204,76.19596,-1,-1,-1,-1,30,20.79919806636867,-9999,12408.54555791667,-0.6461181640625,0.6712188720703125,-0.3710174560546875,12408.53548191667,2.798377004074394,-1.056414238248351,-0.7293520142373467,0.01252876687794924,-0.00300903944298625,-0.008037637919187546,0.00175321102142334,0.0009717941284179688,-0.0001530051231384277,XArbitraryZVertical,-0.4113242035236234,0.383919708910392,-0.8257558958640624,0.03931048308152942,-0.6491226553916931,0.666386604309082,-0.3668361008167267,0,0,0,-1,-1,12397.10866675,unknown,2,2025-04-30T12:19:54.497+03:00,2025-04-30T12:00:08.093+03:00,150,1.37288,0,0,123.4218,0,0,2025-04-30T12:20:04.815+03:00,767697604.9175572,0,2.11,100.9393,1,0.8,2025-04-30T12:20:01.402+03:00,86,1.433333333333333,2025-04-22T14:20:19.516+03:00,0.02197104130929222,0
2025-04-30T12:20:05.948+03:00,1746004804.93202,40.95222111515021,29.14027566195204,76.19596,-1,-1,-1,-1,30,20.79919806636867,-9999,12408.55563491667,-0.6486663818359375,0.66778564453125,-0.3703460693359375,12408.54555791667,2.798497174311436,-1.056314424956508,-0.7293502261912116,0.01381966844201088,0.002537592779844999,-0.007788731716573238,0.001076817512512207,0.006878256797790527,-0.001582950353622437,XArbitraryZVertical,-0.4113063328503951,0.3838962729572207,-0.8257742878235627,0.03934045511402687,-0.6490870714187622,0.666385293006897,-0.3669015169143677,0,0,0,-1,-1,12397.10866675,unknown,2,2025-04-30T12:19:54.497+03:00,2025-04-30T12:00:08.093+03:00,150,1.37288,0,0,123.4218,0,0,2025-04-30T12:20:04.815+03:00,767697604.9175572,0,2.11,100.9393,1,0.8,2025-04-30T12:20:01.402+03:00,86,1.433333333333333,2025-04-22T14:20:19.516+03:00,0.02197104130929222,0
2025-04-30T12:20:05.958+03:00,1746004804.93202,40.95222111515021,29.14027566195204,76.19596,-1,-1,-1,-1,30,20.79919806636867,-9999,12408.56571091667,-0.6508941650390625,0.67218017578125,-0.3698577880859375,12408.55563491667,2.798616741281004,-1.056187021159497,-0.7292573409569125,0.01807939447462559,0.004652408882975578,-0.01000501494854689,0.002976059913635254,0.004902899265289307,-0.004002809524536133,XArbitraryZVertical,-0.4112912908787509,0.3838386862453711,-0.8258085234668484,0.03934136691529437,-0.6490942239761353,0.666316032409668,-0.3670146763324738,0,0,0,-1,-1,12397.10866675,unknown,2,2025-04-30T12:19:54.497+03:00,2025-04-30T12:00:08.093+03:00,150,1.37288,0,0,123.4218,0,0,2025-04-30T12:20:04.815+03:00,767697604.9175572,0,2.11,100.9393,1,0.8,2025-04-30T12:20:01.402+03:00,86,1.433333333333333,2025-04-22T14:20:19.516+03:00,0.02197104130929222,0
2025-04-30T12:20:05.968+03:00,1746004804.93202,40.95222111515021,29.14027566195204,76.19596,-1,-1,-1,-1,30,20.79919806636867,-9999,12408.57578791667,-0.6470794677734375,0.676513671875,-0.36810302734375,12408.56571091667,2.798830770104402,-1.055972159972473,-0.7291100143201877,0.02793289162218571,0.009087437763810158,-0.009265554137527943,0.0004343390464782715,0.001579463481903076,-0.003143608570098877,XArbitraryZVertical,-0.4112668267480271,0.3837425823622723,-0.8258649255001488,0.03935048482663162,-0.6491007804870605,0.6662061810493469,-0.3672024607658386,0,0,0,-1,-1,12397.10866675,unknown,2,2025-04-30T12:19:54.497+03:00,2025-04-30T12:00:08.093+03:00,150,1.37288,0,0,123.4218,0,0,2025-04-30T12:20:04.815+03:00,767697604.9175572,0,2.11,100.9393,1,0.8,2025-04-30T12:20:01.402+03:00,86,1.433333333333333,2025-04-22T14:20:19.516+03:00,0.02197104130929222,0
2025-04-30T12:20:05.978+03:00,1746004804.93202,40.95222111515021,29.14027566195204,76.19596,-1,-1,-1,-1,30,20.79919806636867,-9999,12408.58586391667,-0.64422607421875,0.6725921630859375,-0.3654327392578125,12408.57578791667,2.799129551241971,-1.055672092734147,-0.7289072575952409,0.03376441448926926,0.01102462038397789,-0.008148624561727047,-0.001786112785339355,0.006125271320343018,-0.002394020557403564,XArbitraryZVertical,-0.4112321170419171,0.3836095283049702,-0.8259433786793889,0.03936396526714565,-0.6491081118583679,0.6660549640655518,-0.3674637377262115,0,0,0,-1,-1,12397.10866675,unknown,2,2025-04-30T12:19:54.497+03:00,2025-04-30T12:00:08.093+03:00,150,1.37288,0,0,123.4218,0,0,2025-04-30T12:20:04.815+03:00,767697604.9175572,0,2.11,100.9393,1,0.8,2025-04-30T12:20:01.402+03:00,86,1.433333333333333,2025-04-22T14:20:19.516+03:00,0.02197104130929222,0
2025-04-30T12:20:05.988+03:00,1746004804.93202,40.95222111515021,29.14027566195204,76.19596,-1,-1,-1,-1,30,20.79919806636867,-9999,12408.59594091667,-0.6485443115234375,0.669677734375,-0.3652496337890625,12408.58586391667,2.799481458728515,-1.055288578192449,-0.7286599072888643,0.03946610912680626,0.0202890932559967,-0.01089134812355042,0.00203096866607666,0.01064330339431763,-0.0003091096878051758,XArbitraryZVertical,-0.4111800667081725,0.3834501268538406,-0.8260429757851331,0.03937188185617332,-0.6491104960441589,0.6658704280853271,-0.3677939176559448,0,0,0,-1,-1,12397.10866675,unknown,2,2025-04-30T12:19:54.497+03:00,2025-04-30T12:00:08.093+03:00,150,1.37288,0,0,123.4218,0,0,2025-04-30T12:20:04.815+03:00,767697604.9175572,0,2.11,100.9393,1,0.8,2025-04-30T12:20:01.402+03:00,86,1.433333333333333,2025-04-22T14:20:19.516+03:00,0.02197104130929222,0
2025-04-30T12:20:05.998+03:00,1746004804.93202,40.95222111515021,29.14027566195204,76.19596,-1,-1,-1,-1,30,20.79919806636867,-9999,12408.60601691667,-0.6482696533203125,0.67144775390625,-0.3665313720703125,12408.59594091667,2.799917374982059,-1.054775416155187,-0.728339695995049,0.04843749850988388,0.02077645063400269,-0.01623178459703922,0.004880964756011963,0.006960749626159668,0.002799391746520996,XArbitraryZVertical,-0.4111019356768929,0.383248120524297,-0.8261756553276529,0.03937097264012619,-0.6491070985794067,0.6656314730644226,-0.3682321608066559,0,0,0,-1,-1,12397.10866675,unknown,2,2025-04-30T12:19:54.497+03:00,2025-04-30T12:00:08.093+03:00,150,1.37288,0,0,123.4218,0,0,2025-04-30T12:20:04.815+03:00,767697604.9175572,0,2.11,100.9393,1,0.8,2025-04-30T12:20:01.402+03:00,86,1.433333333333333,2025-04-22T14:20:19.516+03:00,0.02197104130929222,0
2025-04-30T12:20:06.008+03:00,1746004804.93202,40.95222111515021,29.14027566195204,76.19596,-1,-1,-1,-1,30,20.79919806636867,-9999,12408.61609391667,-0.6477813720703125,0.66876220703125,-0.3647613525390625,12408.60601691667,2.800350232942717,-1.054290659750439,-0.727970945863842,0.04507925361394882,0.01670101657509804,-0.01678052917122841,0.000597536563873291,0.004321575164794922,0.003418296575546265,XArbitraryZVertical,-0.41104244657602,0.3830275812340387,-0.8263079525912506,0.03936186088036053,-0.6491419076919556,0.6653562784194946,-0.3686679601669312,0,0,0,-1,-1,12397.10866675,unknown,2,2025-04-30T12:19:54.497+03:00,2025-04-30T12:00:08.093+03:00,150,1.37288,0,0,123.4218,0,0,2025-04-30T12:20:04.815+03:00,767697604.9175572,0,2.11,100.9393,1,0.8,2025-04-30T12:20:01.402+03:00,86,1.433333333333333,2025-04-22T14:20:19.516+03:00,0.02197104130929222,0
2025-04-30T12:20:06.018+03:00,1746004804.93202,40.95222111515021,29.14027566195204,76.19596,-1,-1,-1,-1,30,20.79919806636867,-9999,12408.62617091667,-0.6478424072265625,0.6633148193359375,-0.3669891357421875,12408.61609391667,2.800702567343752,-1.053899346355027,-0.7276430234866431,0.03526230901479721,0.01516596972942352,-0.0167339239269495,0.0009175539016723633,0.006336390972137451,0.002498388290405273,XArbitraryZVertical,-0.4109996244654813,0.3828373441950791,-0.8264180684241674,0.03934800274362082,-0.6491872668266296,0.6651114225387573,-0.3690297603607178,0,0,0,-1,-1,12397.10866675,unknown,2,2025-04-30T12:19:54.497+03:00,2025-04-30T12:00:08.093+03:00,150,1.37288,0,0,123.4218,0,0,2025-04-30T12:20:04.815+03:00,767697604.9175572,0,2.11,100.9393,1,0.8,2025-04-30T12:20:01.402+03:00,86,1.433333333333333,2025-04-22T14:20:19.516+03:00,0.02197104130929222,0
2025-04-30T12:20:06.029+03:00,1746004804.93202,40.95222111515021,29.14027566195204,76.19596,-1,-1,-1,-1,30,20.79919806636867,-9999,12408.63624691667,-0.647186279296875,0.657806396484375,-0.36944580078125,12408.62617091667,2.800976336604889,-1.053586369160429,-0.7273790242371545,0.03009064868092537,0.01028805784881115,-0.01671411655843258,0.001442849636077881,0.003847956657409668,0.004558295011520386,XArbitraryZVertical,-0.4109640832653886,0.3826861655572243,-0.8265063368767368,0.03933334108576288,-0.6492241621017456,0.6649142503738403,-0.3693196475505829,0,0,0,-1,-1,12397.10866675,unknown,2,2025-04-30T12:19:54.497+03:00,2025-04-30T12:00:08.093+03:00,150,1.37288,0,0,123.4218,0,0,2025-04-30T12:20:04.815+03:00,767697604.9175572,0,2.11,100.9393,1,0.8,2025-04-30T12:20:01.402+03:00,86,1.433333333333333,2025-04-22T14:20:19.516+03:00,0.02197104130929222,0
2025-04-30T12:20:06.039+03:00,1746004804.93202,40.95222111515021,29.14027566195204,76.19596,-1,-1,-1,-1,30,20.79919806636867,-9999,12408.64632391667,-0.64892578125,0.65673828125,-0.3659210205078125,12408.63624691667,2.801168463582088,-1.053369751663352,-0.7271488680578119,0.0230865366756916,0.0063170175999403,-0.01587601937353611,0.001434862613677979,-0.00142747163772583,0.002546906471252441,XArbitraryZVertical,-0.4109473048502095,0.3825627957920616,-0.8265729341461058,0.03931189140258753,-0.6492773294448853,0.6647423505783081,-0.3695360422134399,0,0,0,-1,-1,12397.10866675,unknown,2,2025-04-30T12:19:54.497+03:00,2025-04-30T12:00:08.093+03:00,150,1.37288,0,0,123.4218,0,0,2025-04-30T12:20:04.815+03:00,767697604.9175572,0,2.11,100.9393,1,0.8,2025-04-30T12:20:01.402+03:00,86,1.433333333333333,2025-04-22T14:20:19.516+03:00,0.02197104130929222,0
2025-04-30T12:20:06.049+03:00,1746004804.93202,40.95222111515021,29.14027566195204,76.19596,-1,-1,-1,-1,30,20.79919806636867,-9999,12408.65639991667,-0.6529541015625,0.661834716796875,-0.368255615234375,12408.64632391667,2.801332716348913,-1.053159547031857,-0.726925869343316,0.01930251717567444,0.01311640068888664,-0.01450712233781815,0.002141952514648438,-0.006769359111785889,0.0003000199794769287,XArbitraryZVertical,-0.4109267855979038,0.382447768192854,-0.8266376371257796,0.03928228381893979,-0.6493282318115234,0.6645756959915161,-0.3697457611560822,0,0,0,-1,-1,12397.10866675,unknown,2,2025-04-30T12:19:54.497+03:00,2025-04-30T12:00:08.093+03:00,150,1.37288,0,0,123.4218,0,0,2025-04-30T12:20:04.815+03:00,767697604.9175572,0,2.11,100.9393,1,0.8,2025-04-30T12:20:01.402+03:00,86,1.433333333333333,2025-04-22T14:20:19.516+03:00,0.02197104130929222,0
2025-04-30T12:20:06.059+03:00,1746004804.93202,40.95222111515021,29.14027566195204,76.19596,-1,-1,-1,-1,30,20.79919806636867,-9999,12408.66647691667,-0.6473388671875,0.666961669921875,-0.36834716796875,12408.65639991667,2.801424838557969,-1.052980142703857,-0.7267285237453255,0.01665240526199341,0.01094219647347927,-0.01612472534179688,0.0004500746726989746,-0.007689952850341797,0.00400620698928833,XArbitraryZVertical,-0.4109010969838214,0.3823567580568639,-0.8266947951627027,0.03923519195043731,-0.6493759155273438,0.6644282341003418,-0.3699271976947784,0,0,0,-1,-1,12397.10866675,unknown,2,2025-04-30T12:19:54.497+03:00,2025-04-30T12:00:08.093+03:00,150,1.37288,0,0,123.4218,0,0,2025-04-30T12:20:04.815+03:00,767697604.9175572,0,2.11,100.9393,1,0.8,2025-04-30T12:20:01.402+03:00,86,1.433333333333333,2025-04-22T14:20:19.516+03:00,0.02197104130929222,0
2025-04-30T12:20:06.072+03:00,1746004804.93202,40.95222111515021,29.14027566195204,76.19596,-1,-1,-1,-1,30,20.79919806636867,-9999,12408.67655291667,-0.6475982666015625,0.6651763916015625,-0.3675689697265625,12408.66647691667,2.801507527832196,-1.052831337619725,-0.7265541402061458,0.01688370294868946,0.009199822321534157,-0.01959995180368423,-0.003532648086547852,-0.002463221549987793,0.001825600862503052,XArbitraryZVertical,-0.4108826790378795,0.3822758769849063,-0.8267431685374368,0.03919607280119331,-0.6494214534759521,0.6642979383468628,-0.3700811564922333,0,0,0,-1,-1,12397.10866675,unknown,2,2025-04-30T12:19:54.497+03:00,2025-04-30T12:00:08.093+03:00,150,1.37288,0,0,123.4218,0,0,2025-04-30T12:20:04.815+03:00,767697604.9175572,0,2.11,100.9393,1,0.8,2025-04-30T12:20:01.402+03:00,86,1.433333333333333,2025-04-22T14:20:19.516+03:00,0.02197104130929222,0
2025-04-30T12:20:06.086+03:00,1746004804.93202,40.95222111515021,29.14027566195204,76.19596,-1,-1,-1,-1,30,20.79919806636867,-9999,12408.68662991667,-0.6497802734375,0.6675872802734375,-0.36944580078125,12408.67655291667,2.801587386432276,-1.05264753538979,-0.7263468844391728,0.02370592206716537,0.01535571925342083,-0.02151955664157867,0.002134144306182861,0.002818644046783447,0.001921564340591431,XArbitraryZVertical,-0.4108543661081213,0.3821836544794777,-0.8268024908699774,0.03914061861430652,-0.6494730114936829,0.6641429662704468,-0.370268702507019,0,0,0,-1,-1,12397.10866675,unknown,2,2025-04-30T12:19:54.497+03:00,2025-04-30T12:00:08.093+03:00,150,1.37288,0,0,123.4218,0,0,2025-04-30T12:20:04.815+03:00,767697604.9175572,0,2.11,100.9393,1,0.8,2025-04-30T12:20:01.402+03:00,86,1.433333333333333,2025-04-22T14:20:19.516+03:00,0.02197104130929222,0
2025-04-30T12:20:06.091+03:00,1746004804.93202,40.95222111515021,29.14027566195204,76.19596,-1,-1,-1,-1,30,20.79919806636867,-9999,12408.69670591667,-0.64520263671875,0.66943359375,-0.3670654296875,12408.68662991667,2.801747380600495,-1.05240996617191,-0.7260471033979361,0.03418739140033722,0.01457148417830467,-0.02405472099781036,0.001959741115570068,0.001257598400115967,0.002952694892883301,XArbitraryZVertical,-0.4108335368329241,0.3820405398578556,-0.8268817336589231,0.03908413571248048,-0.6495580673217773,0.6639188528060913,-0.3705216646194458,0,0,0,-1,-1,12397.10866675,unknown,2,2025-04-30T12:19:54.497+03:00,2025-04-30T12:00:08.093+03:00,150,1.37288,0,0,123.4218,0,0,2025-04-30T12:20:04.815+03:00,767697604.9175572,0,2.11,100.9393,1,0.8,2025-04-30T12:20:01.402+03:00,86,1.433333333333333,2025-04-22T14:20:19.516+03:00,0.02197104130929222,0
2025-04-30T12:20:06.099+03:00,1746004804.93202,40.95222111515021,29.14027566195204,76.19596,-1,-1,-1,-1,30,20.79919806636867,-9999,12408.70678291667,-0.64508056640625,0.66900634765625,-0.36065673828125,12408.69670591667,2.801950244967671,-1.052128997043485,-0.725723925866938,0.02926853112876415,0.01839019171893597,-0.02440226264297962,-0.0001401305198669434,0.003910183906555176,0.001364707946777344,XArbitraryZVertical,-0.4108065925108971,0.3818804760349319,-0.8269715442341974,0.0390312054021868,-0.6496402025222778,0.6636771559715271,-0.370810478925705,0,0,0,-1,-1,12397.10866675,unknown,2,2025-04-30T12:19:54.497+03:00,2025-04-30T12:00:08.093+03:00,150,1.37288,0,0,123.4218,0,0,2025-04-30T12:20:04.815+03:00,767697604.9175572,0,2.11,100.9393,1,0.8,2025-04-30T12:20:01.402+03:00,86,1.433333333333333,2025-04-22T14:20:19.516+03:00,0.02197104130929222,0
2025-04-30T12:20:06.110+03:00,1746004804.93202,40.95222111515021,29.14027566195204,76.19596,-1,-1,-1,-1,30,20.79919806636867,-9999,12408.71685991667,-0.6468658447265625,0.653076171875,-0.365264892578125,12408.70678291667,2.802071983488979,-1.051894271392108,-0.7254180392593872,0.02601128630340099,0.01950718834996223,-0.02608055248856544,0.004526734352111816,0.005985379219055176,0.00399819016456604,XArbitraryZVertical,-0.4107805168251006,0.3817427699245911,-0.8270515528049163,0.03895801318126711,-0.6497294306755066,0.6634482741355896,-0.3710636496543884,0,0,0,-1,-1,12397.10866675,unknown,2,2025-04-30T12:19:54.497+03:00,2025-04-30T12:00:08.093+03:00,150,1.37288,0,0,123.4218,0,0,2025-04-30T12:20:04.815+03:00,767697604.9175572,0,2.11,100.9393,1,0.8,2025-04-30T12:20:01.402+03:00,86,1.433333333333333,2025-04-22T14:20:19.516+03:00,0.02197104130929222,0
2025-04-30T12:20:06.119+03:00,1746004804.93202,40.95222111515021,29.14027566195204,76.19596,-1,-1,-1,-1,30,20.79919806636867,-9999,12408.72693591667,-0.6418304443359375,0.6512908935546875,-0.358489990234375,12408.71685991667,2.802228950398227,-1.051614249313005,-0.7251117466143464,0.02752262912690639,0.01887601986527443,-0.01741249673068523,0.004721283912658691,0.005787372589111328,0.01068964600563049,XArbitraryZVertical,-0.4107424509027225,0.381598525198666,-0.8271402289606514,0.03889066947070471,-0.6498019695281982,0.6632190942764282,-0.3713464140892029,0,0,0,-1,-1,12397.10866675,unknown,2,2025-04-30T12:19:54.497+03:00,2025-04-30T12:00:08.093+03:00,150,1.37288,0,0,123.4218,0,0,2025-04-30T12:20:04.815+03:00,767697604.9175572,0,2.11,100.9393,1,0.8,2025-04-30T12:20:01.402+03:00,86,1.433333333333333,2025-04-22T14:20:19.516+03:00,0.02197104130929222,0
2025-04-30T12:20:06.129+03:00,1746004804.93202,40.95222111515021,29.14027566195204,76.19596,-1,-1,-1,-1,30,20.79919806636867,-9999,12408.73701291667,-0.639617919921875,0.660400390625,-0.3531341552734375,12408.72693591667,2.802337734083789,-1.051332973111383,-0.7248909150930565,0.008370774798095226,0.02213306538760662,-0.01191306952387094,0.002958595752716064,-0.009977638721466064,0.006336897611618042,XArbitraryZVertical,-0.4106813628894586,0.3814969599324201,-0.82722034913995,0.03882534591002966,-0.6498244404792786,0.6630538105964661,-0.371601790189743,0,0,0,-1,-1,12397.10866675,unknown,2,2025-04-30T12:19:54.497+03:00,2025-04-30T12:00:08.093+03:00,150,1.37288,0,0,123.4218,0,0,2025-04-30T12:20:04.815+03:00,767697604.9175572,0,2.11,100.9393,1,0.8,2025-04-30T12:20:01.402+03:00,86,1.433333333333333,2025-04-22T14:20:19.516+03:00,0.02197104130929222,0
2025-04-30T12:20:06.139+03:00,1746004804.93202,40.95222111515021,29.14027566195204,76.19596,-1,-1,-1,-1,30,20.79919806636867,-9999,12408.74708891667,-0.6408233642578125,0.6515960693359375,-0.3619384765625,12408.73701291667,2.802310888317192,-1.051135704596197,-0.7247719957016272,-0.0008363065426237881,0.02476773038506508,-0.007158528082072735,0.007989108562469482,-0.01167386770248413,0.01327913999557495,XArbitraryZVertical,-0.4106131795656591,0.3814606790590963,-0.8272746791820563,0.03874600737087368,-0.6498196125030518,0.6629647612571716,-0.37176913022995,0,0,0,-1,-1,12397.10866675,unknown,2,2025-04-30T12:19:54.497+03:00,2025-04-30T12:00:08.093+03:00,150,1.37288,0,0,123.4218,0,0,2025-04-30T12:20:04.815+03:00,767697604.9175572,0,2.11,100.9393,1,0.8,2025-04-30T12:20:01.402+03:00,86,1.433333333333333,2025-04-22T14:20:19.516+03:00,0.02197104130929222,0
2025-04-30T12:20:06.149+03:00,1746004804.93202,40.95222111515021,29.14027566195204,76.19596,-1,-1,-1,-1,30,20.79919806636867,-9999,12408.75716591667,-0.645294189453125,0.650970458984375,-0.36700439453125,12408.74708891667,2.802199318760486,-1.050960950279773,-0.724726668710601,-0.006212562788277864,0.02862118929624557,-0.003013783833011985,0.01016277074813843,-0.002530395984649658,0.01876348257064819,XArbitraryZVertical,-0.4105266839937562,0.3814695763517779,-0.8273177568817306,0.03865488209151756,-0.6497806906700134,0.6629308462142944,-0.3718976080417633,0,0,0,-1,-1,12397.10866675,unknown,2,2025-04-30T12:19:54.497+03:00,2025-04-30T12:00:08.093+03:00,150,1.37288,0,0,123.4218,0,0,2025-04-30T12:20:04.815+03:00,767697604.9175572,0,2.11,100.9393,1,0.8,2025-04-30T12:20:01.402+03:00,86,1.433333333333333,2025-04-22T14:20:19.516+03:00,0.02197104130929222,0
2025-04-30T12:20:06.160+03:00,1746004804.93202,40.95222111515021,29.14027566195204,76.19596,-1,-1,-1,-1,30,20.79919806636867,-9999,12408.76724191667,-0.6446533203125,0.660919189453125,-0.3704376220703125,12408.75716591667,2.802005441246836,-1.050812811608582,-0.724766155566554,-0.01713338680565357,0.02590130642056465,-0.007329436484724283,0.008879542350769043,-0.01136428117752075,0.01004236936569214,XArbitraryZVertical,-0.4104222535560523,0.3815273733620795,-0.827347534783745,0.03855654539806781,-0.6497029066085815,0.662960410118103,-0.3719808757305145,0,0,0,-1,-1,12397.10866675,unknown,2,2025-04-30T12:19:54.497+03:00,2025-04-30T12:00:08.093+03:00,150,1.37288,0,0,123.4218,0,0,2025-04-30T12:20:04.815+03:00,767697604.9175572,0,2.11,100.9393,1,0.8,2025-04-30T12:20:01.402+03:00,86,1.433333333333333,2025-04-22T14:20:19.516+03:00,0.02197104130929222,0
2025-04-30T12:20:06.170+03:00,1746004804.93202,40.95222111515021,29.14027566195204,76.19596,-1,-1,-1,-1,30,20.79919806636867,-9999,12408.77731891667,-0.6409912109375,0.6569061279296875,-0.3750457763671875,12408.76724191667,2.801682555904952,-1.050840825389677,-0.7248497860512029,-0.02524897083640099,0.01382746547460556,-0.009879213757812977,0.004370987415313721,-0.01205247640609741,0.004930734634399414,XArbitraryZVertical,-0.4103591985807816,0.3816251710947322,-0.8273386564354568,0.03844983566416871,-0.6496651768684387,0.6630229949951172,-0.371935099363327,0,0,0,-1,-1,12397.10866675,unknown,2,2025-04-30T12:19:54.497+03:00,2025-04-30T12:00:08.093+03:00,150,1.37288,0,0,123.4218,0,0,2025-04-30T12:20:04.815+03:00,767697604.9175572,0,2.11,100.9393,1,0.8,2025-04-30T12:20:01.402+03:00,86,1.433333333333333,2025-04-22T14:20:19.516+03:00,0.02197104130929222,0
2025-04-30T12:20:06.180+03:00,1746004804.93202,40.95222111515021,29.14027566195204,76.19596,-1,-1,-1,-1,30,20.79919806636867,-9999,12408.78739491667,-0.6418914794921875,0.658966064453125,-0.3767242431640625,12408.77731891667,2.801339200927457,-1.050955449616849,-0.7249061491140835,-0.01695562154054642,0.01080530975013971,-0.009641925804316998,0.005022048950195312,-0.002145946025848389,0.001404464244842529,XArbitraryZVertical,-0.4103322836137749,0.38171503518989,-0.8273154800909183,0.03834414019282503,-0.6496754288673401,0.6630651950836182,-0.371842086315155,0,0,0,-1,-1,12397.10866675,unknown,2,2025-04-30T12:19:54.497+03:00,2025-04-30T12:00:08.093+03:00,150,1.37288,0,0,123.4218,0,0,2025-04-30T12:20:04.815+03:00,767697604.9175572,0,2.11,100.9393,1,0.8,2025-04-30T12:20:01.402+03:00,86,1.433333333333333,2025-04-22T14:20:19.516+03:00,0.02197104130929222,0
2025-04-30T12:20:06.190+03:00,1746004804.93202,40.95222111515021,29.14027566195204,76.19596,-1,-1,-1,-1,30,20.79919806636867,-9999,12408.79747191667,-0.643310546875,0.66754150390625,-0.3743743896484375,12408.78739491667,2.801097771289303,-1.051049393287151,-0.7249373178264839,-0.009208086878061295,0.004453803412616253,-0.01128569524735212,0.008701145648956299,-0.006182372570037842,-0.003274977207183838,XArbitraryZVertical,-0.410320201599832,0.3817747234860422,-0.8272973330264731,0.03827023694384564,-0.6496924161911011,0.6630885004997253,-0.3717707991600037,0,0,0,-1,-1,12397.10866675,unknown,2,2025-04-30T12:19:54.497+03:00,2025-04-30T12:00:08.093+03:00,150,1.37288,0,0,123.4218,0,0,2025-04-30T12:20:04.815+03:00,767697604.9175572,0,2.11,100.9393,1,0.8,2025-04-30T12:20:01.402+03:00,86,1.433333333333333,2025-04-22T14:20:19.516+03:00,0.02197104130929222,0
2025-04-30T12:20:06.200+03:00,1746004804.93202,40.95222111515021,29.14027566195204,76.19596,-1,-1,-1,-1,30,20.79919806636867,-9999,12408.80754891667,-0.6477203369140625,0.663970947265625,-0.371673583984375,12408.79747191667,2.800905362677001,-1.051206306777013,-0.7249676692831587,-0.006190725136548281,0.00350971263833344,-0.008274991996586323,0.007841765880584717,-0.004145145416259766,-0.005065381526947021,XArbitraryZVertical,-0.4103436260969802,0.3818228362617175,-0.827265471608128,0.0382283815039527,-0.649733304977417,0.6631112694740295,-0.3716588616371155,0,0,0,-1,-1,12397.10866675,unknown,2,2025-04-30T12:19:54.497+03:00,2025-04-30T12:00:08.093+03:00,150,1.37288,0,0,123.4218,0,0,2025-04-30T12:20:04.815+03:00,767697604.9175572,0,2.11,100.9393,1,0.8,2025-04-30T12:20:01.402+03:00,86,1.433333333333333,2025-04-22T14:20:19.516+03:00,0.02197104130929222,0
2025-04-30T12:20:06.210+03:00,1746004804.93202,40.95222111515021,29.14027566195204,76.19596,-1,-1,-1,-1,30,20.79919806636867,-9999,12408.81762491667,-0.6535491943359375,0.6633148193359375,-0.3751068115234375,12408.80754891667,2.800785648028535,-1.051258051864713,-0.7248480050884236,0.0001512602029833943,0.008604273200035095,-0.0134439542889595,0.006510794162750244,0.004519879817962646,-0.002709746360778809,XArbitraryZVertical,-0.4103608737843116,0.3818005235318067,-0.8272704563870985,0.03815797533219752,-0.649821400642395,0.6630216836929321,-0.3716646134853363,0,0,0,-1,-1,12397.10866675,unknown,2,2025-04-30T12:19:54.497+03:00,2025-04-30T12:00:08.093+03:00,150,1.37288,0,0,123.4218,0,0,2025-04-30T12:20:04.815+03:00,767697604.9175572,0,2.11,100.9393,1,0.8,2025-04-30T12:20:01.402+03:00,86,1.433333333333333,2025-04-22T14:20:19.516+03:00,0.02197104130929222,0
2025-04-30T12:20:06.220+03:00,1746004804.93202,40.95222111515021,29.14027566195204,76.19596,-1,-1,-1,-1,30,20.79919806636867,-9999,12408.82770191667,-0.6507110595703125,0.6660308837890625,-0.3768768310546875,12408.81762491667,2.80067275906733,-1.051271305200001,-0.7247161316632773,0.003203242784366012,0.01127808727324009,-0.01564772054553032,0.002181828022003174,0.001048028469085693,2.586841583251953e-05,XArbitraryZVertical,-0.4103654096459566,0.381772864188193,-0.8272845711175355,0.03807989111532988,-0.6499022245407104,0.6629229187965393,-0.3716994225978851,0,0,0,-1,-1,12397.10866675,unknown,2,2025-04-30T12:19:54.497+03:00,2025-04-30T12:00:08.093+03:00,150,1.37288,0,0,123.4218,0,0,2025-04-30T12:20:04.815+03:00,767697604.9175572,0,2.11,100.9393,1,0.8,2025-04-30T12:20:01.402+03:00,86,1.433333333333333,2025-04-22T14:20:19.516+03:00,0.02197104130929222,0
2025-04-30T12:20:06.230+03:00,1746004804.93202,40.95222111515021,29.14027566195204,76.19596,-1,-1,-1,-1,30,20.79919806636867,-9999,12408.83777791667,-0.6455230712890625,0.663116455078125,-0.37548828125,12408.82770191667,2.800555802177602,-1.051338926484854,-0.7246331773919888,0.008470975793898106,0.00332562206313014,-0.01495702937245369,-0.003574192523956299,0.0004540085792541504,-0.00342404842376709,XArbitraryZVertical,-0.4103840214816331,0.381763766287515,-0.8272821386549167,0.03802309524726274,-0.649975061416626,0.6628608107566833,-0.3716827630996704,0,0,0,-1,-1,12397.10866675,unknown,2,2025-04-30T12:19:54.497+03:00,2025-04-30T12:00:08.093+03:00,150,1.37288,0,0,123.4218,0,0,2025-04-30T12:20:04.815+03:00,767697604.9175572,0,2.11,100.9393,1,0.8,2025-04-30T12:20:01.402+03:00,86,1.433333333333333,2025-04-22T14:20:19.516+03:00,0.02197104130929222,0
2025-04-30T12:20:06.240+03:00,1746004804.93202,40.95222111515021,29.14027566195204,76.19596,-1,-1,-1,-1,30,20.79919806636867,-9999,12408.84785491667,-0.6473236083984375,0.6560821533203125,-0.3757476806640625,12408.83777791667,2.800519263456466,-1.05135562155791,-0.7244735496915717,0.004152925685048103,0.003086203942075372,-0.01477859728038311,-0.0006380081176757812,0.003289639949798584,-0.005152404308319092,XArbitraryZVertical,-0.4104089126917952,0.3817097376381203,-0.8272971093496949,0.03797015239547394,-0.6500730514526367,0.6627413034439087,-0.371724396944046,0,0,0,-1,-1,12397.10866675,unknown,2,2025-04-30T12:19:54.497+03:00,2025-04-30T12:00:08.093+03:00,150,1.37288,0,0,123.4218,0,0,2025-04-30T12:20:04.815+03:00,767697604.9175572,0,2.11,100.9393,1,0.8,2025-04-30T12:20:01.402+03:00,86,1.433333333333333,2025-04-22T14:20:19.516+03:00,0.02197104130929222,0
2025-04-30T12:20:06.250+03:00,1746004804.93202,40.95222111515021,29.14027566195204,76.19596,-1,-1,-1,-1,30,20.79919806636867,-9999,12408.85793091667,-0.6463165283203125,0.658843994140625,-0.372650146484375,12408.84785491667,2.800457494611413,-1.051342129798904,-0.7242882945984518,0.009006470441818237,0.007622033357620239,-0.01330350525677204,0.00465160608291626,0.000513911247253418,-0.003694117069244385,XArbitraryZVertical,-0.4104204539581796,0.3816516220445355,-0.8273217741067633,0.03789427317554058,-0.6501747369766235,0.6626025438308716,-0.371794193983078,0,0,0,-1,-1,12397.10866675,unknown,2,2025-04-30T12:19:54.497+03:00,2025-04-30T12:00:08.093+03:00,150,1.37288,0,0,123.4218,0,0,2025-04-30T12:20:04.815+03:00,767697604.9175572,0,2.11,100.9393,1,0.8,2025-04-30T12:20:01.402+03:00,86,1.433333333333333,2025-04-22T14:20:19.516+03:00,0.02197104130929222,0
2025-04-30T12:20:06.260+03:00,1746004804.93202,40.95222111515021,29.14027566195204,76.19596,-1,-1,-1,-1,30,20.79919806636867,-9999,12408.86800791667,-0.6440887451171875,0.65692138671875,-0.3753662109375,12408.85793091667,2.800482352505082,-1.051253136825219,-0.7241457202027303,0.007545993197709322,0.004228367004543543,-0.01142144948244095,0.00289994478225708,-0.006413519382476807,-0.003848761320114136,XArbitraryZVertical,-0.410410653775883,0.3815935283742107,-0.8273554319085751,0.0378508885936513,-0.6502236723899841,0.6624957919120789,-0.3718989491462708,0,0,0,-1,-1,12397.10866675,unknown,2,2025-04-30T12:19:54.497+03:00,2025-04-30T12:00:08.093+03:00,150,1.37288,0,0,123.4218,0,0,2025-04-30T12:20:04.815+03:00,767697604.9175572,0,2.11,100.9393,1,0.8,2025-04-30T12:20:01.402+03:00,86,1.433333333333333,2025-04-22T14:20:19.516+03:00,0.02197104130929222,0
2025-04-30T12:20:06.270+03:00,1746004804.93202,40.95222111515021,29.14027566195204,76.19596,-1,-1,-1,-1,30,20.79919806636867,-9999,12408.87808391667,-0.6452178955078125,0.65338134765625,-0.374725341796875,12408.86800791667,2.800476870344853,-1.051166240371548,-0.7240370088406227,-0.002646656706929207,0.004478503949940205,-0.01206243969500065,0.003937125205993652,-0.003570318222045898,-0.0006589889526367188,XArbitraryZVertical,-0.410390682323382,0.3815546098612374,-0.8273853136588135,0.03780419145601285,-0.6502537131309509,0.6624143123626709,-0.3719911277294159,0,0,0,-1,-1,12397.10866675,unknown,2,2025-04-30T12:19:54.497+03:00,2025-04-30T12:00:08.093+03:00,150,1.37288,0,0,123.4218,0,0,2025-04-30T12:20:04.815+03:00,767697604.9175572,0,2.11,100.9393,1,0.8,2025-04-30T12:20:01.402+03:00,86,1.433333333333333,2025-04-22T14:20:19.516+03:00,0.02197104130929222,0
2025-04-30T12:20:06.280+03:00,1746004804.93202,40.95222111515021,29.14027566195204,76.19596,-1,-1,-1,-1,30,20.79919806636867,-9999,12408.88816091667,-0.648162841796875,0.651214599609375,-0.3701019287109375,12408.87808391667,2.800410584999754,-1.051125060863558,-0.7239401131092235,-0.003238943871110678,0.004131227731704712,-0.01370001770555973,0.006205320358276367,-0.005420327186584473,-0.003316402435302734,XArbitraryZVertical,-0.410376135394262,0.3815318253889829,-0.8274057889062177,0.03774398775585249,-0.6502941250801086,0.6623417735099792,-0.3720497786998749,0,0,0,-1,-1,12397.10866675,unknown,2,2025-04-30T12:19:54.497+03:00,2025-04-30T12:00:08.093+03:00,150,1.37288,0,0,123.4218,0,0,2025-04-30T12:20:04.815+03:00,767697604.9175572,0,2.11,100.9393,1,0.8,2025-04-30T12:20:01.402+03:00,86,1.433333333333333,2025-04-22T14:20:19.516+03:00,0.02197104130929222,0
2025-04-30T12:20:06.290+03:00,1746004804.93202,40.95222111515021,29.14027566195204,76.19596,-1,-1,-1,-1,30,20.79919806636867,-9999,12408.89823791667,-0.6495361328125,0.6566619873046875,-0.3715362548828125,12408.88816091667,2.800260313781084,-1.051123868767533,-0.7239006036396779,-0.01154947094619274,0.0113147059455514,-0.01435056049376726,0.005098462104797363,-0.008930742740631104,-0.002661764621734619,XArbitraryZVertical,-0.4103531485133004,0.3815475276619316,-0.8274132518847404,0.03767143425307633,-0.6503163576126099,0.6623121500015259,-0.372063547372818,0,0,0,-1,-1,12397.10866675,unknown,2,2025-04-30T12:19:54.497+03:00,2025-04-30T12:00:08.093+03:00,150,1.37288,0,0,123.4218,0,0,2025-04-30T12:20:04.815+03:00,767697604.9175572,0,2.11,100.9393,1,0.8,2025-04-30T12:20:01.402+03:00,86,1.433333333333333,2025-04-22T14:20:19.516+03:00,0.02197104130929222,0
2025-04-30T12:20:06.301+03:00,1746004804.93202,40.95222111515021,29.14027566195204,76.19596,-1,-1,-1,-1,30,20.79919806636867,-9999,12408.90831391667,-0.6481170654296875,0.660888671875,-0.3741455078125,12408.89823791667,2.800029561878413,-1.051147616747667,-0.7238779045090534,-0.01250820886343718,0.01142948865890503,-0.01111615169793367,0.002175390720367432,-0.01108050346374512,0.001953661441802979,XArbitraryZVertical,-0.4103224874866573,0.3815857169478666,-0.8274152723064373,0.03757463785676443,-0.6503382921218872,0.6622951626777649,-0.3720555901527405,0,0,0,-1,-1,12397.10866675,unknown,2,2025-04-30T12:19:54.497+03:00,2025-04-30T12:00:08.093+03:00,150,1.37288,0,0,123.4218,0,0,2025-04-30T12:20:04.815+03:00,767697604.9175572,0,2.11,100.9393,1,0.8,2025-04-30T12:20:01.402+03:00,86,1.433333333333333,2025-04-22T14:20:19.516+03:00,0.02197104130929222,0
2025-04-30T12:20:06.311+03:00,1746004804.93202,40.95222111515021,29.14027566195204,76.19596,-1,-1,-1,-1,30,20.79919806636867,-9999,12408.91839091667,-0.6515655517578125,0.6561126708984375,-0.3751220703125,12408.90831391667,2.799815034814414,-1.051139649035295,-0.7238354353282711,-0.01234043017029762,0.01686446741223335,-0.009880178608000278,0.0008236169815063477,-0.005601286888122559,0.0005385279655456543,XArbitraryZVertical,-0.4102848707231021,0.3816135855719824,-0.8274257379420072,0.03747336801094975,-0.6503598093986511,0.6622633337974548,-0.3720747828483582,0,0,0,-1,-1,12397.10866675,unknown,2,2025-04-30T12:19:54.497+03:00,2025-04-30T12:00:08.093+03:00,150,1.37288,0,0,123.4218,0,0,2025-04-30T12:20:04.815+03:00,767697604.9175572,0,2.11,100.9393,1,0.8,2025-04-30T12:20:01.402+03:00,86,1.433333333333333,2025-04-22T14:20:19.516+03:00,0.02197104130929222,0
2025-04-30T12:20:06.321+03:00,1746004804.93202,40.95222111515021,29.14027566195204,76.19596,-1,-1,-1,-1,30,20.79919806636867,-9999,12408.92846691667,-0.6523895263671875,0.659210205078125,-0.375946044921875,12408.91839091667,2.799611938968818,-1.051053662450002,-0.7238035172278828,-0.01355776097625494,0.02164803817868233,-0.01138326618820429,0.002229034900665283,-0.001350641250610352,-0.002004295587539673,XArbitraryZVertical,-0.4102155274962707,0.3816446129313869,-0.8274507359343392,0.03736471174947675,-0.6503462195396423,0.6622393727302551,-0.3721412122249603,0,0,0,-1,-1,12397.10866675,unknown,2,2025-04-30T12:19:54.497+03:00,2025-04-30T12:00:08.093+03:00,150,1.37288,0,0,123.4218,0,0,2025-04-30T12:20:04.815+03:00,767697604.9175572,0,2.11,100.9393,1,0.8,2025-04-30T12:20:01.402+03:00,86,1.433333333333333,2025-04-22T14:20:19.516+03:00,0.02197104130929222,0
2025-04-30T12:20:06.331+03:00,1746004804.93202,40.95222111515021,29.14027566195204,76.19596,-1,-1,-1,-1,30,20.79919806636867,-9999,12408.93854391667,-0.649139404296875,0.6644744873046875,-0.37384033203125,12408.92846691667,2.799433993686774,-1.050938358491191,-0.7237719804560084,-0.01035577617585659,0.02239591814577579,-0.0123456995934248,-0.001244246959686279,-0.006103038787841797,-0.002895504236221313,XArbitraryZVertical,-0.4101387995509647,0.3816711646696193,-0.8274811921638748,0.03726098370056889,-0.6503214240074158,0.6622157692909241,-0.3722265660762787,0,0,0,-1,-1,12397.10866675,unknown,2,2025-04-30T12:19:54.497+03:00,2025-04-30T12:00:08.093+03:00,150,1.37288,0,0,123.4218,0,0,2025-04-30T12:20:04.815+03:00,767697604.9175572,0,2.11,100.9393,1,0.8,2025-04-30T12:20:01.402+03:00,86,1.433333333333333,2025-04-22T14:20:19.516+03:00,0.02197104130929222,0
2025-04-30T12:20:06.341+03:00,1746004804.93202,40.95222111515021,29.14027566195204,76.19596,-1,-1,-1,-1,30,20.79919806636867,-9999,12408.94861991667,-0.649169921875,0.66485595703125,-0.3747100830078125,12408.93854391667,2.799212622327807,-1.050831314179455,-0.7236890759138558,-0.01643204502761364,0.02132932282984257,-0.0152373593300581,-0.002060413360595703,-0.002943336963653564,-0.003622561693191528,XArbitraryZVertical,-0.4100652149493276,0.3816867511205987,-0.8275165032446673,0.03712760173626936,-0.6503292322158813,0.6621536612510681,-0.3723234832286835,0,0,0,-1,-1,12397.10866675,unknown,2,2025-04-30T12:19:54.497+03:00,2025-04-30T12:00:08.093+03:00,150,1.37288,0,0,123.4218,0,0,2025-04-30T12:20:04.815+03:00,767697604.9175572,0,2.11,100.9393,1,0.8,2025-04-30T12:20:01.402+03:00,86,1.433333333333333,2025-04-22T14:20:19.516+03:00,0.02197104130929222,0
2025-04-30T12:20:06.351+03:00,1746004804.93202,40.95222111515021,29.14027566195204,76.19596,-1,-1,-1,-1,30,20.79919806636867,-9999,12408.95869691667,-0.6481475830078125,0.6569976806640625,-0.375701904296875,12408.94861991667,2.798953175567454,-1.050818449618126,-0.7236168347119482,-0.0137915862724185,0.01541783846914768,-0.01453844644129276,0.001226365566253662,0.002375006675720215,-0.001484811305999756,XArbitraryZVertical,-0.4100217215927399,0.3817124839774338,-0.8275318067623278,0.03699934123053032,-0.6503658294677734,0.6620994806289673,-0.3723555207252502,0,0,0,-1,-1,12397.10866675,unknown,2,2025-04-30T12:19:54.497+03:00,2025-04-30T12:00:08.093+03:00,150,1.37288,0,0,123.4218,0,0,2025-04-30T12:20:04.815+03:00,767697604.9175572,0,2.11,100.9393,1,0.8,2025-04-30T12:20:01.402+03:00,86,1.433333333333333,2025-04-22T14:20:19.516+03:00,0.02197104130929222,0
2025-04-30T12:20:06.361+03:00,1746004804.93202,40.95222111515021,29.14027566195204,76.19596,-1,-1,-1,-1,30,20.79919806636867,-9999,12408.96877291667,-0.6504669189453125,0.6568450927734375,-0.3730926513671875,12408.95869691667,2.798740517677163,-1.050787243749888,-0.723533956152888,-0.01337133906781673,0.01683969981968403,-0.01630944944918156,0.001231849193572998,0.002818584442138672,-0.002306997776031494,XArbitraryZVertical,-0.409981193344358,0.3817248725379999,-0.8275513034500399,0.03688408917989739,-0.650401771068573,0.6620373725891113,-0.372403085231781,0,0,0,-1,-1,12397.10866675,unknown,2,2025-04-30T12:19:54.497+03:00,2025-04-30T12:00:08.093+03:00,150,1.37288,0,0,123.4218,0,0,2025-04-30T12:20:04.815+03:00,767697604.9175572,0,2.11,100.9393,1,0.8,2025-04-30T12:20:01.402+03:00,86,1.433333333333333,2025-04-22T14:20:19.516+03:00,0.02197104130929222,0
2025-04-30T12:20:06.371+03:00,1746004804.93202,40.95222111515021,29.14027566195204,76.19596,-1,-1,-1,-1,30,20.79919806636867,-9999,12408.97884991667,-0.650482177734375,0.6610870361328125,-0.3731842041015625,12408.96877291667,2.798514811635573,-1.050736807923585,-0.7234144238921144,-0.01327573135495186,0.0146883986890316,-0.01836274564266205,0.002304136753082275,-0.004950106143951416,-0.003226637840270996,XArbitraryZVertical,-0.4099359201759837,0.3817262215119252,-0.8275791442469471,0.03675024049899873,-0.6504517793655396,0.6619477868080139,-0.372475266456604,0,0,0,-1,-1,12397.10866675,unknown,2,2025-04-30T12:19:54.497+03:00,2025-04-30T12:00:08.093+03:00,150,1.37288,0,0,123.4218,0,0,2025-04-30T12:20:04.815+03:00,767697604.9175572,0,2.11,100.9393,1,0.8,2025-04-30T12:20:01.402+03:00,86,1.433333333333333,2025-04-22T14:20:19.516+03:00,0.02197104130929222,0
2025-04-30T12:20:06.381+03:00,1746004804.93202,40.95222111515021,29.14027566195204,76.19596,-1,-1,-1,-1,30,20.79919806636867,-9999,12408.98892591667,-0.646331787109375,0.655303955078125,-0.370819091796875,12408.97884991667,2.798271588873437,-1.050760440733183,-0.7232760692839586,-0.003728566225618124,0.01174986641854048,-0.01792785152792931,7.307529449462891e-05,-0.004998922348022461,-0.0005872249603271484,XArbitraryZVertical,-0.4099209304592689,0.3817225822279983,-0.827594090335073,0.03661851363328707,-0.6505400538444519,0.6618440747261047,-0.372505396604538,0,0,0,-1,-1,12397.10866675,unknown,2,2025-04-30T12:19:54.497+03:00,2025-04-30T12:00:08.093+03:00,150,1.37288,0,0,123.4218,0,0,2025-04-30T12:20:04.815+03:00,767697604.9175572,0,2.11,100.9393,1,0.8,2025-04-30T12:20:01.402+03:00,86,1.433333333333333,2025-04-22T14:20:19.516+03:00,0.02197104130929222,0
2025-04-30T12:20:06.391+03:00,1746004804.93202,40.95222111515021,29.14027566195204,76.19596,-1,-1,-1,-1,30,20.79919806636867,-9999,12408.99900291667,-0.6462249755859375,0.6586456298828125,-0.3685150146484375,12408.98892591667,2.798057014756033,-1.050745487440608,-0.7231324167353206,-0.01089493278414011,0.01919626444578171,-0.01721722260117531,0.0001347064971923828,-0.0006492733955383301,-0.0006218254566192627,XArbitraryZVertical,-0.4098962732515142,0.3817117442188788,-0.8276169937414666,0.03648990185765045,-0.6506170034408569,0.6617364287376404,-0.3725623786449432,0,0,0,-1,-1,12397.10866675,unknown,2,2025-04-30T12:19:54.497+03:00,2025-04-30T12:00:08.093+03:00,150,1.37288,0,0,123.4218,0,0,2025-04-30T12:20:04.815+03:00,767697604.9175572,0,2.11,100.9393,1,0.8,2025-04-30T12:20:01.402+03:00,86,1.433333333333333,2025-04-22T14:20:19.516+03:00,0.02197104130929222,0
2025-04-30T12:20:06.401+03:00,1746004804.93202,40.95222111515021,29.14027566195204,76.19596,-1,-1,-1,-1,30,20.79919806636867,-9999,12409.00907991667,-0.6433868408203125,0.6554718017578125,-0.3751983642578125,12408.99900291667,2.79781191582612,-1.05069996636871,-0.7229949806728837,-0.01230054907500744,0.01682791486382484,-0.02322051674127579,0.004347085952758789,-0.006329357624053955,0.001818060874938965,XArbitraryZVertical,-0.4098521915985069,0.3817101008335332,-0.8276459394762725,0.03634447431600393,-0.6506788730621338,0.6616333723068237,-0.372637152671814,0,0,0,-1,-1,12397.10866675,unknown,2,2025-04-30T12:19:54.497+03:00,2025-04-30T12:00:08.093+03:00,150,1.37288,0,0,123.4218,0,0,2025-04-30T12:20:04.815+03:00,767697604.9175572,0,2.11,100.9393,1,0.8,2025-04-30T12:20:01.402+03:00,86,1.433333333333333,2025-04-22T14:20:19.516+03:00,0.02197104130929222,0
2025-04-30T12:20:06.411+03:00,1746004804.93202,40.95222111515021,29.14027566195204,76.19596,-1,-1,-1,-1,30,20.79919806636867,-9999,12409.01915591667,-0.6456451416015625,0.6457672119140625,-0.37420654296875,12409.00907991667,2.797529812501022,-1.050748149600202,-0.722832842726582,-0.009668547660112381,0.01214261539280415,-0.02116202749311924,0.004564940929412842,-0.002866029739379883,0.004144102334976196,XArbitraryZVertical,-0.4098436629372637,0.3817048574651052,-0.8276591780864143,0.03619515954089304,-0.6507899761199951,0.6615117788314819,-0.3726591467857361,0,0,0,-1,-1,12397.10866675,unknown,2,2025-04-30T12:19:54.497+03:00,2025-04-30T12:00:08.093+03:00,150,1.37288,0,0,123.4218,0,0,2025-04-30T12:20:04.815+03:00,767697604.9175572,0,2.11,100.9393,1,0.8,2025-04-30T12:20:01.402+03:00,86,1.433333333333333,2025-04-22T14:20:19.516+03:00,0.02197104130929222,0
2025-04-30T12:20:06.421+03:00,1746004804.93202,40.95222111515021,29.14027566195204,76.19596,-1,-1,-1,-1,30,20.79919806636867,-9999,12409.02923291667,-0.6538848876953125,0.652801513671875,-0.37060546875,12409.01915591667,2.79721925280037,-1.050775162545855,-0.722710979023352,-0.0223569106310606,0.02166048809885979,-0.01978384144604206,0.007483124732971191,-0.005948543548583984,-0.002516746520996094,XArbitraryZVertical,-0.4098146570647625,0.3817212772499173,-0.8276727269801725,0.0360404325586175,-0.6508700251579285,0.6614204049110413,-0.3726816177368164,0,0,0,-1,-1,12397.10866675,unknown,2,2025-04-30T12:19:54.497+03:00,2025-04-30T12:00:08.093+03:00,150,1.37288,0,0,123.4218,0,0,2025-04-30T12:20:04.815+03:00,767697604.9175572,0,2.11,100.9393,1,0.8,2025-04-30T12:20:01.402+03:00,86,1.433333333333333,2025-04-22T14:20:19.516+03:00,0.02197104130929222,0
2025-04-30T12:20:06.432+03:00,1746004804.93202,40.95222111515021,29.14027566195204,76.19596,-1,-1,-1,-1,30,20.79919806636867,-9999,12409.03930891667,-0.6501922607421875,0.650970458984375,-0.3756256103515625,12409.02923291667,2.796853976889529,-1.050781284325233,-0.7226429322958603,-0.01576445624232292,0.01823412999510765,-0.02088449336588383,0.005266189575195312,-0.01560205221176147,-0.001506507396697998,XArbitraryZVertical,-0.4097581269912619,0.38176991680669,-0.8276855746961974,0.03587290946308218,-0.6509113907814026,0.6613693237304688,-0.3727000057697296,0,0,0,-1,-1,12397.10866675,unknown,2,2025-04-30T12:19:54.497+03:00,2025-04-30T12:00:08.093+03:00,150,1.37288,0,0,123.4218,0,0,2025-04-30T12:20:04.815+03:00,767697604.9175572,0,2.11,100.9393,1,0.8,2025-04-30T12:20:01.402+03:00,86,1.433333333333333,2025-04-22T14:20:19.516+03:00,0.02197104130929222,0
2025-04-30T12:20:06.442+03:00,1746004804.93202,40.95222111515021,29.14027566195204,76.19596,-1,-1,-1,-1,30,20.79919806636867,-9999,12409.04938591667,-0.644927978515625,0.6466064453125,-0.375091552734375,12409.03930891667,2.796509662997673,-1.050859711208217,-0.7225606523931992,-0.02093924582004547,0.01085557695478201,-0.02327707782387733,-0.002897262573242188,-0.008506119251251221,0.002070426940917969,XArbitraryZVertical,-0.409737799654298,0.3818075133318872,-0.8276845994056345,0.03572433860834103,-0.6509876847267151,0.6613076329231262,-0.3726759254932404,0,0,0,-1,-1,12397.10866675,unknown,2,2025-04-30T12:19:54.497+03:00,2025-04-30T12:00:08.093+03:00,150,1.37288,0,0,123.4218,0,0,2025-04-30T12:20:04.815+03:00,767697604.9175572,0,2.11,100.9393,1,0.8,2025-04-30T12:20:01.402+03:00,86,1.433333333333333,2025-04-22T14:20:19.516+03:00,0.02197104130929222,0
2025-04-30T12:20:06.452+03:00,1746004804.93202,40.95222111515021,29.14027566195204,76.19596,-1,-1,-1,-1,30,20.79919806636867,-9999,12409.05946191667,-0.6475830078125,0.652099609375,-0.3705291748046875,12409.04938591667,2.796106966963791,-1.051010695377208,-0.7224437066978497,-0.0236329659819603,0.009934988804161549,-0.02434497140347958,0.0009188055992126465,-0.01024943590164185,-0.003009587526321411,XArbitraryZVertical,-0.4097417506261172,0.3818424889811762,-0.8276737228636347,0.03555642690246785,-0.6511110663414001,0.6612198948860168,-0.3726160228252411,0,0,0,-1,-1,12397.10866675,unknown,2,2025-04-30T12:19:54.497+03:00,2025-04-30T12:00:08.093+03:00,150,1.37288,0,0,123.4218,0,0,2025-04-30T12:20:04.815+03:00,767697604.9175572,0,2.11,100.9393,1,0.8,2025-04-30T12:20:01.402+03:00,86,1.433333333333333,2025-04-22T14:20:19.516+03:00,0.02197104130929222,0
2025-04-30T12:20:06.463+03:00,1746004804.93202,40.95222111515021,29.14027566195204,76.19596,-1,-1,-1,-1,30,20.79919806636867,-9999,12409.06953891667,-0.65155029296875,0.6546630859375,-0.3746185302734375,12409.05946191667,2.795625582956274,-1.051223444460891,-0.7223331802565405,-0.02863278426229954,0.009315004572272301,-0.02639933302998543,0.006325721740722656,-0.01453053951263428,-0.002577751874923706,XArbitraryZVertical,-0.4097552365155151,0.3818949729879537,-0.8276508101761471,0.03536941536591112,-0.6512537002563477,0.6611369848251343,-0.3725137412548065,0,0,0,-1,-1,12397.10866675,unknown,2,2025-04-30T12:19:54.497+03:00,2025-04-30T12:00:08.093+03:00,150,1.37288,0,0,123.4218,0,0,2025-04-30T12:20:04.815+03:00,767697604.9175572,0,2.11,100.9393,1,0.8,2025-04-30T12:20:01.402+03:00,86,1.433333333333333,2025-04-22T14:20:19.516+03:00,0.02197104130929222,0
