loggingTime(txt),locationTimestamp_since1970(s),locationLatitude(WGS84),locationLongitude(WGS84),locationAltitude(m),locationSpeed(m/s),locationSpeedAccuracy(m/s),locationCourse(°),locationCourseAccuracy(°),locationVerticalAccuracy(m),locationHorizontalAccuracy(m),locationFloor(Z),accelerometerTimestamp_sinceReboot(s),accelerometerAccelerationX(G),accelerometerAccelerationY(G),accelerometerAccelerationZ(G),motionTimestamp_sinceReboot(s),motionYaw(rad),motionRoll(rad),motionPitch(rad),motionRotationRateX(rad/s),motionRotationRateY(rad/s),motionRotationRateZ(rad/s),motionUserAccelerationX(G),motionUserAccelerationY(G),motionUserAccelerationZ(G),motionAttitudeReferenceFrame(txt),motionQuaternionX(R),motionQuaternionY(R),motionQuaternionZ(R),motionQuaternionW(R),motionGravityX(G),motionGravityY(G),motionGravityZ(G),motionMagneticFieldX(µT),motionMagneticFieldY(µT),motionMagneticFieldZ(µT),motionHeading(°),motionMagneticFieldCalibrationAccuracy(Z),activityTimestamp_sinceReboot(s),activity(txt),activityActivityConfidence(Z),activityActivityStartDate(txt),pedometerStartDate(txt),pedometerNumberofSteps(N),pedometerAverageActivePace(s/m),pedometerCurrentPace(s/m),pedometerCurrentCadence(steps/s),pedometerDistance(m),pedometerFloorAscended(N),pedometerFloorDescended(N),pedometerEndDate(txt),altimeterTimestamp_sinceReboot(s),altimeterReset(bool),altimeterRelativeAltitude(m),altimeterPressure(kPa),batteryState(N),batteryLevel(R),heartRateBPMTimestamp(txt),heartRateBPM(N),heartRateBPS(R),heartRateVariabilityTimestamp(txt),heartRateVariability(ms),label
2025-04-30T11:59:08.824+03:00,1746003548.420814,40.95221689146929,29.14029829636424,76.58913,-1,-1,-1,-1,30,26.98434767089239,-9999,11309.07329225,-0.650482177734375,0.5816192626953125,-0.5015869140625,11309.06825425,-0.993699510710622,-0.9125050307327655,-0.6366800726314443,0.01152661722153425,-0.003209300339221954,0.007532450370490551,0.007910370826721191,-0.03964340686798096,0.004356354475021362,XArbitraryZVertical,-0.4464595231650207,-0.2339258961561459,-0.2851758501106729,0.8152466800536832,-0.6360535621643066,0.5945292711257935,-0.491905152797699,0,0,0,-1,-1,11301.05267954167,unknown,2,2025-04-30T11:58:37.789+03:00,2025-04-28T22:17:59.397+03:00,6826,0.8224723,0,0,5720.054,11,14,2025-04-30T11:57:17.800+03:00,767696299.8231213,0,-13.87,100.9634,1,0.85,2025-04-30T11:45:49.339+03:00,87,1.45,2025-04-22T14:20:19.516+03:00,0.02197104130929222,0
2025-04-30T11:59:08.828+03:00,1746003548.420814,40.95221689146929,29.14029829636424,76.58913,-1,-1,-1,-1,30,26.98434767089239,-9999,11309.08336725,-0.6054534912109375,0.5791015625,-0.4997711181640625,11309.07832925,-0.9935329119195957,-0.9124097690700932,-0.6366466849293274,0.006226927042007446,0.004719195887446404,0.003056209301576018,-0.04390907287597656,-0.02222150564193726,-0.008601844310760498,XArbitraryZVertical,-0.4464149676890384,-0.2339330951464334,-0.2851376096629074,0.8152825384364994,-0.6360225081443787,0.5945023894309998,-0.4919779598712921,0,0,0,-1,-1,11301.05267954167,unknown,2,2025-04-30T11:58:37.789+03:00,2025-04-28T22:17:59.397+03:00,6826,0.8224723,0,0,5720.054,11,14,2025-04-30T11:57:17.800+03:00,767696299.8231213,0,-13.87,100.9634,1,0.85,2025-04-30T11:45:49.339+03:00,87,1.45,2025-04-22T14:20:19.516+03:00,0.02197104130929222,0
2025-04-30T11:59:08.829+03:00,1746003548.420814,40.95221689146929,29.14029829636424,76.58913,-1,-1,-1,-1,30,26.98434767089239,-9999,11309.09344225,-0.6442108154296875,0.5722198486328125,-0.5050048828125,11309.08840525,-0.9934821642473971,-0.9122240409402267,-0.6365616612697735,0.004607724957168102,0.01900039613246918,-0.004100237041711807,0.02224737405776978,-0.01060223579406738,-0.007277846336364746,XArbitraryZVertical,-0.4463534938125447,-0.2338911288346823,-0.2851796970258533,0.8153134818276002,-0.6359710693359375,0.5944340229034424,-0.492127001285553,0,0,0,-1,-1,11301.05267954167,unknown,2,2025-04-30T11:58:37.789+03:00,2025-04-28T22:17:59.397+03:00,6826,0.8224723,0,0,5720.054,11,14,2025-04-30T11:57:17.800+03:00,767696299.8231213,0,-13.87,100.9634,1,0.85,2025-04-30T11:45:49.339+03:00,87,1.45,2025-04-22T14:20:19.516+03:00,0.02197104130929222,0
2025-04-30T11:59:08.837+03:00,1746003548.420814,40.95221689146929,29.14029829636424,76.58913,-1,-1,-1,-1,30,26.98434767089239,-9999,11309.10351825,-0.6332855224609375,0.58123779296875,-0.50299072265625,11309.09848025,-0.9935015757895765,-0.9121752407460171,-0.6363964889502173,0.006548902951180935,0.005147965159267187,0.00113367335870862,0.01216912269592285,-0.02028077840805054,-0.01072680950164795,XArbitraryZVertical,-0.4462923278687277,-0.233910465155234,-0.2852399259540291,0.8153203308621838,-0.6360247135162354,0.5943012237548828,-0.4922181069850922,0,0,0,-1,-1,11301.05267954167,unknown,2,2025-04-30T11:58:37.789+03:00,2025-04-28T22:17:59.397+03:00,6826,0.8224723,0,0,5720.054,11,14,2025-04-30T11:57:17.800+03:00,767696299.8231213,0,-13.87,100.9634,1,0.85,2025-04-30T11:45:49.339+03:00,87,1.45,2025-04-22T14:20:19.516+03:00,0.02197104130929222,0
2025-04-30T11:59:08.845+03:00,1746003548.420814,40.95221689146929,29.14029829636424,76.58913,-1,-1,-1,-1,30,26.98434767089239,-9999,11309.11359325,-0.6223602294921875,0.586639404296875,-0.5054779052734375,11309.10855525,-0.9933111789235008,-0.9118989074107089,-0.6362806472944165,0.01677910424768925,0.0154026672244072,0.001256678136996925,-0.01006829738616943,-0.01904326677322388,-0.0117143988609314,XArbitraryZVertical,-0.4461910769725925,-0.2338708206590575,-0.2852529926803213,0.815382446087373,-0.6359429955482483,0.5942080616950989,-0.4924359321594238,0,0,0,-1,-1,11301.05267954167,unknown,2,2025-04-30T11:58:37.789+03:00,2025-04-28T22:17:59.397+03:00,6826,0.8224723,0,0,5720.054,11,14,2025-04-30T11:57:17.800+03:00,767696299.8231213,0,-13.87,100.9634,1,0.85,2025-04-30T11:45:49.339+03:00,87,1.45,2025-04-22T14:20:19.516+03:00,0.02197104130929222,0
2025-04-30T11:59:08.852+03:00,1746003548.420814,40.95221689146929,29.14029829636424,76.58913,-1,-1,-1,-1,30,26.98434767089239,-9999,11309.12366825,-0.6317901611328125,0.5838165283203125,-0.505767822265625,11309.11863125,-0.9930566424490263,-0.9114937878373852,-0.6362738616477738,0.01578394696116447,0.01250388287007809,-0.001238271011970937,0.01257783174514771,-0.008661866188049316,-0.01102706789970398,XArbitraryZVertical,-0.4461012076638165,-0.2337642232953067,-0.2852412921224126,0.8154662983030948,-0.6357466578483582,0.5942025780677795,-0.4926959872245789,0,0,0,-1,-1,11301.05267954167,unknown,2,2025-04-30T11:58:37.789+03:00,2025-04-28T22:17:59.397+03:00,6826,0.8224723,0,0,5720.054,11,14,2025-04-30T11:57:17.800+03:00,767696299.8231213,0,-13.87,100.9634,1,0.85,2025-04-30T11:45:49.339+03:00,87,1.45,2025-04-22T14:20:19.516+03:00,0.02197104130929222,0
2025-04-30T11:59:08.862+03:00,1746003548.420814,40.95221689146929,29.14029829636424,76.58913,-1,-1,-1,-1,30,26.98434767089239,-9999,11309.13374425,-0.6289215087890625,0.577178955078125,-0.5019073486328125,11309.12870625,-0.9928977315329889,-0.9112278385785623,-0.6362093994820945,0.005352344829589128,0.01283571217209101,-0.0005658228183165193,0.007273733615875244,-0.008060634136199951,-0.01399314403533936,XArbitraryZVertical,-0.4460226298973157,-0.2337082296536207,-0.285251976959906,0.8155216281907746,-0.6356459259986877,0.594150722026825,-0.4928885400295258,0,0,0,-1,-1,11301.05267954167,unknown,2,2025-04-30T11:58:37.789+03:00,2025-04-28T22:17:59.397+03:00,6826,0.8224723,0,0,5720.054,11,14,2025-04-30T11:57:17.800+03:00,767696299.8231213,0,-13.87,100.9634,1,0.85,2025-04-30T11:45:49.339+03:00,87,1.45,2025-04-22T14:20:19.516+03:00,0.02197104130929222,0
2025-04-30T11:59:08.872+03:00,1746003548.420814,40.95221689146929,29.14029829636424,76.58913,-1,-1,-1,-1,30,26.98434767089239,-9999,11309.14381925,-0.629058837890625,0.5741424560546875,-0.501556396484375,11309.13878125,-0.9928163801620253,-0.9110165632716832,-0.6361730991128119,0.001815866795368493,0.01127343531697989,-0.0002187130739912391,0.004287481307983398,-0.01370769739151001,-0.01022928953170776,XArbitraryZVertical,-0.4459705665020849,-0.2336497891052449,-0.2852750158631509,0.8155587880725436,-0.6355587840080261,0.594121515750885,-0.4930360615253448,0,0,0,-1,-1,11301.05267954167,unknown,2,2025-04-30T11:58:37.789+03:00,2025-04-28T22:17:59.397+03:00,6826,0.8224723,0,0,5720.054,11,14,2025-04-30T11:57:17.800+03:00,767696299.8231213,0,-13.87,100.9634,1,0.85,2025-04-30T11:45:49.339+03:00,87,1.45,2025-04-22T14:20:19.516+03:00,0.02197104130929222,0
2025-04-30T11:59:08.883+03:00,1746003548.420814,40.95221689146929,29.14029829636424,76.58913,-1,-1,-1,-1,30,26.98434767089239,-9999,11309.15389425,-0.6302947998046875,0.5753326416015625,-0.5043182373046875,11309.14885725,-0.9928508164823426,-0.910938766983951,-0.636110379569532,-0.00677948584780097,0.008617464452981949,-0.00167865795083344,0.007193028926849365,-0.01983708143234253,-0.008341163396835327,XArbitraryZVertical,-0.4459420124410171,-0.2336269269969786,-0.2853221270496912,0.8155644981407634,-0.6355499029159546,0.594071090221405,-0.4931083619594574,0,0,0,-1,-1,11301.05267954167,unknown,2,2025-04-30T11:58:37.789+03:00,2025-04-28T22:17:59.397+03:00,6826,0.8224723,0,0,5720.054,11,14,2025-04-30T11:57:17.800+03:00,767696299.8231213,0,-13.87,100.9634,1,0.85,2025-04-30T11:45:49.339+03:00,87,1.45,2025-04-22T14:20:19.516+03:00,0.02197104130929222,0
2025-04-30T11:59:08.892+03:00,1746003548.420814,40.95221689146929,29.14029829636424,76.58913,-1,-1,-1,-1,30,26.98434767089239,-9999,11309.16397025,-0.629119873046875,0.5764007568359375,-0.50408935546875,11309.15893225,-0.9929918569676428,-0.9109823403219426,-0.6360454655719663,-0.009206291288137436,0.01163868792355061,-0.002035454846918583,0.005093514919281006,-0.01882356405258179,-0.009993195533752441,XArbitraryZVertical,-0.445942473415659,-0.2336303673288889,-0.2853861962740659,0.815540873393533,-0.6356018781661987,0.5940188765525818,-0.4931043088436127,0,0,0,-1,-1,11301.05267954167,unknown,2,2025-04-30T11:58:37.789+03:00,2025-04-28T22:17:59.397+03:00,6826,0.8224723,0,0,5720.054,11,14,2025-04-30T11:57:17.800+03:00,767696299.8231213,0,-13.87,100.9634,1,0.85,2025-04-30T11:45:49.339+03:00,87,1.45,2025-04-22T14:20:19.516+03:00,0.02197104130929222,0
2025-04-30T11:59:08.903+03:00,1746003548.420814,40.95221689146929,29.14029829636424,76.58913,-1,-1,-1,-1,30,26.98434767089239,-9999,11309.17404525,-0.628814697265625,0.57965087890625,-0.50677490234375,11309.16900725,-0.9930860946269841,-0.9108909968398635,-0.6360977004628309,-0.01107955910265446,0.01267439126968384,-0.002720420015975833,0.00549691915512085,-0.01851463317871094,-0.01148003339767456,XArbitraryZVertical,-0.4459583345934475,-0.2335583298820151,-0.2854318969689922,0.8155368139313529,-0.6355323195457458,0.5940608978271484,-0.4931433498859406,0,0,0,-1,-1,11301.05267954167,unknown,2,2025-04-30T11:58:37.789+03:00,2025-04-28T22:17:59.397+03:00,6826,0.8224723,0,0,5720.054,11,14,2025-04-30T11:57:17.800+03:00,767696299.8231213,0,-13.87,100.9634,1,0.85,2025-04-30T11:45:49.339+03:00,87,1.45,2025-04-22T14:20:19.516+03:00,0.02197104130929222,0
2025-04-30T11:59:08.913+03:00,1746003548.420814,40.95221689146929,29.14029829636424,76.58913,-1,-1,-1,-1,30,26.98434767089239,-9999,11309.18412025,-0.6314544677734375,0.581207275390625,-0.5074615478515625,11309.17908325,-0.9931652992405958,-0.9107731838776679,-0.6360739983148901,-0.006940340157598257,0.01195893250405788,-0.003712380770593882,0.006716430187225342,-0.01623719930648804,-0.01193058490753174,XArbitraryZVertical,-0.4459426560325936,-0.2334988776714916,-0.2854964019461836,0.8155398309129942,-0.6354852914810181,0.5940418243408203,-0.4932268559932709,0,0,0,-1,-1,11301.05267954167,unknown,2,2025-04-30T11:58:37.789+03:00,2025-04-28T22:17:59.397+03:00,6826,0.8224723,0,0,5720.054,11,14,2025-04-30T11:57:17.800+03:00,767696299.8231213,0,-13.87,100.9634,1,0.85,2025-04-30T11:45:49.339+03:00,87,1.45,2025-04-22T14:20:19.516+03:00,0.02197104130929222,0
2025-04-30T11:59:08.923+03:00,1746003548.420814,40.95221689146929,29.14029829636424,76.58913,-1,-1,-1,-1,30,26.98434767089239,-9999,11309.19419625,-0.630828857421875,0.582183837890625,-0.50506591796875,11309.18915825,-0.9932945650365443,-0.910699177052287,-0.6360206739945948,-0.01202058605849743,0.02052365802228451,-0.006508167367428541,0.004675567150115967,-0.01280689239501953,-0.01429027318954468,XArbitraryZVertical,-0.4459289138553158,-0.2334539463688402,-0.2855789802276709,0.8155313304969221,-0.6354738473892212,0.593998908996582,-0.4932933151721954,0,0,0,-1,-1,11301.05267954167,unknown,2,2025-04-30T11:58:37.789+03:00,2025-04-28T22:17:59.397+03:00,6826,0.8224723,0,0,5720.054,11,14,2025-04-30T11:57:17.800+03:00,767696348.8307848,0,-13.3,100.9576,1,0.85,2025-04-30T11:45:49.339+03:00,87,1.45,2025-04-22T14:20:19.516+03:00,0.02197104130929222,0
2025-04-30T11:59:08.933+03:00,1746003548.420814,40.95221689146929,29.14029829636424,76.58913,-1,-1,-1,-1,30,26.98434767089239,-9999,11309.20427125,-0.6317901611328125,0.5834808349609375,-0.504302978515625,11309.19923325,-0.9933809941510602,-0.9105126588849809,-0.6359978223344561,-0.003569178050383925,0.02141328901052475,-0.007662048563361168,0.004212737083435059,-0.01199513673782349,-0.01298853754997253,XArbitraryZVertical,-0.4459045907543656,-0.2333646223015813,-0.2856615136687375,0.8155411886431413,-0.6353924870491028,0.5939805507659912,-0.4934200942516327,0,0,0,-1,-1,11301.05267954167,unknown,2,2025-04-30T11:58:37.789+03:00,2025-04-28T22:17:59.397+03:00,6826,0.8224723,0,0,5720.054,11,14,2025-04-30T11:57:17.800+03:00,767696348.8307848,0,-13.3,100.9576,1,0.85,2025-04-30T11:45:49.339+03:00,87,1.45,2025-04-22T14:20:19.516+03:00,0.02197104130929222,0
2025-04-30T11:59:08.943+03:00,1746003548.420814,40.95221689146929,29.14029829636424,76.58913,-1,-1,-1,-1,30,26.98434767089239,-9999,11309.21434625,-0.6323699951171875,0.580718994140625,-0.5064239501953125,11309.20930925,-0.9934442367360625,-0.91033276767646,-0.6359580893935939,-0.002844265662133694,0.01757780276238918,-0.007684951648116112,0.004417240619659424,-0.0108187198638916,-0.0105709433555603,XArbitraryZVertical,-0.4458726881807076,-0.2332876373972276,-0.2857373537144445,0.8155540541604338,-0.6353223323822021,0.5939485430717468,-0.4935488402843475,0,0,0,-1,-1,11301.05267954167,unknown,2,2025-04-30T11:58:37.789+03:00,2025-04-28T22:17:59.397+03:00,6826,0.8224723,0,0,5720.054,11,14,2025-04-30T11:57:17.800+03:00,767696348.8307848,0,-13.3,100.9576,1,0.85,2025-04-30T11:45:49.339+03:00,87,1.45,2025-04-22T14:20:19.516+03:00,0.02197104130929222,0
2025-04-30T11:59:08.953+03:00,1746003548.420814,40.95221689146929,29.14029829636424,76.58913,-1,-1,-1,-1,30,26.98434767089239,-9999,11309.22442225,-0.6307373046875,0.5803680419921875,-0.5064697265625,11309.21938425,-0.9935181999683992,-0.9101665132993769,-0.6359022753664364,-0.004866071045398712,0.01993396878242493,-0.006338557228446007,0.001813173294067383,-0.01104843616485596,-0.01125365495681763,XArbitraryZVertical,-0.4458384017594006,-0.233218097890017,-0.2858185775535869,0.8155643348482364,-0.6352665424346924,0.593903660774231,-0.4936748743057251,0,0,0,-1,-1,11301.05267954167,unknown,2,2025-04-30T11:58:37.789+03:00,2025-04-28T22:17:59.397+03:00,6826,0.8224723,0,0,5720.054,11,14,2025-04-30T11:57:17.800+03:00,767696348.8307848,0,-13.3,100.9576,1,0.85,2025-04-30T11:45:49.339+03:00,87,1.45,2025-04-22T14:20:19.516+03:00,0.02197104130929222,0
2025-04-30T11:59:08.963+03:00,1746003548.420814,40.95221689146929,29.14029829636424,76.58913,-1,-1,-1,-1,30,26.98434767089239,-9999,11309.23449725,-0.6293182373046875,0.582550048828125,-0.5075531005859375,11309.22945925,-0.9935871183699315,-0.9100018540160343,-0.6358442317342935,-0.005560090765357018,0.01844046637415886,-0.005932158790528774,0.003895342350006104,-0.01452648639678955,-0.01292842626571655,XArbitraryZVertical,-0.4458030221380679,-0.2331509023125705,-0.285897925793372,0.8155750999749586,-0.6352124810218811,0.5938569903373718,-0.4938006401062012,0,0,0,-1,-1,11301.05267954167,unknown,2,2025-04-30T11:58:37.789+03:00,2025-04-28T22:17:59.397+03:00,6826,0.8224723,0,0,5720.054,11,14,2025-04-30T11:57:17.800+03:00,767696348.8307848,0,-13.3,100.9576,1,0.85,2025-04-30T11:45:49.339+03:00,87,1.45,2025-04-22T14:20:19.516+03:00,0.02197104130929222,0
2025-04-30T11:59:08.973+03:00,1746003548.420814,40.95221689146929,29.14029829636424,76.58913,-1,-1,-1,-1,30,26.98434767089239,-9999,11309.24457225,-0.62982177734375,0.5802764892578125,-0.50860595703125,11309.23953525,-0.9936759644487481,-0.909861023953169,-0.6357707118623415,-0.002996931318193674,0.01769065484404564,-0.01046785525977612,0.004577457904815674,-0.01136982440948486,-0.01301056146621704,XArbitraryZVertical,-0.4457680678509462,-0.2330930630182743,-0.2859839582527162,0.8155805927733023,-0.6351773738861084,0.5937978029251099,-0.4939168989658356,0,0,0,-1,-1,11301.05267954167,unknown,2,2025-04-30T11:58:37.789+03:00,2025-04-28T22:17:59.397+03:00,6826,0.8224723,0,0,5720.054,11,14,2025-04-30T11:57:17.800+03:00,767696348.8307848,0,-13.3,100.9576,1,0.85,2025-04-30T11:45:49.339+03:00,87,1.45,2025-04-22T14:20:19.516+03:00,0.02197104130929222,0
2025-04-30T11:59:08.983+03:00,1746003548.420814,40.95221689146929,29.14029829636424,76.58913,-1,-1,-1,-1,30,26.98434767089239,-9999,11309.25464825,-0.6305389404296875,0.581512451171875,-0.50775146484375,11309.24961025,-0.9937505475793688,-0.9097303416974458,-0.6356733086034622,-0.004738638643175364,0.01599927991628647,-0.007355685345828533,0.0062369704246521,-0.01243585348129272,-0.01420432329177856,XArbitraryZVertical,-0.4457247345657956,-0.2330488327349143,-0.2860678803174475,0.8155874650391054,-0.6351584792137146,0.5937194228172302,-0.494035392999649,0,0,0,-1,-1,11301.05267954167,unknown,2,2025-04-30T11:58:37.789+03:00,2025-04-28T22:17:59.397+03:00,6826,0.8224723,0,0,5720.054,11,14,2025-04-30T11:57:17.800+03:00,767696348.8307848,0,-13.3,100.9576,1,0.85,2025-04-30T11:45:49.339+03:00,87,1.45,2025-04-22T14:20:19.516+03:00,0.02197104130929222,0
2025-04-30T11:59:08.993+03:00,1746003548.420814,40.95221689146929,29.14029829636424,76.58913,-1,-1,-1,-1,30,26.98434767089239,-9999,11309.26472325,-0.630279541015625,0.57928466796875,-0.5080413818359375,11309.25968525,-0.9938113805948975,-0.9095989154029499,-0.635583289877737,-0.002817034721374512,0.01450404897332191,-0.008572417311370373,0.0048866868019104,-0.01338577270507812,-0.01410329341888428,XArbitraryZVertical,-0.4456822092566214,-0.2330054187488131,-0.2861445083581188,0.8155962146110491,-0.6351357102394104,0.5936470031738281,-0.4941516816616058,0,0,0,-1,-1,11301.05267954167,unknown,2,2025-04-30T11:58:37.789+03:00,2025-04-28T22:17:59.397+03:00,6826,0.8224723,0,0,5720.054,11,14,2025-04-30T11:57:17.800+03:00,767696348.8307848,0,-13.3,100.9576,1,0.85,2025-04-30T11:45:49.339+03:00,87,1.45,2025-04-22T14:20:19.516+03:00,0.02197104130929222,0
2025-04-30T11:59:09.004+03:00,1746003548.420814,40.95221689146929,29.14029829636424,76.58913,-1,-1,-1,-1,30,26.98434767089239,-9999,11309.27479825,-0.6309356689453125,0.579864501953125,-0.506378173828125,11309.26976125,-0.9939238444897572,-0.90950269040899,-0.6355068393024941,-0.004990973044186831,0.01391895301640034,-0.01128404773771763,0.004752933979034424,-0.01326322555541992,-0.01354128122329712,XArbitraryZVertical,-0.4456553571837594,-0.2329612856167341,-0.2862309533209083,0.8155931822043134,-0.6351239681243896,0.5935854911804199,-0.4942406713962555,0,0,0,-1,-1,11301.05267954167,unknown,2,2025-04-30T11:58:37.789+03:00,2025-04-28T22:17:59.397+03:00,6826,0.8224723,0,0,5720.054,11,14,2025-04-30T11:57:17.800+03:00,767696348.8307848,0,-13.3,100.9576,1,0.85,2025-04-30T11:45:49.339+03:00,87,1.45,2025-04-22T14:20:19.516+03:00,0.02197104130929222,0
2025-04-30T11:59:09.014+03:00,1746003548.420814,40.95221689146929,29.14029829636424,76.58913,-1,-1,-1,-1,30,26.98434767089239,-9999,11309.28487425,-0.631195068359375,0.58453369140625,-0.5091552734375,11309.27983625,-0.9939942978846651,-0.9093466103937584,-0.6354181890379702,0.0005429423181340098,0.01696654036641121,-0.009519238024950027,0.00500720739364624,-0.014382004737854,-0.01327246427536011,XArbitraryZVertical,-0.4456108736566554,-0.2329053177817888,-0.286316647229763,0.8156033851799411,-0.635088324546814,0.5935141444206238,-0.4943721294403076,0,0,0,-1,-1,11301.05267954167,unknown,2,2025-04-30T11:58:37.789+03:00,2025-04-28T22:17:59.397+03:00,6826,0.8224723,0,0,5720.054,11,14,2025-04-30T11:57:17.800+03:00,767696348.8307848,0,-13.3,100.9576,1,0.85,2025-04-30T11:45:49.339+03:00,87,1.45,2025-04-22T14:20:19.516+03:00,0.02197104130929222,0
2025-04-30T11:59:09.024+03:00,1746003548.420814,40.95221689146929,29.14029829636424,76.58913,-1,-1,-1,-1,30,26.98434767089239,-9999,11309.29494925,-0.6296234130859375,0.5824432373046875,-0.511383056640625,11309.28991125,-0.9940373048473803,-0.9091955972772272,-0.6353094925305981,0.002685721730813384,0.01576492190361023,-0.008532535284757614,0.003839015960693359,-0.01014411449432373,-0.01252663135528564,XArbitraryZVertical,-0.445557056861464,-0.2328628138103233,-0.2863950250384387,0.8156173729159364,-0.6350645422935486,0.5934266448020935,-0.4945076406002045,0,0,0,-1,-1,11301.05267954167,unknown,2,2025-04-30T11:58:37.789+03:00,2025-04-28T22:17:59.397+03:00,6826,0.8224723,0,0,5720.054,11,14,2025-04-30T11:57:17.800+03:00,767696348.8307848,0,-13.3,100.9576,1,0.85,2025-04-30T11:45:49.339+03:00,87,1.45,2025-04-22T14:20:19.516+03:00,0.02197104130929222,0
2025-04-30T11:59:09.034+03:00,1746003548.420814,40.95221689146929,29.14029829636424,76.58913,-1,-1,-1,-1,30,26.98434767089239,-9999,11309.30502425,-0.62799072265625,0.5790863037109375,-0.5129852294921875,11309.29998725,-0.9940603066316528,-0.9090686296795039,-0.6351813179623897,0.001534170820377767,0.01255847699940205,-0.01231662184000015,0.005301058292388916,-0.009506881237030029,-0.01563411951065063,XArbitraryZVertical,-0.4454976562024843,-0.2328397190272581,-0.286464762417064,0.8156319320997467,-0.6350618004798889,0.5933234691619873,-0.4946350157260895,0,0,0,-1,-1,11301.05267954167,unknown,2,2025-04-30T11:58:37.789+03:00,2025-04-28T22:17:59.397+03:00,6826,0.8224723,0,0,5720.054,11,14,2025-04-30T11:57:17.800+03:00,767696348.8307848,0,-13.3,100.9576,1,0.85,2025-04-30T11:45:49.339+03:00,87,1.45,2025-04-22T14:20:19.516+03:00,0.02197104130929222,0
2025-04-30T11:59:09.044+03:00,1746003548.420814,40.95221689146929,29.14029829636424,76.58913,-1,-1,-1,-1,30,26.98434767089239,-9999,11309.31510025,-0.6297149658203125,0.581085205078125,-0.514190673828125,11309.31006225,-0.9941194395901236,-0.9089819186384274,-0.6350410712547612,0.002136311726644635,0.009139777161180973,-0.01481679640710354,0.006346166133880615,-0.01316297054290771,-0.01798456907272339,XArbitraryZVertical,-0.4454440840474739,-0.232828178931187,-0.2865432825783158,0.8156369188844754,-0.6350845098495483,0.5932105779647827,-0.4947412014007568,0,0,0,-1,-1,11301.05267954167,unknown,2,2025-04-30T11:58:37.789+03:00,2025-04-28T22:17:59.397+03:00,6826,0.8224723,0,0,5720.054,11,14,2025-04-30T11:57:17.800+03:00,767696348.8307848,0,-13.3,100.9576,1,0.85,2025-04-30T11:45:49.339+03:00,87,1.45,2025-04-22T14:20:19.516+03:00,0.02197104130929222,0
2025-04-30T11:59:09.054+03:00,1746003548.420814,40.95221689146929,29.14029829636424,76.58913,-1,-1,-1,-1,30,26.98434767089239,-9999,11309.32517525,-0.6304168701171875,0.5849761962890625,-0.5162811279296875,11309.32013725,-0.9941410454369475,-0.9088661018220617,-0.6348813688644543,0.01187748927623034,0.01099000871181488,-0.01003595720976591,0.006592512130737305,-0.01423978805541992,-0.01910400390625,XArbitraryZVertical,-0.4453752893693636,-0.2328182651338533,-0.286617846685793,0.8156511604907685,-0.6351019740104675,0.5930820107460022,-0.4948730170726776,0,0,0,-1,-1,11301.05267954167,unknown,2,2025-04-30T11:58:37.789+03:00,2025-04-28T22:17:59.397+03:00,6826,0.8224723,0,0,5720.054,11,14,2025-04-30T11:57:17.800+03:00,767696348.8307848,0,-13.3,100.9576,1,0.85,2025-04-30T11:45:49.339+03:00,87,1.45,2025-04-22T14:20:19.516+03:00,0.02197104130929222,0
2025-04-30T11:59:09.064+03:00,1746003548.420814,40.95221689146929,29.14029829636424,76.58913,-1,-1,-1,-1,30,26.98434767089239,-9999,11309.33525025,-0.629638671875,0.586181640625,-0.5124664306640625,11309.33021325,-0.9940570468728095,-0.9086730376861883,-0.6346564923408947,0.0143092218786478,0.01125659048557281,-0.01445494033396244,0.003809690475463867,-0.008992910385131836,-0.02044060826301575,XArbitraryZVertical,-0.4452608742478609,-0.2328175067101999,-0.2866827984146156,0.8156908924289186,-0.6351115107536316,0.5929009318351746,-0.495077520608902,0,0,0,-1,-1,11301.05267954167,unknown,2,2025-04-30T11:58:37.789+03:00,2025-04-28T22:17:59.397+03:00,6826,0.8224723,0,0,5720.054,11,14,2025-04-30T11:57:17.800+03:00,767696348.8307848,0,-13.3,100.9576,1,0.85,2025-04-30T11:45:49.339+03:00,87,1.45,2025-04-22T14:20:19.516+03:00,0.02197104130929222,0
2025-04-30T11:59:09.074+03:00,1746003548.420814,40.95221689146929,29.14029829636424,76.58913,-1,-1,-1,-1,30,26.98434767089239,-9999,11309.34532625,-0.6332550048828125,0.58428955078125,-0.5048828125,11309.34028825,-0.9940333017354743,-0.9084880517793551,-0.6344486103854436,0.008484887890517712,0.01751954667270184,-0.01479356177151203,0.005264878273010254,-0.007269024848937988,-0.02036938071250916,XArbitraryZVertical,-0.4451603774474397,-0.232802163155241,-0.2867662772404475,0.815720774073971,-0.6351171135902405,0.5927335023880005,-0.4952707886695862,0,0,0,-1,-1,11301.05267954167,unknown,2,2025-04-30T11:58:37.789+03:00,2025-04-28T22:17:59.397+03:00,6826,0.8224723,0,0,5720.054,11,14,2025-04-30T11:57:17.800+03:00,767696348.8307848,0,-13.3,100.9576,1,0.85,2025-04-30T11:45:49.339+03:00,87,1.45,2025-04-22T14:20:19.516+03:00,0.02197104130929222,0
2025-04-30T11:59:09.094+03:00,1746003548.420814,40.95221689146929,29.14029829636424,76.58913,-1,-1,-1,-1,30,26.98434767089239,-9999,11309.35540125,-0.628753662109375,0.5809783935546875,-0.5081634521484375,11309.35036325,-0.9939998341858082,-0.9082983586917085,-0.6342684244250499,0.01651112362742424,0.01099400315433741,-0.007367336191236973,0.00417172908782959,-0.006727218627929688,-0.01188245415687561,XArbitraryZVertical,-0.445067541091991,-0.232779755162871,-0.2868398966493322,0.8157519473655113,-0.6351073384284973,0.5925883650779724,-0.4954569339752197,0,0,0,-1,-1,11301.05267954167,unknown,2,2025-04-30T11:58:37.789+03:00,2025-04-28T22:17:59.397+03:00,6826,0.8224723,0,0,5720.054,11,14,2025-04-30T11:57:17.800+03:00,767696348.8307848,0,-13.3,100.9576,1,0.85,2025-04-30T11:45:49.339+03:00,87,1.45,2025-04-22T14:20:19.516+03:00,0.02197104130929222,0
2025-04-30T11:59:09.095+03:00,1746003548.420814,40.95221689146929,29.14029829636424,76.58913,-1,-1,-1,-1,30,26.98434767089239,-9999,11309.36547625,-0.622650146484375,0.5834808349609375,-0.504913330078125,11309.36043925,-0.9938308571493581,-0.908027939932612,-0.6340997271676262,0.01667044498026371,0.01888288557529449,-0.003370830556377769,0.002529561519622803,-0.009887158870697021,-0.009970784187316895,XArbitraryZVertical,-0.444951286142891,-0.2327515262245538,-0.2868733087775873,0.815811655574937,-0.6350520849227905,0.5924524664878845,-0.4956901669502258,0,0,0,-1,-1,11301.05267954167,unknown,2,2025-04-30T11:58:37.789+03:00,2025-04-28T22:17:59.397+03:00,6826,0.8224723,0,0,5720.054,11,14,2025-04-30T11:57:17.800+03:00,767696348.8307848,0,-13.3,100.9576,1,0.85,2025-04-30T11:45:49.339+03:00,87,1.45,2025-04-22T14:20:19.516+03:00,0.02197104130929222,0
2025-04-30T11:59:09.104+03:00,1746003548.420814,40.95221689146929,29.14029829636424,76.58913,-1,-1,-1,-1,30,26.98434767089239,-9999,11309.37555225,-0.625823974609375,0.5829315185546875,-0.50396728515625,11309.37051425,-0.9936743210200663,-0.9077164409840267,-0.6339550947029853,0.01373537722975016,0.01838114485144615,-1.231807982549071e-05,0.01034671068191528,-0.01062512397766113,-0.01171916723251343,XArbitraryZVertical,-0.4448388006755964,-0.2326974133894363,-0.2869148968167872,0.8158738340799929,-0.6349652409553528,0.5923359394073486,-0.4959407150745392,0,0,0,-1,-1,11301.05267954167,unknown,2,2025-04-30T11:58:37.789+03:00,2025-04-28T22:17:59.397+03:00,6826,0.8224723,0,0,5720.054,11,14,2025-04-30T11:57:17.800+03:00,767696348.8307848,0,-13.3,100.9576,1,0.85,2025-04-30T11:45:49.339+03:00,87,1.45,2025-04-22T14:20:19.516+03:00,0.02197104130929222,0
2025-04-30T11:59:09.114+03:00,1746003548.420814,40.95221689146929,29.14029829636424,76.58913,-1,-1,-1,-1,30,26.98434767089239,-9999,11309.38562725,-0.6222686767578125,0.574981689453125,-0.5104827880859375,11309.38058925,-0.9935396385926675,-0.9074715101153501,-0.633895757138519,0.005354874767363071,0.01117376610636711,0.003440170548856258,0.01093959808349609,-0.00760185718536377,-0.006491363048553467,XArbitraryZVertical,-0.4447676505073793,-0.2326430884060973,-0.2869292524839935,0.8159230693738805,-0.6348714232444763,0.5922881364822388,-0.4961178600788116,0,0,0,-1,-1,11301.05267954167,unknown,2,2025-04-30T11:58:37.789+03:00,2025-04-28T22:17:59.397+03:00,6826,0.8224723,0,0,5720.054,11,14,2025-04-30T11:57:17.800+03:00,767696348.8307848,0,-13.3,100.9576,1,0.85,2025-04-30T11:45:49.339+03:00,87,1.45,2025-04-22T14:20:19.516+03:00,0.02197104130929222,0
2025-04-30T11:59:09.124+03:00,1746003548.420814,40.95221689146929,29.14029829636424,76.58913,-1,-1,-1,-1,30,26.98434767089239,-9999,11309.39570225,-0.6228179931640625,0.5762786865234375,-0.506378173828125,11309.39066525,-0.9934399629232882,-0.9072635262989964,-0.6338569732645845,0.005546089727431536,0.01393200270831585,0.002821251982823014,0.009572744369506836,-0.01285022497177124,-0.01188412308692932,XArbitraryZVertical,-0.4447129290699944,-0.2325906191379749,-0.2869445219784696,0.8159624661185035,-0.6347863078117371,0.5922569036483765,-0.4962640404701233,0,0,0,-1,-1,11301.05267954167,unknown,2,2025-04-30T11:58:37.789+03:00,2025-04-28T22:17:59.397+03:00,6826,0.8224723,0,0,5720.054,11,14,2025-04-30T11:57:17.800+03:00,767696348.8307848,0,-13.3,100.9576,1,0.85,2025-04-30T11:45:49.339+03:00,87,1.45,2025-04-22T14:20:19.516+03:00,0.02197104130929222,0
2025-04-30T11:59:09.134+03:00,1746003548.420814,40.95221689146929,29.14029829636424,76.58913,-1,-1,-1,-1,30,26.98434767089239,-9999,11309.40577825,-0.6297607421875,0.583984375,-0.5094757080078125,11309.40074025,-0.9933691288460765,-0.9070624349398566,-0.6338175663076635,-0.0009843804873526096,0.01032594963908195,-0.001502722967416048,0.01408421993255615,-0.01855576038360596,-0.01215407252311707,XArbitraryZVertical,-0.4446623362380095,-0.2325347058508204,-0.2869701725992258,0.8159969331895895,-0.6347048878669739,0.5922251343727112,-0.4964060485363007,0,0,0,-1,-1,11301.05267954167,unknown,2,2025-04-30T11:58:37.789+03:00,2025-04-28T22:17:59.397+03:00,6826,0.8224723,0,0,5720.054,11,14,2025-04-30T11:57:17.800+03:00,767696348.8307848,0,-13.3,100.9576,1,0.85,2025-04-30T11:45:49.339+03:00,87,1.45,2025-04-22T14:20:19.516+03:00,0.02197104130929222,0
2025-04-30T11:59:09.144+03:00,1746003548.420814,40.95221689146929,29.14029829636424,76.58913,-1,-1,-1,-1,30,26.98434767089239,-9999,11309.41585325,-0.6292266845703125,0.5810089111328125,-0.511810302734375,11309.41081525,-0.9933954516899021,-0.90696480132749,-0.6337659597318848,-0.005265145562589169,0.007268640212714672,-0.008360895328223705,0.007986843585968018,-0.01123571395874023,-0.01092883944511414,XArbitraryZVertical,-0.4446336852088129,-0.2325026202410103,-0.2870155082168016,0.8160057499171616,-0.634680449962616,0.5921835899353027,-0.4964868426322937,0,0,0,-1,-1,11301.05267954167,unknown,2,2025-04-30T11:58:37.789+03:00,2025-04-28T22:17:59.397+03:00,6826,0.8224723,0,0,5720.054,11,14,2025-04-30T11:57:17.800+03:00,767696348.8307848,0,-13.3,100.9576,1,0.85,2025-04-30T11:45:49.339+03:00,87,1.45,2025-04-22T14:20:19.516+03:00,0.02197104130929222,0
2025-04-30T11:59:09.154+03:00,1746003548.420814,40.95221689146929,29.14029829636424,76.58913,-1,-1,-1,-1,30,26.98434767089239,-9999,11309.42592825,-0.6268768310546875,0.58111572265625,-0.51220703125,11309.42089125,-0.9934407849231818,-0.9069278194836047,-0.6337193639503541,-0.003253194037824869,0.002463698387145996,-0.004276172257959843,0.004572272300720215,-0.008497297763824463,-0.01435214281082153,XArbitraryZVertical,-0.4446175993578944,-0.2324897659916152,-0.2870538901540787,0.8160048195711312,-0.6346839666366577,0.5921460390090942,-0.4965274035930634,0,0,0,-1,-1,11301.05267954167,unknown,2,2025-04-30T11:58:37.789+03:00,2025-04-28T22:17:59.397+03:00,6826,0.8224723,0,0,5720.054,11,14,2025-04-30T11:57:17.800+03:00,767696348.8307848,0,-13.3,100.9576,1,0.85,2025-04-30T11:45:49.339+03:00,87,1.45,2025-04-22T14:20:19.516+03:00,0.02197104130929222,0
2025-04-30T11:59:09.165+03:00,1746003548.420814,40.95221689146929,29.14029829636424,76.58913,-1,-1,-1,-1,30,26.98434767089239,-9999,11309.43600425,-0.6272735595703125,0.58416748046875,-0.508026123046875,11309.43096625,-0.9935088855915087,-0.9069331406781596,-0.6336788786301115,-0.001729333307594061,0.001489514019340277,-0.007229351438581944,0.006348550319671631,-0.01162326335906982,-0.01536303758621216,XArbitraryZVertical,-0.4446124043800815,-0.2324874624371577,-0.2870905984494907,0.8159953724705501,-0.6347054839134216,0.5921133756637573,-0.4965387880802155,0,0,0,-1,-1,11301.05267954167,unknown,2,2025-04-30T11:58:37.789+03:00,2025-04-28T22:17:59.397+03:00,6826,0.8224723,0,0,5720.054,11,14,2025-04-30T11:57:17.800+03:00,767696348.8307848,0,-13.3,100.9576,1,0.85,2025-04-30T11:45:49.339+03:00,87,1.45,2025-04-22T14:20:19.516+03:00,0.02197104130929222,0
2025-04-30T11:59:09.175+03:00,1746003548.420814,40.95221689146929,29.14029829636424,76.58913,-1,-1,-1,-1,30,26.98434767089239,-9999,11309.44607925,-0.625457763671875,0.58050537109375,-0.5077362060546875,11309.44104225,-0.9935841066680454,-0.9070012831544046,-0.6336342021555474,-0.007454796694219112,-0.01081129349768162,-0.005418102256953716,0.007959604263305664,-0.009588360786437988,-0.01319277286529541,XArbitraryZVertical,-0.4446156261931166,-0.232510307955611,-0.2871172894866718,0.8159776808350364,-0.6347600817680359,0.592077374458313,-0.4965118169784546,0,0,0,-1,-1,11301.05267954167,unknown,2,2025-04-30T11:58:37.789+03:00,2025-04-28T22:17:59.397+03:00,6826,0.8224723,0,0,5720.054,11,14,2025-04-30T11:57:17.800+03:00,767696348.8307848,0,-13.3,100.9576,1,0.85,2025-04-30T11:45:49.339+03:00,87,1.45,2025-04-22T14:20:19.516+03:00,0.02197104130929222,0
2025-04-30T11:59:09.185+03:00,1746003548.420814,40.95221689146929,29.14029829636424,76.58913,-1,-1,-1,-1,30,26.98434767089239,-9999,11309.45615525,-0.62457275390625,0.581573486328125,-0.506134033203125,11309.45111725,-0.9936757608918912,-0.9071166862576949,-0.6336195710232498,-0.006672360002994537,-0.007653584238141775,-0.006985638756304979,0.007703244686126709,-0.01011061668395996,-0.01077347993850708,XArbitraryZVertical,-0.4446378336960677,-0.2325408699364377,-0.2871326805696278,0.8159514518343086,-0.6348242163658142,0.5920656323432922,-0.4964438676834106,0,0,0,-1,-1,11301.05267954167,unknown,2,2025-04-30T11:58:37.789+03:00,2025-04-28T22:17:59.397+03:00,6826,0.8224723,0,0,5720.054,11,14,2025-04-30T11:57:17.800+03:00,767696348.8307848,0,-13.3,100.9576,1,0.85,2025-04-30T11:45:49.339+03:00,87,1.45,2025-04-22T14:20:19.516+03:00,0.02197104130929222,0
2025-04-30T11:59:09.195+03:00,1746003548.420814,40.95221689146929,29.14029829636424,76.58913,-1,-1,-1,-1,30,26.98434767089239,-9999,11309.46623025,-0.6280975341796875,0.57891845703125,-0.5079345703125,11309.46119225,-0.993803409587796,-0.9072498497950439,-0.633598510008796,-0.01272466033697128,-0.009506611153483391,-0.008902049623429775,0.01086145639419556,-0.01262658834457397,-0.01043838262557983,XArbitraryZVertical,-0.4446645749777877,-0.2325723672342687,-0.2871604110236486,0.8159181394427434,-0.6349001526832581,0.5920486450195312,-0.4963670074939728,0,0,0,-1,-1,11301.05267954167,unknown,2,2025-04-30T11:58:37.789+03:00,2025-04-28T22:17:59.397+03:00,6826,0.8224723,0,0,5720.054,11,14,2025-04-30T11:57:17.800+03:00,767696348.8307848,0,-13.3,100.9576,1,0.85,2025-04-30T11:45:49.339+03:00,87,1.45,2025-04-22T14:20:19.516+03:00,0.02197104130929222,0
2025-04-30T11:59:09.205+03:00,1746003548.420814,40.95221689146929,29.14029829636424,76.58913,-1,-1,-1,-1,30,26.98434767089239,-9999,11309.47630525,-0.62750244140625,0.5734405517578125,-0.5092315673828125,11309.47126825,-0.9939758679373627,-0.9074294794237036,-0.6335883597273829,-0.01369271893054247,-0.01126136817038059,-0.01024641375988722,0.008910715579986572,-0.01061952114105225,-0.009678959846496582,XArbitraryZVertical,-0.4447069277956761,-0.2326099853248226,-0.2871933676723922,0.8158727656433108,-0.6349940896034241,0.592040479183197,-0.4962566792964935,0,0,0,-1,-1,11301.05267954167,unknown,2,2025-04-30T11:58:37.789+03:00,2025-04-28T22:17:59.397+03:00,6826,0.8224723,0,0,5720.054,11,14,2025-04-30T11:57:17.800+03:00,767696348.8307848,0,-13.3,100.9576,1,0.85,2025-04-30T11:45:49.339+03:00,87,1.45,2025-04-22T14:20:19.516+03:00,0.02197104130929222,0
2025-04-30T11:59:09.215+03:00,1746003548.420814,40.95221689146929,29.14029829636424,76.58913,-1,-1,-1,-1,30,26.98434767089239,-9999,11309.48638125,-0.6296234130859375,0.5776824951171875,-0.5063629150390625,11309.48134325,-0.9941271917929742,-0.9075469306616365,-0.6335657742914542,-0.01098281890153885,-0.001731912139803171,-0.007864815182983875,0.007041633129119873,-0.01681166887283325,-0.01333111524581909,XArbitraryZVertical,-0.44473365318555,-0.2326302024162837,-0.2872346222336959,0.8158379083390526,-0.6350628733634949,0.5920222401618958,-0.4961903393268585,0,0,0,-1,-1,11301.05267954167,unknown,2,2025-04-30T11:58:37.789+03:00,2025-04-28T22:17:59.397+03:00,6826,0.8224723,0,0,5720.054,11,14,2025-04-30T11:57:17.800+03:00,767696348.8307848,0,-13.3,100.9576,1,0.85,2025-04-30T11:45:49.339+03:00,87,1.45,2025-04-22T14:20:19.516+03:00,0.02197104130929222,0
2025-04-30T11:59:09.225+03:00,1746003548.420814,40.95221689146929,29.14029829636424,76.58913,-1,-1,-1,-1,30,26.98434767089239,-9999,11309.49645625,-0.6318359375,0.580474853515625,-0.5080413818359375,11309.49141825,-0.9942720464200402,-0.9076229756408611,-0.6335195202273387,-0.007465050090104342,-0.002199030481278896,-0.01220630016177893,0.006521165370941162,-0.01671332120895386,-0.01115000247955322,XArbitraryZVertical,-0.4447455592003993,-0.2326412109412679,-0.287288359898743,0.8158093782171534,-0.6351221799850464,0.5919849872589111,-0.4961588978767395,0,0,0,-1,-1,11301.05267954167,unknown,2,2025-04-30T11:58:37.789+03:00,2025-04-28T22:17:59.397+03:00,6826,0.8224723,0,0,5720.054,11,14,2025-04-30T11:57:17.800+03:00,767696348.8307848,0,-13.3,100.9576,1,0.85,2025-04-30T11:45:49.339+03:00,87,1.45,2025-04-22T14:20:19.516+03:00,0.02197104130929222,0
2025-04-30T11:59:09.235+03:00,1746003548.420814,40.95221689146929,29.14029829636424,76.58913,-1,-1,-1,-1,30,26.98434767089239,-9999,11309.50653125,-0.62994384765625,0.57733154296875,-0.5116424560546875,11309.50149425,-0.9944339973574099,-0.9077380036003767,-0.6334490587484271,-0.01039732340723276,-0.005044218618422747,-0.01616622135043144,0.003498196601867676,-0.01305550336837769,-0.01049554347991943,XArbitraryZVertical,-0.444756824693341,-0.232670669849647,-0.2873464221070475,0.8157742740128334,-0.6352120637893677,0.5919281840324402,-0.4961114525794983,0,0,0,-1,-1,11301.05267954167,unknown,2,2025-04-30T11:58:37.789+03:00,2025-04-28T22:17:59.397+03:00,6826,0.8224723,0,0,5720.054,11,14,2025-04-30T11:57:17.800+03:00,767696348.8307848,0,-13.3,100.9576,1,0.85,2025-04-30T11:45:49.339+03:00,87,1.45,2025-04-22T14:20:19.516+03:00,0.02197104130929222,0
2025-04-30T11:59:09.245+03:00,1746003548.420814,40.95221689146929,29.14029829636424,76.58913,-1,-1,-1,-1,30,26.98434767089239,-9999,11309.51660725,-0.6282501220703125,0.5749969482421875,-0.510589599609375,11309.51156925,-0.9946561932973232,-0.9079102048089477,-0.6333709502384098,-0.01530979108065367,-0.007241593208163977,-0.01774520985782146,0.003971099853515625,-0.0120464563369751,-0.01494050025939941,XArbitraryZVertical,-0.4447806259683216,-0.2327121033135469,-0.2874182819185987,0.8157242126329248,-0.6353339552879333,0.5918652415275574,-0.4960305392742157,0,0,0,-1,-1,11301.05267954167,unknown,2,2025-04-30T11:58:37.789+03:00,2025-04-28T22:17:59.397+03:00,6826,0.8224723,0,0,5720.054,11,14,2025-04-30T11:57:17.800+03:00,767696348.8307848,0,-13.3,100.9576,1,0.85,2025-04-30T11:45:49.339+03:00,87,1.45,2025-04-22T14:20:19.516+03:00,0.02197104130929222,0
2025-04-30T11:59:09.255+03:00,1746003548.420814,40.95221689146929,29.14029829636424,76.58913,-1,-1,-1,-1,30,26.98434767089239,-9999,11309.52668225,-0.628082275390625,0.5784149169921875,-0.5093841552734375,11309.52164425,-0.9949129890728857,-0.9081295085170004,-0.6332985440481935,-0.01177424378693104,-0.01072693802416325,-0.01802301034331322,0.007363736629486084,-0.01650470495223999,-0.01566380262374878,XArbitraryZVertical,-0.4448172232159145,-0.232763528407803,-0.2874923336661865,0.8156634730547072,-0.6354764699935913,0.5918068885803223,-0.4959175586700439,0,0,0,-1,-1,11301.05267954167,unknown,2,2025-04-30T11:58:37.789+03:00,2025-04-28T22:17:59.397+03:00,6826,0.8224723,0,0,5720.054,11,14,2025-04-30T11:57:17.800+03:00,767696348.8307848,0,-13.3,100.9576,1,0.85,2025-04-30T11:45:49.339+03:00,87,1.45,2025-04-22T14:20:19.516+03:00,0.02197104130929222,0
2025-04-30T11:59:09.265+03:00,1746003548.420814,40.95221689146929,29.14029829636424,76.58913,-1,-1,-1,-1,30,26.98434767089239,-9999,11309.53675725,-0.628875732421875,0.5785980224609375,-0.511260986328125,11309.53172025,-0.9951997199758721,-0.9083651755670782,-0.6332189840994631,-0.01685955002903938,-0.009795098565518856,-0.0212414413690567,0.006693720817565918,-0.01450270414352417,-0.01366370916366577,XArbitraryZVertical,-0.4448572256265277,-0.2328168470729519,-0.2875767321502611,0.8155966714448405,-0.6356304883956909,0.5917427539825439,-0.4957967400550842,0,0,0,-1,-1,11301.05267954167,unknown,2,2025-04-30T11:58:37.789+03:00,2025-04-28T22:17:59.397+03:00,6826,0.8224723,0,0,5720.054,11,14,2025-04-30T11:57:17.800+03:00,767696348.8307848,0,-13.3,100.9576,1,0.85,2025-04-30T11:45:49.339+03:00,87,1.45,2025-04-22T14:20:19.516+03:00,0.02197104130929222,0
2025-04-30T11:59:09.276+03:00,1746003548.420814,40.95221689146929,29.14029829636424,76.58913,-1,-1,-1,-1,30,26.98434767089239,-9999,11309.54683325,-0.6328887939453125,0.5794525146484375,-0.51348876953125,11309.54179525,-0.9954531316504373,-0.9085853930394423,-0.6331133197463479,-0.008255476132035255,-0.01030009984970093,-0.02317599393427372,0.008011877536773682,-0.01309007406234741,-0.01381096243858337,XArbitraryZVertical,-0.4448822101009972,-0.2328781540560075,-0.2876574939524736,0.8155370371832449,-0.6357889175415039,0.5916575193405151,-0.495695173740387,0,0,0,-1,-1,11301.05267954167,unknown,2,2025-04-30T11:58:37.789+03:00,2025-04-28T22:17:59.397+03:00,6826,0.8224723,0,0,5720.054,11,14,2025-04-30T11:57:17.800+03:00,767696348.8307848,0,-13.3,100.9576,1,0.85,2025-04-30T11:45:49.339+03:00,87,1.45,2025-04-22T14:20:19.516+03:00,0.02197104130929222,0
2025-04-30T11:59:09.286+03:00,1746003548.420814,40.95221689146929,29.14029829636424,76.58913,-1,-1,-1,-1,30,26.98434767089239,-9999,11309.55690825,-0.6363372802734375,0.58245849609375,-0.5142822265625,11309.55187025,-0.9956378112818757,-0.9087093805815429,-0.6329295261574901,0.004371102899312973,0.00273420917801559,-0.02597417682409286,0.005046308040618896,-0.01181274652481079,-0.016813725233078,XArbitraryZVertical,-0.4448586028849769,-0.2329361262732579,-0.2877511636060869,0.8155002986116462,-0.6359361410140991,0.5915093421936035,-0.4956831634044647,0,0,0,-1,-1,11301.05267954167,unknown,2,2025-04-30T11:58:37.789+03:00,2025-04-28T22:17:59.397+03:00,6826,0.8224723,0,0,5720.054,11,14,2025-04-30T11:57:17.800+03:00,767696348.8307848,0,-13.3,100.9576,1,0.85,2025-04-30T11:45:49.339+03:00,87,1.45,2025-04-22T14:20:19.516+03:00,0.02197104130929222,0
2025-04-30T11:59:09.296+03:00,1746003548.420814,40.95221689146929,29.14029829636424,76.58913,-1,-1,-1,-1,30,26.98434767089239,-9999,11309.56698325,-0.638702392578125,0.5856475830078125,-0.5208587646484375,11309.56194625,-0.995668422327196,-0.9086372501372001,-0.6325789658234657,0.02901133522391319,0.007880368269979954,-0.03106966987252235,0.001679778099060059,-0.01049238443374634,-0.01854771375656128,XArbitraryZVertical,-0.4447316931607091,-0.2329924158737162,-0.287867323685033,0.8155124643574609,-0.6360638737678528,0.5912266969680786,-0.4958565235137939,0,0,0,-1,-1,11301.05267954167,unknown,2,2025-04-30T11:58:37.789+03:00,2025-04-28T22:17:59.397+03:00,6826,0.8224723,0,0,5720.054,11,14,2025-04-30T11:57:17.800+03:00,767696348.8307848,0,-13.3,100.9576,1,0.85,2025-04-30T11:45:49.339+03:00,87,1.45,2025-04-22T14:20:19.516+03:00,0.02197104130929222,0
2025-04-30T11:59:09.306+03:00,1746003548.420814,40.95221689146929,29.14029829636424,76.58913,-1,-1,-1,-1,30,26.98434767089239,-9999,11309.57705925,-0.632354736328125,0.5824432373046875,-0.52789306640625,11309.57202125,-0.9955166903646889,-0.9084452762225164,-0.6320701885659944,0.04717409610748291,0.006325880996882915,-0.02873887121677399,-0.002374470233917236,-0.007075965404510498,-0.02020907402038574,XArbitraryZVertical,-0.4445120539278394,-0.233082102350757,-0.2879752868444022,0.8155684730842728,-0.636205792427063,0.5908162593841553,-0.496163547039032,0,0,0,-1,-1,11301.05267954167,unknown,2,2025-04-30T11:58:37.789+03:00,2025-04-28T22:17:59.397+03:00,6826,0.8224723,0,0,5720.054,11,14,2025-04-30T11:57:17.800+03:00,767696348.8307848,0,-13.3,100.9576,1,0.85,2025-04-30T11:45:49.339+03:00,87,1.45,2025-04-22T14:20:19.516+03:00,0.02197104130929222,0
2025-04-30T11:59:09.330+03:00,1746003548.420814,40.95221689146929,29.14029829636424,76.58913,-1,-1,-1,-1,30,26.98434767089239,-9999,11309.58713425,-0.62982177734375,0.5784454345703125,-0.5300140380859375,11309.58209725,-0.9951775996141613,-0.908192308463949,-0.6314063762916525,0.07100725173950195,0.0006493530236184597,-0.03983200341463089,0.0002657175064086914,-0.005014479160308838,-0.02850452065467834,XArbitraryZVertical,-0.4442085748869269,-0.2332293642779348,-0.2880590538177185,0.8156621310638882,-0.6363893151283264,0.5902805924415588,-0.4965656101703644,0,0,0,-1,-1,11301.05267954167,unknown,2,2025-04-30T11:58:37.789+03:00,2025-04-28T22:17:59.397+03:00,6826,0.8224723,0,0,5720.054,11,14,2025-04-30T11:57:17.800+03:00,767696348.8307848,0,-13.3,100.9576,1,0.85,2025-04-30T11:45:49.339+03:00,87,1.45,2025-04-22T14:20:19.516+03:00,0.02197104130929222,0
2025-04-30T11:59:09.331+03:00,1746003548.420814,40.95221689146929,29.14029829636424,76.58913,-1,-1,-1,-1,30,26.98434767089239,-9999,11309.59721025,-0.6310882568359375,0.5814361572265625,-0.539093017578125,11309.59217225,-0.9944698732213532,-0.907868078397033,-0.6304065988803881,0.1400566250085831,-0.02825260162353516,-0.0456123948097229,0.006291627883911133,-0.01099729537963867,-0.03112435340881348,XArbitraryZVertical,-0.4437363891427715,-0.2335177989062422,-0.2880920494261113,0.815825017462934,-0.6366931796073914,0.5894732475280762,-0.4971349239349365,0,0,0,-1,-1,11301.05267954167,unknown,2,2025-04-30T11:58:37.789+03:00,2025-04-28T22:17:59.397+03:00,6826,0.8224723,0,0,5720.054,11,14,2025-04-30T11:57:17.800+03:00,767696348.8307848,0,-13.3,100.9576,1,0.85,2025-04-30T11:45:49.339+03:00,87,1.45,2025-04-22T14:20:19.516+03:00,0.02197104130929222,0
2025-04-30T11:59:09.336+03:00,1746003548.420814,40.95221689146929,29.14029829636424,76.58913,-1,-1,-1,-1,30,26.98434767089239,-9999,11309.60728525,-0.6286163330078125,0.577362060546875,-0.5438385009765625,11309.60224725,-0.9935867014098281,-0.9076490671062536,-0.629205817794199,0.1007656157016754,-0.03611991554498672,-0.05555120855569839,0.006221234798431396,-0.007326006889343262,-0.03521871566772461,XArbitraryZVertical,-0.4431894961704427,-0.2339405881036906,-0.2880800247486948,0.8160054313309699,-0.6371416449546814,0.588502824306488,-0.4977097511291504,0,0,0,-1,-1,11301.05267954167,unknown,2,2025-04-30T11:58:37.789+03:00,2025-04-28T22:17:59.397+03:00,6826,0.8224723,0,0,5720.054,11,14,2025-04-30T11:57:17.800+03:00,767696348.8307848,0,-13.3,100.9576,1,0.85,2025-04-30T11:45:49.339+03:00,87,1.45,2025-04-22T14:20:19.516+03:00,0.02197104130929222,0
2025-04-30T11:59:09.346+03:00,1746003548.420814,40.95221689146929,29.14029829636424,76.58913,-1,-1,-1,-1,30,26.98434767089239,-9999,11309.61736025,-0.6327972412109375,0.58416748046875,-0.5363006591796875,11309.61232325,-0.9930646309047834,-0.9077498972381113,-0.6280965156493191,0.09369492530822754,-0.04943785071372986,-0.06432046741247177,0.00872337818145752,-0.009160161018371582,-0.04576092958450317,XArbitraryZVertical,-0.4427619484483899,-0.2343893436312091,-0.2881214219539033,0.8160940753067119,-0.63770592212677,0.5876055955886841,-0.4980469942092896,0,0,0,-1,-1,11301.05267954167,unknown,2,2025-04-30T11:58:37.789+03:00,2025-04-28T22:17:59.397+03:00,6826,0.8224723,0,0,5720.054,11,14,2025-04-30T11:57:17.800+03:00,767696348.8307848,0,-13.3,100.9576,1,0.85,2025-04-30T11:45:49.339+03:00,87,1.45,2025-04-22T14:20:19.516+03:00,0.02197104130929222,0
2025-04-30T11:59:09.356+03:00,1746003548.420814,40.95221689146929,29.14029829636424,76.58913,-1,-1,-1,-1,30,26.98434767089239,-9999,11309.62743625,-0.6308135986328125,0.5928802490234375,-0.561279296875,11309.62239825,-0.9931645178801435,-0.9083952099057414,-0.6273665392477052,0.009542030282318592,-0.07311221957206726,-0.06898748874664307,0.007780551910400391,-0.00692141056060791,-0.04050725698471069,XArbitraryZVertical,-0.4426158531333365,-0.2348226389053864,-0.2882014718403261,0.8160205559446098,-0.6383652687072754,0.5870147943496704,-0.497899055480957,0,0,0,-1,-1,11301.05267954167,unknown,2,2025-04-30T11:58:37.789+03:00,2025-04-28T22:17:59.397+03:00,6826,0.8224723,0,0,5720.054,11,14,2025-04-30T11:57:17.800+03:00,767696348.8307848,0,-13.3,100.9576,1,0.85,2025-04-30T11:45:49.339+03:00,87,1.45,2025-04-22T14:20:19.516+03:00,0.02197104130929222,0
2025-04-30T11:59:09.366+03:00,1746003548.420814,40.95221689146929,29.14029829636424,76.58913,-1,-1,-1,-1,30,26.98434767089239,-9999,11309.63751125,-0.628692626953125,0.58099365234375,-0.566436767578125,11309.63247325,-0.9933899437254912,-0.9094173659027927,-0.6265938954361755,0.0437772311270237,-0.106934629380703,-0.06786417216062546,0.005549371242523193,0.001776218414306641,-0.04999113082885742,XArbitraryZVertical,-0.4425242857941703,-0.2353930733219723,-0.2882600813378107,0.8158851340963194,-0.6392315626144409,0.5863891243934631,-0.4975247085094452,0,0,0,-1,-1,11301.05267954167,unknown,2,2025-04-30T11:58:37.789+03:00,2025-04-28T22:17:59.397+03:00,6826,0.8224723,0,0,5720.054,11,14,2025-04-30T11:57:17.800+03:00,767696348.8307848,0,-13.3,100.9576,1,0.85,2025-04-30T11:45:49.339+03:00,87,1.45,2025-04-22T14:20:19.516+03:00,0.02197104130929222,0
2025-04-30T11:59:09.376+03:00,1746003548.420814,40.95221689146929,29.14029829636424,76.58913,-1,-1,-1,-1,30,26.98434767089239,-9999,11309.64758625,-0.63641357421875,0.5626068115234375,-0.579010009765625,11309.64254925,-0.9935582286854673,-0.9106946245589731,-0.6257718197086188,0.03040902875363827,-0.1298486739397049,-0.08229673653841019,0.0126531720161438,0.007126748561859131,-0.07071518898010254,XArbitraryZVertical,-0.4424459097269235,-0.23609315506825,-0.2882514295438528,0.8157284076571536,-0.640247106552124,0.5857230424880981,-0.4970032870769501,0,0,0,-1,-1,11301.05267954167,unknown,2,2025-04-30T11:58:37.789+03:00,2025-04-28T22:17:59.397+03:00,6826,0.8224723,0,0,5720.054,11,14,2025-04-30T11:57:17.800+03:00,767696348.8307848,0,-13.3,100.9576,1,0.85,2025-04-30T11:45:49.339+03:00,87,1.45,2025-04-22T14:20:19.516+03:00,0.02197104130929222,0
2025-04-30T11:59:09.386+03:00,1746003548.420814,40.95221689146929,29.14029829636424,76.58913,-1,-1,-1,-1,30,26.98434767089239,-9999,11309.65766225,-0.642242431640625,0.56683349609375,-0.5821380615234375,11309.65262425,-0.9942104114204079,-0.9124002556230657,-0.6249895711541422,-0.02770247682929039,-0.1391912996768951,-0.1053147092461586,0.008979320526123047,-0.01872831583023071,-0.07352668046951294,XArbitraryZVertical,-0.4425003861380946,-0.2368502772110739,-0.2883355354085879,0.8154495917848887,-0.6414560675621033,0.5850887894630432,-0.4961906969547272,0,0,0,-1,-1,11301.05267954167,unknown,2,2025-04-30T11:58:37.789+03:00,2025-04-28T22:17:59.397+03:00,6826,0.8224723,0,0,5720.054,11,14,2025-04-30T11:57:17.800+03:00,767696348.8307848,0,-13.3,100.9576,1,0.85,2025-04-30T11:45:49.339+03:00,87,1.45,2025-04-22T14:20:19.516+03:00,0.02197104130929222,0
2025-04-30T11:59:09.396+03:00,1746003548.420814,40.95221689146929,29.14029829636424,76.58913,-1,-1,-1,-1,30,26.98434767089239,-9999,11309.66773725,-0.6438751220703125,0.5402374267578125,-0.5598602294921875,11309.66269925,-0.9957494157860871,-0.9146354997766016,-0.6245167170968313,-0.1172033995389938,-0.1357883960008621,-0.1188377365469933,0.002707064151763916,-0.01944339275360107,-0.09035694599151611,XArbitraryZVertical,-0.4428431592532306,-0.2375452554634726,-0.2885864177105246,0.81497244969356,-0.6427827477455139,0.5847052931785583,-0.4949243664741516,0,0,0,-1,-1,11301.05267954167,unknown,2,2025-04-30T11:58:37.789+03:00,2025-04-28T22:17:59.397+03:00,6826,0.8224723,0,0,5720.054,11,14,2025-04-30T11:57:17.800+03:00,767696348.8307848,0,-13.3,100.9576,1,0.85,2025-04-30T11:45:49.339+03:00,87,1.45,2025-04-22T14:20:19.516+03:00,0.02197104130929222,0
2025-04-30T11:59:09.407+03:00,1746003548.420814,40.95221689146929,29.14029829636424,76.58913,-1,-1,-1,-1,30,26.98434767089239,-9999,11309.67781325,-0.644317626953125,0.5187835693359375,-0.5614471435546875,11309.67277525,-0.9978580282163668,-0.917245970150032,-0.6243716819554848,-0.1249124482274055,-0.1454700380563736,-0.1154706999659538,0.00142437219619751,-0.02701616287231445,-0.07788598537445068,XArbitraryZVertical,-0.4434211866881057,-0.2381796160007234,-0.2889032730585862,0.8143604519556465,-0.6441397666931152,0.5845876336097717,-0.4932962357997894,0,0,0,-1,-1,11301.05267954167,unknown,2,2025-04-30T11:58:37.789+03:00,2025-04-28T22:17:59.397+03:00,6826,0.8224723,0,0,5720.054,11,14,2025-04-30T11:57:17.800+03:00,767696348.8307848,0,-13.3,100.9576,1,0.85,2025-04-30T11:45:49.339+03:00,87,1.45,2025-04-22T14:20:19.516+03:00,0.02197104130929222,0
2025-04-30T11:59:09.417+03:00,1746003548.420814,40.95221689146929,29.14029829636424,76.58913,-1,-1,-1,-1,30,26.98434767089239,-9999,11309.68788825,-0.64276123046875,0.5508575439453125,-0.5840606689453125,11309.68285025,-0.9997369227176244,-0.9197168034556864,-0.6239979132278356,-0.07325371354818344,-0.1353747248649597,-0.1299806386232376,0.0004041790962219238,-0.06112152338027954,-0.06367585062980652,XArbitraryZVertical,-0.4438745869656276,-0.2388672468274804,-0.2892138171227968,0.8138016475675967,-0.6455304622650146,0.5842843055725098,-0.4918355643749237,0,0,0,-1,-1,11301.05267954167,unknown,2,2025-04-30T11:58:37.789+03:00,2025-04-28T22:17:59.397+03:00,6826,0.8224723,0,0,5720.054,11,14,2025-04-30T11:57:17.800+03:00,767696348.8307848,0,-13.3,100.9576,1,0.85,2025-04-30T11:45:49.339+03:00,87,1.45,2025-04-22T14:20:19.516+03:00,0.02197104130929222,0
2025-04-30T11:59:09.427+03:00,1746003548.420814,40.95221689146929,29.14029829636424,76.58913,-1,-1,-1,-1,30,26.98434767089239,-9999,11309.69796325,-0.641876220703125,0.6038360595703125,-0.579620361328125,11309.69292625,-1.00133036191778,-0.9217622613627225,-0.623314284470176,-0.05488856136798859,-0.09766969084739685,-0.1386569440364838,0.003084957599639893,-0.05441725254058838,-0.08384469151496887,XArbitraryZVertical,-0.4441277470242628,-0.239526243864622,-0.2895797982216229,0.8133395365649011,-0.6468531489372253,0.5837293863296509,-0.4907554388046265,0,0,0,-1,-1,11301.05267954167,unknown,2,2025-04-30T11:58:37.789+03:00,2025-04-28T22:17:59.397+03:00,6826,0.8224723,0,0,5720.054,11,14,2025-04-30T11:57:17.800+03:00,767696348.8307848,0,-13.3,100.9576,1,0.85,2025-04-30T11:45:49.339+03:00,87,1.45,2025-04-22T14:20:19.516+03:00,0.02197104130929222,0
2025-04-30T11:59:09.437+03:00,1746003548.420814,40.95221689146929,29.14029829636424,76.58913,-1,-1,-1,-1,30,26.98434767089239,-9999,11309.70803925,-0.641845703125,0.643310546875,-0.5720977783203125,11309.70300125,-1.002465742732053,-0.9230467090065143,-0.6223749100573069,0.0321977399289608,-0.03240693360567093,-0.1196967735886574,0.005784451961517334,-0.006016373634338379,-0.09462973475456238,XArbitraryZVertical,-0.4441295497148918,-0.240044831036848,-0.2899926259070863,0.8130385272898908,-0.6479199528694153,0.5829663872718811,-0.4902548491954803,0,0,0,-1,-1,11301.05267954167,unknown,2,2025-04-30T11:58:37.789+03:00,2025-04-28T22:17:59.397+03:00,6826,0.8224723,0,0,5720.054,11,14,2025-04-30T11:57:17.800+03:00,767696348.8307848,0,-13.3,100.9576,1,0.85,2025-04-30T11:45:49.339+03:00,87,1.45,2025-04-22T14:20:19.516+03:00,0.02197104130929222,0
2025-04-30T11:59:09.447+03:00,1746003548.420814,40.95221689146929,29.14029829636424,76.58913,-1,-1,-1,-1,30,26.98434767089239,-9999,11309.71811425,-0.6317901611328125,0.63494873046875,-0.60089111328125,11309.71307625,-1.002095235003014,-0.9228541958973248,-0.6209235010456903,0.1793126165866852,0.01811882480978966,-0.07685556262731552,0.006333470344543457,0.04690611362457275,-0.0818336009979248,XArbitraryZVertical,-0.4435619813213852,-0.2404327008852388,-0.290250032468429,0.813141972396984,-0.648499608039856,0.5817865133285522,-0.4908897578716278,0,0,0,-1,-1,11301.05267954167,unknown,2,2025-04-30T11:58:37.789+03:00,2025-04-28T22:17:59.397+03:00,6826,0.8224723,0,0,5720.054,11,14,2025-04-30T11:57:17.800+03:00,767696348.8307848,0,-13.3,100.9576,1,0.85,2025-04-30T11:45:49.339+03:00,87,1.45,2025-04-22T14:20:19.516+03:00,0.02197104130929222,0
2025-04-30T11:59:09.457+03:00,1746003548.420814,40.95221689146929,29.14029829636424,76.58913,-1,-1,-1,-1,30,26.98434767089239,-9999,11309.72818925,-0.6262969970703125,0.5972442626953125,-0.6097564697265625,11309.72315225,-1.000853512301643,-0.9219570552038738,-0.6192690986171869,0.1569743007421494,0.0079018734395504,-0.07010325789451599,0.01096177101135254,0.06485402584075928,-0.09118437767028809,XArbitraryZVertical,-0.4427174729358316,-0.2407801924963183,-0.2903598917303362,0.8134600572383063,-0.64882493019104,0.5804401636123657,-0.492052286863327,0,0,0,-1,-1,11301.05267954167,unknown,2,2025-04-30T11:58:37.789+03:00,2025-04-28T22:17:59.397+03:00,6826,0.8224723,0,0,5720.054,11,14,2025-04-30T11:57:17.800+03:00,767696348.8307848,0,-13.3,100.9576,1,0.85,2025-04-30T11:45:49.339+03:00,87,1.45,2025-04-22T14:20:19.516+03:00,0.02197104130929222,0
2025-04-30T11:59:09.467+03:00,1746003548.420814,40.95221689146929,29.14029829636424,76.58913,-1,-1,-1,-1,30,26.98434767089239,-9999,11309.73826525,-0.643157958984375,0.54766845703125,-0.590911865234375,11309.73322725,-1.000287949043615,-0.921665429653663,-0.6180994169965758,0.03471123427152634,-0.03683710470795631,-0.06185917183756828,0.02289426326751709,0.03852421045303345,-0.1196683645248413,XArbitraryZVertical,-0.4422071891580344,-0.241095499459083,-0.2904882453634014,0.813598357673603,-0.6492217779159546,0.5794872641563416,-0.4926515221595764,0,0,0,-1,-1,11301.05267954167,unknown,2,2025-04-30T11:58:37.789+03:00,2025-04-28T22:17:59.397+03:00,6826,0.8224723,0,0,5720.054,11,14,2025-04-30T11:57:17.800+03:00,767696348.8307848,0,-13.3,100.9576,1,0.85,2025-04-30T11:45:49.339+03:00,87,1.45,2025-04-22T14:20:19.516+03:00,0.02197104130929222,0
2025-04-30T11:59:09.477+03:00,1746003548.420814,40.95221689146929,29.14029829636424,76.58913,-1,-1,-1,-1,30,26.98434767089239,-9999,11309.74834025,-0.654052734375,0.52130126953125,-0.5951080322265625,11309.74330225,-1.001239020796346,-0.9225289768807754,-0.6180245882534093,-0.1575474888086319,-0.04308467730879784,-0.03617541491985321,0.01604515314102173,-0.007420003414154053,-0.1058291792869568,XArbitraryZVertical,-0.442421733043316,-0.2412561751938448,-0.2907029208735696,0.8133574581787661,-0.6496816277503967,0.5794262886047363,-0.4921169281005859,0,0,0,-1,-1,11301.05267954167,unknown,2,2025-04-30T11:58:37.789+03:00,2025-04-28T22:17:59.397+03:00,6826,0.8224723,0,0,5720.054,11,14,2025-04-30T11:57:17.800+03:00,767696348.8307848,0,-13.3,100.9576,1,0.85,2025-04-30T11:45:49.339+03:00,87,1.45,2025-04-22T14:20:19.516+03:00,0.02197104130929222,0
