loggingTime(txt),locationTimestamp_since1970(s),locationLatitude(WGS84),locationLongitude(WGS84),locationAltitude(m),locationSpeed(m/s),locationSpeedAccuracy(m/s),locationCourse(°),locationCourseAccuracy(°),locationVerticalAccuracy(m),locationHorizontalAccuracy(m),locationFloor(Z),accelerometerTimestamp_sinceReboot(s),accelerometerAccelerationX(G),accelerometerAccelerationY(G),accelerometerAccelerationZ(G),motionTimestamp_sinceReboot(s),motionYaw(rad),motionRoll(rad),motionPitch(rad),motionRotationRateX(rad/s),motionRotationRateY(rad/s),motionRotationRateZ(rad/s),motionUserAccelerationX(G),motionUserAccelerationY(G),motionUserAccelerationZ(G),motionAttitudeReferenceFrame(txt),motionQuaternionX(R),motionQuaternionY(R),motionQuaternionZ(R),motionQuaternionW(R),motionGravityX(G),motionGravityY(G),motionGravityZ(G),motionMagneticFieldX(µT),motionMagneticFieldY(µT),motionMagneticFieldZ(µT),motionHeading(°),motionMagneticFieldCalibrationAccuracy(Z),activityTimestamp_sinceReboot(s),activity(txt),activityActivityConfidence(Z),activityActivityStartDate(txt),pedometerStartDate(txt),pedometerNumberofSteps(N),pedometerAverageActivePace(s/m),pedometerCurrentPace(s/m),pedometerCurrentCadence(steps/s),pedometerDistance(m),pedometerFloorAscended(N),pedometerFloorDescended(N),pedometerEndDate(txt),altimeterTimestamp_sinceReboot(s),altimeterReset(bool),altimeterRelativeAltitude(m),altimeterPressure(kPa),batteryState(N),batteryLevel(R),heartRateBPMTimestamp(txt),heartRateBPM(N),heartRateBPS(R),heartRateVariabilityTimestamp(txt),heartRateVariability(ms),label
2025-04-22T15:56:38.596+03:00,1745326597.963435,40.95226359885385,29.14032089484547,76.36396,-1,-1,-1,-1,30,21.30253868467173,-9999,36641.73463675,0.75958251953125,-0.438934326171875,-0.46490478515625,36641.72455975,0.4405136762796789,1.014708424517966,0.4664199938272108,0.003878702409565449,-0.008629446849226952,-0.01005264651030302,-0.005202293395996094,-0.01492318511009216,0.01709118485450745,XArbitraryZVertical,0.09383214206934622,0.5054247158480775,0.2953616493404903,0.8052966249915765,0.7586048245429993,-0.4496915638446808,-0.4714827835559845,0,0,0,-1,-1,36637.88171716667,unknown,2,2025-04-22T15:56:34.717+03:00,2025-04-21T17:08:51.449+03:00,8324,1.051678,0,0,6918.726,7,22,2025-04-22T15:56:37.296+03:00,767019389.6593788,0,-14.73,100.3796,1,0.5,2025-04-22T15:55:58.312+03:00,109,1.816666666666667,2025-04-22T14:20:19.516+03:00,0.02197104130929222,0
2025-04-22T15:56:38.608+03:00,1745326597.963435,40.95226359885385,29.14032089484547,76.36396,-1,-1,-1,-1,30,21.30253868467173,-9999,36641.74471275001,0.7488250732421875,-0.446197509765625,-0.4688568115234375,36641.73463675,0.4404546894591969,1.014551749094807,0.4664624406419665,0.007362117059528828,-0.006809177342802286,-0.01010857243090868,0.005553662776947021,0.005653053522109985,0.01079127192497253,XArbitraryZVertical,0.09388832791438208,0.5053604594321535,0.2953393765693833,0.805338638635837,0.7585147619247437,-0.4497294723987579,-0.4715915620326996,0,0,0,-1,-1,36637.88171716667,unknown,2,2025-04-22T15:56:34.717+03:00,2025-04-21T17:08:51.449+03:00,8324,1.051678,0,0,6918.726,7,22,2025-04-22T15:56:37.296+03:00,767019389.6593788,0,-14.73,100.3796,1,0.5,2025-04-22T15:55:58.312+03:00,109,1.816666666666667,2025-04-22T14:20:19.516+03:00,0.02197104130929222,0
2025-04-22T15:56:38.609+03:00,1745326597.963435,40.95226359885385,29.14032089484547,76.36396,-1,-1,-1,-1,30,21.30253868467173,-9999,36641.75478875,0.7513885498046875,-0.4537353515625,-0.471923828125,36641.74471275001,0.4403930116244355,1.014396441427134,0.4664904157664792,0.005372535903006792,-0.008308203890919685,-0.008897732943296432,-0.007820606231689453,0.008745074272155762,0.003074675798416138,XArbitraryZVertical,0.09393879135102019,0.5052960984008604,0.295313090913521,0.8053827454557658,0.7584307789802551,-0.4497544765472412,-0.4717027246952057,0,0,0,-1,-1,36637.88171716667,unknown,2,2025-04-22T15:56:34.717+03:00,2025-04-21T17:08:51.449+03:00,8324,1.051678,0,0,6918.726,7,22,2025-04-22T15:56:37.296+03:00,767019389.6593788,0,-14.73,100.3796,1,0.5,2025-04-22T15:55:58.312+03:00,109,1.816666666666667,2025-04-22T14:20:19.516+03:00,0.02197104130929222,0
2025-04-22T15:56:38.610+03:00,1745326597.963435,40.95226359885385,29.14032089484547,76.36396,-1,-1,-1,-1,30,21.30253868467173,-9999,36641.76486575,0.749114990234375,-0.4505615234375,-0.4775543212890625,36641.75478875,0.4403197465964674,1.014292262826934,0.4663976221508714,0.004356273449957371,-0.006669826805591583,-0.01228953525424004,-0.007074534893035889,-0.002278387546539307,0.002336502075195312,XArbitraryZVertical,0.09393305987485158,0.5052471293702605,0.2952593004913561,0.8054339979478498,0.7584171891212463,-0.449671596288681,-0.4718038439750671,0,0,0,-1,-1,36637.88171716667,unknown,2,2025-04-22T15:56:34.717+03:00,2025-04-21T17:08:51.449+03:00,8324,1.051678,0,0,6918.726,7,22,2025-04-22T15:56:37.296+03:00,767019389.6593788,0,-14.73,100.3796,1,0.5,2025-04-22T15:55:58.312+03:00,109,1.816666666666667,2025-04-22T14:20:19.516+03:00,0.02197104130929222,0
2025-04-22T15:56:38.620+03:00,1745326597.963435,40.95226359885385,29.14032089484547,76.36396,-1,-1,-1,-1,30,21.30253868467173,-9999,36641.77494175,0.7524566650390625,-0.451202392578125,-0.4741363525390625,36641.76486575,0.4402526845691729,1.014197714601829,0.4663269507402419,-0.001087360782548785,-0.01171398814767599,-0.009140146896243095,-0.008933663368225098,-0.002524614334106445,-0.003587007522583008,XArbitraryZVertical,0.09393374705011279,0.5052032417835984,0.2952131530943481,0.8054782457104064,0.758399486541748,-0.4496084749698639,-0.4718922674655914,0,0,0,-1,-1,36637.88171716667,unknown,2,2025-04-22T15:56:34.717+03:00,2025-04-21T17:08:51.449+03:00,8324,1.051678,0,0,6918.726,7,22,2025-04-22T15:56:37.296+03:00,767019389.6593788,0,-14.73,100.3796,1,0.5,2025-04-22T15:55:58.312+03:00,109,1.816666666666667,2025-04-22T14:20:19.516+03:00,0.02197104130929222,0
2025-04-22T15:56:38.625+03:00,1745326597.963435,40.95226359885385,29.14032089484547,76.36396,-1,-1,-1,-1,30,21.30253868467173,-9999,36641.78501775,0.752716064453125,-0.45233154296875,-0.46502685546875,36641.77494175,0.440205973353973,1.014127541979389,0.4662717624797477,-0.0008862920803949237,-0.007406324148178101,-0.009603803046047688,-0.008204460144042969,-0.0006817877292633057,-0.004726141691207886,XArbitraryZVertical,0.09393231972566932,0.5051706918552302,0.295179547842967,0.8055111109054952,0.7583873867988586,-0.4495591819286346,-0.4719585776329041,0,0,0,-1,-1,36637.88171716667,unknown,2,2025-04-22T15:56:34.717+03:00,2025-04-21T17:08:51.449+03:00,8324,1.051678,0,0,6918.726,7,22,2025-04-22T15:56:37.296+03:00,767019389.6593788,0,-14.73,100.3796,1,0.5,2025-04-22T15:55:58.312+03:00,109,1.816666666666667,2025-04-22T14:20:19.516+03:00,0.02197104130929222,0
2025-04-22T15:56:38.635+03:00,1745326597.963435,40.95226359885385,29.14032089484547,76.36396,-1,-1,-1,-1,30,21.30253868467173,-9999,36641.79509375,0.753631591796875,-0.450164794921875,-0.4607086181640625,36641.78501775,0.4401474794788212,1.014151622479944,0.4661480253493833,-0.002140640979632735,-0.003374564461410046,-0.00935013685375452,-0.005150258541107178,-0.003355801105499268,0.003021210432052612,XArbitraryZVertical,0.09389067562970006,0.5051729255507245,0.2951313165938923,0.8055322494380965,0.7584460377693176,-0.4494486451148987,-0.4719697237014771,0,0,0,-1,-1,36637.88171716667,unknown,2,2025-04-22T15:56:34.717+03:00,2025-04-21T17:08:51.449+03:00,8324,1.051678,0,0,6918.726,7,22,2025-04-22T15:56:37.296+03:00,767019389.6593788,0,-14.73,100.3796,1,0.5,2025-04-22T15:55:58.312+03:00,109,1.816666666666667,2025-04-22T14:20:19.516+03:00,0.02197104130929222,0
2025-04-22T15:56:38.645+03:00,1745326597.963435,40.95226359885385,29.14032089484547,76.36396,-1,-1,-1,-1,30,21.30253868467173,-9999,36641.80517075001,0.75537109375,-0.450714111328125,-0.4678192138671875,36641.79509375,0.440077773925122,1.014168720634869,0.4660723570474627,0.004002738744020462,-0.005338911898434162,-0.006682182662189007,-0.00581282377243042,-0.001454979181289673,0.01035040616989136,XArbitraryZVertical,0.09387341860387832,0.5051736779109898,0.2950882894350031,0.8055494759314876,0.7584828734397888,-0.4493810534477234,-0.4719746708869934,0,0,0,-1,-1,36637.88171716667,unknown,2,2025-04-22T15:56:34.717+03:00,2025-04-21T17:08:51.449+03:00,8324,1.051678,0,0,6918.726,7,22,2025-04-22T15:56:37.296+03:00,767019389.6593788,0,-14.73,100.3796,1,0.5,2025-04-22T15:55:58.312+03:00,109,1.816666666666667,2025-04-22T14:20:19.516+03:00,0.02197104130929222,0
2025-04-22T15:56:38.655+03:00,1745326597.963435,40.95226359885385,29.14032089484547,76.36396,-1,-1,-1,-1,30,21.30253868467173,-9999,36641.81524675,0.7518310546875,-0.451873779296875,-0.4687347412109375,36641.80517075001,0.4399112862023644,1.014227050187098,0.4661288523862301,0.01434772182255983,-0.002715232316404581,-0.008338302373886108,-0.002767086029052734,-0.0009620785713195801,0.00788193941116333,XArbitraryZVertical,0.09393103009381831,0.5051914580340479,0.2950356980423843,0.8055510465543253,0.7584890127182007,-0.4494315087795258,-0.4719170928001404,0,0,0,-1,-1,36637.88171716667,unknown,2,2025-04-22T15:56:34.717+03:00,2025-04-21T17:08:51.449+03:00,8324,1.051678,0,0,6918.726,7,22,2025-04-22T15:56:37.296+03:00,767019389.6593788,0,-14.73,100.3796,1,0.5,2025-04-22T15:55:58.312+03:00,109,1.816666666666667,2025-04-22T14:20:19.516+03:00,0.02197104130929222,0
2025-04-22T15:56:38.666+03:00,1745326597.963435,40.95226359885385,29.14032089484547,76.36396,-1,-1,-1,-1,30,21.30253868467173,-9999,36641.82532275,0.7523040771484375,-0.452056884765625,-0.466644287109375,36641.81524675,0.439667143655396,1.014328723342949,0.4661545187969071,0.01834539324045181,-0.006125676911324263,-0.004684179089963436,-0.005368709564208984,-0.001824140548706055,0.001908808946609497,XArbitraryZVertical,0.09398865610424895,0.505221943028568,0.2949475235366695,0.8055573968803221,0.7585271000862122,-0.4494544267654419,-0.4718338549137115,0,0,0,-1,-1,36637.88171716667,unknown,2,2025-04-22T15:56:34.717+03:00,2025-04-21T17:08:51.449+03:00,8324,1.051678,0,0,6918.726,7,22,2025-04-22T15:56:37.296+03:00,767019389.6593788,0,-14.73,100.3796,1,0.5,2025-04-22T15:55:58.312+03:00,109,1.816666666666667,2025-04-22T14:20:19.516+03:00,0.02197104130929222,0
2025-04-22T15:56:38.675+03:00,1745326597.963435,40.95226359885385,29.14032089484547,76.36396,-1,-1,-1,-1,30,21.30253868467173,-9999,36641.83539975,0.7528076171875,-0.453704833984375,-0.46771240234375,36641.82532275,0.4394736200000303,1.014348164847045,0.4661831928825114,0.01402055192738771,-0.009459288790822029,-0.005337785463780165,-0.007426857948303223,-0.002103716135025024,0.005244135856628418,XArbitraryZVertical,0.09404692923464272,0.5052217596890622,0.2948764643961642,0.8055767444866527,0.7585253715515137,-0.4494800567626953,-0.4718123078346252,0,0,0,-1,-1,36637.88171716667,unknown,2,2025-04-22T15:56:34.717+03:00,2025-04-21T17:08:51.449+03:00,8324,1.051678,0,0,6918.726,7,22,2025-04-22T15:56:37.296+03:00,767019389.6593788,0,-14.73,100.3796,1,0.5,2025-04-22T15:55:58.312+03:00,109,1.816666666666667,2025-04-22T14:20:19.516+03:00,0.02197104130929222,0
2025-04-22T15:56:38.685+03:00,1745326597.963435,40.95226359885385,29.14032089484547,76.36396,-1,-1,-1,-1,30,21.30253868467173,-9999,36641.84547575,0.751800537109375,-0.4479217529296875,-0.467376708984375,36641.83539975,0.4393109241479538,1.014322241310438,0.4662528187466999,0.01866563782095909,-0.008470190688967705,-0.001871148822829127,-0.004900872707366943,-0.003948867321014404,0.005003154277801514,XArbitraryZVertical,0.09412160576643754,0.5052062874244664,0.2948242165532419,0.80559691180364,0.7584865689277649,-0.4495422542095184,-0.4718154668807983,0,0,0,-1,-1,36637.88171716667,unknown,2,2025-04-22T15:56:34.717+03:00,2025-04-21T17:08:51.449+03:00,8324,1.051678,0,0,6918.726,7,22,2025-04-22T15:56:37.296+03:00,767019389.6593788,0,-14.73,100.3796,1,0.5,2025-04-22T15:55:58.312+03:00,109,1.816666666666667,2025-04-22T14:20:19.516+03:00,0.02197104130929222,0
2025-04-22T15:56:38.695+03:00,1745326597.963435,40.95226359885385,29.14032089484547,76.36396,-1,-1,-1,-1,30,21.30253868467173,-9999,36641.85555175,0.7522125244140625,-0.442230224609375,-0.4701385498046875,36641.84547575,0.4390777721952228,1.014333682959505,0.466384371552631,0.03034087084233761,-0.00646915752440691,-0.0001630306360311806,-0.006534457206726074,-0.002183467149734497,0.004825890064239502,XArbitraryZVertical,0.09423502363059086,0.5052048917037449,0.2947582760515225,0.8056086834218824,0.7584418058395386,-0.4496597647666931,-0.4717755615711212,0,0,0,-1,-1,36637.88171716667,unknown,2,2025-04-22T15:56:34.717+03:00,2025-04-21T17:08:51.449+03:00,8324,1.051678,0,0,6918.726,7,22,2025-04-22T15:56:37.296+03:00,767019389.6593788,0,-14.73,100.3796,1,0.5,2025-04-22T15:55:58.312+03:00,109,1.816666666666667,2025-04-22T14:20:19.516+03:00,0.02197104130929222,0
2025-04-22T15:56:38.705+03:00,1745326597.963435,40.95226359885385,29.14032089484547,76.36396,-1,-1,-1,-1,30,21.30253868467173,-9999,36641.86562875001,0.750946044921875,-0.444427490234375,-0.475067138671875,36641.85555175,0.4387602103440064,1.014405387148555,0.466583761914902,0.03917590528726578,-0.001335648819804192,0.0003538889577612281,-0.006171762943267822,0.006768465042114258,0.003381431102752686,XArbitraryZVertical,0.09438986055488169,0.5052263407449405,0.2946753479564255,0.8056074170088697,0.7583994269371033,-0.4498378336429596,-0.4716737866401672,0,0,0,-1,-1,36637.88171716667,unknown,2,2025-04-22T15:56:34.717+03:00,2025-04-21T17:08:51.449+03:00,8324,1.051678,0,0,6918.726,7,22,2025-04-22T15:56:37.296+03:00,767019389.6593788,0,-14.73,100.3796,1,0.5,2025-04-22T15:55:58.312+03:00,109,1.816666666666667,2025-04-22T14:20:19.516+03:00,0.02197104130929222,0
2025-04-22T15:56:38.715+03:00,1745326597.963435,40.95226359885385,29.14032089484547,76.36396,-1,-1,-1,-1,30,21.30253868467173,-9999,36641.87570475,0.7483978271484375,-0.4462738037109375,-0.476287841796875,36641.86562875001,0.4383735895527007,1.014591836794642,0.4668506947656758,0.04321791976690292,0.003763106185942888,0.005088257137686014,-0.00653916597366333,0.007952898740768433,-0.001904606819152832,XArbitraryZVertical,0.09457410615363855,0.5052932367537172,0.2945841289945787,0.8055772006719529,0.7583853602409363,-0.4500762224197388,-0.4714689552783966,0,0,0,-1,-1,36637.88171716667,unknown,2,2025-04-22T15:56:34.717+03:00,2025-04-21T17:08:51.449+03:00,8324,1.051678,0,0,6918.726,7,22,2025-04-22T15:56:37.296+03:00,767019389.6593788,0,-14.73,100.3796,1,0.5,2025-04-22T15:55:58.312+03:00,109,1.816666666666667,2025-04-22T14:20:19.516+03:00,0.02197104130929222,0
2025-04-22T15:56:38.725+03:00,1745326597.963435,40.95226359885385,29.14032089484547,76.36396,-1,-1,-1,-1,30,21.30253868467173,-9999,36641.88578075,0.74853515625,-0.446441650390625,-0.4757843017578125,36641.87570475,0.4379358639507375,1.014861580730343,0.4671908908498262,0.05328333750367165,0.006962628103792667,0.00857007410377264,-0.009954214096069336,0.004594564437866211,-0.005363821983337402,XArbitraryZVertical,0.09479032308539732,0.5053939157865132,0.2944915862210011,0.8055225065705239,0.7583824396133423,-0.4503799974918365,-0.471183568239212,0,0,0,-1,-1,36637.88171716667,unknown,2,2025-04-22T15:56:34.717+03:00,2025-04-21T17:08:51.449+03:00,8324,1.051678,0,0,6918.726,7,22,2025-04-22T15:56:37.296+03:00,767019389.6593788,0,-14.73,100.3796,1,0.5,2025-04-22T15:55:58.312+03:00,109,1.816666666666667,2025-04-22T14:20:19.516+03:00,0.02197104130929222,0
2025-04-22T15:56:38.736+03:00,1745326597.963435,40.95226359885385,29.14032089484547,76.36396,-1,-1,-1,-1,30,21.30253868467173,-9999,36641.89585675,0.7520904541015625,-0.4541473388671875,-0.471405029296875,36641.88578075,0.4374604980473844,1.015170106509445,0.4675471297903179,0.05026690661907196,0.0102714728564024,0.00781220430508256,-0.01051241159439087,0.005583912134170532,-0.005224764347076416,XArbitraryZVertical,0.09501722127506715,0.505508918676766,0.2943891438977798,0.8054610848918956,0.7583914399147034,-0.4506980180740356,-0.4708649218082428,0,0,0,-1,-1,36637.88171716667,unknown,2,2025-04-22T15:56:34.717+03:00,2025-04-21T17:08:51.449+03:00,8324,1.051678,0,0,6918.726,7,22,2025-04-22T15:56:37.296+03:00,767019389.6593788,0,-14.73,100.3796,1,0.5,2025-04-22T15:55:58.312+03:00,109,1.816666666666667,2025-04-22T14:20:19.516+03:00,0.02197104130929222,0
2025-04-22T15:56:38.746+03:00,1745326597.963435,40.95226359885385,29.14032089484547,76.36396,-1,-1,-1,-1,30,21.30253868467173,-9999,36641.90593375,0.7566680908203125,-0.458648681640625,-0.46478271484375,36641.89585675,0.4370786966137861,1.015428244508489,0.4678620773507505,0.04047499597072601,0.008708995766937733,0.007569590117782354,-0.007736265659332275,0.0006771087646484375,-0.002352118492126465,XArbitraryZVertical,0.09521025869834011,0.5056064591611605,0.2943134665875224,0.8054046403998056,0.7583922743797302,-0.4509791433811188,-0.4705942273139954,0,0,0,-1,-1,36637.88171716667,unknown,2,2025-04-22T15:56:34.717+03:00,2025-04-21T17:08:51.449+03:00,8324,1.051678,0,0,6918.726,7,22,2025-04-22T15:56:37.296+03:00,767019389.6593788,0,-14.73,100.3796,1,0.5,2025-04-22T15:55:58.312+03:00,109,1.816666666666667,2025-04-22T14:20:19.516+03:00,0.02197104130929222,0
2025-04-22T15:56:38.756+03:00,1745326597.963435,40.95226359885385,29.14032089484547,76.36396,-1,-1,-1,-1,30,21.30253868467173,-9999,36641.91600975,0.7572174072265625,-0.4560546875,-0.465362548828125,36641.90593375,0.4368109047593374,1.015637833801083,0.4681172114367277,0.02522600255906582,0.007922031916677952,0.006766381673514843,-0.003708720207214355,-0.006556719541549683,0.003653883934020996,XArbitraryZVertical,0.09535609338067705,0.5056875685360851,0.2942689216772389,0.8053527186116051,0.7583930492401123,-0.4512068629264832,-0.470374584197998,0,0,0,-1,-1,36637.88171716667,unknown,2,2025-04-22T15:56:34.717+03:00,2025-04-21T17:08:51.449+03:00,8324,1.051678,0,0,6918.726,7,22,2025-04-22T15:56:37.296+03:00,767019389.6593788,0,-14.73,100.3796,1,0.5,2025-04-22T15:55:58.312+03:00,109,1.816666666666667,2025-04-22T14:20:19.516+03:00,0.02197104130929222,0
2025-04-22T15:56:38.766+03:00,1745326597.963435,40.95226359885385,29.14032089484547,76.36396,-1,-1,-1,-1,30,21.30253868467173,-9999,36641.92608575,0.75579833984375,-0.453125,-0.4683074951171875,36641.91600975,0.4365993854639043,1.015807536794197,0.4683041949963613,0.02336232177913189,0.009278113953769207,0.005024407990276814,-0.0001157522201538086,-0.005718499422073364,0.005662679672241211,XArbitraryZVertical,0.09546447244427061,0.5057527278882861,0.2942309152853989,0.8053128506272522,0.7584011554718018,-0.4513736963272095,-0.4702014327049255,0,0,0,-1,-1,36637.88171716667,unknown,2,2025-04-22T15:56:34.717+03:00,2025-04-21T17:08:51.449+03:00,8324,1.051678,0,0,6918.726,7,22,2025-04-22T15:56:37.296+03:00,767019389.6593788,0,-14.73,100.3796,1,0.5,2025-04-22T15:55:58.312+03:00,109,1.816666666666667,2025-04-22T14:20:19.516+03:00,0.02197104130929222,0
2025-04-22T15:56:38.776+03:00,1745326597.963435,40.95226359885385,29.14032089484547,76.36396,-1,-1,-1,-1,30,21.30253868467173,-9999,36641.93616275,0.7575531005859375,-0.4463348388671875,-0.468505859375,36641.92608575,0.4363624508509885,1.01595787608756,0.4684636998533012,0.03043507784605026,0.002297369297593832,0.003318619914352894,-0.002368271350860596,-0.002219200134277344,0.002718359231948853,XArbitraryZVertical,0.09557039281535477,0.5058078437807366,0.2941760399693175,0.8052856826199848,0.7584105730056763,-0.4515160322189331,-0.4700494408607483,0,0,0,-1,-1,36637.88171716667,unknown,2,2025-04-22T15:56:34.717+03:00,2025-04-21T17:08:51.449+03:00,8324,1.051678,0,0,6918.726,7,22,2025-04-22T15:56:37.296+03:00,767019389.6593788,0,-14.73,100.3796,1,0.5,2025-04-22T15:55:58.312+03:00,109,1.816666666666667,2025-04-22T14:20:19.516+03:00,0.02197104130929222,0
2025-04-22T15:56:38.786+03:00,1745326597.963435,40.95226359885385,29.14032089484547,76.36396,-1,-1,-1,-1,30,21.30253868467173,-9999,36641.94623875,0.7591705322265625,-0.435516357421875,-0.467010498046875,36641.93616275,0.4359724881447018,1.016141112115492,0.4687024371160937,0.0519731268286705,-0.0003274423070251942,0.003139655338600278,-0.001615047454833984,0.001274436712265015,0.00117984414100647,XArbitraryZVertical,0.09574402940618826,0.5058717628355043,0.2940777015808024,0.805260802511038,0.7584050297737122,-0.451729029417038,-0.4698536694049835,0,0,0,-1,-1,36637.88171716667,unknown,2,2025-04-22T15:56:34.717+03:00,2025-04-21T17:08:51.449+03:00,8324,1.051678,0,0,6918.726,7,22,2025-04-22T15:56:37.296+03:00,767019389.6593788,0,-14.73,100.3796,1,0.5,2025-04-22T15:55:58.312+03:00,109,1.816666666666667,2025-04-22T14:20:19.516+03:00,0.02197104130929222,0
2025-04-22T15:56:38.796+03:00,1745326597.963435,40.95226359885385,29.14032089484547,76.36396,-1,-1,-1,-1,30,21.30253868467173,-9999,36641.95631475,0.7579803466796875,-0.4309844970703125,-0.4691925048828125,36641.94623875,0.4353053693281181,1.016431204501675,0.4690838251147001,0.08914866298437119,-0.001059878151863813,0.0005462357657961547,0.0007755756378173828,0.01353174448013306,0.001448929309844971,XArbitraryZVertical,0.09603302113141174,0.5059705335334143,0.293902744736294,0.8052282642144328,0.7583948373794556,-0.4520692527294159,-0.4695429503917694,0,0,0,-1,-1,36637.88171716667,unknown,2,2025-04-22T15:56:34.717+03:00,2025-04-21T17:08:51.449+03:00,8324,1.051678,0,0,6918.726,7,22,2025-04-22T15:56:37.296+03:00,767019389.6593788,0,-14.73,100.3796,1,0.5,2025-04-22T15:55:58.312+03:00,109,1.816666666666667,2025-04-22T14:20:19.516+03:00,0.02197104130929222,0
2025-04-22T15:56:38.806+03:00,1745326597.963435,40.95226359885385,29.14032089484547,76.36396,-1,-1,-1,-1,30,21.30253868467173,-9999,36641.96639175,0.7577972412109375,-0.4287567138671875,-0.4729766845703125,36641.95631475,0.4343175461184499,1.016840354776267,0.4696467272090607,0.1230091527104378,-0.001044431701302528,0.004339110106229782,0.0008000731468200684,0.01993894577026367,0.001981258392333984,XArbitraryZVertical,0.0964632357967065,0.506108183103723,0.2936424808926096,0.8051853333106936,0.7583703398704529,-0.452571302652359,-0.4690987169742584,0,0,0,-1,-1,36637.88171716667,unknown,2,2025-04-22T15:56:34.717+03:00,2025-04-21T17:08:51.449+03:00,8324,1.051678,0,0,6918.726,7,22,2025-04-22T15:56:37.296+03:00,767019389.6593788,0,-14.73,100.3796,1,0.5,2025-04-22T15:55:58.312+03:00,109,1.816666666666667,2025-04-22T14:20:19.516+03:00,0.02197104130929222,0
2025-04-22T15:56:38.816+03:00,1745326597.963435,40.95226359885385,29.14032089484547,76.36396,-1,-1,-1,-1,30,21.30253868467173,-9999,36641.97646775,0.757232666015625,-0.44122314453125,-0.4717864990234375,36641.96639175,0.4330961738865217,1.017347646613382,0.470362141966374,0.1403023302555084,-0.001038372982293367,0.001870193053036928,-0.0008254051208496094,0.02448302507400513,-0.002907335758209229,XArbitraryZVertical,0.09700337980689629,0.5062791102365195,0.2933250877015746,0.8051286535350771,0.7583326101303101,-0.4532091319561005,-0.4685436189174652,0,0,0,-1,-1,36637.88171716667,unknown,2,2025-04-22T15:56:34.717+03:00,2025-04-21T17:08:51.449+03:00,8324,1.051678,0,0,6918.726,7,22,2025-04-22T15:56:37.296+03:00,767019389.6593788,0,-14.73,100.3796,1,0.5,2025-04-22T15:55:58.312+03:00,109,1.816666666666667,2025-04-22T14:20:19.516+03:00,0.02197104130929222,0
2025-04-22T15:56:38.826+03:00,1745326597.963435,40.95226359885385,29.14032089484547,76.36396,-1,-1,-1,-1,30,21.30253868467173,-9999,36641.98654375,0.75689697265625,-0.4515380859375,-0.463653564453125,36641.97646775,0.4317660924164002,1.017942692041147,0.4711253839562194,0.1404650509357452,0.00188631028868258,0.003125873394310474,4.500150680541992e-05,0.01847991347312927,-0.00541725754737854,XArbitraryZVertical,0.09757875905074498,0.5064811388883274,0.2929785275781709,0.8050581905331334,0.7583166360855103,-0.4538893401622772,-0.4679104685783386,0,0,0,-1,-1,36637.88171716667,unknown,2,2025-04-22T15:56:34.717+03:00,2025-04-21T17:08:51.449+03:00,8324,1.051678,0,0,6918.726,7,22,2025-04-22T15:56:37.296+03:00,767019389.6593788,0,-14.73,100.3796,1,0.5,2025-04-22T15:55:58.312+03:00,109,1.816666666666667,2025-04-22T14:20:19.516+03:00,0.02197104130929222,0
2025-04-22T15:56:38.836+03:00,1745326597.963435,40.95226359885385,29.14032089484547,76.36396,-1,-1,-1,-1,30,21.30253868467173,-9999,36641.99661975,0.7605438232421875,-0.4504241943359375,-0.461517333984375,36641.98654375,0.4305176661628142,1.018556350201347,0.4719035720051116,0.125822976231575,0.004209385719150305,0.006295035127550364,-0.002153515815734863,0.004372149705886841,0.0007982850074768066,XArbitraryZVertical,0.09813731036233789,0.5066944421770626,0.2926692088594027,0.8049685925665612,0.7583026885986328,-0.4545826315879822,-0.4672596156597137,0,0,0,-1,-1,36637.88171716667,unknown,2,2025-04-22T15:56:34.717+03:00,2025-04-21T17:08:51.449+03:00,8324,1.051678,0,0,6918.726,7,22,2025-04-22T15:56:37.296+03:00,767019389.6593788,0,-14.73,100.3796,1,0.5,2025-04-22T15:55:58.312+03:00,109,1.816666666666667,2025-04-22T14:20:19.516+03:00,0.02197104130929222,0
2025-04-22T15:56:38.846+03:00,1745326597.963435,40.95226359885385,29.14032089484547,76.36396,-1,-1,-1,-1,30,21.30253868467173,-9999,36642.00669675,0.7603302001953125,-0.45654296875,-0.47552490234375,36641.99661975,0.4293926573671084,1.019099759005336,0.4725697700623438,0.1072349175810814,-0.001568874809890985,-0.0001295746769756079,0.0001547932624816895,0.004324555397033691,0.00584256649017334,XArbitraryZVertical,0.09862724254459186,0.5068809803491112,0.2923829313461966,0.8048953571782129,0.7582984566688538,-0.455175906419754,-0.4666886627674103,0,0,0,-1,-1,36637.88171716667,unknown,2,2025-04-22T15:56:34.717+03:00,2025-04-21T17:08:51.449+03:00,8324,1.051678,0,0,6918.726,7,22,2025-04-22T15:56:37.296+03:00,767019389.6593788,0,-14.73,100.3796,1,0.5,2025-04-22T15:55:58.312+03:00,109,1.816666666666667,2025-04-22T14:20:19.516+03:00,0.02197104130929222,0
2025-04-22T15:56:38.856+03:00,1745326597.963435,40.95226359885385,29.14032089484547,76.36396,-1,-1,-1,-1,30,21.30253868467173,-9999,36642.01677275,0.757354736328125,-0.4628753662109375,-0.4962921142578125,36642.00669675,0.4283256246330663,1.019548950867295,0.4730556155825183,0.1086678355932236,-0.001676599495112896,-0.01808121055364609,0.003292262554168701,0.001934230327606201,-0.002777397632598877,XArbitraryZVertical,0.09903941611264304,0.5070257638631781,0.2920777213819938,0.8048643838973442,0.7583195567131042,-0.455608457326889,-0.4662321507930756,0,0,0,-1,-1,36637.88171716667,unknown,2,2025-04-22T15:56:34.717+03:00,2025-04-21T17:08:51.449+03:00,8324,1.051678,0,0,6918.726,7,22,2025-04-22T15:56:37.296+03:00,767019389.6593788,0,-14.73,100.3796,1,0.5,2025-04-22T15:55:58.312+03:00,109,1.816666666666667,2025-04-22T14:20:19.516+03:00,0.02197104130929222,0
2025-04-22T15:56:38.866+03:00,1745326597.963435,40.95226359885385,29.14032089484547,76.36396,-1,-1,-1,-1,30,21.30253868467173,-9999,36642.02684875,0.7623748779296875,-0.43890380859375,-0.5223541259765625,36642.01677275,0.4270811185014625,1.020083372559033,0.473415908253662,0.1283709555864334,-0.0007154648192226887,-0.03383327275514603,9.357929229736328e-06,-0.00590851902961731,-0.02261686325073242,XArbitraryZVertical,0.09943071086099702,0.5071913846686722,0.2916791285821924,0.8048563120107325,0.7584286332130432,-0.455929160118103,-0.4657408595085144,0,0,0,-1,-1,36637.88171716667,unknown,2,2025-04-22T15:56:34.717+03:00,2025-04-21T17:08:51.449+03:00,8324,1.051678,0,0,6918.726,7,22,2025-04-22T15:56:37.296+03:00,767019389.6593788,0,-14.73,100.3796,1,0.5,2025-04-22T15:55:58.312+03:00,109,1.816666666666667,2025-04-22T14:20:19.516+03:00,0.02197104130929222,0
2025-04-22T15:56:38.876+03:00,1745326597.963435,40.95226359885385,29.14032089484547,76.36396,-1,-1,-1,-1,30,21.30253868467173,-9999,36642.03692575,0.7680816650390625,-0.397369384765625,-0.5486907958984375,36642.02684875,0.4251765902090682,1.0208587317327,0.4738274685852601,0.20838463306427,-0.01462349016219378,-0.06142386049032211,0.00107496976852417,0.002865374088287354,-0.04689323902130127,XArbitraryZVertical,0.09997642902050184,0.5074223668123422,0.2910379474657893,0.8048751225152782,0.7586293816566467,-0.4562954008579254,-0.4650545120239258,0,0,0,-1,-1,36637.88171716667,unknown,2,2025-04-22T15:56:34.717+03:00,2025-04-21T17:08:51.449+03:00,8324,1.051678,0,0,6918.726,7,22,2025-04-22T15:56:37.296+03:00,767019389.6593788,0,-14.73,100.3796,1,0.5,2025-04-22T15:55:58.312+03:00,109,1.816666666666667,2025-04-22T14:20:19.516+03:00,0.02197104130929222,0
2025-04-22T15:56:38.886+03:00,1745326597.963435,40.95226359885385,29.14032089484547,76.36396,-1,-1,-1,-1,30,21.30253868467173,-9999,36642.04700175,0.7666778564453125,-0.374359130859375,-0.5626068115234375,36642.03692575,0.4220859127134223,1.022020225666402,0.4745587419262222,0.3496115207672119,-0.03267359733581543,-0.08943791687488556,0.00732046365737915,0.04608795046806335,-0.07637599110603333,XArbitraryZVertical,0.1009040624015382,0.5077587333460354,0.2900065241430228,0.8049195467776644,0.7588841915130615,-0.4569459855556488,-0.4639988839626312,0,0,0,-1,-1,36637.88171716667,unknown,2,2025-04-22T15:56:34.717+03:00,2025-04-21T17:08:51.449+03:00,8324,1.051678,0,0,6918.726,7,22,2025-04-22T15:56:37.296+03:00,767019389.6593788,0,-14.73,100.3796,1,0.5,2025-04-22T15:55:58.312+03:00,109,1.816666666666667,2025-04-22T14:20:19.516+03:00,0.02197104130929222,0
2025-04-22T15:56:38.897+03:00,1745326597.963435,40.95226359885385,29.14032089484547,76.36396,-1,-1,-1,-1,30,21.30253868467173,-9999,36642.05707775,0.7629547119140625,-0.326171875,-0.5924224853515625,36642.04700175,0.4170236047171118,1.023803205223409,0.4760967177404444,0.6005720496177673,-0.08020149916410446,-0.1082129627466202,0.009124934673309326,0.07496702671051025,-0.09576556086540222,XArbitraryZVertical,0.10258800968246,0.5082678418632088,0.2883846884205491,0.8049680909987303,0.7591091394424438,-0.4583134651184082,-0.4622789919376373,0,0,0,-1,-1,36637.88171716667,unknown,2,2025-04-22T15:56:34.717+03:00,2025-04-21T17:08:51.449+03:00,8324,1.051678,0,0,6918.726,7,22,2025-04-22T15:56:37.296+03:00,767019389.6593788,0,-14.73,100.3796,1,0.5,2025-04-22T15:55:58.312+03:00,109,1.816666666666667,2025-04-22T14:20:19.516+03:00,0.02197104130929222,0
2025-04-22T15:56:38.907+03:00,1745326597.963435,40.95226359885385,29.14032089484547,76.36396,-1,-1,-1,-1,30,21.30253868467173,-9999,36642.06715475,0.769866943359375,-0.254180908203125,-0.6546630859375,36642.05707775,0.4088706284867568,1.026493790268987,0.4791448431622352,0.9333236217498779,-0.1216527968645096,-0.1077288016676903,0.004413306713104248,0.1124793589115143,-0.1169067919254303,XArbitraryZVertical,0.1055745537182651,0.5090180037422457,0.2858895748457583,0.8049979832680798,0.7591515779495239,-0.4610204994678497,-0.4595093727111816,0,0,0,-1,-1,36637.88171716667,unknown,2,2025-04-22T15:56:34.717+03:00,2025-04-21T17:08:51.449+03:00,8324,1.051678,0,0,6918.726,7,22,2025-04-22T15:56:37.296+03:00,767019389.6593788,0,-14.73,100.3796,1,0.5,2025-04-22T15:55:58.312+03:00,109,1.816666666666667,2025-04-22T14:20:19.516+03:00,0.02197104130929222,0
2025-04-22T15:56:38.917+03:00,1745326597.963435,40.95226359885385,29.14032089484547,76.36396,-1,-1,-1,-1,30,21.30253868467173,-9999,36642.07723075,0.7549896240234375,-0.2266998291015625,-0.7097930908203125,36642.06715475,0.3974069644996783,1.030542605954515,0.4840575576858213,1.308944821357727,-0.1300751119852066,-0.1136585026979446,0.008630454540252686,0.182064563035965,-0.1751402616500854,XArbitraryZVertical,0.1100126638053571,0.510163181446693,0.282541602709188,0.8048607562044459,0.7590543627738953,-0.4653744101524353,-0.4552614986896515,0,0,0,-1,-1,36637.88171716667,unknown,2,2025-04-22T15:56:34.717+03:00,2025-04-21T17:08:51.449+03:00,8324,1.051678,0,0,6918.726,7,22,2025-04-22T15:56:37.296+03:00,767019389.6593788,0,-14.73,100.3796,1,0.5,2025-04-22T15:55:58.312+03:00,109,1.816666666666667,2025-04-22T14:20:19.516+03:00,0.02197104130929222,0
2025-04-22T15:56:38.927+03:00,1745326597.963435,40.95226359885385,29.14032089484547,76.36396,-1,-1,-1,-1,30,21.30253868467173,-9999,36642.08730675,0.7563629150390625,-0.2728118896484375,-0.754852294921875,36642.07723075,0.3824762252233512,1.036057237103425,0.4906207295273745,1.566266655921936,-0.1728044599294662,-0.09104213863611221,0.003831863403320312,0.2481511533260345,-0.2404390871524811,XArbitraryZVertical,0.1158461093483241,0.5116917597625101,0.2782554203357919,0.8045651130861803,0.7589090466499329,-0.471173495054245,-0.4495024383068085,0,0,0,-1,-1,36637.88171716667,unknown,2,2025-04-22T15:56:34.717+03:00,2025-04-21T17:08:51.449+03:00,8324,1.051678,0,0,6918.726,7,22,2025-04-22T15:56:37.296+03:00,767019389.6593788,0,-14.73,100.3796,1,0.5,2025-04-22T15:55:58.312+03:00,109,1.816666666666667,2025-04-22T14:20:19.516+03:00,0.02197104130929222,0
2025-04-22T15:56:38.937+03:00,1745326597.963435,40.95226359885385,29.14032089484547,76.36396,-1,-1,-1,-1,30,21.30253868467173,-9999,36642.09738375,0.785614013671875,-0.27630615234375,-0.7776641845703125,36642.08730675,0.3657032959043509,1.041873916281034,0.4984211239313152,1.721058011054993,-0.2446236610412598,-0.06909362971782684,-0.009581208229064941,0.2188994288444519,-0.2983496189117432,XArbitraryZVertical,0.1226548261431766,0.5131759696791791,0.2735466281113117,0.8042253266478703,0.7583146095275879,-0.4780393540859222,-0.4432124495506287,0,0,0,-1,-1,36637.88171716667,unknown,2,2025-04-22T15:56:34.717+03:00,2025-04-21T17:08:51.449+03:00,8324,1.051678,0,0,6918.726,7,22,2025-04-22T15:56:37.296+03:00,767019389.6593788,0,-14.73,100.3796,1,0.5,2025-04-22T15:55:58.312+03:00,109,1.816666666666667,2025-04-22T14:20:19.516+03:00,0.02197104130929222,0
2025-04-22T15:56:38.947+03:00,1745326597.963435,40.95226359885385,29.14032089484547,76.36396,-1,-1,-1,-1,30,21.30253868467173,-9999,36642.10745975,0.7928619384765625,-0.335357666015625,-0.7819671630859375,36642.09738375,0.3476162116558543,1.048034464938261,0.5072355166490798,1.843871235847473,-0.2763054370880127,0.01822130382061005,0.01811659336090088,0.2108299136161804,-0.3342641592025757,XArbitraryZVertical,0.130204951655547,0.5146269033543783,0.2685928521013712,0.8037808038004052,0.7573502063751221,-0.4857626855373383,-0.4364116489887238,0,0,0,-1,-1,36637.88171716667,unknown,2,2025-04-22T15:56:34.717+03:00,2025-04-21T17:08:51.449+03:00,8324,1.051678,0,0,6918.726,7,22,2025-04-22T15:56:37.296+03:00,767019389.6593788,0,-14.73,100.3796,1,0.5,2025-04-22T15:55:58.312+03:00,109,1.816666666666667,2025-04-22T14:20:19.516+03:00,0.02197104130929222,0
2025-04-22T15:56:38.957+03:00,1745326597.963435,40.95226359885385,29.14032089484547,76.36396,-1,-1,-1,-1,30,21.30253868467173,-9999,36642.11753575,0.7571868896484375,-0.4286651611328125,-0.7512969970703125,36642.10745975,0.3302103045368018,1.053550402793503,0.5171626590659042,1.678654789924622,-0.3454142510890961,0.2581403851509094,0.03873324394226074,0.1886145770549774,-0.3531526625156403,XArbitraryZVertical,0.1381549485806802,0.5157541684160025,0.2641605438244227,0.8031997451496974,0.7555170655250549,-0.4944158494472504,-0.4298216998577118,0,0,0,-1,-1,36637.88171716667,unknown,2,2025-04-22T15:56:34.717+03:00,2025-04-21T17:08:51.449+03:00,8324,1.051678,0,0,6918.726,7,22,2025-04-22T15:56:37.296+03:00,767019389.6593788,0,-14.73,100.3796,1,0.5,2025-04-22T15:55:58.312+03:00,109,1.816666666666667,2025-04-22T14:20:19.516+03:00,0.02197104130929222,0
2025-04-22T15:56:38.967+03:00,1745326597.963435,40.95226359885385,29.14032089484547,76.36396,-1,-1,-1,-1,30,21.30253868467173,-9999,36642.12761175,0.699981689453125,-0.4852752685546875,-0.724273681640625,36642.11753575,0.3174954001261721,1.057282285176318,0.528661955115022,1.470566868782043,-0.1375742554664612,0.4296762049198151,0.0228952169418335,0.1102287173271179,-0.3428508043289185,XArbitraryZVertical,0.1458016425752822,0.5163843597009764,0.2618756087411494,0.8021908162475475,0.7521138191223145,-0.5043784379959106,-0.4241781532764435,0,0,0,-1,-1,36637.88171716667,unknown,2,2025-04-22T15:56:34.717+03:00,2025-04-21T17:08:51.449+03:00,8324,1.051678,0,0,6918.726,7,22,2025-04-22T15:56:37.296+03:00,767019389.6593788,0,-14.73,100.3796,1,0.5,2025-04-22T15:55:58.312+03:00,109,1.816666666666667,2025-04-22T14:20:19.516+03:00,0.02197104130929222,0
2025-04-22T15:56:38.977+03:00,1745326597.963435,40.95226359885385,29.14032089484547,76.36396,-1,-1,-1,-1,30,21.30253868467173,-9999,36642.13768875,0.6825103759765625,-0.428466796875,-0.756256103515625,36642.12761175,0.3050612276829813,1.062468715899764,0.5388112401557673,1.376028537750244,-0.07470133900642395,0.3701801002025604,-0.02611458301544189,0.03904080390930176,-0.3057829141616821,XArbitraryZVertical,0.1526169496048921,0.5175217903300126,0.2595445376503533,0.800946788747131,0.7497930526733398,-0.5131160020828247,-0.4177585244178772,0,0,0,-1,-1,36637.88171716667,unknown,2,2025-04-22T15:56:34.717+03:00,2025-04-21T17:08:51.449+03:00,8324,1.051678,0,0,6918.726,7,22,2025-04-22T15:56:37.296+03:00,767019389.6593788,0,-14.73,100.3796,1,0.5,2025-04-22T15:55:58.312+03:00,109,1.816666666666667,2025-04-22T14:20:19.516+03:00,0.02197104130929222,0
2025-04-22T15:56:38.987+03:00,1745326597.963435,40.95226359885385,29.14032089484547,76.36396,-1,-1,-1,-1,30,21.30253868467173,-9999,36642.14776475,0.6789093017578125,-0.45355224609375,-0.772705078125,36642.13768875,0.2933433636238077,1.068350766352704,0.5487429842453952,1.314123630523682,0.01686399430036545,0.3358732461929321,-0.0724107027053833,0.06339389085769653,-0.3356088697910309,XArbitraryZVertical,0.1590683382750295,0.5189065495519358,0.2575455796239896,0.7994394299940104,0.747734010219574,-0.521615207195282,-0.4108664989471436,0,0,0,-1,-1,36637.88171716667,unknown,2,2025-04-22T15:56:34.717+03:00,2025-04-21T17:08:51.449+03:00,8324,1.051678,0,0,6918.726,7,22,2025-04-22T15:56:37.296+03:00,767019389.6593788,0,-14.73,100.3796,1,0.5,2025-04-22T15:55:58.312+03:00,109,1.816666666666667,2025-04-22T14:20:19.516+03:00,0.02197104130929222,0
2025-04-22T15:56:38.998+03:00,1745326597.963435,40.95226359885385,29.14032089484547,76.36396,-1,-1,-1,-1,30,21.30253868467173,-9999,36642.15784075001,0.5834503173828125,-0.499603271484375,-0.8177642822265625,36642.14776475,0.2817017562246701,1.0753404024382,0.5575285385758051,1.238865375518799,0.1224109306931496,0.2534630596637726,-0.05069583654403687,0.1047895550727844,-0.3598700761795044,XArbitraryZVertical,0.1648811807324457,0.5206691107202612,0.2554509238607906,0.7977860407353282,0.7465270161628723,-0.5290906429290771,-0.4034357368946075,0,0,0,-1,-1,36637.88171716667,unknown,2,2025-04-22T15:56:34.717+03:00,2025-04-21T17:08:51.449+03:00,8324,1.051678,0,0,6918.726,7,22,2025-04-22T15:56:37.296+03:00,767019389.6593788,0,-14.73,100.3796,1,0.5,2025-04-22T15:55:58.312+03:00,109,1.816666666666667,2025-04-22T14:20:19.516+03:00,0.02197104130929222,0
2025-04-22T15:56:39.008+03:00,1745326597.963435,40.95226359885385,29.14032089484547,76.36396,-1,-1,-1,-1,30,21.30253868467173,-9999,36642.16791775,0.5541839599609375,-0.4618377685546875,-0.8565521240234375,36642.15784075001,0.2698940772799715,1.084271835172236,0.5654603268572387,1.289564490318298,0.5103845000267029,0.2536257803440094,-0.1294087171554565,0.03832238912582397,-0.405851274728775,XArbitraryZVertical,0.17014165965109,0.5231281278524873,0.2533056704913199,0.7957542681910735,0.7463672161102295,-0.5358045697212219,-0.3947775661945343,0,0,0,-1,-1,36637.88171716667,unknown,2,2025-04-22T15:56:34.717+03:00,2025-04-21T17:08:51.449+03:00,8324,1.051678,0,0,6918.726,7,22,2025-04-22T15:56:37.296+03:00,767019389.6593788,0,-14.73,100.3796,1,0.5,2025-04-22T15:55:58.312+03:00,109,1.816666666666667,2025-04-22T14:20:19.516+03:00,0.02197104130929222,0
2025-04-22T15:56:39.019+03:00,1745326597.963435,40.95226359885385,29.14032089484547,76.36396,-1,-1,-1,-1,30,21.30253868467173,-9999,36642.17799375,0.6456451416015625,-0.3778839111328125,-0.861114501953125,36642.16791775,0.257683171420108,1.097588951142957,0.5748285715873352,1.414691209793091,0.8001065254211426,0.4327447712421417,-0.1946129202842712,0.06354272365570068,-0.4594048857688904,XArbitraryZVertical,0.1755657979556007,0.5271880208887987,0.2517722432867201,0.792376143937897,0.7470572590827942,-0.5436909198760986,-0.3824988901615143,0,0,0,-1,-1,36637.88171716667,unknown,2,2025-04-22T15:56:34.717+03:00,2025-04-21T17:08:51.449+03:00,8324,1.051678,0,0,6918.726,7,22,2025-04-22T15:56:37.296+03:00,767019389.6593788,0,-14.73,100.3796,1,0.5,2025-04-22T15:55:58.312+03:00,109,1.816666666666667,2025-04-22T14:20:19.516+03:00,0.02197104130929222,0
2025-04-22T15:56:39.028+03:00,1745326597.963435,40.95226359885385,29.14032089484547,76.36396,-1,-1,-1,-1,30,21.30253868467173,-9999,36642.18806975,0.7095489501953125,-0.3663787841796875,-0.8371429443359375,36642.17799375,0.2439366603738836,1.114122026347815,0.5857263846117415,1.58112359046936,0.9820635318756104,0.4712748527526855,-0.1474373340606689,0.1401004791259766,-0.4997110068798065,XArbitraryZVertical,0.181641943533575,0.5322363341098892,0.2503718244247987,0.7880637661796449,0.7479162812232971,-0.5528048276901245,-0.3674613833427429,0,0,0,-1,-1,36637.88171716667,unknown,2,2025-04-22T15:56:34.717+03:00,2025-04-21T17:08:51.449+03:00,8324,1.051678,0,0,6918.726,7,22,2025-04-22T15:56:37.296+03:00,767019389.6593788,0,-14.73,100.3796,1,0.5,2025-04-22T15:55:58.312+03:00,109,1.816666666666667,2025-04-22T14:20:19.516+03:00,0.02197104130929222,0
2025-04-22T15:56:39.045+03:00,1745326597.963435,40.95226359885385,29.14032089484547,76.36396,-1,-1,-1,-1,30,21.30253868467173,-9999,36642.19814675,0.6682891845703125,-0.4520721435546875,-0.8110809326171875,36642.18806975,0.2286820605542582,1.133606715920797,0.5972205205116534,1.658947587013245,1.203470230102539,0.4977964460849762,-0.04719293117523193,0.2098531723022461,-0.4937203228473663,XArbitraryZVertical,0.1880169817752008,0.5381417709897756,0.2489226756906604,0.7830008492097561,0.7491275668144226,-0.5623462796211243,-0.3501060903072357,0,0,0,-1,-1,36637.88171716667,unknown,2,2025-04-22T15:56:34.717+03:00,2025-04-21T17:08:51.449+03:00,8324,1.051678,0,0,6918.726,7,22,2025-04-22T15:56:37.296+03:00,767019389.6593788,0,-14.73,100.3796,1,0.5,2025-04-22T15:55:58.312+03:00,109,1.816666666666667,2025-04-22T14:20:19.516+03:00,0.02197104130929222,0
2025-04-22T15:56:39.050+03:00,1745326597.963435,40.95226359885385,29.14032089484547,76.36396,-1,-1,-1,-1,30,21.30253868467173,-9999,36642.20822275,0.6402130126953125,-0.5054168701171875,-0.7476348876953125,36642.19814675,0.2123402034397866,1.156084311444268,0.6088517038843435,1.754331350326538,1.417090892791748,0.4968944489955902,-0.06291908025741577,0.1528891324996948,-0.4942761957645416,XArbitraryZVertical,0.1943949095966285,0.5449305773100831,0.2475274930678291,0.7771687160357699,0.7507698535919189,-0.5719258785247803,-0.3305225670337677,0,0,0,-1,-1,36637.88171716667,unknown,2,2025-04-22T15:56:34.717+03:00,2025-04-21T17:08:51.449+03:00,8324,1.051678,0,0,6918.726,7,22,2025-04-22T15:56:37.296+03:00,767019389.6593788,0,-14.73,100.3796,1,0.5,2025-04-22T15:55:58.312+03:00,109,1.816666666666667,2025-04-22T14:20:19.516+03:00,0.02197104130929222,0
2025-04-22T15:56:39.058+03:00,1745326597.963435,40.95226359885385,29.14032089484547,76.36396,-1,-1,-1,-1,30,21.30253868467173,-9999,36642.21829875001,0.6387176513671875,-0.5284576416015625,-0.66162109375,36642.20822275,0.1941591964122907,1.181805533202932,0.6206544731041029,1.859041333198547,1.603812217712402,0.513582706451416,-0.1079634428024292,0.09092140197753906,-0.4655250310897827,XArbitraryZVertical,0.2009771990323373,0.5525817995889493,0.2459712766885172,0.7705580475599551,0.7527234554290771,-0.5815677046775818,-0.308523029088974,0,0,0,-1,-1,36637.88171716667,unknown,2,2025-04-22T15:56:34.717+03:00,2025-04-21T17:08:51.449+03:00,8324,1.051678,0,0,6918.726,7,22,2025-04-22T15:56:37.296+03:00,767019389.6593788,0,-14.73,100.3796,1,0.5,2025-04-22T15:55:58.312+03:00,109,1.816666666666667,2025-04-22T14:20:19.516+03:00,0.02197104130929222,0
2025-04-22T15:56:39.068+03:00,1745326597.963435,40.95226359885385,29.14032089484547,76.36396,-1,-1,-1,-1,30,21.30253868467173,-9999,36642.22837575,0.6357879638671875,-0.55499267578125,-0.5519866943359375,36642.21829875001,0.1749924636668544,1.210039598190493,0.6325917464346257,1.860452651977539,1.767960906028748,0.5645047426223755,-0.1152556538581848,0.06944751739501953,-0.4129677414894104,XArbitraryZVertical,0.2076187839951325,0.5608517539932206,0.2445485323140742,0.7632402681919161,0.7545835375785828,-0.5912370085716248,-0.284679502248764,0,0,0,-1,-1,36637.88171716667,unknown,2,2025-04-22T15:56:34.717+03:00,2025-04-21T17:08:51.449+03:00,8324,1.051678,0,0,6918.726,7,22,2025-04-22T15:56:37.296+03:00,767019389.6593788,0,-14.73,100.3796,1,0.5,2025-04-22T15:55:58.312+03:00,109,1.816666666666667,2025-04-22T14:20:19.516+03:00,0.02197104130929222,0
2025-04-22T15:56:39.084+03:00,1745326597.963435,40.95226359885385,29.14032089484547,76.36396,-1,-1,-1,-1,30,21.30253868467173,-9999,36642.23845112501,0.6305999755859375,-0.6041259765625,-0.459320068359375,36642.22837575,0.1559922524924642,1.239995376155315,0.6443304622571754,1.775488138198853,1.929253697395325,0.6000737547874451,-0.118566632270813,0.05923575162887573,-0.3337204456329346,XArbitraryZVertical,0.2139648832753576,0.5695433595050178,0.2435607089419399,0.7553260669941616,0.7561550140380859,-0.6006633043289185,-0.2596787810325623,0,0,0,-1,-1,36637.88171716667,unknown,2,2025-04-22T15:56:34.717+03:00,2025-04-21T17:08:51.449+03:00,8324,1.051678,0,0,6918.726,7,22,2025-04-22T15:56:37.296+03:00,767019389.6593788,0,-14.73,100.3796,1,0.5,2025-04-22T15:55:58.312+03:00,109,1.816666666666667,2025-04-22T14:20:19.516+03:00,0.02197104130929222,0
2025-04-22T15:56:39.088+03:00,1745326597.963435,40.95226359885385,29.14032089484547,76.36396,-1,-1,-1,-1,30,21.30253868467173,-9999,36642.248527125,0.6434478759765625,-0.6332550048828125,-0.3785858154296875,36642.23845112501,0.1376126305282315,1.271310138565704,0.6555661256005846,1.67571496963501,2.076033353805542,0.6183270812034607,-0.1263148188591003,0.0245557427406311,-0.2570353746414185,XArbitraryZVertical,0.2198054094179578,0.5785760977745525,0.2430660614950373,0.7468962765061133,0.7574182152748108,-0.6096081137657166,-0.2338705658912659,0,0,0,-1,-1,36637.88171716667,unknown,2,2025-04-22T15:56:34.717+03:00,2025-04-21T17:08:51.449+03:00,8324,1.051678,0,0,6918.726,7,22,2025-04-22T15:56:37.296+03:00,767019389.6593788,0,-14.73,100.3796,1,0.5,2025-04-22T15:55:58.312+03:00,109,1.816666666666667,2025-04-22T14:20:19.516+03:00,0.02197104130929222,0
2025-04-22T15:56:39.098+03:00,1745326597.963435,40.95226359885385,29.14032089484547,76.36396,-1,-1,-1,-1,30,21.30253868467173,-9999,36642.258604125,0.6747589111328125,-0.6318511962890625,-0.2745208740234375,36642.248527125,0.1202114124463061,1.303385989665175,0.6662397503115258,1.525154829025269,2.164265155792236,0.6569061875343323,-0.1226968169212341,-0.00859832763671875,-0.2019397914409637,XArbitraryZVertical,0.2250776779949036,0.5877719428298318,0.2431073550718184,0.7380804634870785,0.7582098841667175,-0.6180342435836792,-0.2077283710241318,0,0,0,-1,-1,36637.88171716667,unknown,2,2025-04-22T15:56:34.717+03:00,2025-04-21T17:08:51.449+03:00,8324,1.051678,0,0,6918.726,7,22,2025-04-22T15:56:37.296+03:00,767019389.6593788,0,-14.73,100.3796,1,0.5,2025-04-22T15:55:58.312+03:00,109,1.816666666666667,2025-04-22T14:20:19.516+03:00,0.02197104130929222,0
2025-04-22T15:56:39.108+03:00,1745326597.963435,40.95226359885385,29.14032089484547,76.36396,-1,-1,-1,-1,30,21.30253868467173,-9999,36642.268680125,0.7037200927734375,-0.6236572265625,-0.159576416015625,36642.258604125,0.104324491180759,1.335288217720509,0.6765192344606438,1.37639594078064,2.200609922409058,0.7053222060203552,-0.0970536470413208,-0.007980942726135254,-0.1346891969442368,XArbitraryZVertical,0.2297865484797552,0.596845938349261,0.2438022385170257,0.729063390783761,0.7582321166992188,-0.6260826587677002,-0.1819461286067963,0,0,0,-1,-1,36637.88171716667,unknown,2,2025-04-22T15:56:34.717+03:00,2025-04-21T17:08:51.449+03:00,8324,1.051678,0,0,6918.726,7,22,2025-04-22T15:56:37.296+03:00,767019389.6593788,0,-14.73,100.3796,1,0.5,2025-04-22T15:55:58.312+03:00,109,1.816666666666667,2025-04-22T14:20:19.516+03:00,0.02197104130929222,0
2025-04-22T15:56:39.119+03:00,1745326597.963435,40.95226359885385,29.14032089484547,76.36396,-1,-1,-1,-1,30,21.30253868467173,-9999,36642.278756125,0.7050323486328125,-0.6124114990234375,-0.0495758056640625,36642.268680125,0.08986822199996468,1.366661653288594,0.6865749260185747,1.242116689682007,2.221291303634644,0.7561064958572388,-0.06197422742843628,0.007411837577819824,-0.04484188556671143,XArbitraryZVertical,0.2340429551721894,0.6056648587940907,0.2450991679602283,0.7199447061460761,0.757362961769104,-0.6338918805122375,-0.1567879468202591,0,0,0,-1,-1,36637.88171716667,unknown,2,2025-04-22T15:56:34.717+03:00,2025-04-21T17:08:51.449+03:00,8324,1.051678,0,0,6918.726,7,22,2025-04-22T15:56:37.296+03:00,767019389.6593788,0,-14.73,100.3796,1,0.5,2025-04-22T15:55:58.312+03:00,109,1.816666666666667,2025-04-22T14:20:19.516+03:00,0.02197104130929222,0
2025-04-22T15:56:39.129+03:00,1745326597.963435,40.95226359885385,29.14032089484547,76.36396,-1,-1,-1,-1,30,21.30253868467173,-9999,36642.288833125,0.6935272216796875,-0.5995941162109375,0.064727783203125,36642.278756125,0.07605917625301589,1.397915509558176,0.6966028689452984,1.208705186843872,2.231150388717651,0.8067677617073059,-0.04793554544448853,0.02441304922103882,0.03903359174728394,XArbitraryZVertical,0.2380878798066557,0.6142816007607093,0.246799155398235,0.7106773884951699,0.7555922865867615,-0.6416156888008118,-0.131944552063942,0,0,0,-1,-1,36637.88171716667,unknown,2,2025-04-22T15:56:34.717+03:00,2025-04-21T17:08:51.449+03:00,8324,1.051678,0,0,6918.726,7,22,2025-04-22T15:56:37.296+03:00,767019389.6593788,0,-14.73,100.3796,1,0.5,2025-04-22T15:55:58.312+03:00,109,1.816666666666667,2025-04-22T14:20:19.516+03:00,0.02197104130929222,0
2025-04-22T15:56:39.139+03:00,1745326597.963435,40.95226359885385,29.14032089484547,76.36396,-1,-1,-1,-1,30,21.30253868467173,-9999,36642.29890912501,0.6887359619140625,-0.56927490234375,0.1516265869140625,36642.288833125,0.06199467002494472,1.429413660429229,0.7068611592808487,1.226163148880005,2.214985132217407,0.8719139099121094,-0.05524605512619019,0.04373729228973389,0.1309231370687485,XArbitraryZVertical,0.2422357898096989,0.6226931373275056,0.2486968882462037,0.7012310110213865,0.752816915512085,-0.6494501829147339,-0.1071501597762108,0,0,0,-1,-1,36637.88171716667,unknown,2,2025-04-22T15:56:34.717+03:00,2025-04-21T17:08:51.449+03:00,8324,1.051678,0,0,6918.726,7,22,2025-04-22T15:56:37.296+03:00,767019389.6593788,0,-14.73,100.3796,1,0.5,2025-04-22T15:55:58.312+03:00,109,1.816666666666667,2025-04-22T14:20:19.516+03:00,0.02197104130929222,0
2025-04-22T15:56:39.149+03:00,1745326597.963435,40.95226359885385,29.14032089484547,76.36396,-1,-1,-1,-1,30,21.30253868467173,-9999,36642.308985125,0.6622161865234375,-0.5395660400390625,0.21405029296875,36642.29890912501,0.04670012853875219,1.461686154296731,0.7174984935996382,1.320607900619507,2.208605766296387,0.9320573806762695,-0.05787122249603271,0.07423484325408936,0.2037501931190491,XArbitraryZVertical,0.2467719707883822,0.6309361523211773,0.2505751896236357,0.6915454598076408,0.7489721775054932,-0.6575019359588623,-0.08204632997512817,0,0,0,-1,-1,36637.88171716667,unknown,2,2025-04-22T15:56:34.717+03:00,2025-04-21T17:08:51.449+03:00,8324,1.051678,0,0,6918.726,7,22,2025-04-22T15:56:37.296+03:00,767019389.6593788,0,-14.73,100.3796,1,0.5,2025-04-22T15:55:58.312+03:00,109,1.816666666666667,2025-04-22T14:20:19.516+03:00,0.02197104130929222,0
2025-04-22T15:56:39.159+03:00,1745326597.963435,40.95226359885385,29.14032089484547,76.36396,-1,-1,-1,-1,30,21.30253868467173,-9999,36642.319062125,0.60955810546875,-0.5443267822265625,0.273284912109375,36642.308985125,0.02951505113659402,1.495311363448718,0.7282165476164213,1.429981708526611,2.207543849945068,0.9448871612548828,-0.06770819425582886,0.1179017424583435,0.2497058510780334,XArbitraryZVertical,0.2517303417008823,0.6391314491128266,0.2522164024676881,0.6815640899118687,0.7442370653152466,-0.665539562702179,-0.05628565326333046,0,0,0,-1,-1,36637.88171716667,unknown,2,2025-04-22T15:56:34.717+03:00,2025-04-21T17:08:51.449+03:00,8324,1.051678,0,0,6918.726,7,22,2025-04-22T15:56:37.296+03:00,767019389.6593788,0,-14.73,100.3796,1,0.5,2025-04-22T15:55:58.312+03:00,109,1.816666666666667,2025-04-22T14:20:19.516+03:00,0.02197104130929222,0
2025-04-22T15:56:39.169+03:00,1745326597.963435,40.95226359885385,29.14032089484547,76.36396,-1,-1,-1,-1,30,21.30253868467173,-9999,36642.329138125,0.573760986328125,-0.5796966552734375,0.3732147216796875,36642.319062125,0.01004095909592111,1.530483999048479,0.7384723126814738,1.559211611747742,2.183492422103882,0.9110527634620667,-0.1099449396133423,0.1351189613342285,0.2779104709625244,XArbitraryZVertical,0.2570420678907432,0.6473237030789981,0.253375486660076,0.6713435322517661,0.7388968467712402,-0.6731590032577515,-0.02980279736220837,0,0,0,-1,-1,36637.88171716667,unknown,2,2025-04-22T15:56:34.717+03:00,2025-04-21T17:08:51.449+03:00,8324,1.051678,0,0,6918.726,7,22,2025-04-22T15:56:37.296+03:00,767019389.6593788,0,-14.73,100.3796,1,0.5,2025-04-22T15:55:58.312+03:00,109,1.816666666666667,2025-04-22T14:20:19.516+03:00,0.02197104130929222,0
2025-04-22T15:56:39.179+03:00,1745326597.963435,40.95226359885385,29.14032089484547,76.36396,-1,-1,-1,-1,30,21.30253868467173,-9999,36642.339214125,0.5651092529296875,-0.6406707763671875,0.5149078369140625,36642.329138125,-0.01167132328760558,1.566849416035234,0.7477089523882003,1.644661545753479,2.113099575042725,0.8519889116287231,-0.1499298214912415,0.1178269386291504,0.33254474401474,XArbitraryZVertical,0.2625784163482615,0.6554430149745011,0.2538764608991841,0.6610549667996233,0.7332427501678467,-0.6799606680870056,-0.00289405882358551,0,0,0,-1,-1,36637.88171716667,unknown,2,2025-04-22T15:56:34.717+03:00,2025-04-21T17:08:51.449+03:00,8324,1.051678,0,0,6918.726,7,22,2025-04-22T15:56:37.296+03:00,767019389.6593788,0,-14.73,100.3796,1,0.5,2025-04-22T15:55:58.312+03:00,109,1.816666666666667,2025-04-22T14:20:19.516+03:00,0.02197104130929222,0
2025-04-22T15:56:39.189+03:00,1745326597.963435,40.95226359885385,29.14032089484547,76.36396,-1,-1,-1,-1,30,21.30253868467173,-9999,36642.349291125,0.5711822509765625,-0.7050628662109375,0.6572723388671875,36642.339214125,-0.03489658967397365,1.603401666371503,0.7556640700788716,1.69101095199585,1.986554145812988,0.7709475755691528,-0.1621523499488831,0.06930190324783325,0.4357306957244873,XArbitraryZVertical,0.268182365272025,0.66328083314474,0.2537550777245597,0.6509570116043395,0.7274293303489685,-0.6857721209526062,0.02372648939490318,0,0,0,-1,-1,36637.88171716667,unknown,2,2025-04-22T15:56:34.717+03:00,2025-04-21T17:08:51.449+03:00,8324,1.051678,0,0,6918.726,7,22,2025-04-22T15:56:37.296+03:00,767019389.6593788,0,-14.73,100.3796,1,0.5,2025-04-22T15:55:58.312+03:00,109,1.816666666666667,2025-04-22T14:20:19.516+03:00,0.02197104130929222,0
2025-04-22T15:56:39.199+03:00,1745326597.963435,40.95226359885385,29.14032089484547,76.36396,-1,-1,-1,-1,30,21.30253868467173,-9999,36642.35936712501,0.556671142578125,-0.7576904296875,0.788665771484375,36642.349291125,-0.05881963695804709,1.639065520275611,0.7620630228291553,1.680800914764404,1.824374556541443,0.6662552356719971,-0.1520717740058899,0.009812295436859131,0.5558911561965942,XArbitraryZVertical,0.2736695746245876,0.6706558041479992,0.2530293992504481,0.6413282537308679,0.7217281460762024,-0.6904153227806091,0.04934848845005035,0,0,0,-1,-1,36637.88171716667,unknown,2,2025-04-22T15:56:34.717+03:00,2025-04-21T17:08:51.449+03:00,8324,1.051678,0,0,6918.726,7,22,2025-04-22T15:56:37.296+03:00,767019389.6593788,0,-14.73,100.3796,1,0.5,2025-04-22T15:55:58.312+03:00,109,1.816666666666667,2025-04-22T14:20:19.516+03:00,0.02197104130929222,0
2025-04-22T15:56:39.209+03:00,1745326597.963435,40.95226359885385,29.14032089484547,76.36396,-1,-1,-1,-1,30,21.30253868467173,-9999,36642.369443125,0.53302001953125,-0.7930908203125,0.9283294677734375,36642.35936712501,-0.08278121572053358,1.673286750970397,0.7666208167783287,1.678106665611267,1.668540000915527,0.5226190090179443,-0.1514310240745544,-0.04594916105270386,0.6673829555511475,XArbitraryZVertical,0.2788352909561148,0.6775663132973736,0.2517035284138236,0.6322973900198703,0.7164791822433472,-0.6937053203582764,0.07369045913219452,0,0,0,-1,-1,36637.88171716667,unknown,2,2025-04-22T15:56:34.717+03:00,2025-04-21T17:08:51.449+03:00,8324,1.051678,0,0,6918.726,7,22,2025-04-22T15:56:37.296+03:00,767019389.6593788,0,-14.73,100.3796,1,0.5,2025-04-22T15:55:58.312+03:00,109,1.816666666666667,2025-04-22T14:20:19.516+03:00,0.02197104130929222,0
2025-04-22T15:56:39.219+03:00,1745326597.963435,40.95226359885385,29.14032089484547,76.36396,-1,-1,-1,-1,30,21.30253868467173,-9999,36642.379519125,0.522979736328125,-0.8309478759765625,1.11944580078125,36642.369443125,-0.1068059816582222,1.705961375217824,0.7690116172897365,1.65282130241394,1.501940965652466,0.3613827228546143,-0.1712724566459656,-0.08548879623413086,0.7747784852981567,XArbitraryZVertical,0.2836382624989712,0.6840805980031004,0.2495948778945845,0.6239272840810296,0.7120437622070312,-0.6954253315925598,0.09683385491371155,0,0,0,-1,-1,36637.88171716667,unknown,2,2025-04-22T15:56:34.717+03:00,2025-04-21T17:08:51.449+03:00,8324,1.051678,0,0,6918.726,7,22,2025-04-22T15:56:37.296+03:00,767019389.6593788,0,-14.73,100.3796,1,0.5,2025-04-22T15:55:58.312+03:00,109,1.816666666666667,2025-04-22T14:20:19.516+03:00,0.02197104130929222,0
2025-04-22T15:56:39.229+03:00,1745326597.963435,40.95226359885385,29.14032089484547,76.36396,-1,-1,-1,-1,30,21.30253868467173,-9999,36642.389596125,0.519073486328125,-0.8752288818359375,1.35333251953125,36642.379519125,-0.1288156675588837,1.735534906639948,0.7696144555001802,1.398742914199829,1.325824499130249,0.2292137742042542,-0.1830040812492371,-0.1212801933288574,0.9224598407745361,XArbitraryZVertical,0.2877031931371412,0.690011269307005,0.2472094992470248,0.6164403595902556,0.7084556818008423,-0.6958584189414978,0.1177773550152779,0,0,0,-1,-1,36637.88171716667,unknown,2,2025-04-22T15:56:34.717+03:00,2025-04-21T17:08:51.449+03:00,8324,1.051678,0,0,6918.726,7,22,2025-04-22T15:56:37.296+03:00,767019389.6593788,0,-14.73,100.3796,1,0.5,2025-04-22T15:55:58.312+03:00,109,1.816666666666667,2025-04-22T14:20:19.516+03:00,0.02197104130929222,0
2025-04-22T15:56:39.240+03:00,1745326597.963435,40.95226359885385,29.14032089484547,76.36396,-1,-1,-1,-1,30,21.30253868467173,-9999,36642.399672125,0.5117645263671875,-0.9277496337890625,1.556137084960938,36642.389596125,-0.1450636712255946,1.759305158139333,0.769246483994281,0.8592961430549622,1.141746878623962,0.1015708148479462,-0.1851693987846375,-0.160317063331604,1.128949403762817,XArbitraryZVertical,0.2902955828671345,0.6950135191286353,0.2455279103995215,0.6102463672867814,0.7057076096534729,-0.6955940723419189,0.1346306353807449,0,0,0,-1,-1,36637.88171716667,unknown,2,2025-04-22T15:56:34.717+03:00,2025-04-21T17:08:51.449+03:00,8324,1.051678,0,0,6918.726,7,22,2025-04-22T15:56:37.296+03:00,767019389.6593788,0,-14.73,100.3796,1,0.5,2025-04-22T15:55:58.312+03:00,109,1.816666666666667,2025-04-22T14:20:19.516+03:00,0.02197104130929222,0
2025-04-22T15:56:39.250+03:00,1745326597.963435,40.95226359885385,29.14032089484547,76.36396,-1,-1,-1,-1,30,21.30253868467173,-9999,36642.409748125,0.506927490234375,-0.8973541259765625,1.647201538085938,36642.399672125,-0.1518351825860378,1.773987224605645,0.7684004153305862,0.1107620075345039,0.8148385882377625,-0.09075681865215302,-0.1875685453414917,-0.2164671421051025,1.344375491142273,XArbitraryZVertical,0.2906142383153411,0.6986352445412363,0.2452914237076575,0.6060396835608998,0.7042310237884521,-0.6949859857559204,0.1450956761837006,0,0,0,-1,-1,36637.88171716667,unknown,2,2025-04-22T15:56:34.717+03:00,2025-04-21T17:08:51.449+03:00,8324,1.051678,0,0,6918.726,7,22,2025-04-22T15:56:37.296+03:00,767019389.6593788,0,-14.73,100.3796,1,0.5,2025-04-22T15:55:58.312+03:00,109,1.816666666666667,2025-04-22T14:20:19.516+03:00,0.02197104130929222,0
