loggingTime(txt),locationTimestamp_since1970(s),locationLatitude(WGS84),locationLongitude(WGS84),locationAltitude(m),locationSpeed(m/s),locationSpeedAccuracy(m/s),locationCourse(°),locationCourseAccuracy(°),locationVerticalAccuracy(m),locationHorizontalAccuracy(m),locationFloor(Z),accelerometerTimestamp_sinceReboot(s),accelerometerAccelerationX(G),accelerometerAccelerationY(G),accelerometerAccelerationZ(G),motionTimestamp_sinceReboot(s),motionYaw(rad),motionRoll(rad),motionPitch(rad),motionRotationRateX(rad/s),motionRotationRateY(rad/s),motionRotationRateZ(rad/s),motionUserAccelerationX(G),motionUserAccelerationY(G),motionUserAccelerationZ(G),motionAttitudeReferenceFrame(txt),motionQuaternionX(R),motionQuaternionY(R),motionQuaternionZ(R),motionQuaternionW(R),motionGravityX(G),motionGravityY(G),motionGravityZ(G),motionMagneticFieldX(µT),motionMagneticFieldY(µT),motionMagneticFieldZ(µT),motionHeading(°),motionMagneticFieldCalibrationAccuracy(Z),activityTimestamp_sinceReboot(s),activity(txt),activityActivityConfidence(Z),activityActivityStartDate(txt),pedometerStartDate(txt),pedometerNumberofSteps(N),pedometerAverageActivePace(s/m),pedometerCurrentPace(s/m),pedometerCurrentCadence(steps/s),pedometerDistance(m),pedometerFloorAscended(N),pedometerFloorDescended(N),pedometerEndDate(txt),altimeterTimestamp_sinceReboot(s),altimeterReset(bool),altimeterRelativeAltitude(m),altimeterPressure(kPa),batteryState(N),batteryLevel(R),heartRateBPMTimestamp(txt),heartRateBPM(N),heartRateBPS(R),heartRateVariabilityTimestamp(txt),heartRateVariability(ms),label
2025-04-22T15:35:06.024+03:00,1745325304.300193,40.95227366424168,29.14030080800874,76.50296,-1,-1,-1,-1,30,29.46666746656674,-9999,35852.50793154167,-0.7984161376953125,0.567535400390625,-0.24029541015625,35852.49785554167,-2.879215637840926,-1.236828367076077,-0.6008848275032656,0.01301533635705709,0.01326763071119785,1.221074489876628e-05,0.009243249893188477,-0.05218905210494995,0.006017744541168213,XArbitraryZVertical,-0.580559352915758,0.1666212141136429,-0.7491688857798005,0.2719081793111817,-0.7792626619338989,0.5653725266456604,-0.2703764140605927,0,0,0,-1,-1,35848.91196654167,unknown,2,2025-04-22T15:35:02.393+03:00,2025-04-21T17:08:51.449+03:00,8251,1.040753,0,0,6864.177,7,22,2025-04-22T15:32:35.359+03:00,767018105.0627543,0,-15.57999,100.3896,1,0.55,2025-04-22T15:34:05.734+03:00,77.00000000000001,1.283333333333333,2025-04-22T14:20:19.516+03:00,0.02197104130929222,0
2025-04-22T15:35:06.026+03:00,1745325304.300193,40.95227366424168,29.14030080800874,76.50296,-1,-1,-1,-1,30,29.46666746656674,-9999,35852.51800754167,-0.7692413330078125,0.5163116455078125,-0.2422332763671875,35852.50793154167,-2.879363248416725,-1.236837648430775,-0.6010034793712874,-0.04149264842271805,0.0006003044545650482,0.01325717568397522,-0.02267789840698242,-0.005244076251983643,0.02893772721290588,XArbitraryZVertical,-0.5805464739700006,0.1667099065532437,-0.7491677864779372,0.2718843598507463,-0.7792018055915833,0.5654703974723816,-0.2703472077846527,0,0,0,-1,-1,35848.91196654167,unknown,2,2025-04-22T15:35:02.393+03:00,2025-04-21T17:08:51.449+03:00,8251,1.040753,0,0,6864.177,7,22,2025-04-22T15:32:35.359+03:00,767018105.0627543,0,-15.57999,100.3896,1,0.55,2025-04-22T15:34:05.734+03:00,77.00000000000001,1.283333333333333,2025-04-22T14:20:19.516+03:00,0.02197104130929222,0
2025-04-22T15:35:06.027+03:00,1745325304.300193,40.95227366424168,29.14030080800874,76.50296,-1,-1,-1,-1,30,29.46666746656674,-9999,35852.52808454167,-0.7725677490234375,0.5367889404296875,-0.2505035400390625,35852.51800754167,-2.879988452856834,-1.237248816695763,-0.6012790572991188,-0.06430076062679291,0.002879704115912318,0.01731143891811371,-0.01598501205444336,-0.005776524543762207,0.02969539165496826,XArbitraryZVertical,-0.5806388829548961,0.1669449179508018,-0.7490904840556424,0.2717557962815767,-0.7791656255722046,0.5656976699829102,-0.2699757516384125,0,0,0,-1,-1,35848.91196654167,unknown,2,2025-04-22T15:35:02.393+03:00,2025-04-21T17:08:51.449+03:00,8251,1.040753,0,0,6864.177,7,22,2025-04-22T15:32:35.359+03:00,767018105.0627543,0,-15.57999,100.3896,1,0.55,2025-04-22T15:34:05.734+03:00,77.00000000000001,1.283333333333333,2025-04-22T14:20:19.516+03:00,0.02197104130929222,0
2025-04-22T15:35:06.028+03:00,1745325304.300193,40.95227366424168,29.14030080800874,76.50296,-1,-1,-1,-1,30,29.46666746656674,-9999,35852.53816054167,-0.7872772216796875,0.56903076171875,-0.2629547119140625,35852.52808454167,-2.880545352279724,-1.237434452102024,-0.6016519349423319,-0.04737343639135361,0.02103846706449986,0.02545219101011753,0.01152992248535156,-0.0505937933921814,0.02719295024871826,XArbitraryZVertical,-0.5806490269679976,0.1672293775242424,-0.7490542070443597,0.2716592561849799,-0.779016375541687,0.5660051107406616,-0.2697620987892151,0,0,0,-1,-1,35848.91196654167,unknown,2,2025-04-22T15:35:02.393+03:00,2025-04-21T17:08:51.449+03:00,8251,1.040753,0,0,6864.177,7,22,2025-04-22T15:32:35.359+03:00,767018105.0627543,0,-15.57999,100.3896,1,0.55,2025-04-22T15:34:05.734+03:00,77.00000000000001,1.283333333333333,2025-04-22T14:20:19.516+03:00,0.02197104130929222,0
2025-04-22T15:35:06.034+03:00,1745325304.300193,40.95227366424168,29.14030080800874,76.50296,-1,-1,-1,-1,30,29.46666746656674,-9999,35852.54823754167,-0.7789154052734375,0.5774688720703125,-0.2747802734375,35852.53816054167,-2.880884441705542,-1.237381719679888,-0.6020579888887111,-0.02982094325125217,0.01902098953723907,0.02245446853339672,0.003608047962188721,-0.02431714534759521,0.01759156584739685,XArbitraryZVertical,-0.5805868281151202,0.1674961190303439,-0.7490524553579295,0.271632970541136,-0.7787850499153137,0.5663397908210754,-0.2697279751300812,0,0,0,-1,-1,35848.91196654167,unknown,2,2025-04-22T15:35:02.393+03:00,2025-04-21T17:08:51.449+03:00,8251,1.040753,0,0,6864.177,7,22,2025-04-22T15:32:35.359+03:00,767018105.0627543,0,-15.57999,100.3896,1,0.55,2025-04-22T15:34:05.734+03:00,77.00000000000001,1.283333333333333,2025-04-22T14:20:19.516+03:00,0.02197104130929222,0
2025-04-22T15:35:06.045+03:00,1745325304.300193,40.95227366424168,29.14030080800874,76.50296,-1,-1,-1,-1,30,29.46666746656674,-9999,35852.55831354167,-0.77227783203125,0.5803070068359375,-0.2819671630859375,35852.54823754167,-2.881028167435385,-1.237259288394744,-0.602303969113644,-0.006947586312890053,0.01312448550015688,0.0137411393225193,-0.009175717830657959,0.004563391208648682,0.005403727293014526,XArbitraryZVertical,-0.5805203966208181,0.1676520980084191,-0.7490691643273601,0.2716325634466339,-0.7786203026771545,0.5665425062179565,-0.2697776854038239,0,0,0,-1,-1,35848.91196654167,unknown,2,2025-04-22T15:35:02.393+03:00,2025-04-21T17:08:51.449+03:00,8251,1.040753,0,0,6864.177,7,22,2025-04-22T15:32:35.359+03:00,767018105.0627543,0,-15.57999,100.3896,1,0.55,2025-04-22T15:34:05.734+03:00,77.00000000000001,1.283333333333333,2025-04-22T14:20:19.516+03:00,0.02197104130929222,0
2025-04-22T15:35:06.054+03:00,1745325304.300193,40.95227366424168,29.14030080800874,76.50296,-1,-1,-1,-1,30,29.46666746656674,-9999,35852.56838954167,-0.7744903564453125,0.5816497802734375,-0.2825469970703125,35852.55831354167,-2.880915607445186,-1.23700809642004,-0.6024011648399514,0.01463114283978939,0.01798122562468052,0.008481362834572792,0.0002260804176330566,0.01119714975357056,-0.006076455116271973,XArbitraryZVertical,-0.5804323730114884,0.1676921215318014,-0.749111656176094,0.2716788203842501,-0.778500497341156,0.5666226148605347,-0.2699552178382874,0,0,0,-1,-1,35848.91196654167,unknown,2,2025-04-22T15:35:02.393+03:00,2025-04-21T17:08:51.449+03:00,8251,1.040753,0,0,6864.177,7,22,2025-04-22T15:32:35.359+03:00,767018105.0627543,0,-15.57999,100.3896,1,0.55,2025-04-22T15:34:05.734+03:00,77.00000000000001,1.283333333333333,2025-04-22T14:20:19.516+03:00,0.02197104130929222,0
2025-04-22T15:35:06.064+03:00,1745325304.300193,40.95227366424168,29.14030080800874,76.50296,-1,-1,-1,-1,30,29.46666746656674,-9999,35852.57846654167,-0.7763824462890625,0.5766143798828125,-0.27587890625,35852.56838954167,-2.880587701372953,-1.236606329367175,-0.602391006805324,0.03133368864655495,0.019759152084589,0.004676770884543657,0.00660783052444458,0.01404368877410889,-0.01204845309257507,XArbitraryZVertical,-0.5803097292625988,0.1676475282489994,-0.7491852269466416,0.27176533640545,-0.7783973813056946,0.5666142702102661,-0.2702698409557343,0,0,0,-1,-1,35848.91196654167,unknown,2,2025-04-22T15:35:02.393+03:00,2025-04-21T17:08:51.449+03:00,8251,1.040753,0,0,6864.177,7,22,2025-04-22T15:32:35.359+03:00,767018105.0627543,0,-15.57999,100.3896,1,0.55,2025-04-22T15:34:05.734+03:00,77.00000000000001,1.283333333333333,2025-04-22T14:20:19.516+03:00,0.02197104130929222,0
2025-04-22T15:35:06.074+03:00,1745325304.300193,40.95227366424168,29.14030080800874,76.50296,-1,-1,-1,-1,30,29.46666746656674,-9999,35852.58854254167,-0.77593994140625,0.5677337646484375,-0.269744873046875,35852.57846654167,-2.880220063491018,-1.236182956199892,-0.6022993061778581,0.03333865106105804,0.02313271164894104,0.003203576663509011,0.003979086875915527,0.01440912485122681,-0.01110672950744629,XArbitraryZVertical,-0.5801851017352699,0.167561994710686,-0.7492724202320613,0.2718438605612983,-0.778331995010376,0.5665386915206909,-0.2706164419651031,0,0,0,-1,-1,35848.91196654167,unknown,2,2025-04-22T15:35:02.393+03:00,2025-04-21T17:08:51.449+03:00,8251,1.040753,0,0,6864.177,7,22,2025-04-22T15:32:35.359+03:00,767018105.0627543,0,-15.57999,100.3896,1,0.55,2025-04-22T15:34:05.734+03:00,77.00000000000001,1.283333333333333,2025-04-22T14:20:19.516+03:00,0.02197104130929222,0
2025-04-22T15:35:06.084+03:00,1745325304.300193,40.95227366424168,29.14030080800874,76.50296,-1,-1,-1,-1,30,29.46666746656674,-9999,35852.59861854167,-0.7781982421875,0.5594024658203125,-0.265228271484375,35852.58854254167,-2.879877557285535,-1.235767995232787,-0.6022070433932404,0.02588925696909428,0.02516576834022999,0.0009414875530637801,0.002359628677368164,0.00874781608581543,-0.00432741641998291,XArbitraryZVertical,-0.5800614993855079,0.1674824217630679,-0.749360609832191,0.2719135722262006,-0.7782689929008484,0.5664626359939575,-0.2709565758705139,0,0,0,-1,-1,35848.91196654167,unknown,2,2025-04-22T15:35:02.393+03:00,2025-04-21T17:08:51.449+03:00,8251,1.040753,0,0,6864.177,7,22,2025-04-22T15:32:35.359+03:00,767018105.0627543,0,-15.57999,100.3896,1,0.55,2025-04-22T15:34:05.734+03:00,77.00000000000001,1.283333333333333,2025-04-22T14:20:19.516+03:00,0.02197104130929222,0
2025-04-22T15:35:06.094+03:00,1745325304.300193,40.95227366424168,29.14030080800874,76.50296,-1,-1,-1,-1,30,29.46666746656674,-9999,35852.60869554167,-0.77703857421875,0.556793212890625,-0.267120361328125,35852.59861854167,-2.879622219163906,-1.235399345558423,-0.6021420735814568,0.02146641165018082,0.02554833143949509,0.001969401258975267,0.001760363578796387,-4.869699478149414e-05,0.002563416957855225,XArbitraryZVertical,-0.5799469808041159,0.1674327032689552,-0.7494428927184306,0.271961591084097,-0.7782037854194641,0.5664091110229492,-0.2712555825710297,0,0,0,-1,-1,35848.91196654167,unknown,2,2025-04-22T15:35:02.393+03:00,2025-04-21T17:08:51.449+03:00,8251,1.040753,0,0,6864.177,7,22,2025-04-22T15:32:35.359+03:00,767018105.0627543,0,-15.57999,100.3896,1,0.55,2025-04-22T15:34:05.734+03:00,77.00000000000001,1.283333333333333,2025-04-22T14:20:19.516+03:00,0.02197104130929222,0
2025-04-22T15:35:06.105+03:00,1745325304.300193,40.95227366424168,29.14030080800874,76.50296,-1,-1,-1,-1,30,29.46666746656674,-9999,35852.61877154167,-0.773529052734375,0.5585479736328125,-0.2738037109375,35852.60869554167,-2.879438932449164,-1.235095761133438,-0.6020947523364784,0.01053679827600718,0.01825233548879623,0.004858664236962795,0.0005589127540588379,-0.008157908916473389,0.005814433097839355,XArbitraryZVertical,-0.5798501784601141,0.1674020466939331,-0.7495133842326338,0.2719926367569649,-0.7781466841697693,0.5663701295852661,-0.2715006470680237,0,0,0,-1,-1,35848.91196654167,unknown,2,2025-04-22T15:35:02.393+03:00,2025-04-21T17:08:51.449+03:00,8251,1.040753,0,0,6864.177,7,22,2025-04-22T15:32:35.359+03:00,767018105.0627543,0,-15.57999,100.3896,1,0.55,2025-04-22T15:34:05.734+03:00,77.00000000000001,1.283333333333333,2025-04-22T14:20:19.516+03:00,0.02197104130929222,0
2025-04-22T15:35:06.115+03:00,1745325304.300193,40.95227366424168,29.14030080800874,76.50296,-1,-1,-1,-1,30,29.46666746656674,-9999,35852.62884754167,-0.768157958984375,0.560882568359375,-0.279632568359375,35852.61877154167,-2.879319667854183,-1.234913248835005,-0.6020651735419958,0.0114415418356657,0.008850377984344959,0.001301114214584231,0.001288056373596191,-0.009644091129302979,0.003139108419418335,XArbitraryZVertical,-0.5797927672066781,0.167380536099483,-0.7495547364094566,0.2720144161704909,-0.7781130075454712,0.566345751285553,-0.2716481983661652,0,0,0,-1,-1,35848.91196654167,unknown,2,2025-04-22T15:35:02.393+03:00,2025-04-21T17:08:51.449+03:00,8251,1.040753,0,0,6864.177,7,22,2025-04-22T15:32:35.359+03:00,767018105.0627543,0,-15.57999,100.3896,1,0.55,2025-04-22T15:34:05.734+03:00,77.00000000000001,1.283333333333333,2025-04-22T14:20:19.516+03:00,0.02197104130929222,0
2025-04-22T15:35:06.125+03:00,1745325304.300193,40.95227366424168,29.14030080800874,76.50296,-1,-1,-1,-1,30,29.46666746656674,-9999,35852.63892454167,-0.767333984375,0.560760498046875,-0.282806396484375,35852.62884754167,-2.879196207857026,-1.234792938160986,-0.6020268346215307,0.01198748964816332,0.003069720463827252,-0.002084562554955482,0.006189227104187012,-0.007781445980072021,-0.002314299345016479,XArbitraryZVertical,-0.5797593160323204,0.1673458782116372,-0.7495788181620651,0.2720407169883804,-0.778100848197937,0.566314160823822,-0.2717489898204803,0,0,0,-1,-1,35848.91196654167,unknown,2,2025-04-22T15:35:02.393+03:00,2025-04-21T17:08:51.449+03:00,8251,1.040753,0,0,6864.177,7,22,2025-04-22T15:32:35.359+03:00,767018105.0627543,0,-15.57999,100.3896,1,0.55,2025-04-22T15:34:05.734+03:00,77.00000000000001,1.283333333333333,2025-04-22T14:20:19.516+03:00,0.02197104130929222,0
2025-04-22T15:35:06.135+03:00,1745325304.300193,40.95227366424168,29.14030080800874,76.50296,-1,-1,-1,-1,30,29.46666746656674,-9999,35852.64900054167,-0.7721405029296875,0.5586090087890625,-0.2847900390625,35852.63892454167,-2.879026724436263,-1.234675398478127,-0.6019690332936881,0.01624495163559914,-0.0005528447218239307,-0.002543225418776274,0.01105570793151855,-0.005139827728271484,-0.008544474840164185,XArbitraryZVertical,-0.5797314125544546,0.16728977496457,-0.7495988631674306,0.2720794785020109,-0.7780997753143311,0.5662664771080017,-0.2718512415885925,0,0,0,-1,-1,35848.91196654167,unknown,2,2025-04-22T15:35:02.393+03:00,2025-04-21T17:08:51.449+03:00,8251,1.040753,0,0,6864.177,7,22,2025-04-22T15:32:35.359+03:00,767018105.0627543,0,-15.57999,100.3896,1,0.55,2025-04-22T15:34:05.734+03:00,77.00000000000001,1.283333333333333,2025-04-22T14:20:19.516+03:00,0.02197104130929222,0
2025-04-22T15:35:06.145+03:00,1745325304.300193,40.95227366424168,29.14030080800874,76.50296,-1,-1,-1,-1,30,29.46666746656674,-9999,35852.65907754167,-0.7772064208984375,0.563262939453125,-0.2842254638671875,35852.64900054167,-2.878753783686734,-1.23449067621405,-0.6018902436711183,0.0291098840534687,-0.0006385981105268002,-0.002319519873708487,0.009613215923309326,-0.006570339202880859,-0.01096481084823608,XArbitraryZVertical,-0.5796877054590125,0.1672045215325868,-0.7496273866835577,0.2721459926970963,-0.7780914902687073,0.5662015676498413,-0.2720096111297607,0,0,0,-1,-1,35848.91196654167,unknown,2,2025-04-22T15:35:02.393+03:00,2025-04-21T17:08:51.449+03:00,8251,1.040753,0,0,6864.177,7,22,2025-04-22T15:32:35.359+03:00,767018105.0627543,0,-15.57999,100.3896,1,0.55,2025-04-22T15:34:05.734+03:00,77.00000000000001,1.283333333333333,2025-04-22T14:20:19.516+03:00,0.02197104130929222,0
2025-04-22T15:35:06.155+03:00,1745325304.300193,40.95227366424168,29.14030080800874,76.50296,-1,-1,-1,-1,30,29.46666746656674,-9999,35852.66915354167,-0.778045654296875,0.5623626708984375,-0.282379150390625,35852.65907754167,-2.878365480597713,-1.234257520987659,-0.6017745299153835,0.03713112697005272,-0.001275293529033661,-0.004228440579026937,0.005003511905670166,-0.006535947322845459,-0.01199772953987122,XArbitraryZVertical,-0.5796366970390777,0.1670777402675202,-0.7496601465205067,0.2722421833036819,-0.7780898213386536,0.5661061406135559,-0.2722126543521881,0,0,0,-1,-1,35848.91196654167,unknown,2,2025-04-22T15:35:02.393+03:00,2025-04-21T17:08:51.449+03:00,8251,1.040753,0,0,6864.177,7,22,2025-04-22T15:32:35.359+03:00,767018105.0627543,0,-15.57999,100.3896,1,0.55,2025-04-22T15:34:05.734+03:00,77.00000000000001,1.283333333333333,2025-04-22T14:20:19.516+03:00,0.02197104130929222,0
2025-04-22T15:35:06.166+03:00,1745325304.300193,40.95227366424168,29.14030080800874,76.50296,-1,-1,-1,-1,30,29.46666746656674,-9999,35852.67922954167,-0.7760009765625,0.5574951171875,-0.2808990478515625,35852.66915354167,-2.877894247324165,-1.233981996596535,-0.6016151792983031,0.04782398417592049,0.0006605582311749458,-0.004827118944376707,0.000817418098449707,-0.002284646034240723,-0.01187556982040405,XArbitraryZVertical,-0.5795781499651484,0.1669153564819046,-0.7497007777711394,0.2723546912182906,-0.7781000137329102,0.5659747719764709,-0.2724568545818329,0,0,0,-1,-1,35848.91196654167,unknown,2,2025-04-22T15:35:02.393+03:00,2025-04-21T17:08:51.449+03:00,8251,1.040753,0,0,6864.177,7,22,2025-04-22T15:32:35.359+03:00,767018105.0627543,0,-15.57999,100.3896,1,0.55,2025-04-22T15:34:05.734+03:00,77.00000000000001,1.283333333333333,2025-04-22T14:20:19.516+03:00,0.02197104130929222,0
2025-04-22T15:35:06.175+03:00,1745325304.300193,40.95227366424168,29.14030080800874,76.50296,-1,-1,-1,-1,30,29.46666746656674,-9999,35852.68930654167,-0.7762908935546875,0.555511474609375,-0.2769927978515625,35852.67922954167,-2.877357500027517,-1.233671654346951,-0.6014278297246519,0.04892453551292419,0.002731032902374864,0.0004855543375015259,0.0003293156623840332,-0.004388570785522461,-0.009783297777175903,XArbitraryZVertical,-0.5795129013246771,0.1667276450231125,-0.7497468001351391,0.272481681364338,-0.778115451335907,0.5658203363418579,-0.2727333903312683,0,0,0,-1,-1,35848.91196654167,unknown,2,2025-04-22T15:35:02.393+03:00,2025-04-21T17:08:51.449+03:00,8251,1.040753,0,0,6864.177,7,22,2025-04-22T15:32:35.359+03:00,767018105.0627543,0,-15.57999,100.3896,1,0.55,2025-04-22T15:34:05.734+03:00,77.00000000000001,1.283333333333333,2025-04-22T14:20:19.516+03:00,0.02197104130929222,0
2025-04-22T15:35:06.185+03:00,1745325304.300193,40.95227366424168,29.14030080800874,76.50296,-1,-1,-1,-1,30,29.46666746656674,-9999,35852.69938254167,-0.77392578125,0.5539398193359375,-0.2748565673828125,35852.68930654167,-2.876849525465814,-1.233374188062664,-0.6012759093764282,0.03917363658547401,0.001678551780059934,0.002337783109396696,0.001870393753051758,-0.008596837520599365,-0.007829636335372925,XArbitraryZVertical,-0.5794488067260022,0.1665606178675107,-0.7497874834461941,0.2726081495590265,-0.7781153321266174,0.56569504737854,-0.2729932963848114,0,0,0,-1,-1,35848.91196654167,unknown,2,2025-04-22T15:35:02.393+03:00,2025-04-21T17:08:51.449+03:00,8251,1.040753,0,0,6864.177,7,22,2025-04-22T15:32:35.359+03:00,767018105.0627543,0,-15.57999,100.3896,1,0.55,2025-04-22T15:34:05.734+03:00,77.00000000000001,1.283333333333333,2025-04-22T14:20:19.516+03:00,0.02197104130929222,0
2025-04-22T15:35:06.195+03:00,1745325304.300193,40.95227366424168,29.14030080800874,76.50296,-1,-1,-1,-1,30,29.46666746656674,-9999,35852.70945954167,-0.772735595703125,0.5507659912109375,-0.27099609375,35852.69938254167,-2.876437527372551,-1.233127471643745,-0.6011590185298403,0.03339564427733421,0.001353646162897348,0.002349900314584374,0.0018654465675354,-0.01114016771316528,-0.003480672836303711,XArbitraryZVertical,-0.5793945041253973,0.166428411993897,-0.7498211373335744,0.2727119334246274,-0.7781104445457458,0.5655986666679382,-0.2732071876525879,0,0,0,-1,-1,35848.91196654167,unknown,2,2025-04-22T15:35:02.393+03:00,2025-04-21T17:08:51.449+03:00,8251,1.040753,0,0,6864.177,7,22,2025-04-22T15:32:35.359+03:00,767018105.0627543,0,-15.57999,100.3896,1,0.55,2025-04-22T15:34:05.734+03:00,77.00000000000001,1.283333333333333,2025-04-22T14:20:19.516+03:00,0.02197104130929222,0
2025-04-22T15:35:06.206+03:00,1745325304.300193,40.95227366424168,29.14030080800874,76.50296,-1,-1,-1,-1,30,29.46666746656674,-9999,35852.71953554167,-0.7748870849609375,0.548095703125,-0.2664947509765625,35852.70945954167,-2.876127865714753,-1.232929670330726,-0.601106751629861,0.01777886599302292,0.004378996789455414,0.005098282359540462,0.004173874855041504,-0.0117073655128479,-0.0009213089942932129,XArbitraryZVertical,-0.5793478524397297,0.1663449110173456,-0.7498443298956032,0.2727981047420207,-0.7780842781066895,0.5655555725097656,-0.2733708620071411,0,0,0,-1,-1,35848.91196654167,unknown,2,2025-04-22T15:35:02.393+03:00,2025-04-21T17:08:51.449+03:00,8251,1.040753,0,0,6864.177,7,22,2025-04-22T15:32:35.359+03:00,767018105.0627543,0,-15.57999,100.3896,1,0.55,2025-04-22T15:34:05.734+03:00,77.00000000000001,1.283333333333333,2025-04-22T14:20:19.516+03:00,0.02197104130929222,0
2025-04-22T15:35:06.215+03:00,1745325304.300193,40.95227366424168,29.14030080800874,76.50296,-1,-1,-1,-1,30,29.46666746656674,-9999,35852.72961154167,-0.7725677490234375,0.551239013671875,-0.2663116455078125,35852.71953554167,-2.87591896144125,-1.23275759541103,-0.6011095818618712,0.0118115209043026,0.002311585238203406,0.005415731575340033,0.004888236522674561,-0.01538711786270142,0.004018545150756836,XArbitraryZVertical,-0.5793006099050679,0.1663089897804513,-0.7498652855403773,0.2728628465296709,-0.7780357599258423,0.5655578970909119,-0.2735042572021484,0,0,0,-1,-1,35848.91196654167,unknown,2,2025-04-22T15:35:02.393+03:00,2025-04-21T17:08:51.449+03:00,8251,1.040753,0,0,6864.177,7,22,2025-04-22T15:32:35.359+03:00,767018105.0627543,0,-15.57999,100.3896,1,0.55,2025-04-22T15:34:05.734+03:00,77.00000000000001,1.283333333333333,2025-04-22T14:20:19.516+03:00,0.02197104130929222,0
2025-04-22T15:35:06.225+03:00,1745325304.300193,40.95227366424168,29.14030080800874,76.50296,-1,-1,-1,-1,30,29.46666746656674,-9999,35852.73968854167,-0.773284912109375,0.55828857421875,-0.268096923828125,35852.72961154167,-2.87577485323178,-1.232625954343977,-0.6011270864615449,0.00668813195079565,0.003445825539529324,0.005813075229525566,0.003851056098937988,-0.01744616031646729,0.007764548063278198,XArbitraryZVertical,-0.5792626477144739,0.1662921620686059,-0.7498810745780515,0.2729104405679957,-0.777990460395813,0.5655723214149475,-0.2736034095287323,0,0,0,-1,-1,35848.91196654167,unknown,2,2025-04-22T15:35:02.393+03:00,2025-04-21T17:08:51.449+03:00,8251,1.040753,0,0,6864.177,7,22,2025-04-22T15:32:35.359+03:00,767018105.0627543,0,-15.57999,100.3896,1,0.55,2025-04-22T15:34:05.734+03:00,77.00000000000001,1.283333333333333,2025-04-22T14:20:19.516+03:00,0.02197104130929222,0
2025-04-22T15:35:06.235+03:00,1745325304.300193,40.95227366424168,29.14030080800874,76.50296,-1,-1,-1,-1,30,29.46666746656674,-9999,35852.74976454167,-0.7736968994140625,0.560028076171875,-0.269500732421875,35852.73968854167,-2.87567712841793,-1.232521666783372,-0.6011461127557518,0.004138021729886532,0.002538353437557817,0.002247568219900131,0.005353569984436035,-0.01378452777862549,0.007155478000640869,XArbitraryZVertical,-0.5792310450413627,0.1662856622144746,-0.7498949272284693,0.2729433130267943,-0.777951717376709,0.5655880570411682,-0.2736809551715851,0,0,0,-1,-1,35848.91196654167,unknown,2,2025-04-22T15:35:02.393+03:00,2025-04-21T17:08:51.449+03:00,8251,1.040753,0,0,6864.177,7,22,2025-04-22T15:32:35.359+03:00,767018105.0627543,0,-15.57999,100.3896,1,0.55,2025-04-22T15:34:05.734+03:00,77.00000000000001,1.283333333333333,2025-04-22T14:20:19.516+03:00,0.02197104130929222,0
2025-04-22T15:35:06.246+03:00,1745325304.300193,40.95227366424168,29.14030080800874,76.50296,-1,-1,-1,-1,30,29.46666746656674,-9999,35852.75984054167,-0.772735595703125,0.561370849609375,-0.271026611328125,35852.74976454167,-2.875567253620786,-1.232425975441023,-0.601124258207046,0.01008805632591248,-0.002296349033713341,-0.0002587325870990753,0.00434720516204834,-0.006854236125946045,0.005723416805267334,XArbitraryZVertical,-0.5792050213821124,0.166258207515876,-0.7499110830333205,0.2729709257519001,-0.7779372334480286,0.5655699968338013,-0.273759514093399,0,0,0,-1,-1,35848.91196654167,unknown,2,2025-04-22T15:35:02.393+03:00,2025-04-21T17:08:51.449+03:00,8251,1.040753,0,0,6864.177,7,22,2025-04-22T15:32:35.359+03:00,767018105.0627543,0,-15.57999,100.3896,1,0.55,2025-04-22T15:34:05.734+03:00,77.00000000000001,1.283333333333333,2025-04-22T14:20:19.516+03:00,0.02197104130929222,0
2025-04-22T15:35:06.256+03:00,1745325304.300193,40.95227366424168,29.14030080800874,76.50296,-1,-1,-1,-1,30,29.46666746656674,-9999,35852.76991754167,-0.767181396484375,0.562255859375,-0.2755889892578125,35852.75984054167,-2.875417847827769,-1.232357165035449,-0.6010854677007422,0.0123438872396946,-0.004813435953110456,0.001142955617979169,0.004486322402954102,-0.005052268505096436,0.004853427410125732,XArbitraryZVertical,-0.5791929294311775,0.1662089170224645,-0.749916619396933,0.2730112379872751,-0.7779390215873718,0.5655379891395569,-0.2738202810287476,0,0,0,-1,-1,35848.91196654167,unknown,2,2025-04-22T15:35:02.393+03:00,2025-04-21T17:08:51.449+03:00,8251,1.040753,0,0,6864.177,7,22,2025-04-22T15:32:35.359+03:00,767018105.0627543,0,-15.57999,100.3896,1,0.55,2025-04-22T15:34:05.734+03:00,77.00000000000001,1.283333333333333,2025-04-22T14:20:19.516+03:00,0.02197104130929222,0
2025-04-22T15:35:06.266+03:00,1745325304.300193,40.95227366424168,29.14030080800874,76.50296,-1,-1,-1,-1,30,29.46666746656674,-9999,35852.77999354167,-0.76904296875,0.5582427978515625,-0.274505615234375,35852.76991754167,-2.875252927237672,-1.232300963565518,-0.6010211190238341,0.01442062016576529,-0.005084545817226171,-0.001150558702647686,0.005878567695617676,-0.004266738891601562,0.002650976181030273,XArbitraryZVertical,-0.5791876859846197,0.1661432405358835,-0.7499204382080514,0.2730518352962977,-0.7779579162597656,0.5654849410057068,-0.2738761007785797,0,0,0,-1,-1,35848.91196654167,unknown,2,2025-04-22T15:35:02.393+03:00,2025-04-21T17:08:51.449+03:00,8251,1.040753,0,0,6864.177,7,22,2025-04-22T15:32:35.359+03:00,767018105.0627543,0,-15.57999,100.3896,1,0.55,2025-04-22T15:34:05.734+03:00,77.00000000000001,1.283333333333333,2025-04-22T14:20:19.516+03:00,0.02197104130929222,0
2025-04-22T15:35:06.276+03:00,1745325304.300193,40.95227366424168,29.14030080800874,76.50296,-1,-1,-1,-1,30,29.46666746656674,-9999,35852.79007054167,-0.7715911865234375,0.5573577880859375,-0.2708282470703125,35852.77999354167,-2.875068001532724,-1.232246098155545,-0.6009359908286284,0.01733771339058876,-0.006945429835468531,0.0004306266200728714,0.01033395528793335,-0.003128468990325928,-0.002310514450073242,XArbitraryZVertical,-0.5791852856217788,0.166063331413948,-0.7499243477628912,0.2730946981648623,-0.7779882550239563,0.5654147267341614,-0.2739347517490387,0,0,0,-1,-1,35848.91196654167,unknown,2,2025-04-22T15:35:02.393+03:00,2025-04-21T17:08:51.449+03:00,8251,1.040753,0,0,6864.177,7,22,2025-04-22T15:32:35.359+03:00,767018105.0627543,0,-15.57999,100.3896,1,0.55,2025-04-22T15:34:05.734+03:00,77.00000000000001,1.283333333333333,2025-04-22T14:20:19.516+03:00,0.02197104130929222,0
2025-04-22T15:35:06.286+03:00,1745325304.300193,40.95227366424168,29.14030080800874,76.50296,-1,-1,-1,-1,30,29.46666746656674,-9999,35852.80014654167,-0.7697601318359375,0.552764892578125,-0.2630157470703125,35852.79007054167,-2.874969625757984,-1.232263959869546,-0.6008875372600488,0.0008676599245518446,-0.01385420188307762,0.0005193099495954812,0.007633388042449951,-0.006796360015869141,0.0002481341361999512,XArbitraryZVertical,-0.5792017447778288,0.1660131306223209,-0.7499133368454434,0.2731205908655125,-0.7780190110206604,0.5653747916221619,-0.2739299535751343,0,0,0,-1,-1,35848.91196654167,unknown,2,2025-04-22T15:35:02.393+03:00,2025-04-21T17:08:51.449+03:00,8251,1.040753,0,0,6864.177,7,22,2025-04-22T15:32:35.359+03:00,767018105.0627543,0,-15.57999,100.3896,1,0.55,2025-04-22T15:34:05.734+03:00,77.00000000000001,1.283333333333333,2025-04-22T14:20:19.516+03:00,0.02197104130929222,0
2025-04-22T15:35:06.296+03:00,1745325304.300193,40.95227366424168,29.14030080800874,76.50296,-1,-1,-1,-1,30,29.46666746656674,-9999,35852.81022254167,-0.7706756591796875,0.54931640625,-0.256011962890625,35852.80014654167,-2.875015384546496,-1.232433555356682,-0.6008614124127243,-0.00715391431003809,-0.01286124251782894,-0.00231462623924017,0.006167888641357422,-0.0090789794921875,0.002730339765548706,XArbitraryZVertical,-0.5792624049025148,0.1659928453874996,-0.7498744849603881,0.2731107841604103,-0.7780793309211731,0.5653532147407532,-0.2738028764724731,0,0,0,-1,-1,35848.91196654167,unknown,2,2025-04-22T15:35:02.393+03:00,2025-04-21T17:08:51.449+03:00,8251,1.040753,0,0,6864.177,7,22,2025-04-22T15:32:35.359+03:00,767018105.0627543,0,-15.57999,100.3896,1,0.55,2025-04-22T15:34:05.734+03:00,77.00000000000001,1.283333333333333,2025-04-22T14:20:19.516+03:00,0.02197104130929222,0
2025-04-22T15:35:06.306+03:00,1745325304.300193,40.95227366424168,29.14030080800874,76.50296,-1,-1,-1,-1,30,29.46666746656674,-9999,35852.82029954167,-0.770660400390625,0.551971435546875,-0.2605743408203125,35852.81022254167,-2.875211297050056,-1.232672559525736,-0.6008767964406658,-0.02460214681923389,-0.01103564538061619,-7.677206303924322e-05,0.008590161800384521,-0.01348608732223511,0.01279541850090027,XArbitraryZVertical,-0.5793352262168427,0.1660230485371569,-0.749829761086829,0.273061129061834,-0.7781367301940918,0.5653659105300903,-0.2736140787601471,0,0,0,-1,-1,35848.91196654167,unknown,2,2025-04-22T15:35:02.393+03:00,2025-04-21T17:08:51.449+03:00,8251,1.040753,0,0,6864.177,7,22,2025-04-22T15:32:35.359+03:00,767018105.0627543,0,-15.57999,100.3896,1,0.55,2025-04-22T15:34:05.734+03:00,77.00000000000001,1.283333333333333,2025-04-22T14:20:19.516+03:00,0.02197104130929222,0
2025-04-22T15:35:06.316+03:00,1745325304.300193,40.95227366424168,29.14030080800874,76.50296,-1,-1,-1,-1,30,29.46666746656674,-9999,35852.83037554167,-0.7682342529296875,0.5561065673828125,-0.26019287109375,35852.82029954167,-2.87554826812864,-1.23298260925362,-0.6009495091463378,-0.03281326964497566,-0.01286450400948524,-0.001258716220036149,0.007095158100128174,-0.01575857400894165,0.01751488447189331,XArbitraryZVertical,-0.579421077310014,0.1661072480924481,-0.7497745981595938,0.2729792757536267,-0.7781827449798584,0.5654258728027344,-0.2733592092990875,0,0,0,-1,-1,35848.91196654167,unknown,2,2025-04-22T15:35:02.393+03:00,2025-04-21T17:08:51.449+03:00,8251,1.040753,0,0,6864.177,7,22,2025-04-22T15:32:35.359+03:00,767018105.0627543,0,-15.57999,100.3896,1,0.55,2025-04-22T15:34:05.734+03:00,77.00000000000001,1.283333333333333,2025-04-22T14:20:19.516+03:00,0.02197104130929222,0
2025-04-22T15:35:06.326+03:00,1745325304.300193,40.95227366424168,29.14030080800874,76.50296,-1,-1,-1,-1,30,29.46666746656674,-9999,35852.84045154167,-0.7657318115234375,0.5588531494140625,-0.260986328125,35852.83037554167,-2.87593663269766,-1.23333858116724,-0.6010434626865043,-0.02956767566502094,-0.01384587958455086,-0.001292272005230188,0.007249116897583008,-0.01266223192214966,0.01198655366897583,XArbitraryZVertical,-0.5795191376791805,0.1662085434589236,-0.7497097817406321,0.2728874773212577,-0.7782298922538757,0.5655033588409424,-0.2730645835399628,0,0,0,-1,-1,35848.91196654167,unknown,2,2025-04-22T15:35:02.393+03:00,2025-04-21T17:08:51.449+03:00,8251,1.040753,0,0,6864.177,7,22,2025-04-22T15:32:35.359+03:00,767018105.0627543,0,-15.57999,100.3896,1,0.55,2025-04-22T15:34:05.734+03:00,77.00000000000001,1.283333333333333,2025-04-22T14:20:19.516+03:00,0.02197104130929222,0
2025-04-22T15:35:06.360+03:00,1745325304.300193,40.95227366424168,29.14030080800874,76.50296,-1,-1,-1,-1,30,29.46666746656674,-9999,35852.85052854167,-0.7652435302734375,0.5605316162109375,-0.263641357421875,35852.84045154167,-2.876262262736323,-1.233653460531247,-0.6011486026971409,-0.0301312692463398,-0.01121447794139385,0.0004262324655428529,0.01036113500595093,-0.009376823902130127,0.01278981566429138,XArbitraryZVertical,-0.5796066150204527,0.1663017651635768,-0.7496463806267086,0.2728187037102089,-0.7782595157623291,0.5655900835990906,-0.2727997899055481,0,0,0,-1,-1,35848.91196654167,unknown,2,2025-04-22T15:35:02.393+03:00,2025-04-21T17:08:51.449+03:00,8251,1.040753,0,0,6864.177,7,22,2025-04-22T15:32:35.359+03:00,767018105.0627543,0,-15.57999,100.3896,1,0.55,2025-04-22T15:34:05.734+03:00,77.00000000000001,1.283333333333333,2025-04-22T14:20:19.516+03:00,0.02197104130929222,0
2025-04-22T15:35:06.362+03:00,1745325304.300193,40.95227366424168,29.14030080800874,76.50296,-1,-1,-1,-1,30,29.46666746656674,-9999,35852.86060454167,-0.76239013671875,0.556060791015625,-0.2608184814453125,35852.85052854167,-2.876645081693689,-1.234030229277977,-0.6012764977245708,-0.03397740423679352,-0.02190280705690384,0.001058733207173645,0.01318800449371338,-0.006491482257843018,0.01164877414703369,XArbitraryZVertical,-0.5797117014395743,0.1664121435184607,-0.749569525483511,0.2727395431446166,-0.7782940864562988,0.5656955242156982,-0.272482693195343,0,0,0,-1,-1,35848.91196654167,unknown,2,2025-04-22T15:35:02.393+03:00,2025-04-21T17:08:51.449+03:00,8251,1.040753,0,0,6864.177,7,22,2025-04-22T15:32:35.359+03:00,767018105.0627543,0,-15.57999,100.3896,1,0.55,2025-04-22T15:34:05.734+03:00,77.00000000000001,1.283333333333333,2025-04-22T14:20:19.516+03:00,0.02197104130929222,0
2025-04-22T15:35:06.365+03:00,1745325304.300193,40.95227366424168,29.14030080800874,76.50296,-1,-1,-1,-1,30,29.46666746656674,-9999,35852.87068154167,-0.764373779296875,0.5557708740234375,-0.2640228271484375,35852.86060454167,-2.877119533688755,-1.234544578150569,-0.6014174492728883,-0.04596728831529617,-0.02735090255737305,-0.001804864034056664,0.01322227716445923,-0.005646467208862305,0.00865858793258667,XArbitraryZVertical,-0.5798602375756934,0.1665355661154304,-0.7494630920000769,0.2726409193408632,-0.7783588767051697,0.5658117532730103,-0.2720560133457184,0,0,0,-1,-1,35848.91196654167,unknown,2,2025-04-22T15:35:02.393+03:00,2025-04-21T17:08:51.449+03:00,8251,1.040753,0,0,6864.177,7,22,2025-04-22T15:32:35.359+03:00,767018105.0627543,0,-15.57999,100.3896,1,0.55,2025-04-22T15:34:05.734+03:00,77.00000000000001,1.283333333333333,2025-04-22T14:20:19.516+03:00,0.02197104130929222,0
2025-04-22T15:35:06.367+03:00,1745325304.300193,40.95227366424168,29.14030080800874,76.50296,-1,-1,-1,-1,30,29.46666746656674,-9999,35852.88075754167,-0.7733917236328125,0.556732177734375,-0.273162841796875,35852.87068154167,-2.877693921179427,-1.23512944266129,-0.6015883838334674,-0.05551285669207573,-0.02762014791369438,0.002438883064314723,0.0163111686706543,-0.01073122024536133,0.0114978551864624,XArbitraryZVertical,-0.5800257741845184,0.166690322248395,-0.7493450888234914,0.2725185463419644,-0.7784265279769897,0.5659527182579041,-0.2715688645839691,0,0,0,-1,-1,35848.91196654167,unknown,2,2025-04-22T15:35:02.393+03:00,2025-04-21T17:08:51.449+03:00,8251,1.040753,0,0,6864.177,7,22,2025-04-22T15:32:35.359+03:00,767018105.0627543,0,-15.57999,100.3896,1,0.55,2025-04-22T15:34:05.734+03:00,77.00000000000001,1.283333333333333,2025-04-22T14:20:19.516+03:00,0.02197104130929222,0
2025-04-22T15:35:06.377+03:00,1745325304.300193,40.95227366424168,29.14030080800874,76.50296,-1,-1,-1,-1,30,29.46666746656674,-9999,35852.89083354167,-0.7755889892578125,0.562103271484375,-0.2767791748046875,35852.88075754167,-2.878338792840276,-1.235750879032663,-0.601789688834056,-0.05711901187896729,-0.026191096752882,0.003897896036505699,0.01249629259109497,-0.009615421295166016,0.005697101354598999,XArbitraryZVertical,-0.5801979829305707,0.1668726677002482,-0.7492212996705838,0.2723807714100372,-0.7784875631332397,0.5661186575889587,-0.2710476219654083,0,0,0,-1,-1,35848.91196654167,unknown,2,2025-04-22T15:35:02.393+03:00,2025-04-21T17:08:51.449+03:00,8251,1.040753,0,0,6864.177,7,22,2025-04-22T15:32:35.359+03:00,767018105.0627543,0,-15.57999,100.3896,1,0.55,2025-04-22T15:34:05.734+03:00,77.00000000000001,1.283333333333333,2025-04-22T14:20:19.516+03:00,0.02197104130929222,0
2025-04-22T15:35:06.387+03:00,1745325304.300193,40.95227366424168,29.14030080800874,76.50296,-1,-1,-1,-1,30,29.46666746656674,-9999,35852.90091054167,-0.7738189697265625,0.5658721923828125,-0.2728729248046875,35852.89083354167,-2.878940777472862,-1.236385880716212,-0.6020177748670679,-0.05250455066561699,-0.03111288323998451,0.009054841473698616,0.004154026508331299,-0.009422004222869873,-0.003064215183258057,XArbitraryZVertical,-0.5803778157678346,0.1670514554118131,-0.7490833314480269,0.2722672492009749,-0.778537392616272,0.5663066506385803,-0.2705107927322388,0,0,0,-1,-1,35848.91196654167,unknown,2,2025-04-22T15:35:02.393+03:00,2025-04-21T17:08:51.449+03:00,8251,1.040753,0,0,6864.177,7,22,2025-04-22T15:32:35.359+03:00,767018105.0627543,0,-15.57999,100.3896,1,0.55,2025-04-22T15:34:05.734+03:00,77.00000000000001,1.283333333333333,2025-04-22T14:20:19.516+03:00,0.02197104130929222,0
2025-04-22T15:35:06.397+03:00,1745325304.300193,40.95227366424168,29.14030080800874,76.50296,-1,-1,-1,-1,30,29.46666746656674,-9999,35852.91098654167,-0.7750244140625,0.5649871826171875,-0.2692718505859375,35852.90091054167,-2.879548822152431,-1.237065597576763,-0.6022562930361697,-0.05522550269961357,-0.03121861070394516,0.007637240458279848,0.003691256046295166,-0.002843677997589111,-0.006308019161224365,XArbitraryZVertical,-0.5805733714576296,0.1672301084101746,-0.7489316043132849,0.272158027161142,-0.7785934805870056,0.5665032267570496,-0.2699373066425323,0,0,0,-1,-1,35848.91196654167,unknown,2,2025-04-22T15:35:02.393+03:00,2025-04-21T17:08:51.449+03:00,8251,1.040753,0,0,6864.177,7,22,2025-04-22T15:32:35.359+03:00,767018105.0627543,0,-15.57999,100.3896,1,0.55,2025-04-22T15:34:05.734+03:00,77.00000000000001,1.283333333333333,2025-04-22T14:20:19.516+03:00,0.02197104130929222,0
2025-04-22T15:35:06.407+03:00,1745325304.300193,40.95227366424168,29.14030080800874,76.50296,-1,-1,-1,-1,30,29.46666746656674,-9999,35852.92106254167,-0.7794342041015625,0.5667724609375,-0.270721435546875,35852.91098654167,-2.880124700804312,-1.237709850903713,-0.6024901184327194,-0.0483873039484024,-0.0305541530251503,0.007615136448293924,0.005357265472412109,-0.001769840717315674,-0.002504169940948486,XArbitraryZVertical,-0.5807583401585366,0.1674024407682245,-0.748786521181212,0.2720568089534784,-0.7786420583724976,0.5666959285736084,-0.269392341375351,0,0,0,-1,-1,35848.91196654167,unknown,2,2025-04-22T15:35:02.393+03:00,2025-04-21T17:08:51.449+03:00,8251,1.040753,0,0,6864.177,7,22,2025-04-22T15:32:35.359+03:00,767018105.0627543,0,-15.57999,100.3896,1,0.55,2025-04-22T15:34:05.734+03:00,77.00000000000001,1.283333333333333,2025-04-22T14:20:19.516+03:00,0.02197104130929222,0
2025-04-22T15:35:06.417+03:00,1745325304.300193,40.95227366424168,29.14030080800874,76.50296,-1,-1,-1,-1,30,29.46666746656674,-9999,35852.93113954167,-0.781982421875,0.56866455078125,-0.2736968994140625,35852.92106254167,-2.880650560912861,-1.238299457611884,-0.6027137245772204,-0.04527806118130684,-0.02469360083341599,0.005616034381091595,0.002954721450805664,-0.002304971218109131,-0.0001818239688873291,XArbitraryZVertical,-0.5809272607513869,0.1675636877143763,-0.7486519923868722,0.2719672230259286,-0.7786810398101807,0.5668801069259644,-0.2688918709754944,0,0,0,-1,-1,35848.91196654167,unknown,2,2025-04-22T15:35:02.393+03:00,2025-04-21T17:08:51.449+03:00,8251,1.040753,0,0,6864.177,7,22,2025-04-22T15:32:35.359+03:00,767018105.0627543,0,-15.57999,100.3896,1,0.55,2025-04-22T15:34:05.734+03:00,77.00000000000001,1.283333333333333,2025-04-22T14:20:19.516+03:00,0.02197104130929222,0
2025-04-22T15:35:06.430+03:00,1745325304.300193,40.95227366424168,29.14030080800874,76.50296,-1,-1,-1,-1,30,29.46666746656674,-9999,35852.94121554167,-0.7835540771484375,0.570037841796875,-0.272247314453125,35852.93113954167,-2.881128512696594,-1.238772980034572,-0.6029056709107394,-0.03683717176318169,-0.0170133113861084,0.005372621119022369,-0.0007593035697937012,0.0007106661796569824,-0.002493411302566528,XArbitraryZVertical,-0.5810577612810861,0.1677143215721378,-0.7485493349088325,0.2718777490053469,-0.7787052392959595,0.5670382380485535,-0.2684875726699829,0,0,0,-1,-1,35848.91196654167,unknown,2,2025-04-22T15:35:02.393+03:00,2025-04-21T17:08:51.449+03:00,8251,1.040753,0,0,6864.177,7,22,2025-04-22T15:32:35.359+03:00,767018105.0627543,0,-15.57999,100.3896,1,0.55,2025-04-22T15:34:05.734+03:00,77.00000000000001,1.283333333333333,2025-04-22T14:20:19.516+03:00,0.02197104130929222,0
2025-04-22T15:35:06.437+03:00,1745325304.300193,40.95227366424168,29.14030080800874,76.50296,-1,-1,-1,-1,30,29.46666746656674,-9999,35852.95129254167,-0.7834625244140625,0.5681610107421875,-0.269927978515625,35852.94121554167,-2.881497887792163,-1.239115127356173,-0.6030824096423184,-0.02978465706110001,-0.01017651055008173,0.004492679610848427,-0.002883315086364746,0.002487778663635254,-0.005737453699111938,XArbitraryZVertical,-0.5811486220607111,0.167845221803874,-0.7484726899209315,0.2718140146264263,-0.7787023782730103,0.567183792591095,-0.2681885063648224,0,0,0,-1,-1,35848.91196654167,unknown,2,2025-04-22T15:35:02.393+03:00,2025-04-21T17:08:51.449+03:00,8251,1.040753,0,0,6864.177,7,22,2025-04-22T15:32:35.359+03:00,767018105.0627543,0,-15.57999,100.3896,1,0.55,2025-04-22T15:34:05.734+03:00,77.00000000000001,1.283333333333333,2025-04-22T14:20:19.516+03:00,0.02197104130929222,0
2025-04-22T15:35:06.450+03:00,1745325304.300193,40.95227366424168,29.14030080800874,76.50296,-1,-1,-1,-1,30,29.46666746656674,-9999,35852.96136854167,-0.7816314697265625,0.56561279296875,-0.2688140869140625,35852.95129254167,-2.881831082687127,-1.239396537671,-0.6032064861786044,-0.02881233766674995,-0.005363911390304565,0.001147216651588678,-0.005422532558441162,0.002660155296325684,-0.0044231116771698,XArbitraryZVertical,-0.5812216024663219,0.1679530146058923,-0.7484168355487169,0.2717451180743913,-0.7787112593650818,0.5672860145568848,-0.2679464817047119,0,0,0,-1,-1,35848.91196654167,unknown,2,2025-04-22T15:35:02.393+03:00,2025-04-21T17:08:51.449+03:00,8251,1.040753,0,0,6864.177,7,22,2025-04-22T15:32:35.359+03:00,767018105.0627543,0,-15.57999,100.3896,1,0.55,2025-04-22T15:34:05.734+03:00,77.00000000000001,1.283333333333333,2025-04-22T14:20:19.516+03:00,0.02197104130929222,0
2025-04-22T15:35:06.466+03:00,1745325304.300193,40.95227366424168,29.14030080800874,76.50296,-1,-1,-1,-1,30,29.46666746656674,-9999,35852.97144454167,-0.7829437255859375,0.5655670166015625,-0.264678955078125,35852.96136854167,-2.882111696797919,-1.239572824499814,-0.6032811403536169,-0.02058789879083633,0.001840006094425917,-0.00145385938230902,-0.00404202938079834,0.0003709793090820312,-0.002544760704040527,XArbitraryZVertical,-0.581261363379818,0.1680402148142751,-0.7483921318165867,0.2716742775271997,-0.7787184715270996,0.5673474669456482,-0.2677954137325287,0,0,0,-1,-1,35848.91196654167,unknown,2,2025-04-22T15:35:02.393+03:00,2025-04-21T17:08:51.449+03:00,8251,1.040753,0,0,6864.177,7,22,2025-04-22T15:32:35.359+03:00,767018105.0627543,0,-15.57999,100.3896,1,0.55,2025-04-22T15:34:05.734+03:00,77.00000000000001,1.283333333333333,2025-04-22T14:20:19.516+03:00,0.02197104130929222,0
2025-04-22T15:35:06.468+03:00,1745325304.300193,40.95227366424168,29.14030080800874,76.50296,-1,-1,-1,-1,30,29.46666746656674,-9999,35852.98152154167,-0.786407470703125,0.5643157958984375,-0.2640838623046875,35852.97144454167,-2.882355572204607,-1.23962397475004,-0.6033319723645981,-0.02156314812600613,0.01215123292058706,-0.001112708472646773,-0.00298762321472168,-0.001547694206237793,-0.001022309064865112,XArbitraryZVertical,-0.5812582145249537,0.16812430245839,-0.7484024607635194,0.2716005023157558,-0.7787048816680908,0.5673893094062805,-0.2677462100982666,0,0,0,-1,-1,35848.91196654167,unknown,2,2025-04-22T15:35:02.393+03:00,2025-04-21T17:08:51.449+03:00,8251,1.040753,0,0,6864.177,7,22,2025-04-22T15:32:35.359+03:00,767018105.0627543,0,-15.57999,100.3896,1,0.55,2025-04-22T15:34:05.734+03:00,77.00000000000001,1.283333333333333,2025-04-22T14:20:19.516+03:00,0.02197104130929222,0
2025-04-22T15:35:06.477+03:00,1745325304.300193,40.95227366424168,29.14030080800874,76.50296,-1,-1,-1,-1,30,29.46666746656674,-9999,35852.99159754167,-0.7879180908203125,0.5601959228515625,-0.266815185546875,35852.98152154167,-2.88261428046214,-1.239592930545254,-0.6033945505271163,-0.02642341703176498,0.01979157701134682,-0.001040803152136505,-0.004433274269104004,-0.001568734645843506,0.003583192825317383,XArbitraryZVertical,-0.581222635743609,0.1682285242982678,-0.7484368131909073,0.271517313372677,-0.7786629199981689,0.5674408674240112,-0.2677588164806366,0,0,0,-1,-1,35848.91196654167,unknown,2,2025-04-22T15:35:02.393+03:00,2025-04-21T17:08:51.449+03:00,8251,1.040753,0,0,6864.177,7,22,2025-04-22T15:32:35.359+03:00,767018105.0627543,0,-15.57999,100.3896,1,0.55,2025-04-22T15:34:05.734+03:00,77.00000000000001,1.283333333333333,2025-04-22T14:20:19.516+03:00,0.02197104130929222,0
2025-04-22T15:35:06.487+03:00,1745325304.300193,40.95227366424168,29.14030080800874,76.50296,-1,-1,-1,-1,30,29.46666746656674,-9999,35853.00167454167,-0.788818359375,0.5609893798828125,-0.267059326171875,35852.99159754167,-2.882930475839935,-1.23953419565422,-0.603469264393212,-0.02950709126889706,0.02553974092006683,0.0002766626421362162,-0.00847160816192627,-0.003751277923583984,0.00385931134223938,XArbitraryZVertical,-0.5811714029868159,0.1683580091162978,-0.7484851511208721,0.2714134210169227,-0.7786070704460144,0.5675023794174194,-0.2677907645702362,0,0,0,-1,-1,35848.91196654167,unknown,2,2025-04-22T15:35:02.393+03:00,2025-04-21T17:08:51.449+03:00,8251,1.040753,0,0,6864.177,7,22,2025-04-22T15:32:35.359+03:00,767018105.0627543,0,-15.57999,100.3896,1,0.55,2025-04-22T15:34:05.734+03:00,77.00000000000001,1.283333333333333,2025-04-22T14:20:19.516+03:00,0.02197104130929222,0
2025-04-22T15:35:06.497+03:00,1745325304.300193,40.95227366424168,29.14030080800874,76.50296,-1,-1,-1,-1,30,29.46666746656674,-9999,35853.01175054167,-0.7908477783203125,0.561187744140625,-0.2662353515625,35853.00167454167,-2.883276927591702,-1.239421002657951,-0.6035677831294761,-0.03254842013120651,0.03564510866999626,0.001609308528713882,-0.009348273277282715,-0.006945192813873291,0.001106351613998413,XArbitraryZVertical,-0.5810963684442065,0.1685131032953532,-0.7485496735565457,0.271299781021629,-0.778523862361908,0.5675835013389587,-0.2678606808185577,0,0,0,-1,-1,35848.91196654167,unknown,2,2025-04-22T15:35:02.393+03:00,2025-04-21T17:08:51.449+03:00,8251,1.040753,0,0,6864.177,7,22,2025-04-22T15:32:35.359+03:00,767018105.0627543,0,-15.57999,100.3896,1,0.55,2025-04-22T15:34:05.734+03:00,77.00000000000001,1.283333333333333,2025-04-22T14:20:19.516+03:00,0.02197104130929222,0
2025-04-22T15:35:06.508+03:00,1745325304.300193,40.95227366424168,29.14030080800874,76.50296,-1,-1,-1,-1,30,29.46666746656674,-9999,35853.02182654167,-0.7905731201171875,0.566986083984375,-0.269866943359375,35853.01175054167,-2.883638752733781,-1.239209209731178,-0.6036805138096338,-0.03370689228177071,0.04660614579916,0.003051676321774721,-0.01080828905105591,-0.006809115409851074,0.001372545957565308,XArbitraryZVertical,-0.5809825744632389,0.1686916329261589,-0.7486427906836527,0.2711757335477255,-0.7784066796302795,0.567676305770874,-0.2680047750473022,0,0,0,-1,-1,35848.91196654167,unknown,2,2025-04-22T15:35:02.393+03:00,2025-04-21T17:08:51.449+03:00,8251,1.040753,0,0,6864.177,7,22,2025-04-22T15:32:35.359+03:00,767018105.0627543,0,-15.57999,100.3896,1,0.55,2025-04-22T15:34:05.734+03:00,77.00000000000001,1.283333333333333,2025-04-22T14:20:19.516+03:00,0.02197104130929222,0
2025-04-22T15:35:06.518+03:00,1745325304.300193,40.95227366424168,29.14030080800874,76.50296,-1,-1,-1,-1,30,29.46666746656674,-9999,35853.03190354167,-0.789398193359375,0.5653228759765625,-0.2733306884765625,35853.02182654167,-2.884004270727109,-1.238916500363636,-0.6038256341057429,-0.03494759649038315,0.05081560462713242,0.003996465820819139,-0.01265841722488403,-0.006333470344543457,0.001222521066665649,XArbitraryZVertical,-0.5808369863404752,0.1688950364350473,-0.7487546910889988,0.2710518369264853,-0.7782502174377441,0.5677957534790039,-0.2682057321071625,0,0,0,-1,-1,35848.91196654167,unknown,2,2025-04-22T15:35:02.393+03:00,2025-04-21T17:08:51.449+03:00,8251,1.040753,0,0,6864.177,7,22,2025-04-22T15:32:35.359+03:00,767018105.0627543,0,-15.57999,100.3896,1,0.55,2025-04-22T15:34:05.734+03:00,77.00000000000001,1.283333333333333,2025-04-22T14:20:19.516+03:00,0.02197104130929222,0
2025-04-22T15:35:06.528+03:00,1745325304.300193,40.95227366424168,29.14030080800874,76.50296,-1,-1,-1,-1,30,29.46666746656674,-9999,35853.04197954167,-0.7804107666015625,0.5617523193359375,-0.272247314453125,35853.03190354167,-2.884435081604661,-1.238651768791083,-0.6039896250690137,-0.04229312762618065,0.04743445664644241,0.005266527645289898,-0.01229870319366455,-0.0005785822868347168,-0.002523362636566162,XArbitraryZVertical,-0.5806956000488046,0.1691210300806257,-0.7488644602237405,0.2709106912068968,-0.7780911922454834,0.5679307579994202,-0.2683813869953156,0,0,0,-1,-1,35848.91196654167,unknown,2,2025-04-22T15:35:02.393+03:00,2025-04-21T17:08:51.449+03:00,8251,1.040753,0,0,6864.177,7,22,2025-04-22T15:32:35.359+03:00,767018105.0627543,0,-15.57999,100.3896,1,0.55,2025-04-22T15:34:05.734+03:00,77.00000000000001,1.283333333333333,2025-04-22T14:20:19.516+03:00,0.02197104130929222,0
2025-04-22T15:35:06.538+03:00,1745325304.300193,40.95227366424168,29.14030080800874,76.50296,-1,-1,-1,-1,30,29.46666746656674,-9999,35853.05205654167,-0.7766876220703125,0.5624542236328125,-0.2696990966796875,35853.04197954167,-2.884959013186068,-1.238482607451276,-0.6041933957503645,-0.05148535966873169,0.04617258533835411,0.00531429797410965,-0.009844303131103516,-0.003813266754150391,-0.004672527313232422,XArbitraryZVertical,-0.5805806211509246,0.1693768585474716,-0.7489527842990232,0.2707530242648866,-0.7779363393783569,0.5680984854698181,-0.2684752345085144,0,0,0,-1,-1,35848.91196654167,unknown,2,2025-04-22T15:35:02.393+03:00,2025-04-21T17:08:51.449+03:00,8251,1.040753,0,0,6864.177,7,22,2025-04-22T15:32:35.359+03:00,767018105.0627543,0,-15.57999,100.3896,1,0.55,2025-04-22T15:34:05.734+03:00,77.00000000000001,1.283333333333333,2025-04-22T14:20:19.516+03:00,0.02197104130929222,0
2025-04-22T15:35:06.548+03:00,1745325304.300193,40.95227366424168,29.14030080800874,76.50296,-1,-1,-1,-1,30,29.46666746656674,-9999,35853.06213254167,-0.776519775390625,0.562896728515625,-0.272430419921875,35853.05205654167,-2.885572681227327,-1.238366561419959,-0.604445168795721,-0.05825245007872581,0.04467322304844856,0.009938877075910568,-0.001938700675964355,-0.006110906600952148,-0.003026723861694336,XArbitraryZVertical,-0.5804760830520539,0.1696705233513991,-0.7490304202802509,0.270578651947201,-0.7777700424194336,0.5683056116104126,-0.26851886510849,0,0,0,-1,-1,35848.91196654167,unknown,2,2025-04-22T15:35:02.393+03:00,2025-04-21T17:08:51.449+03:00,8251,1.040753,0,0,6864.177,7,22,2025-04-22T15:32:35.359+03:00,767018105.0627543,0,-15.57999,100.3896,1,0.55,2025-04-22T15:34:05.734+03:00,77.00000000000001,1.283333333333333,2025-04-22T14:20:19.516+03:00,0.02197104130929222,0
2025-04-22T15:35:06.558+03:00,1745325304.300193,40.95227366424168,29.14030080800874,76.50296,-1,-1,-1,-1,30,29.46666746656674,-9999,35853.07220854167,-0.7801513671875,0.5605316162109375,-0.2693023681640625,35853.06213254167,-2.886222322319131,-1.238274102310871,-0.6047298362258803,-0.06286704540252686,0.05025028064846992,0.01072590798139572,0.0003554821014404297,-0.005475342273712158,-0.0009323954582214355,XArbitraryZVertical,-0.5803760033594517,0.1699844442002665,-0.7491008726900361,0.2704013022842512,-0.7775923013687134,0.5685398578643799,-0.2685379683971405,0,0,0,-1,-1,35848.91196654167,unknown,2,2025-04-22T15:35:02.393+03:00,2025-04-21T17:08:51.449+03:00,8251,1.040753,0,0,6864.177,7,22,2025-04-22T15:32:35.359+03:00,767018105.0627543,0,-15.57999,100.3896,1,0.55,2025-04-22T15:34:05.734+03:00,77.00000000000001,1.283333333333333,2025-04-22T14:20:19.516+03:00,0.02197104130929222,0
2025-04-22T15:35:06.568+03:00,1745325304.300193,40.95227366424168,29.14030080800874,76.50296,-1,-1,-1,-1,30,29.46666746656674,-9999,35853.08228554167,-0.7877044677734375,0.564605712890625,-0.2818756103515625,35853.07220854167,-2.886819621423265,-1.238093975946925,-0.6049596770867851,-0.04356551915407181,0.05740299820899963,0.001120684901252389,0.0006260275840759277,-0.006045937538146973,-0.00439038872718811,XArbitraryZVertical,-0.5802493981752472,0.1702732601020601,-0.7491980220643445,0.2702218492118866,-0.7774202823638916,0.5687289237976074,-0.2686353027820587,0,0,0,-1,-1,35848.91196654167,unknown,2,2025-04-22T15:35:02.393+03:00,2025-04-21T17:08:51.449+03:00,8251,1.040753,0,0,6864.177,7,22,2025-04-22T15:32:35.359+03:00,767018105.0627543,0,-15.57999,100.3896,1,0.55,2025-04-22T15:34:05.734+03:00,77.00000000000001,1.283333333333333,2025-04-22T14:20:19.516+03:00,0.02197104130929222,0
2025-04-22T15:35:06.579+03:00,1745325304.300193,40.95227366424168,29.14030080800874,76.50296,-1,-1,-1,-1,30,29.46666746656674,-9999,35853.09236154167,-0.8040618896484375,0.5754852294921875,-0.303680419921875,35853.08228554167,-2.887312527028909,-1.237664855140068,-0.6050594452759438,-0.04633061215281487,0.09113998711109161,-0.001990120159462094,-0.00318986177444458,-0.00849306583404541,0.0006395578384399414,XArbitraryZVertical,-0.5800430065564675,0.170513761397573,-0.7493735670475746,0.2700264931728027,-0.7772513031959534,0.5688109397888184,-0.268950343132019,0,0,0,-1,-1,35848.91196654167,unknown,2,2025-04-22T15:35:02.393+03:00,2025-04-21T17:08:51.449+03:00,8251,1.040753,0,0,6864.177,7,22,2025-04-22T15:32:35.359+03:00,767018105.0627543,0,-15.57999,100.3896,1,0.55,2025-04-22T15:34:05.734+03:00,77.00000000000001,1.283333333333333,2025-04-22T14:20:19.516+03:00,0.02197104130929222,0
2025-04-22T15:35:06.589+03:00,1745325304.300193,40.95227366424168,29.14030080800874,76.50296,-1,-1,-1,-1,30,29.46666746656674,-9999,35853.10243854167,-0.8275146484375,0.55523681640625,-0.3082733154296875,35853.09236154167,-2.888264300640657,-1.237051159487067,-0.6052349829222732,-0.121053583920002,0.1446146667003632,-0.01075032260268927,-0.01214689016342163,-0.002610206604003906,-0.01588398218154907,XArbitraryZVertical,-0.579725366539893,0.1709421468933921,-0.7496526235504517,0.2696629255496508,-0.7769917845726013,0.5689553618431091,-0.26939457654953,0,0,0,-1,-1,35848.91196654167,unknown,2,2025-04-22T15:35:02.393+03:00,2025-04-21T17:08:51.449+03:00,8251,1.040753,0,0,6864.177,7,22,2025-04-22T15:32:35.359+03:00,767018105.0627543,0,-15.57999,100.3896,1,0.55,2025-04-22T15:34:05.734+03:00,77.00000000000001,1.283333333333333,2025-04-22T14:20:19.516+03:00,0.02197104130929222,0
2025-04-22T15:35:06.598+03:00,1745325304.300193,40.95227366424168,29.14030080800874,76.50296,-1,-1,-1,-1,30,29.46666746656674,-9999,35853.11251454167,-0.8327789306640625,0.5169525146484375,-0.3161468505859375,35853.10243854167,-2.89040577537788,-1.236574543338927,-0.605726146160442,-0.2414758652448654,0.1915196031332016,-0.004122246988117695,-0.02940046787261963,0.004783093929290771,-0.03498402237892151,XArbitraryZVertical,-0.5793450978332487,0.1718216896283174,-0.7500027302527064,0.2689465324601256,-0.776599109172821,0.5693591833114624,-0.2696731388568878,0,0,0,-1,-1,35848.91196654167,unknown,2,2025-04-22T15:35:02.393+03:00,2025-04-21T17:08:51.449+03:00,8251,1.040753,0,0,6864.177,7,22,2025-04-22T15:32:35.359+03:00,767018105.0627543,0,-15.57999,100.3896,1,0.55,2025-04-22T15:34:05.734+03:00,77.00000000000001,1.283333333333333,2025-04-22T14:20:19.516+03:00,0.02197104130929222,0
2025-04-22T15:35:06.609+03:00,1745325304.300193,40.95227366424168,29.14030080800874,76.50296,-1,-1,-1,-1,30,29.46666746656674,-9999,35853.12259054167,-0.8131103515625,0.4742431640625,-0.305633544921875,35853.11251454167,-2.894101875605892,-1.236593418317459,-0.6068185932576551,-0.4008319675922394,0.2168497145175934,0.01792366802692413,-0.05386334657669067,-0.01900273561477661,-0.04023826122283936,XArbitraryZVertical,-0.5789922840621523,0.1733227332684989,-0.7503239791544312,0.2678451288605688,-0.7760162949562073,0.5702569484710693,-0.2694543302059174,0,0,0,-1,-1,35848.91196654167,unknown,2,2025-04-22T15:35:02.393+03:00,2025-04-21T17:08:51.449+03:00,8251,1.040753,0,0,6864.177,7,22,2025-04-22T15:32:35.359+03:00,767018105.0627543,0,-15.57999,100.3896,1,0.55,2025-04-22T15:34:05.734+03:00,77.00000000000001,1.283333333333333,2025-04-22T14:20:19.516+03:00,0.02197104130929222,0
2025-04-22T15:35:06.619+03:00,1745325304.300193,40.95227366424168,29.14030080800874,76.50296,-1,-1,-1,-1,30,29.46666746656674,-9999,35853.13266754167,-0.7876434326171875,0.48260498046875,-0.3062591552734375,35853.12259054167,-2.899487816669641,-1.237380004656633,-0.6085777342179666,-0.5254144668579102,0.2313092947006226,0.02579327486455441,-0.05646228790283203,-0.06106579303741455,-0.0471283495426178,XArbitraryZVertical,-0.578749805280297,0.175473868202039,-0.7505435082242299,0.2663496174495755,-0.7752790451049805,0.5717011094093323,-0.2685151696205139,0,0,0,-1,-1,35848.91196654167,unknown,2,2025-04-22T15:35:02.393+03:00,2025-04-21T17:08:51.449+03:00,8251,1.040753,0,0,6864.177,7,22,2025-04-22T15:32:35.359+03:00,767018105.0627543,0,-15.57999,100.3896,1,0.55,2025-04-22T15:34:05.734+03:00,77.00000000000001,1.283333333333333,2025-04-22T14:20:19.516+03:00,0.02197104130929222,0
2025-04-22T15:35:06.629+03:00,1745325304.300193,40.95227366424168,29.14030080800874,76.50296,-1,-1,-1,-1,30,29.46666746656674,-9999,35853.14274354167,-0.783050537109375,0.519989013671875,-0.3022003173828125,35853.13266754167,-2.905779540971462,-1.238587052969286,-0.6107213030576739,-0.5776774287223816,0.2465486973524094,0.04971485212445259,-0.03544849157333374,-0.1020078659057617,-0.03755459189414978,XArbitraryZVertical,-0.5785608300891866,0.1779830338985618,-0.7506984637487473,0.2646526773652503,-0.7744420766830444,0.5734585523605347,-0.2671788036823273,0,0,0,-1,-1,35848.91196654167,unknown,2,2025-04-22T15:35:02.393+03:00,2025-04-21T17:08:51.449+03:00,8251,1.040753,0,0,6864.177,7,22,2025-04-22T15:32:35.359+03:00,767018105.0627543,0,-15.57999,100.3896,1,0.55,2025-04-22T15:34:05.734+03:00,77.00000000000001,1.283333333333333,2025-04-22T14:20:19.516+03:00,0.02197104130929222,0
2025-04-22T15:35:06.639+03:00,1745325304.300193,40.95227366424168,29.14030080800874,76.50296,-1,-1,-1,-1,30,29.46666746656674,-9999,35853.15282054167,-0.790740966796875,0.5344696044921875,-0.299224853515625,35853.14274354167,-2.912446892082103,-1.239856426120661,-0.61323936725113,-0.6120964884757996,0.2655757665634155,0.07803244888782501,-0.01194190979003906,-0.08823031187057495,-0.04025915265083313,XArbitraryZVertical,-0.5783339892890821,0.1807402943947279,-0.7508231512008861,0.2629203899242828,-0.7734124660491943,0.5755195617675781,-0.2657254934310913,0,0,0,-1,-1,35848.91196654167,unknown,2,2025-04-22T15:35:02.393+03:00,2025-04-21T17:08:51.449+03:00,8251,1.040753,0,0,6864.177,7,22,2025-04-22T15:32:35.359+03:00,767018105.0627543,0,-15.57999,100.3896,1,0.55,2025-04-22T15:34:05.734+03:00,77.00000000000001,1.283333333333333,2025-04-22T14:20:19.516+03:00,0.02197104130929222,0
