loggingTime(txt),locationTimestamp_since1970(s),locationLatitude(WGS84),locationLongitude(WGS84),locationAltitude(m),locationSpeed(m/s),locationSpeedAccuracy(m/s),locationCourse(°),locationCourseAccuracy(°),locationVerticalAccuracy(m),locationHorizontalAccuracy(m),locationFloor(Z),accelerometerTimestamp_sinceReboot(s),accelerometerAccelerationX(G),accelerometerAccelerationY(G),accelerometerAccelerationZ(G),motionTimestamp_sinceReboot(s),motionYaw(rad),motionRoll(rad),motionPitch(rad),motionRotationRateX(rad/s),motionRotationRateY(rad/s),motionRotationRateZ(rad/s),motionUserAccelerationX(G),motionUserAccelerationY(G),motionUserAccelerationZ(G),motionAttitudeReferenceFrame(txt),motionQuaternionX(R),motionQuaternionY(R),motionQuaternionZ(R),motionQuaternionW(R),motionGravityX(G),motionGravityY(G),motionGravityZ(G),motionMagneticFieldX(µT),motionMagneticFieldY(µT),motionMagneticFieldZ(µT),motionHeading(°),motionMagneticFieldCalibrationAccuracy(Z),activityTimestamp_sinceReboot(s),activity(txt),activityActivityConfidence(Z),activityActivityStartDate(txt),pedometerStartDate(txt),pedometerNumberofSteps(N),pedometerAverageActivePace(s/m),pedometerCurrentPace(s/m),pedometerCurrentCadence(steps/s),pedometerDistance(m),pedometerFloorAscended(N),pedometerFloorDescended(N),pedometerEndDate(txt),altimeterTimestamp_sinceReboot(s),altimeterReset(bool),altimeterRelativeAltitude(m),altimeterPressure(kPa),batteryState(N),batteryLevel(R),heartRateBPMTimestamp(txt),heartRateBPM(N),heartRateBPS(R),heartRateVariabilityTimestamp(txt),heartRateVariability(ms),label
2025-04-21T16:56:54.990+03:00,1745243813.171704,40.95220373050805,29.14025042908131,76.57294,-1,-1,-1,-1,30,36.49476654306539,-9999,20890.979735,-0.7224884033203125,0.4745635986328125,-0.5023345947265625,20890.969659,2.323005484272013,-0.9664236896276579,-0.4979837177671935,-0.02343406155705452,0.1220305636525154,-0.02817313931882381,-0.01920604705810547,0.01595130562782288,0.01433712244033813,XArbitraryZVertical,-0.3262633796182782,0.379389903288715,-0.8328790402569769,-0.2364909695043038,-0.7229204177856445,0.4776551127433777,-0.4992310106754303,0,0,0,-1,-1,20885.94037491667,unknown,2,2025-04-21T16:56:11.557+03:00,2025-04-20T21:57:49.637+03:00,6834,0.9873711,0,0,5595.969,5,6,2025-04-21T16:56:27.034+03:00,766936612.9421742,0,-38.72,100.1974,1,0.3,2025-04-21T16:56:03.730+03:00,99,1.65,2025-04-21T12:30:07.995+03:00,0.02023345852159405,0
2025-04-21T16:56:54.994+03:00,1745243813.171704,40.95220373050805,29.14025042908131,76.57294,-1,-1,-1,-1,30,36.49476654306539,-9999,20890.989811,-0.70562744140625,0.4733428955078125,-0.5043487548828125,20890.979735,2.322556982543018,-0.9656014918546326,-0.4980260601839386,-0.05205478891730309,0.07040225714445114,-0.01398488320410252,-0.006403982639312744,0.02503883838653564,0.01043379306793213,XArbitraryZVertical,-0.3258264365365257,0.3793814342997525,-0.8329595559631758,-0.2368231276869617,-0.7224931120872498,0.4776923060417175,-0.4998137354850769,0,0,0,-1,-1,20885.94037491667,unknown,2,2025-04-21T16:56:11.557+03:00,2025-04-20T21:57:49.637+03:00,6834,0.9873711,0,0,5595.969,5,6,2025-04-21T16:56:27.034+03:00,766936612.9421742,0,-38.72,100.1974,1,0.3,2025-04-21T16:56:03.730+03:00,99,1.65,2025-04-21T12:30:07.995+03:00,0.02023345852159405,0
2025-04-21T16:56:54.996+03:00,1745243813.171704,40.95220373050805,29.14025042908131,76.57294,-1,-1,-1,-1,30,36.49476654306539,-9999,20890.999887,-0.687286376953125,0.4783477783203125,-0.5022735595703125,20890.989811,2.32203540651505,-0.9653952103063951,-0.4982716503255959,-0.007539983838796616,0.06877966225147247,-0.002009945688769221,0.001376748085021973,-0.00503838062286377,-0.00335422158241272,XArbitraryZVertical,-0.3255867271348495,0.3795330252638678,-0.8329287201432118,-0.2370180467308997,-0.7222934365272522,0.4779080450534821,-0.4998959302902222,0,0,0,-1,-1,20885.94037491667,unknown,2,2025-04-21T16:56:11.557+03:00,2025-04-20T21:57:49.637+03:00,6834,0.9873711,0,0,5595.969,5,6,2025-04-21T16:56:27.034+03:00,766936612.9421742,0,-38.72,100.1974,1,0.3,2025-04-21T16:56:03.730+03:00,99,1.65,2025-04-21T12:30:07.995+03:00,0.02023345852159405,0
2025-04-21T16:56:54.998+03:00,1745243813.171704,40.95220373050805,29.14025042908131,76.57294,-1,-1,-1,-1,30,36.49476654306539,-9999,20891.009964,-0.7132568359375,0.4864959716796875,-0.4986419677734375,20890.999887,2.322217765570737,-0.9643401648388583,-0.4979942952001192,0.02442593686282635,0.09514761716127396,-0.02482711151242256,0.01945149898529053,-0.002994179725646973,-0.00263899564743042,XArbitraryZVertical,-0.3252438474226611,0.3792753843055001,-0.833124956292948,-0.2372115157115196,-0.7218745350837708,0.4776644110679626,-0.5007332563400269,0,0,0,-1,-1,20885.94037491667,unknown,2,2025-04-21T16:56:11.557+03:00,2025-04-20T21:57:49.637+03:00,6834,0.9873711,0,0,5595.969,5,6,2025-04-21T16:56:27.034+03:00,766936612.9421742,0,-38.72,100.1974,1,0.3,2025-04-21T16:56:03.730+03:00,99,1.65,2025-04-21T12:30:07.995+03:00,0.02023345852159405,0
2025-04-21T16:56:55.000+03:00,1745243813.171704,40.95220373050805,29.14025042908131,76.57294,-1,-1,-1,-1,30,36.49476654306539,-9999,20891.02004,-0.733795166015625,0.4923553466796875,-0.4899749755859375,20891.009964,2.322253668831597,-0.9631725505042898,-0.4976361893755276,0.03543877601623535,0.1180432140827179,-0.02801085263490677,0.03406709432601929,0.0006621778011322021,-0.001531004905700684,XArbitraryZVertical,-0.3248442256449052,0.3789980699955673,-0.8333227735795554,-0.2375071979498265,-0.721429705619812,0.4773497581481934,-0.5016734004020691,0,0,0,-1,-1,20885.94037491667,unknown,2,2025-04-21T16:56:11.557+03:00,2025-04-20T21:57:49.637+03:00,6834,0.9873711,0,0,5595.969,5,6,2025-04-21T16:56:27.034+03:00,766936612.9421742,0,-38.72,100.1974,1,0.3,2025-04-21T16:56:03.730+03:00,99,1.65,2025-04-21T12:30:07.995+03:00,0.02023345852159405,0
2025-04-21T16:56:55.009+03:00,1745243813.171704,40.95220373050805,29.14025042908131,76.57294,-1,-1,-1,-1,30,36.49476654306539,-9999,20891.030116,-0.6903533935546875,0.44866943359375,-0.488861083984375,20891.02004,2.322437530055466,-0.9622328040408437,-0.497380945808795,0.01501472666859627,0.04902686178684235,-0.003145451191812754,0.0013008713722229,0.01258993148803711,0.006174385547637939,XArbitraryZVertical,-0.3245444838788346,0.3787618082839423,-0.8334998881474772,-0.2376721785334075,-0.7210578918457031,0.4771254658699036,-0.5024207234382629,0,0,0,-1,-1,20885.94037491667,unknown,2,2025-04-21T16:56:11.557+03:00,2025-04-20T21:57:49.637+03:00,6834,0.9873711,0,0,5595.969,5,6,2025-04-21T16:56:27.034+03:00,766936612.9421742,0,-38.72,100.1974,1,0.3,2025-04-21T16:56:03.730+03:00,99,1.65,2025-04-21T12:30:07.995+03:00,0.02023345852159405,0
2025-04-21T16:56:55.019+03:00,1745243813.171704,40.95220373050805,29.14025042908131,76.57294,-1,-1,-1,-1,30,36.49476654306539,-9999,20891.040192,-0.6856231689453125,0.4603118896484375,-0.4896392822265625,20891.030116,2.32242893120004,-0.9621113451917652,-0.4974408470281675,-0.01393010560423136,-0.01005776412785053,0.006085864268243313,-0.009235858917236328,0.01165229082107544,0.01352405548095703,XArbitraryZVertical,-0.3244788022540392,0.3787710190255082,-0.8335180317626515,-0.2376840095088098,-0.7209734916687012,0.4771780967712402,-0.5024920701980591,0,0,0,-1,-1,20885.94037491667,unknown,2,2025-04-21T16:56:11.557+03:00,2025-04-20T21:57:49.637+03:00,6834,0.9873711,0,0,5595.969,5,6,2025-04-21T16:56:27.034+03:00,766936612.9421742,0,-38.72,100.1974,1,0.3,2025-04-21T16:56:03.730+03:00,99,1.65,2025-04-21T12:30:07.995+03:00,0.02023345852159405,0
2025-04-21T16:56:55.031+03:00,1745243813.171704,40.95220373050805,29.14025042908131,76.57294,-1,-1,-1,-1,30,36.49476654306539,-9999,20891.050269,-0.7192230224609375,0.4777984619140625,-0.4994354248046875,20891.040192,2.322292584598523,-0.9622994713401872,-0.4976000580016899,-0.01520655862987041,0.0004995386116206646,0.006646992638707161,0.03512316942214966,-0.0314563512802124,0.01365017890930176,XArbitraryZVertical,-0.3244957924164746,0.3788746245982537,-0.8334696364962271,-0.2376656064380478,-0.7210057377815247,0.4773180186748505,-0.5023130178451538,0,0,0,-1,-1,20885.94037491667,unknown,2,2025-04-21T16:56:11.557+03:00,2025-04-20T21:57:49.637+03:00,6834,0.9873711,0,0,5595.969,5,6,2025-04-21T16:56:27.034+03:00,766936612.9421742,0,-38.72,100.1974,1,0.3,2025-04-21T16:56:03.730+03:00,99,1.65,2025-04-21T12:30:07.995+03:00,0.02023345852159405,0
2025-04-21T16:56:55.039+03:00,1745243813.171704,40.95220373050805,29.14025042908131,76.57294,-1,-1,-1,-1,30,36.49476654306539,-9999,20891.060345,-0.7349090576171875,0.4766387939453125,-0.5009613037109375,20891.050269,2.322136652128631,-0.9622449396261237,-0.4977590473486104,-0.01708528585731983,0.03696340695023537,0.001633258652873337,0.0316917896270752,-0.01389589905738831,0.01166242361068726,XArbitraryZVertical,-0.3244080697563619,0.3789524755567572,-0.8334581256879908,-0.2377011223006476,-0.7209159135818481,0.4774577021598816,-0.5023088455200195,0,0,0,-1,-1,20885.94037491667,unknown,2,2025-04-21T16:56:11.557+03:00,2025-04-20T21:57:49.637+03:00,6834,0.9873711,0,0,5595.969,5,6,2025-04-21T16:56:27.034+03:00,766936612.9421742,0,-38.72,100.1974,1,0.3,2025-04-21T16:56:03.730+03:00,99,1.65,2025-04-21T12:30:07.995+03:00,0.02023345852159405,0
2025-04-21T16:56:55.049+03:00,1745243813.171704,40.95220373050805,29.14025042908131,76.57294,-1,-1,-1,-1,30,36.49476654306539,-9999,20891.070421,-0.7190093994140625,0.4779205322265625,-0.49908447265625,20891.060345,2.321985777909211,-0.9619393706178211,-0.4979126290250623,-0.01314753573387861,0.04088304936885834,0.001813820912502706,-0.001618266105651855,0.0004345178604125977,0.0020751953125,XArbitraryZVertical,-0.3242177950934712,0.3789976472362024,-0.8334881323567036,-0.237783720616272,-0.7207022905349731,0.4775926470756531,-0.5024871826171875,0,0,0,-1,-1,20885.94037491667,unknown,2,2025-04-21T16:56:11.557+03:00,2025-04-20T21:57:49.637+03:00,6834,0.9873711,0,0,5595.969,5,6,2025-04-21T16:56:27.034+03:00,766936612.9421742,0,-38.72,100.1974,1,0.3,2025-04-21T16:56:03.730+03:00,99,1.65,2025-04-21T12:30:07.995+03:00,0.02023345852159405,0
2025-04-21T16:56:55.059+03:00,1745243813.171704,40.95220373050805,29.14025042908131,76.57294,-1,-1,-1,-1,30,36.49476654306539,-9999,20891.080496,-0.704559326171875,0.486480712890625,-0.50079345703125,20891.070421,2.321942448752746,-0.9616543800195058,-0.4979904104272335,-0.003758628154173493,0.01950445584952831,0.00703944219276309,-0.01392269134521484,-0.002029448747634888,0.002030432224273682,XArbitraryZVertical,-0.3240734640163809,0.3789996647785983,-0.8335282676364751,-0.2378363152093608,-0.7205285429954529,0.4776609838008881,-0.5026713013648987,0,0,0,-1,-1,20885.94037491667,unknown,2,2025-04-21T16:56:11.557+03:00,2025-04-20T21:57:49.637+03:00,6834,0.9873711,0,0,5595.969,5,6,2025-04-21T16:56:27.034+03:00,766936612.9421742,0,-38.72,100.1974,1,0.3,2025-04-21T16:56:03.730+03:00,99,1.65,2025-04-21T12:30:07.995+03:00,0.02023345852159405,0
2025-04-21T16:56:55.070+03:00,1745243813.171704,40.95220373050805,29.14025042908131,76.57294,-1,-1,-1,-1,30,36.49476654306539,-9999,20891.090572,-0.7051849365234375,0.48895263671875,-0.4984130859375,20891.080496,2.322050005829633,-0.9614330894918619,-0.4980733819318469,0.005036194808781147,0.01237197779119015,0.01305552385747433,0.003343820571899414,0.0006900131702423096,0.003784537315368652,XArbitraryZVertical,-0.3239830554966979,0.37898673857827,-0.8335760424577577,-0.2378128196997702,-0.7203848361968994,0.4777338802814484,-0.5028080344200134,0,0,0,-1,-1,20885.94037491667,unknown,2,2025-04-21T16:56:11.557+03:00,2025-04-20T21:57:49.637+03:00,6834,0.9873711,0,0,5595.969,5,6,2025-04-21T16:56:27.034+03:00,766936612.9421742,0,-38.72,100.1974,1,0.3,2025-04-21T16:56:03.730+03:00,99,1.65,2025-04-21T12:30:07.995+03:00,0.02023345852159405,0
2025-04-21T16:56:55.080+03:00,1745243813.171704,40.95220373050805,29.14025042908131,76.57294,-1,-1,-1,-1,30,36.49476654306539,-9999,20891.100649,-0.7161712646484375,0.4843597412109375,-0.5006866455078125,20891.090572,2.322233887152972,-0.9611046639775718,-0.4981818065133193,0.008912825025618076,0.02646928653120995,0.01125462725758553,0.01628929376602173,0.009643256664276123,0.002847075462341309,XArbitraryZVertical,-0.3238567663936074,0.3789581790836388,-0.8336499358955483,-0.2377714583192216,-0.7201772332191467,0.4778291285037994,-0.5030149817466736,0,0,0,-1,-1,20885.94037491667,unknown,2,2025-04-21T16:56:11.557+03:00,2025-04-20T21:57:49.637+03:00,6834,0.9873711,0,0,5595.969,5,6,2025-04-21T16:56:27.034+03:00,766936612.9421742,0,-38.72,100.1974,1,0.3,2025-04-21T16:56:03.730+03:00,99,1.65,2025-04-21T12:30:07.995+03:00,0.02023345852159405,0
2025-04-21T16:56:55.090+03:00,1745243813.171704,40.95220373050805,29.14025042908131,76.57294,-1,-1,-1,-1,30,36.49476654306539,-9999,20891.110725,-0.717254638671875,0.4862060546875,-0.501495361328125,20891.100649,2.322323826488404,-0.9607418659784296,-0.4982575373284628,0.000355023774318397,0.03485078737139702,0.00833606906235218,0.01383405923843384,0.0100039541721344,0.00496441125869751,XArbitraryZVertical,-0.3237056687216641,0.3789286164505128,-0.8337185064665031,-0.2377838241516012,-0.7199649810791016,0.4778956472873688,-0.5032554864883423,0,0,0,-1,-1,20885.94037491667,unknown,2,2025-04-21T16:56:11.557+03:00,2025-04-20T21:57:49.637+03:00,6834,0.9873711,0,0,5595.969,5,6,2025-04-21T16:56:27.034+03:00,766936612.9421742,0,-38.72,100.1974,1,0.3,2025-04-21T16:56:03.730+03:00,99,1.65,2025-04-21T12:30:07.995+03:00,0.02023345852159405,0
2025-04-21T16:56:55.100+03:00,1745243813.171704,40.95220373050805,29.14025042908131,76.57294,-1,-1,-1,-1,30,36.49476654306539,-9999,20891.120801,-0.709991455078125,0.47802734375,-0.4994354248046875,20891.110725,2.322304031106604,-0.960499892995205,-0.4983917924889583,-0.01120249554514885,0.02045700140297413,0.009748243726789951,0.002276599407196045,0.006040811538696289,0.002126336097717285,XArbitraryZVertical,-0.3235710661934235,0.3789529235725899,-0.8337537918149047,-0.2378044664777607,-0.7197905778884888,0.4780135750770569,-0.5033928751945496,0,0,0,-1,-1,20885.94037491667,unknown,2,2025-04-21T16:56:11.557+03:00,2025-04-20T21:57:49.637+03:00,6834,0.9873711,0,0,5595.969,5,6,2025-04-21T16:56:27.034+03:00,766936612.9421742,0,-38.72,100.1974,1,0.3,2025-04-21T16:56:03.730+03:00,99,1.65,2025-04-21T12:30:07.995+03:00,0.02023345852159405,0
2025-04-21T16:56:55.110+03:00,1745243813.171704,40.95220373050805,29.14025042908131,76.57294,-1,-1,-1,-1,30,36.49476654306539,-9999,20891.130877,-0.710968017578125,0.472869873046875,-0.5046234130859375,20891.120801,2.322215981785617,-0.960349727689773,-0.4985946915031655,-0.02288578450679779,0.01479299087077379,0.01545672863721848,0.002731919288635254,0.008303999900817871,0.002224624156951904,XArbitraryZVertical,-0.3234464326862981,0.3790246861216772,-0.8337653689341181,-0.2378191681827513,-0.719635546207428,0.4781917929649353,-0.5034453868865967,0,0,0,-1,-1,20885.94037491667,unknown,2,2025-04-21T16:56:11.557+03:00,2025-04-20T21:57:49.637+03:00,6834,0.9873711,0,0,5595.969,5,6,2025-04-21T16:56:27.034+03:00,766936612.9421742,0,-38.72,100.1974,1,0.3,2025-04-21T16:56:03.730+03:00,99,1.65,2025-04-21T12:30:07.995+03:00,0.02023345852159405,0
2025-04-21T16:56:55.120+03:00,1745243813.171704,40.95220373050805,29.14025042908131,76.57294,-1,-1,-1,-1,30,36.49476654306539,-9999,20891.140953,-0.7142486572265625,0.472930908203125,-0.5037078857421875,20891.130877,2.322052147239983,-0.9602772388890942,-0.4988780385994435,-0.03100522980093956,0.01229973882436752,0.01127476710826159,0.009801745414733887,-0.001771420240402222,0.003389239311218262,XArbitraryZVertical,-0.3233218085936238,0.3791478126056913,-0.8337544822802971,-0.2378307757551724,-0.7194880247116089,0.4784406125545502,-0.5034198760986328,0,0,0,-1,-1,20885.94037491667,unknown,2,2025-04-21T16:56:11.557+03:00,2025-04-20T21:57:49.637+03:00,6834,0.9873711,0,0,5595.969,5,6,2025-04-21T16:56:27.034+03:00,766936612.9421742,0,-38.72,100.1974,1,0.3,2025-04-21T16:56:03.730+03:00,99,1.65,2025-04-21T12:30:07.995+03:00,0.02023345852159405,0
2025-04-21T16:56:55.130+03:00,1745243813.171704,40.95220373050805,29.14025042908131,76.57294,-1,-1,-1,-1,30,36.49476654306539,-9999,20891.15103,-0.712890625,0.4778289794921875,-0.5039825439453125,20891.140953,2.321834734813582,-0.9603015065298219,-0.4991405208561367,-0.02574362233281136,0.005028244107961655,0.0107173677533865,0.008032560348510742,-0.006503313779830933,-0.0016745924949646,XArbitraryZVertical,-0.3232320982728765,0.3792833300078712,-0.833721624037343,-0.2378512697830256,-0.719397246837616,0.4786711037158966,-0.5033303499221802,0,0,0,-1,-1,20885.94037491667,unknown,2,2025-04-21T16:56:11.557+03:00,2025-04-20T21:57:49.637+03:00,6834,0.9873711,0,0,5595.969,5,6,2025-04-21T16:56:27.034+03:00,766936612.9421742,0,-38.72,100.1974,1,0.3,2025-04-21T16:56:03.730+03:00,99,1.65,2025-04-21T12:30:07.995+03:00,0.02023345852159405,0
2025-04-21T16:56:55.140+03:00,1745243813.171704,40.95220373050805,29.14025042908131,76.57294,-1,-1,-1,-1,30,36.49476654306539,-9999,20891.161106,-0.71429443359375,0.4834747314453125,-0.5056915283203125,20891.15103,2.321703005718057,-0.9603451835752236,-0.4993125238267455,-0.01009428780525923,0.004130559507757425,0.01055614650249481,0.005713462829589844,-0.005265742540359497,-0.0001662969589233398,XArbitraryZVertical,-0.3231868584738299,0.3793736909885481,-0.8336969696548024,-0.2378550996122678,-0.7193517684936523,0.4788221120834351,-0.5032517313957214,0,0,0,-1,-1,20885.94037491667,unknown,2,2025-04-21T16:56:11.557+03:00,2025-04-20T21:57:49.637+03:00,6834,0.9873711,0,0,5595.969,5,6,2025-04-21T16:56:27.034+03:00,766936612.9421742,0,-38.72,100.1974,1,0.3,2025-04-21T16:56:03.730+03:00,99,1.65,2025-04-21T12:30:07.995+03:00,0.02023345852159405,0
2025-04-21T16:56:55.150+03:00,1745243813.171704,40.95220373050805,29.14025042908131,76.57294,-1,-1,-1,-1,30,36.49476654306539,-9999,20891.171182,-0.7188262939453125,0.48931884765625,-0.5063629150390625,20891.161106,2.321740688393929,-0.9602514800719371,-0.4994045521876401,0.003561869263648987,0.0120630506426096,0.007424268871545792,0.007049322128295898,0.0002839267253875732,-0.001360058784484863,XArbitraryZVertical,-0.3231343493968598,0.3793906356121121,-0.8337155853156855,-0.2378343140025817,-0.7192685008049011,0.4789029061794281,-0.5032938718795776,0,0,0,-1,-1,20885.94037491667,unknown,2,2025-04-21T16:56:11.557+03:00,2025-04-20T21:57:49.637+03:00,6834,0.9873711,0,0,5595.969,5,6,2025-04-21T16:56:27.034+03:00,766936612.9421742,0,-38.72,100.1974,1,0.3,2025-04-21T16:56:03.730+03:00,99,1.65,2025-04-21T12:30:07.995+03:00,0.02023345852159405,0
2025-04-21T16:56:55.162+03:00,1745243813.171704,40.95220373050805,29.14025042908131,76.57294,-1,-1,-1,-1,30,36.49476654306539,-9999,20891.181258,-0.719024658203125,0.4869384765625,-0.5032501220703125,20891.171182,2.321831798900755,-0.9600718402277252,-0.4994671299079869,0.003243688028305769,0.01388125773519278,0.003028621897101402,0.00415724515914917,0.004943966865539551,-0.00288081169128418,XArbitraryZVertical,-0.3230627493429785,0.3793777957953796,-0.8337547391496023,-0.2378148480415826,-0.7191535234451294,0.4789578318595886,-0.5034058690071106,0,0,0,-1,-1,20885.94037491667,unknown,2,2025-04-21T16:56:11.557+03:00,2025-04-20T21:57:49.637+03:00,6834,0.9873711,0,0,5595.969,5,6,2025-04-21T16:56:27.034+03:00,766936612.9421742,0,-38.72,100.1974,1,0.3,2025-04-21T16:56:03.730+03:00,99,1.65,2025-04-21T12:30:07.995+03:00,0.02023345852159405,0
2025-04-21T16:56:55.171+03:00,1745243813.171704,40.95220373050805,29.14025042908131,76.57294,-1,-1,-1,-1,30,36.49476654306539,-9999,20891.191335,-0.715728759765625,0.4796905517578125,-0.498199462890625,20891.181258,2.321849812653947,-0.9599045407947776,-0.4995528629035312,-0.006081636529415846,0.01798359118402004,0.007161048706620932,-4.231929779052734e-06,0.0102246105670929,-0.002356827259063721,XArbitraryZVertical,-0.3229772178690741,0.3793868359428332,-0.8337829885965149,-0.2378178403019201,-0.7190357446670532,0.4790330827236176,-0.5035026669502258,0,0,0,-1,-1,20885.94037491667,unknown,2,2025-04-21T16:56:11.557+03:00,2025-04-20T21:57:49.637+03:00,6834,0.9873711,0,0,5595.969,5,6,2025-04-21T16:56:27.034+03:00,766936612.9421742,0,-38.72,100.1974,1,0.3,2025-04-21T16:56:03.730+03:00,99,1.65,2025-04-21T12:30:07.995+03:00,0.02023345852159405,0
2025-04-21T16:56:55.180+03:00,1745243813.171704,40.95220373050805,29.14025042908131,76.57294,-1,-1,-1,-1,30,36.49476654306539,-9999,20891.201411,-0.711151123046875,0.4800872802734375,-0.494659423828125,20891.191335,2.321771831407055,-0.9597774993363012,-0.4997036026323577,-0.01667396165430546,0.01149919256567955,0.007503731176257133,0.0003304481506347656,0.005774021148681641,0.001294255256652832,XArbitraryZVertical,-0.3228757618113599,0.3794403054477631,-0.8337924948382726,-0.2378369199869328,-0.7189126014709473,0.4791654050350189,-0.5035526156425476,0,0,0,-1,-1,20885.94037491667,unknown,2,2025-04-21T16:56:11.557+03:00,2025-04-20T21:57:49.637+03:00,6834,0.9873711,0,0,5595.969,5,6,2025-04-21T16:56:27.034+03:00,766936612.9421742,0,-38.72,100.1974,1,0.3,2025-04-21T16:56:03.730+03:00,99,1.65,2025-04-21T12:30:07.995+03:00,0.02023345852159405,0
2025-04-21T16:56:55.190+03:00,1745243813.171704,40.95220373050805,29.14025042908131,76.57294,-1,-1,-1,-1,30,36.49476654306539,-9999,20891.211487,-0.7091522216796875,0.4839019775390625,-0.496490478515625,20891.201411,2.321636261070299,-0.959769948086247,-0.499913277687124,-0.02017788216471672,0.002242844318971038,0.01133815012872219,0.003357112407684326,-0.0002541542053222656,0.005438148975372314,XArbitraryZVertical,-0.3228000637029385,0.3795391587215291,-0.8337750729118482,-0.2378425005535734,-0.7188263535499573,0.4793494343757629,-0.5035002827644348,0,0,0,-1,-1,20885.94037491667,unknown,2,2025-04-21T16:56:11.557+03:00,2025-04-20T21:57:49.637+03:00,6834,0.9873711,0,0,5595.969,5,6,2025-04-21T16:56:27.034+03:00,766936612.9421742,0,-38.72,100.1974,1,0.3,2025-04-21T16:56:03.730+03:00,99,1.65,2025-04-21T12:30:07.995+03:00,0.02023345852159405,0
2025-04-21T16:56:55.201+03:00,1745243813.171704,40.95220373050805,29.14025042908131,76.57294,-1,-1,-1,-1,30,36.49476654306539,-9999,20891.221563,-0.7146148681640625,0.49029541015625,-0.4989776611328125,20891.211487,2.321603434783917,-0.9597619039399807,-0.5000497050169791,0.001493924646638334,0.002693251240998507,0.005239144898951054,0.008014440536499023,0.001045197248458862,0.008946418762207031,XArbitraryZVertical,-0.3227599216211247,0.3795941654243231,-0.8337709811021067,-0.2378238915379725,-0.718768835067749,0.4794691503047943,-0.5034686326980591,0,0,0,-1,-1,20885.94037491667,unknown,2,2025-04-21T16:56:11.557+03:00,2025-04-20T21:57:49.637+03:00,6834,0.9873711,0,0,5595.969,5,6,2025-04-21T16:56:27.034+03:00,766936612.9421742,0,-38.72,100.1974,1,0.3,2025-04-21T16:56:03.730+03:00,99,1.65,2025-04-21T12:30:07.995+03:00,0.02023345852159405,0
2025-04-21T16:56:55.211+03:00,1745243813.171704,40.95220373050805,29.14025042908131,76.57294,-1,-1,-1,-1,30,36.49476654306539,-9999,20891.231639,-0.719512939453125,0.4944610595703125,-0.4981689453125,20891.221563,2.32172423780893,-0.9596161772782199,-0.5000004210876707,0.01743134669959545,0.01389770209789276,0.002281172433868051,0.00870811939239502,0.004842102527618408,0.006959021091461182,XArbitraryZVertical,-0.322733141667273,0.3795390392597444,-0.8338093868848255,-0.2378133809123065,-0.7187147736549377,0.4794259071350098,-0.5035868883132935,0,0,0,-1,-1,20885.94037491667,unknown,2,2025-04-21T16:56:11.557+03:00,2025-04-20T21:57:49.637+03:00,6834,0.9873711,0,0,5595.969,5,6,2025-04-21T16:56:27.034+03:00,766936612.9421742,0,-38.72,100.1974,1,0.3,2025-04-21T16:56:03.730+03:00,99,1.65,2025-04-21T12:30:07.995+03:00,0.02023345852159405,0
2025-04-21T16:56:55.221+03:00,1745243813.171704,40.95220373050805,29.14025042908131,76.57294,-1,-1,-1,-1,30,36.49476654306539,-9999,20891.241716,-0.7209930419921875,0.4928436279296875,-0.499725341796875,20891.231639,2.321938275394533,-0.9593202103554495,-0.4998604612390172,0.02285986579954624,0.02447890862822533,-0.001571256434544921,0.003548085689544678,0.01170933246612549,0.004387378692626953,XArbitraryZVertical,-0.3226816111585274,0.3794173279459533,-0.8338842865778519,-0.2378152537948324,-0.7186207175254822,0.4793030917644501,-0.5038381218910217,0,0,0,-1,-1,20885.94037491667,unknown,2,2025-04-21T16:56:11.557+03:00,2025-04-20T21:57:49.637+03:00,6834,0.9873711,0,0,5595.969,5,6,2025-04-21T16:56:27.034+03:00,766936612.9421742,0,-38.72,100.1974,1,0.3,2025-04-21T16:56:03.730+03:00,99,1.65,2025-04-21T12:30:07.995+03:00,0.02023345852159405,0
2025-04-21T16:56:55.231+03:00,1745243813.171704,40.95220373050805,29.14025042908131,76.57294,-1,-1,-1,-1,30,36.49476654306539,-9999,20891.251792,-0.7165985107421875,0.4855194091796875,-0.502197265625,20891.241716,2.322163035683952,-0.9589151064634575,-0.4996933093258413,0.02468706108629704,0.03256719186902046,-0.004582492634654045,-0.0008477568626403809,0.01605218648910522,0.005685746669769287,XArbitraryZVertical,-0.3225927475756253,0.3792707971767245,-0.8339782066836163,-0.2378397996132022,-0.7184820175170898,0.4791563749313354,-0.5041751861572266,0,0,0,-1,-1,20885.94037491667,unknown,2,2025-04-21T16:56:11.557+03:00,2025-04-20T21:57:49.637+03:00,6834,0.9873711,0,0,5595.969,5,6,2025-04-21T16:56:27.034+03:00,766936612.9421742,0,-38.72,100.1974,1,0.3,2025-04-21T16:56:03.730+03:00,99,1.65,2025-04-21T12:30:07.995+03:00,0.02023345852159405,0
2025-04-21T16:56:55.241+03:00,1745243813.171704,40.95220373050805,29.14025042908131,76.57294,-1,-1,-1,-1,30,36.49476654306539,-9999,20891.261868,-0.7092437744140625,0.4774169921875,-0.501922607421875,20891.251792,2.322330597963753,-0.95850057908826,-0.499575716328491,0.0130759458988905,0.03159993141889572,-0.0001351468963548541,-0.002155065536499023,0.0132715106010437,0.004551112651824951,XArbitraryZVertical,-0.3224778890944012,0.3791507802791284,-0.8340664406081965,-0.2378779091515883,-0.7183191776275635,0.4790531396865845,-0.5045053958892822,0,0,0,-1,-1,20885.94037491667,unknown,2,2025-04-21T16:56:11.557+03:00,2025-04-20T21:57:49.637+03:00,6834,0.9873711,0,0,5595.969,5,6,2025-04-21T16:56:27.034+03:00,766936612.9421742,0,-38.72,100.1974,1,0.3,2025-04-21T16:56:03.730+03:00,99,1.65,2025-04-21T12:30:07.995+03:00,0.02023345852159405,0
2025-04-21T16:56:55.251+03:00,1745243813.171704,40.95220373050805,29.14025042908131,76.57294,-1,-1,-1,-1,30,36.49476654306539,-9999,20891.271944,-0.7076263427734375,0.4739532470703125,-0.501708984375,20891.261868,2.322390400298584,-0.9581601447802571,-0.4995622982056036,0.001639799331314862,0.02894715964794159,8.056912338361144e-05,0.00254589319229126,0.005119830369949341,0.002388358116149902,XArbitraryZVertical,-0.3223502597019628,0.3790956576746843,-0.8341285668191607,-0.2379207979534145,-0.7181525826454163,0.4790413677692413,-0.504753589630127,0,0,0,-1,-1,20885.94037491667,unknown,2,2025-04-21T16:56:11.557+03:00,2025-04-20T21:57:49.637+03:00,6834,0.9873711,0,0,5595.969,5,6,2025-04-21T16:56:27.034+03:00,766936612.9421742,0,-38.72,100.1974,1,0.3,2025-04-21T16:56:03.730+03:00,99,1.65,2025-04-21T12:30:07.995+03:00,0.02023345852159405,0
2025-04-21T16:56:55.261+03:00,1745243813.171704,40.95220373050805,29.14025042908131,76.57294,-1,-1,-1,-1,30,36.49476654306539,-9999,20891.282021,-0.70745849609375,0.4734954833984375,-0.503692626953125,20891.271944,2.322350578472399,-0.9579588729473133,-0.4996116882644852,-0.007721411995589733,0.01761600747704506,0.003447237424552441,0.008818328380584717,-0.002232462167739868,0.002961814403533936,XArbitraryZVertical,-0.322247751191412,0.3790964865689573,-0.8341556468255945,-0.2379632169653342,-0.7180315852165222,0.4790847301483154,-0.5048844814300537,0,0,0,-1,-1,20885.94037491667,unknown,2,2025-04-21T16:56:11.557+03:00,2025-04-20T21:57:49.637+03:00,6834,0.9873711,0,0,5595.969,5,6,2025-04-21T16:56:27.034+03:00,766936612.9421742,0,-38.72,100.1974,1,0.3,2025-04-21T16:56:03.730+03:00,99,1.65,2025-04-21T12:30:07.995+03:00,0.02023345852159405,0
2025-04-21T16:56:55.271+03:00,1745243813.171704,40.95220373050805,29.14025042908131,76.57294,-1,-1,-1,-1,30,36.49476654306539,-9999,20891.292097,-0.70947265625,0.480194091796875,-0.5075836181640625,20891.282021,2.322335606277525,-0.9578517880419727,-0.4997155082072572,-0.004543461836874485,0.00949895940721035,0.01030594203621149,0.009822249412536621,-0.006138324737548828,0.002949059009552002,XArbitraryZVertical,-0.3221770587285853,0.379124747227504,-0.8341698795763081,-0.2379639256647653,-0.7179368138313293,0.479175865650177,-0.5049327611923218,0,0,0,-1,-1,20885.94037491667,unknown,2,2025-04-21T16:56:11.557+03:00,2025-04-20T21:57:49.637+03:00,6834,0.9873711,0,0,5595.969,5,6,2025-04-21T16:56:27.034+03:00,766936612.9421742,0,-38.72,100.1974,1,0.3,2025-04-21T16:56:03.730+03:00,99,1.65,2025-04-21T12:30:07.995+03:00,0.02023345852159405,0
2025-04-21T16:56:55.281+03:00,1745243813.171704,40.95220373050805,29.14025042908131,76.57294,-1,-1,-1,-1,30,36.49476654306539,-9999,20891.302173,-0.7136688232421875,0.493255615234375,-0.5032501220703125,20891.292097,2.322354780389039,-0.9577370827252965,-0.4998011808241605,-0.0006153655122034252,0.01164779812097549,0.003771843388676643,0.0102037787437439,-0.005236953496932983,0.0002306699752807617,XArbitraryZVertical,-0.322113712120968,0.3791398559881387,-0.8341896140494885,-0.2379563576750703,-0.7178453207015991,0.4792510569095612,-0.5049914717674255,0,0,0,-1,-1,20885.94037491667,unknown,2,2025-04-21T16:56:11.557+03:00,2025-04-20T21:57:49.637+03:00,6834,0.9873711,0,0,5595.969,5,6,2025-04-21T16:56:27.034+03:00,766936612.9421742,0,-38.72,100.1974,1,0.3,2025-04-21T16:56:03.730+03:00,99,1.65,2025-04-21T12:30:07.995+03:00,0.02023345852159405,0
2025-04-21T16:56:55.291+03:00,1745243813.171704,40.95220373050805,29.14025042908131,76.57294,-1,-1,-1,-1,30,36.49476654306539,-9999,20891.312249,-0.717132568359375,0.485595703125,-0.4980621337890625,20891.302173,2.322411611987064,-0.9575953337779902,-0.4998605156421534,0.01041544787585735,0.009939379990100861,0.006999328266829252,0.00800323486328125,0.002599805593490601,-0.002750992774963379,XArbitraryZVertical,-0.3220520678093878,0.3791358963313431,-0.8342185629263298,-0.2379448784857288,-0.7177504897117615,0.4793031215667725,-0.5050768852233887,0,0,0,-1,-1,20885.94037491667,unknown,2,2025-04-21T16:56:11.557+03:00,2025-04-20T21:57:49.637+03:00,6834,0.9873711,0,0,5595.969,5,6,2025-04-21T16:56:27.034+03:00,766936612.9421742,0,-38.72,100.1974,1,0.3,2025-04-21T16:56:03.730+03:00,99,1.65,2025-04-21T12:30:07.995+03:00,0.02023345852159405,0
2025-04-21T16:56:55.302+03:00,1745243813.171704,40.95220373050805,29.14025042908131,76.57294,-1,-1,-1,-1,30,36.49476654306539,-9999,20891.322326,-0.7206878662109375,0.4862060546875,-0.495513916015625,20891.312249,2.322576548766067,-0.9573342274879058,-0.4998430683078872,0.01354672573506832,0.0298757366836071,0.002690966241061687,0.00354468822479248,0.01363193988800049,0.002827644348144531,XArbitraryZVertical,-0.3219783096543115,0.3790717908973198,-0.8342804450570699,-0.2379299289080526,-0.7176254391670227,0.4792878031730652,-0.5052691102027893,0,0,0,-1,-1,20885.94037491667,unknown,2,2025-04-21T16:56:11.557+03:00,2025-04-20T21:57:49.637+03:00,6834,0.9873711,0,0,5595.969,5,6,2025-04-21T16:56:27.034+03:00,766936612.9421742,0,-38.72,100.1974,1,0.3,2025-04-21T16:56:03.730+03:00,99,1.65,2025-04-21T12:30:07.995+03:00,0.02023345852159405,0
2025-04-21T16:56:55.312+03:00,1745243813.171704,40.95220373050805,29.14025042908131,76.57294,-1,-1,-1,-1,30,36.49476654306539,-9999,20891.332402,-0.7207183837890625,0.4875030517578125,-0.50347900390625,20891.322326,2.322625938079782,-0.9569386941738041,-0.4998152444506476,0.0007015010342001915,0.04615803807973862,-0.005142721813172102,-0.0006268620491027832,0.006026983261108398,0.008505463600158691,XArbitraryZVertical,-0.3218288918261235,0.3790064355520787,-0.8343503056911907,-0.2379911848189106,-0.7174364328384399,0.4792633950710297,-0.505560576915741,0,0,0,-1,-1,20885.94037491667,unknown,2,2025-04-21T16:56:11.557+03:00,2025-04-20T21:57:49.637+03:00,6834,0.9873711,0,0,5595.969,5,6,2025-04-21T16:56:27.034+03:00,766936612.9421742,0,-38.72,100.1974,1,0.3,2025-04-21T16:56:03.730+03:00,99,1.65,2025-04-21T12:30:07.995+03:00,0.02023345852159405,0
2025-04-21T16:56:55.322+03:00,1745243813.171704,40.95220373050805,29.14025042908131,76.57294,-1,-1,-1,-1,30,36.49476654306539,-9999,20891.342478,-0.707672119140625,0.4729766845703125,-0.5050506591796875,20891.332402,2.322608088829791,-0.9564874220059554,-0.4998146578920618,0.001832079491578043,0.04156867787241936,-0.0002236969885416329,-0.003616690635681152,0.007843285799026489,0.009958505630493164,XArbitraryZVertical,-0.3216373716817469,0.3789553789250198,-0.8344207855093886,-0.2380842930996602,-0.7172084450721741,0.4792628884315491,-0.5058844685554504,0,0,0,-1,-1,20885.94037491667,unknown,2,2025-04-21T16:56:11.557+03:00,2025-04-20T21:57:49.637+03:00,6834,0.9873711,0,0,5595.969,5,6,2025-04-21T16:56:27.034+03:00,766936612.9421742,0,-38.72,100.1974,1,0.3,2025-04-21T16:56:03.730+03:00,99,1.65,2025-04-21T12:30:07.995+03:00,0.02023345852159405,0
2025-04-21T16:56:55.332+03:00,1745243813.171704,40.95220373050805,29.14025042908131,76.57294,-1,-1,-1,-1,30,36.49476654306539,-9999,20891.352554,-0.698822021484375,0.477813720703125,-0.5070343017578125,20891.342478,2.322614598247533,-0.9561292888165284,-0.499872112844884,-0.003693180624395609,0.02885954082012177,0.006046715658158064,-0.002935409545898438,0.006724745035171509,0.002508997917175293,XArbitraryZVertical,-0.3214763249906678,0.3789330638387711,-0.834478488564345,-0.2381352306676949,-0.7170047760009766,0.4793133139610291,-0.5061253905296326,0,0,0,-1,-1,20885.94037491667,unknown,2,2025-04-21T16:56:11.557+03:00,2025-04-20T21:57:49.637+03:00,6834,0.9873711,0,0,5595.969,5,6,2025-04-21T16:56:27.034+03:00,766936612.9421742,0,-38.72,100.1974,1,0.3,2025-04-21T16:56:03.730+03:00,99,1.65,2025-04-21T12:30:07.995+03:00,0.02023345852159405,0
2025-04-21T16:56:55.351+03:00,1745243813.171704,40.95220373050805,29.14025042908131,76.57294,-1,-1,-1,-1,30,36.49476654306539,-9999,20891.36263,-0.7018890380859375,0.4830474853515625,-0.5037841796875,20891.352554,2.322621392837945,-0.9558916636209021,-0.4999595403665403,-0.005509989336133003,0.01919572800397873,0.007882965728640556,0.01093286275863647,-0.006398230791091919,0.0005952119827270508,XArbitraryZVertical,-0.3213589462434061,0.3789361947592272,-0.8345164021160559,-0.2381556667557016,-0.716850221157074,0.479390025138855,-0.5062716007232666,0,0,0,-1,-1,20885.94037491667,unknown,2,2025-04-21T16:56:11.557+03:00,2025-04-20T21:57:49.637+03:00,6834,0.9873711,0,0,5595.969,5,6,2025-04-21T16:56:27.034+03:00,766936612.9421742,0,-38.72,100.1974,1,0.3,2025-04-21T16:56:03.730+03:00,99,1.65,2025-04-21T12:30:07.995+03:00,0.02023345852159405,0
2025-04-21T16:56:55.357+03:00,1745243813.171704,40.95220373050805,29.14025042908131,76.57294,-1,-1,-1,-1,30,36.49476654306539,-9999,20891.372707,-0.7060089111328125,0.4805145263671875,-0.500823974609375,20891.36263,2.322634554786194,-0.9556693735010061,-0.5000397041153408,0.000261080771451816,0.02299712412059307,0.008822528645396233,0.01754856109619141,-0.0007923245429992676,-0.000732421875,XArbitraryZVertical,-0.321250794002103,0.3789374269843268,-0.8345526755524001,-0.2381723377886151,-0.7167062163352966,0.4794603884220123,-0.50640869140625,0,0,0,-1,-1,20885.94037491667,unknown,2,2025-04-21T16:56:11.557+03:00,2025-04-20T21:57:49.637+03:00,6834,0.9873711,0,0,5595.969,5,6,2025-04-21T16:56:27.034+03:00,766936612.9421742,0,-38.72,100.1974,1,0.3,2025-04-21T16:56:03.730+03:00,99,1.65,2025-04-21T12:30:07.995+03:00,0.02023345852159405,0
2025-04-21T16:56:55.362+03:00,1745243813.171704,40.95220373050805,29.14025042908131,76.57294,-1,-1,-1,-1,30,36.49476654306539,-9999,20891.382783,-0.7089691162109375,0.48431396484375,-0.50018310546875,20891.372707,2.322664795495867,-0.9553855467641605,-0.5001269779586646,-0.007617615163326263,0.02735565416514874,0.005259618628770113,0.01398319005966187,0.003662914037704468,0.0031394362449646,XArbitraryZVertical,-0.3211185810321464,0.3789312346354752,-0.8346008060948259,-0.2381918525076718,-0.7165282964706421,0.4795369803905487,-0.5065879821777344,0,0,0,-1,-1,20885.94037491667,unknown,2,2025-04-21T16:56:11.557+03:00,2025-04-20T21:57:49.637+03:00,6834,0.9873711,0,0,5595.969,5,6,2025-04-21T16:56:27.034+03:00,766936612.9421742,0,-38.72,100.1974,1,0.3,2025-04-21T16:56:03.730+03:00,99,1.65,2025-04-21T12:30:07.995+03:00,0.02023345852159405,0
2025-04-21T16:56:55.372+03:00,1745243813.171704,40.95220373050805,29.14025042908131,76.57294,-1,-1,-1,-1,30,36.49476654306539,-9999,20891.392859,-0.709991455078125,0.488128662109375,-0.50238037109375,20891.382783,2.322700851029271,-0.955095374348695,-0.5002501499075495,-0.003761091269552708,0.02077418379485607,0.01129194442182779,0.01006478071212769,0.001098185777664185,0.005800366401672363,XArbitraryZVertical,-0.3209767916310116,0.3789367106060626,-0.8346501891782023,-0.2382012462835663,-0.7163330912590027,0.4796450436115265,-0.5067617297172546,0,0,0,-1,-1,20885.94037491667,unknown,2,2025-04-21T16:56:11.557+03:00,2025-04-20T21:57:49.637+03:00,6834,0.9873711,0,0,5595.969,5,6,2025-04-21T16:56:27.034+03:00,766936612.9421742,0,-38.72,100.1974,1,0.3,2025-04-21T16:56:03.730+03:00,99,1.65,2025-04-21T12:30:07.995+03:00,0.02023345852159405,0
2025-04-21T16:56:55.382+03:00,1745243813.171704,40.95220373050805,29.14025042908131,76.57294,-1,-1,-1,-1,30,36.49476654306539,-9999,20891.402935,-0.706146240234375,0.4829254150390625,-0.50634765625,20891.392859,2.322721476391383,-0.9549309603386318,-0.5004296245351193,-0.008610508404672146,0.01415376551449299,0.01174704544246197,0.006233811378479004,0.005670934915542603,0.006738185882568359,XArbitraryZVertical,-0.3208719847118529,0.3789805914006397,-0.8346768223521591,-0.2381792637909052,-0.7161794304847717,0.4798025190830231,-0.5068297386169434,0,0,0,-1,-1,20885.94037491667,unknown,2,2025-04-21T16:56:11.557+03:00,2025-04-20T21:57:49.637+03:00,6834,0.9873711,0,0,5595.969,5,6,2025-04-21T16:56:27.034+03:00,766936612.9421742,0,-38.72,100.1974,1,0.3,2025-04-21T16:56:03.730+03:00,99,1.65,2025-04-21T12:30:07.995+03:00,0.02023345852159405,0
2025-04-21T16:56:55.392+03:00,1745243813.171704,40.95220373050805,29.14025042908131,76.57294,-1,-1,-1,-1,30,36.49476654306539,-9999,20891.413012,-0.7114410400390625,0.4803619384765625,-0.5064697265625,20891.402935,2.32267202172882,-0.9548482384975516,-0.5005696688613511,-0.009865123778581619,0.01003492064774036,0.006267325486987829,0.00668632984161377,0.007958978414535522,0.004164576530456543,XArbitraryZVertical,-0.3207967799601344,0.3790307755678879,-0.8346825076337995,-0.2381808885644714,-0.7160826921463013,0.4799253940582275,-0.5068501830101013,0,0,0,-1,-1,20885.94037491667,unknown,2,2025-04-21T16:56:11.557+03:00,2025-04-20T21:57:49.637+03:00,6834,0.9873711,0,0,5595.969,5,6,2025-04-21T16:56:27.034+03:00,766936612.9421742,0,-38.72,100.1974,1,0.3,2025-04-21T16:56:03.730+03:00,99,1.65,2025-04-21T12:30:07.995+03:00,0.02023345852159405,0
2025-04-21T16:56:55.402+03:00,1745243813.171704,40.95220373050805,29.14025042908131,76.57294,-1,-1,-1,-1,30,36.49476654306539,-9999,20891.423088,-0.71453857421875,0.48388671875,-0.5068206787109375,20891.413012,2.322606053185281,-0.9548023623792866,-0.5006890781548053,-0.007921149022877216,0.01482235174626112,0.002671725116670132,0.008844077587127686,0.001918554306030273,0.000273287296295166,XArbitraryZVertical,-0.3207384632437833,0.3790803151284465,-0.8346805045832714,-0.2381874443221643,-0.7160126566886902,0.4800301492214203,-0.5068498849868774,0,0,0,-1,-1,20885.94037491667,unknown,2,2025-04-21T16:56:11.557+03:00,2025-04-20T21:57:49.637+03:00,6834,0.9873711,0,0,5595.969,5,6,2025-04-21T16:56:27.034+03:00,766936612.9421742,0,-38.72,100.1974,1,0.3,2025-04-21T16:56:03.730+03:00,99,1.65,2025-04-21T12:30:07.995+03:00,0.02023345852159405,0
2025-04-21T16:56:55.412+03:00,1745243813.171704,40.95220373050805,29.14025042908131,76.57294,-1,-1,-1,-1,30,36.49476654306539,-9999,20891.433164,-0.713287353515625,0.4881744384765625,-0.5048980712890625,20891.423088,2.322534010547179,-0.9546746014266045,-0.5007468240357731,-0.006979721132665873,0.0186983160674572,-0.001867366721853614,0.003751814365386963,0.0007387399673461914,0.0003945231437683105,XArbitraryZVertical,-0.3206585673783704,0.379098133426366,-0.834691722774522,-0.2382274467739914,-0.7159252762794495,0.4800808131694794,-0.5069254040718079,0,0,0,-1,-1,20885.94037491667,unknown,2,2025-04-21T16:56:11.557+03:00,2025-04-20T21:57:49.637+03:00,6834,0.9873711,0,0,5595.969,5,6,2025-04-21T16:56:27.034+03:00,766936612.9421742,0,-38.72,100.1974,1,0.3,2025-04-21T16:56:03.730+03:00,99,1.65,2025-04-21T12:30:07.995+03:00,0.02023345852159405,0
2025-04-21T16:56:55.422+03:00,1745243813.171704,40.95220373050805,29.14025042908131,76.57294,-1,-1,-1,-1,30,36.49476654306539,-9999,20891.44324,-0.709259033203125,0.4816741943359375,-0.5043487548828125,20891.433164,2.322453173449269,-0.9545334306469581,-0.5007682036631984,-0.00734097883105278,0.01423046458512545,-0.001355041051283479,0.001535654067993164,0.004824578762054443,0.0007948875427246094,XArbitraryZVertical,-0.3205795321205855,0.3791022293449819,-0.8347044889946957,-0.2382826891978196,-0.7158453464508057,0.4800995588302612,-0.5070205330848694,0,0,0,-1,-1,20885.94037491667,unknown,2,2025-04-21T16:56:11.557+03:00,2025-04-20T21:57:49.637+03:00,6834,0.9873711,0,0,5595.969,5,6,2025-04-21T16:56:27.034+03:00,766936612.9421742,0,-38.72,100.1974,1,0.3,2025-04-21T16:56:03.730+03:00,99,1.65,2025-04-21T12:30:07.995+03:00,0.02023345852159405,0
2025-04-21T16:56:55.432+03:00,1745243813.171704,40.95220373050805,29.14025042908131,76.57294,-1,-1,-1,-1,30,36.49476654306539,-9999,20891.453316,-0.709503173828125,0.4815521240234375,-0.503387451171875,20891.44324,2.32242123064337,-0.9543915853858892,-0.5008176302570941,-0.002568860538303852,0.01235213689506054,-0.001096448162570596,0.003382205963134766,0.007482022047042847,0.00175243616104126,XArbitraryZVertical,-0.3205032696082482,0.379108835207127,-0.8347227315323754,-0.2383105308155696,-0.715753972530365,0.4801429212093353,-0.5071082711219788,0,0,0,-1,-1,20885.94037491667,unknown,2,2025-04-21T16:56:11.557+03:00,2025-04-20T21:57:49.637+03:00,6834,0.9873711,0,0,5595.969,5,6,2025-04-21T16:56:27.034+03:00,766936612.9421742,0,-38.72,100.1974,1,0.3,2025-04-21T16:56:03.730+03:00,99,1.65,2025-04-21T12:30:07.995+03:00,0.02023345852159405,0
2025-04-21T16:56:55.443+03:00,1745243813.171704,40.95220373050805,29.14025042908131,76.57294,-1,-1,-1,-1,30,36.49476654306539,-9999,20891.463393,-0.7122039794921875,0.4864959716796875,-0.5066070556640625,20891.453316,2.322442643293543,-0.9541962490227307,-0.5008593037139362,0.002818181645125151,0.02133125066757202,0.003205622080713511,0.007264614105224609,0.001219898462295532,0.003162384033203125,XArbitraryZVertical,-0.3204164572635029,0.3790976335037212,-0.8347561155461246,-0.2383283707638348,-0.7156386375427246,0.4801794588565826,-0.5072365403175354,0,0,0,-1,-1,20885.94037491667,unknown,2,2025-04-21T16:56:11.557+03:00,2025-04-20T21:57:49.637+03:00,6834,0.9873711,0,0,5595.969,5,6,2025-04-21T16:56:27.034+03:00,766936612.9421742,0,-38.72,100.1974,1,0.3,2025-04-21T16:56:03.730+03:00,99,1.65,2025-04-21T12:30:07.995+03:00,0.02023345852159405,0
2025-04-21T16:56:55.453+03:00,1745243813.171704,40.95220373050805,29.14025042908131,76.57294,-1,-1,-1,-1,30,36.49476654306539,-9999,20891.473469,-0.7109527587890625,0.4877471923828125,-0.51007080078125,20891.463393,2.322487866410467,-0.9539405121838296,-0.5008520005001634,0.002817116212099791,0.02598139643669128,-0.0002333176962565631,0.005016803741455078,0.001363635063171387,0.003133773803710938,XArbitraryZVertical,-0.320319901523592,0.3790571959944246,-0.8348025927516572,-0.2383598303158103,-0.7155117988586426,0.4801730513572693,-0.507421612739563,0,0,0,-1,-1,20885.94037491667,unknown,2,2025-04-21T16:56:11.557+03:00,2025-04-20T21:57:49.637+03:00,6834,0.9873711,0,0,5595.969,5,6,2025-04-21T16:56:27.034+03:00,766936612.9421742,0,-38.72,100.1974,1,0.3,2025-04-21T16:56:03.730+03:00,99,1.65,2025-04-21T12:30:07.995+03:00,0.02023345852159405,0
2025-04-21T16:56:55.462+03:00,1745243813.171704,40.95220373050805,29.14025042908131,76.57294,-1,-1,-1,-1,30,36.49476654306539,-9999,20891.483545,-0.7101898193359375,0.4833526611328125,-0.506378173828125,20891.473469,2.322508763570729,-0.9536818812065824,-0.5008636856461823,-0.002812007442116737,0.02321463823318481,-5.728274118155241e-05,0.003110945224761963,0.00670921802520752,-0.0002854466438293457,XArbitraryZVertical,-0.3202132874760971,0.379027372053727,-0.834846365564678,-0.2383972477578331,-0.7153759598731995,0.4801833033561707,-0.5076034069061279,0,0,0,-1,-1,20885.94037491667,unknown,2,2025-04-21T16:56:11.557+03:00,2025-04-20T21:57:49.637+03:00,6834,0.9873711,0,0,5595.969,5,6,2025-04-21T16:56:27.034+03:00,766936612.9421742,0,-38.72,100.1974,1,0.3,2025-04-21T16:56:03.730+03:00,99,1.65,2025-04-21T12:30:07.995+03:00,0.02023345852159405,0
2025-04-21T16:56:55.473+03:00,1745243813.171704,40.95220373050805,29.14025042908131,76.57294,-1,-1,-1,-1,30,36.49476654306539,-9999,20891.493621,-0.708831787109375,0.4857177734375,-0.501739501953125,20891.483545,2.322493492245479,-0.9534806663840134,-0.5009083778002238,-0.002998694777488708,0.02046172879636288,0.001364312716759741,0.004471361637115479,0.0067005455493927,-0.001695156097412109,XArbitraryZVertical,-0.3201164294495462,0.3790224616755695,-0.8348761631887712,-0.2384306237920868,-0.7152562737464905,0.4802225232124329,-0.5077348947525024,0,0,0,-1,-1,20885.94037491667,unknown,2,2025-04-21T16:56:11.557+03:00,2025-04-20T21:57:49.637+03:00,6834,0.9873711,0,0,5595.969,5,6,2025-04-21T16:56:27.034+03:00,766936612.9421742,0,-38.72,100.1974,1,0.3,2025-04-21T16:56:03.730+03:00,99,1.65,2025-04-21T12:30:07.995+03:00,0.02023345852159405,0
2025-04-21T16:56:55.483+03:00,1745243813.171704,40.95220373050805,29.14025042908131,76.57294,-1,-1,-1,-1,30,36.49476654306539,-9999,20891.503698,-0.707305908203125,0.4922332763671875,-0.498809814453125,20891.493621,2.322527517357034,-0.953243330812418,-0.5009144197798473,0.005256305448710918,0.02224338240921497,-0.0009670185390859842,0.005157232284545898,0.002422749996185303,0.002608120441436768,XArbitraryZVertical,-0.3200224647025231,0.3789909689129114,-0.8349181020648392,-0.2384598596296812,-0.7151333689689636,0.4802278280258179,-0.5079029202461243,0,0,0,-1,-1,20885.94037491667,unknown,2,2025-04-21T16:56:11.557+03:00,2025-04-20T21:57:49.637+03:00,6834,0.9873711,0,0,5595.969,5,6,2025-04-21T16:56:27.034+03:00,766936612.9421742,0,-38.72,100.1974,1,0.3,2025-04-21T16:56:03.730+03:00,99,1.65,2025-04-21T12:30:07.995+03:00,0.02023345852159405,0
2025-04-21T16:56:55.493+03:00,1745243813.171704,40.95220373050805,29.14025042908131,76.57294,-1,-1,-1,-1,30,36.49476654306539,-9999,20891.513774,-0.707366943359375,0.4848785400390625,-0.4979400634765625,20891.503698,2.322610729236385,-0.9530067620780042,-0.500869722990565,0.008607360534369946,0.01907608658075333,0.001131818629801273,0.0067482590675354,0.006551355123519897,0.006695985794067383,XArbitraryZVertical,-0.3199494305743736,0.3789328128884321,-0.8349664897391487,-0.2384811094362686,-0.7150307297706604,0.4801886081695557,-0.5080845952033997,0,0,0,-1,-1,20885.94037491667,unknown,2,2025-04-21T16:56:11.557+03:00,2025-04-20T21:57:49.637+03:00,6834,0.9873711,0,0,5595.969,5,6,2025-04-21T16:56:27.034+03:00,766936612.9421742,0,-38.72,100.1974,1,0.3,2025-04-21T16:56:03.730+03:00,99,1.65,2025-04-21T12:30:07.995+03:00,0.02023345852159405,0
2025-04-21T16:56:55.503+03:00,1745243813.171704,40.95220373050805,29.14025042908131,76.57294,-1,-1,-1,-1,30,36.49476654306539,-9999,20891.52385,-0.7079620361328125,0.475921630859375,-0.496490478515625,20891.513774,2.32269813350198,-0.9527801377088705,-0.5008753791043,0.001561968354508281,0.021599430590868,0.004791534505784512,0.007103919982910156,0.01194798946380615,0.01018285751342773,XArbitraryZVertical,-0.319870098837747,0.3788939148825279,-0.8350131128415468,-0.2384861900283891,-0.7149133682250977,0.4801935851573944,-0.508245050907135,0,0,0,-1,-1,20885.94037491667,unknown,2,2025-04-21T16:56:11.557+03:00,2025-04-20T21:57:49.637+03:00,6834,0.9873711,0,0,5595.969,5,6,2025-04-21T16:56:27.034+03:00,766936612.9421742,0,-38.72,100.1974,1,0.3,2025-04-21T16:56:03.730+03:00,99,1.65,2025-04-21T12:30:07.995+03:00,0.02023345852159405,0
2025-04-21T16:56:55.513+03:00,1745243813.171704,40.95220373050805,29.14025042908131,76.57294,-1,-1,-1,-1,30,36.49476654306539,-9999,20891.533926,-0.7082061767578125,0.46484375,-0.50048828125,20891.52385,2.322645629917772,-0.9525563332326143,-0.5009764351599751,-0.01986289583146572,0.02684798836708069,0.005167040042579174,0.007621943950653076,0.004001080989837646,0.01054352521896362,XArbitraryZVertical,-0.3197441696010262,0.3789132397510113,-0.8350412832319883,-0.2385253556177575,-0.7147600054740906,0.4802822172641754,-0.5083768367767334,0,0,0,-1,-1,20885.94037491667,unknown,2,2025-04-21T16:56:11.557+03:00,2025-04-20T21:57:49.637+03:00,6834,0.9873711,0,0,5595.969,5,6,2025-04-21T16:56:27.034+03:00,766936612.9421742,0,-38.72,100.1974,1,0.3,2025-04-21T16:56:03.730+03:00,99,1.65,2025-04-21T12:30:07.995+03:00,0.02023345852159405,0
2025-04-21T16:56:55.523+03:00,1745243813.171704,40.95220373050805,29.14025042908131,76.57294,-1,-1,-1,-1,30,36.49476654306539,-9999,20891.544003,-0.7066802978515625,0.4604949951171875,-0.5061187744140625,20891.533926,2.322419672534346,-0.9524013030216555,-0.5012248928868931,-0.04124188795685768,0.02191747911274433,0.009489517658948898,0.006454050540924072,-0.005509436130523682,0.01217210292816162,XArbitraryZVertical,-0.3195810691144855,0.3790233546015037,-0.8350359975261143,-0.2385876095479771,-0.7145839333534241,0.4805001318454742,-0.5084185004234314,0,0,0,-1,-1,20885.94037491667,unknown,2,2025-04-21T16:56:11.557+03:00,2025-04-20T21:57:49.637+03:00,6834,0.9873711,0,0,5595.969,5,6,2025-04-21T16:56:27.034+03:00,766936615.5082804,0,-38.69,100.1974,1,0.3,2025-04-21T16:56:03.730+03:00,99,1.65,2025-04-21T12:30:07.995+03:00,0.02023345852159405,0
2025-04-21T16:56:55.533+03:00,1745243813.171704,40.95220373050805,29.14025042908131,76.57294,-1,-1,-1,-1,30,36.49476654306539,-9999,20891.554079,-0.7022552490234375,0.4638214111328125,-0.50433349609375,20891.544003,2.321971943546124,-0.9524688979500314,-0.501660844252902,-0.07420037686824799,0.006423740647733212,0.01482010073959827,0.006302475929260254,-0.01815977692604065,0.006539702415466309,XArbitraryZVertical,-0.3194269015428721,0.3792652048704983,-0.8349662865406673,-0.2386538423174706,-0.714447557926178,0.4808824062347412,-0.5082487463951111,0,0,0,-1,-1,20885.94037491667,unknown,2,2025-04-21T16:56:11.557+03:00,2025-04-20T21:57:49.637+03:00,6834,0.9873711,0,0,5595.969,5,6,2025-04-21T16:56:27.034+03:00,766936615.5082804,0,-38.69,100.1974,1,0.3,2025-04-21T16:56:03.730+03:00,99,1.65,2025-04-21T12:30:07.995+03:00,0.02023345852159405,0
2025-04-21T16:56:55.543+03:00,1745243813.171704,40.95220373050805,29.14025042908131,76.57294,-1,-1,-1,-1,30,36.49476654306539,-9999,20891.564155,-0.704071044921875,0.4594879150390625,-0.4976806640625,20891.554079,2.321183096835249,-0.9528769559198569,-0.5023452791311792,-0.1242022812366486,-0.008768795058131218,0.01266973093152046,0.008697986602783203,-0.02080443501472473,0.001723766326904297,XArbitraryZVertical,-0.3192943920498398,0.3796945089859546,-0.8347982965416878,-0.2387362072830294,-0.7143864631652832,0.4814823865890503,-0.5077663660049438,0,0,0,-1,-1,20885.94037491667,unknown,2,2025-04-21T16:56:11.557+03:00,2025-04-20T21:57:49.637+03:00,6834,0.9873711,0,0,5595.969,5,6,2025-04-21T16:56:27.034+03:00,766936615.5082804,0,-38.69,100.1974,1,0.3,2025-04-21T16:56:03.730+03:00,99,1.65,2025-04-21T12:30:07.995+03:00,0.02023345852159405,0
2025-04-21T16:56:55.554+03:00,1745243813.171704,40.95220373050805,29.14025042908131,76.57294,-1,-1,-1,-1,30,36.49476654306539,-9999,20891.574231,-0.709197998046875,0.45831298828125,-0.497955322265625,20891.564155,2.320047957563261,-0.9535004695207805,-0.5032663053527423,-0.1332405209541321,-0.007837487384676933,0.01694437116384506,0.01190268993377686,-0.01819354295730591,0.003218591213226318,XArbitraryZVertical,-0.3191326185025652,0.3802925657188872,-0.8345515080466979,-0.2388631416955679,-0.7143409848213196,0.4822894334793091,-0.5070638656616211,0,0,0,-1,-1,20885.94037491667,unknown,2,2025-04-21T16:56:11.557+03:00,2025-04-20T21:57:49.637+03:00,6834,0.9873711,0,0,5595.969,5,6,2025-04-21T16:56:27.034+03:00,766936615.5082804,0,-38.69,100.1974,1,0.3,2025-04-21T16:56:03.730+03:00,99,1.65,2025-04-21T12:30:07.995+03:00,0.02023345852159405,0
2025-04-21T16:56:55.563+03:00,1745243813.171704,40.95220373050805,29.14025042908131,76.57294,-1,-1,-1,-1,30,36.49476654306539,-9999,20891.584308,-0.7065887451171875,0.4691619873046875,-0.50616455078125,20891.574231,2.318973612897647,-0.954119296922638,-0.5041995059196868,-0.122238002717495,-0.008393355645239353,0.0248175747692585,0.009529471397399902,-0.02313065528869629,0.009595990180969238,XArbitraryZVertical,-0.3189770096770946,0.3808845674055693,-0.8343126509376483,-0.2389622264908478,-0.7142871618270874,0.4831067025661469,-0.5063612461090088,0,0,0,-1,-1,20885.94037491667,unknown,2,2025-04-21T16:56:11.557+03:00,2025-04-20T21:57:49.637+03:00,6834,0.9873711,0,0,5595.969,5,6,2025-04-21T16:56:27.034+03:00,766936615.5082804,0,-38.69,100.1974,1,0.3,2025-04-21T16:56:03.730+03:00,99,1.65,2025-04-21T12:30:07.995+03:00,0.02023345852159405,0
2025-04-21T16:56:55.574+03:00,1745243813.171704,40.95220373050805,29.14025042908131,76.57294,-1,-1,-1,-1,30,36.49476654306539,-9999,20891.594384,-0.7035369873046875,0.4930572509765625,-0.5114288330078125,20891.584308,2.318246461273392,-0.9545936521965981,-0.5049812761331222,-0.07664362341165543,-0.01618389971554279,0.02470785193145275,0.005127668380737305,-0.02474582195281982,0.006276845932006836,XArbitraryZVertical,-0.3188607593624642,0.3813474346695752,-0.8341401977875154,-0.2389811086789113,-0.71421879529953,0.4837910532951355,-0.5058038830757141,0,0,0,-1,-1,20885.94037491667,unknown,2,2025-04-21T16:56:11.557+03:00,2025-04-20T21:57:49.637+03:00,6834,0.9873711,0,0,5595.969,5,6,2025-04-21T16:56:27.034+03:00,766936615.5082804,0,-38.69,100.1974,1,0.3,2025-04-21T16:56:03.730+03:00,99,1.65,2025-04-21T12:30:07.995+03:00,0.02023345852159405,0
2025-04-21T16:56:55.584+03:00,1745243813.171704,40.95220373050805,29.14025042908131,76.57294,-1,-1,-1,-1,30,36.49476654306539,-9999,20891.60446,-0.7025604248046875,0.5017852783203125,-0.510345458984375,20891.594384,2.317828120022721,-0.9550037639500053,-0.5055525226592872,-0.04699498042464256,-0.02083970606327057,0.02248447947204113,0.007627010345458984,-0.01299285888671875,-0.0008286237716674805,XArbitraryZVertical,-0.3188236291286864,0.3816751008750598,-0.8340175611081458,-0.2389354794260262,-0.7142004370689392,0.4842909276485443,-0.5053512454032898,0,0,0,-1,-1,20885.94037491667,unknown,2,2025-04-21T16:56:11.557+03:00,2025-04-20T21:57:49.637+03:00,6834,0.9873711,0,0,5595.969,5,6,2025-04-21T16:56:27.034+03:00,766936615.5082804,0,-38.69,100.1974,1,0.3,2025-04-21T16:56:03.730+03:00,99,1.65,2025-04-21T12:30:07.995+03:00,0.02023345852159405,0
2025-04-21T16:56:55.594+03:00,1745243813.171704,40.95220373050805,29.14025042908131,76.57294,-1,-1,-1,-1,30,36.49476654306539,-9999,20891.614536,-0.7058258056640625,0.48834228515625,-0.508544921875,20891.60446,2.317526799223252,-0.955350626743823,-0.5059852667237151,-0.04948237165808678,-0.0156481396406889,0.01630754396319389,0.01167464256286621,0.01049330830574036,-0.006660103797912598,XArbitraryZVertical,-0.3188134335658543,0.3819250905499127,-0.8339207967449319,-0.2388874651068592,-0.7142045497894287,0.4846694767475128,-0.5049824118614197,0,0,0,-1,-1,20885.94037491667,unknown,2,2025-04-21T16:56:11.557+03:00,2025-04-20T21:57:49.637+03:00,6834,0.9873711,0,0,5595.969,5,6,2025-04-21T16:56:27.034+03:00,766936615.5082804,0,-38.69,100.1974,1,0.3,2025-04-21T16:56:03.730+03:00,99,1.65,2025-04-21T12:30:07.995+03:00,0.02023345852159405,0
2025-04-21T16:56:55.604+03:00,1745243813.171704,40.95220373050805,29.14025042908131,76.57294,-1,-1,-1,-1,30,36.49476654306539,-9999,20891.624613,-0.706146240234375,0.4736175537109375,-0.5037841796875,20891.614536,2.317119914800385,-0.9557169735818912,-0.5064821326137897,-0.06798794865608215,-0.01645594090223312,0.02588303759694099,0.01088470220565796,0.01625382900238037,-0.004588842391967773,XArbitraryZVertical,-0.3187766483213628,0.3822179460867053,-0.8338075395260174,-0.2388637594597902,-0.7141927480697632,0.4851040244102478,-0.5045818090438843,0,0,0,-1,-1,20885.94037491667,unknown,2,2025-04-21T16:56:11.557+03:00,2025-04-20T21:57:49.637+03:00,6834,0.9873711,0,0,5595.969,5,6,2025-04-21T16:56:27.034+03:00,766936615.5082804,0,-38.69,100.1974,1,0.3,2025-04-21T16:56:03.730+03:00,99,1.65,2025-04-21T12:30:07.995+03:00,0.02023345852159405,0
2025-04-21T16:56:55.614+03:00,1745243813.171704,40.95220373050805,29.14025042908131,76.57294,-1,-1,-1,-1,30,36.49476654306539,-9999,20891.634689,-0.7069091796875,0.4655303955078125,-0.4949798583984375,20891.624613,2.316528991820639,-0.956201569386222,-0.5071290696587755,-0.09780097007751465,-0.0217851921916008,0.02741595357656479,0.007958114147186279,0.0009634792804718018,-0.003788590431213379,XArbitraryZVertical,-0.3187200866816643,0.3826097829124447,-0.8336514430267852,-0.2388565262165181,-0.714180588722229,0.4856696426868439,-0.5040545463562012,0,0,0,-1,-1,20885.94037491667,unknown,2,2025-04-21T16:56:11.557+03:00,2025-04-20T21:57:49.637+03:00,6834,0.9873711,0,0,5595.969,5,6,2025-04-21T16:56:27.034+03:00,766936615.5082804,0,-38.69,100.1974,1,0.3,2025-04-21T16:56:03.730+03:00,99,1.65,2025-04-21T12:30:07.995+03:00,0.02023345852159405,0
2025-04-21T16:56:55.624+03:00,1745243813.171704,40.95220373050805,29.14025042908131,76.57294,-1,-1,-1,-1,30,36.49476654306539,-9999,20891.644765,-0.71026611328125,0.461090087890625,-0.492156982421875,20891.634689,2.315634939214943,-0.9568181125561019,-0.5079793505318863,-0.1352346986532211,-0.01930372603237629,0.02807997912168503,0.007930934429168701,-0.01418393850326538,0.0003394484519958496,XArbitraryZVertical,-0.3186143592405832,0.3831408370667077,-0.8334355523248483,-0.2388995429180695,-0.7141534090042114,0.4864127337932587,-0.5033760070800781,0,0,0,-1,-1,20885.94037491667,unknown,2,2025-04-21T16:56:11.557+03:00,2025-04-20T21:57:49.637+03:00,6834,0.9873711,0,0,5595.969,5,6,2025-04-21T16:56:27.034+03:00,766936615.5082804,0,-38.69,100.1974,1,0.3,2025-04-21T16:56:03.730+03:00,99,1.65,2025-04-21T12:30:07.995+03:00,0.02023345852159405,0
2025-04-21T16:56:55.634+03:00,1745243813.171704,40.95220373050805,29.14025042908131,76.57294,-1,-1,-1,-1,30,36.49476654306539,-9999,20891.654841,-0.712493896484375,0.46221923828125,-0.4939422607421875,20891.644765,2.314426381351764,-0.9575743307270527,-0.5090792335975451,-0.1613656282424927,-0.01720329187810421,0.03512270748615265,0.006210267543792725,-0.02217894792556763,0.007608711719512939,XArbitraryZVertical,-0.3184496116452558,0.3838307595548888,-0.8331567295835385,-0.2389842990658897,-0.7140959501266479,0.4873734414577484,-0.5025275945663452,0,0,0,-1,-1,20885.94037491667,unknown,2,2025-04-21T16:56:11.557+03:00,2025-04-20T21:57:49.637+03:00,6834,0.9873711,0,0,5595.969,5,6,2025-04-21T16:56:27.034+03:00,766936615.5082804,0,-38.69,100.1974,1,0.3,2025-04-21T16:56:03.730+03:00,99,1.65,2025-04-21T12:30:07.995+03:00,0.02023345852159405,0
