loggingTime(txt),locationTimestamp_since1970(s),locationLatitude(WGS84),locationLongitude(WGS84),locationAltitude(m),locationSpeed(m/s),locationSpeedAccuracy(m/s),locationCourse(°),locationCourseAccuracy(°),locationVerticalAccuracy(m),locationHorizontalAccuracy(m),locationFloor(Z),accelerometerTimestamp_sinceReboot(s),accelerometerAccelerationX(G),accelerometerAccelerationY(G),accelerometerAccelerationZ(G),motionTimestamp_sinceReboot(s),motionYaw(rad),motionRoll(rad),motionPitch(rad),motionRotationRateX(rad/s),motionRotationRateY(rad/s),motionRotationRateZ(rad/s),motionUserAccelerationX(G),motionUserAccelerationY(G),motionUserAccelerationZ(G),motionAttitudeReferenceFrame(txt),motionQuaternionX(R),motionQuaternionY(R),motionQuaternionZ(R),motionQuaternionW(R),motionGravityX(G),motionGravityY(G),motionGravityZ(G),motionMagneticFieldX(µT),motionMagneticFieldY(µT),motionMagneticFieldZ(µT),motionHeading(°),motionMagneticFieldCalibrationAccuracy(Z),activityTimestamp_sinceReboot(s),activity(txt),activityActivityConfidence(Z),activityActivityStartDate(txt),pedometerStartDate(txt),pedometerNumberofSteps(N),pedometerAverageActivePace(s/m),pedometerCurrentPace(s/m),pedometerCurrentCadence(steps/s),pedometerDistance(m),pedometerFloorAscended(N),pedometerFloorDescended(N),pedometerEndDate(txt),altimeterTimestamp_sinceReboot(s),altimeterReset(bool),altimeterRelativeAltitude(m),altimeterPressure(kPa),batteryState(N),batteryLevel(R),heartRateBPMTimestamp(txt),heartRateBPM(N),heartRateBPS(R),heartRateVariabilityTimestamp(txt),heartRateVariability(ms),label
2025-04-21T17:15:06.118+03:00,1745244905.433555,40.95229523723509,29.14029212770079,76.51794,-1,-1,-1,-1,30,30.9981187017281,-9999,21407.33143804167,0.6108245849609375,-0.5577239990234375,-0.5094757080078125,21407.32766804167,-2.964976491586265,0.8809246056016279,0.6500996650444335,0.009336605668067932,0.01419803686439991,-0.005563538521528244,-0.02328139543533325,0.05538481473922729,-0.01439154148101807,XArbitraryZVertical,0.4279338916650674,-0.252116456504061,-0.8418388890453664,0.2112275665373055,0.6139948964118958,-0.605265736579895,-0.5066197514533997,0,0,0,-1,-1,21400.046902,unknown,2,2025-04-21T17:14:58.791+03:00,2025-04-21T17:08:51.449+03:00,9,1.825274,0,0,6.41385,0,0,2025-04-21T17:14:58.791+03:00,0,0,0,0,1,0.25,2025-04-21T17:09:25.354+03:00,98,1.633333333333333,2025-04-21T12:30:07.995+03:00,0.02023345852159405,0
2025-04-21T17:15:06.123+03:00,1745244905.433555,40.95229523723509,29.14029212770079,76.51794,-1,-1,-1,-1,30,30.9981187017281,-9999,21407.34151304167,0.6335296630859375,-0.6001434326171875,-0.5044097900390625,21407.33774404167,-2.96505974865311,0.880985430390108,0.6501273980314228,0.003648560028523207,-0.01218783110380173,0.002986640203744173,-0.003188133239746094,0.04756385087966919,-0.002903938293457031,XArbitraryZVertical,0.4279481771378416,-0.2521398658840868,-0.8418301230126523,0.2112054231837135,0.6140127182006836,-0.6052878499031067,-0.5065717101097107,0,0,0,-1,-1,21400.046902,unknown,2,2025-04-21T17:14:58.791+03:00,2025-04-21T17:08:51.449+03:00,9,1.825274,0,0,6.41385,0,0,2025-04-21T17:14:58.791+03:00,0,0,0,0,1,0.25,2025-04-21T17:09:25.354+03:00,98,1.633333333333333,2025-04-21T12:30:07.995+03:00,0.02023345852159405,0
2025-04-21T17:15:06.126+03:00,1745244905.433555,40.95229523723509,29.14029212770079,76.51794,-1,-1,-1,-1,30,30.9981187017281,-9999,21407.35158904167,0.6263427734375,-0.5811920166015625,-0.5118560791015625,21407.34781904167,-2.965167666903969,0.8809215756843514,0.6501859308342306,0.01563598029315472,-0.01545632816851139,0.002447349950671196,0.0195765495300293,0.00519108772277832,0.002178668975830078,XArbitraryZVertical,0.4279059321511784,-0.2521950374793805,-0.8418457242097004,0.2111629803224467,0.6139530539512634,-0.6053344011306763,-0.506588339805603,0,0,0,-1,-1,21400.046902,unknown,2,2025-04-21T17:14:58.791+03:00,2025-04-21T17:08:51.449+03:00,9,1.825274,0,0,6.41385,0,0,2025-04-21T17:14:58.791+03:00,0,0,0,0,1,0.25,2025-04-21T17:09:25.354+03:00,98,1.633333333333333,2025-04-21T12:30:07.995+03:00,0.02023345852159405,0
2025-04-21T17:15:06.127+03:00,1745244905.433555,40.95229523723509,29.14029212770079,76.51794,-1,-1,-1,-1,30,30.9981187017281,-9999,21407.36166404167,0.61431884765625,-0.5705108642578125,-0.5241851806640625,21407.35789504167,-2.965323706555647,0.8808613875230971,0.6501982183175141,0.0168756153434515,-0.01285874843597412,-0.005445493850857019,0.01242595911026001,0.02415227890014648,-0.005235373973846436,XArbitraryZVertical,0.4278605575865944,-0.2522401023225269,-0.841873045685395,0.2110920283041452,0.61391681432724,-0.6053441762924194,-0.5066205263137817,0,0,0,-1,-1,21400.046902,unknown,2,2025-04-21T17:14:58.791+03:00,2025-04-21T17:08:51.449+03:00,9,1.825274,0,0,6.41385,0,0,2025-04-21T17:14:58.791+03:00,0,0,0,0,1,0.25,2025-04-21T17:09:25.354+03:00,98,1.633333333333333,2025-04-21T12:30:07.995+03:00,0.02023345852159405,0
2025-04-21T17:15:06.128+03:00,1745244905.433555,40.95229523723509,29.14029212770079,76.51794,-1,-1,-1,-1,30,30.9981187017281,-9999,21407.37174004167,0.6129608154296875,-0.5780029296875,-0.527984619140625,21407.36797004167,-2.965457226340699,0.8807295963729886,0.6502690792763827,0.01505694258958101,-0.02098271995782852,-0.002737325383350253,0.0005018115043640137,0.034889817237854,-0.01751095056533813,XArbitraryZVertical,0.4277860993493348,-0.25231324315405,-0.8419039013067211,0.2110325536830029,0.6138169765472412,-0.6054006218910217,-0.5066741704940796,0,0,0,-1,-1,21400.046902,unknown,2,2025-04-21T17:14:58.791+03:00,2025-04-21T17:08:51.449+03:00,9,1.825274,0,0,6.41385,0,0,2025-04-21T17:14:58.791+03:00,0,0,0,0,1,0.25,2025-04-21T17:09:25.354+03:00,98,1.633333333333333,2025-04-21T12:30:07.995+03:00,0.02023345852159405,0
2025-04-21T17:15:06.130+03:00,1745244905.433555,40.95229523723509,29.14029212770079,76.51794,-1,-1,-1,-1,30,30.9981187017281,-9999,21407.38181504167,0.61602783203125,-0.5831298828125,-0.530181884765625,21407.37804604167,-2.965569503277733,0.880523305562582,0.650375678111583,0.01080014649778605,-0.02644326537847519,-0.001522790757007897,-0.0007018446922302246,0.02748256921768188,-0.02122485637664795,XArbitraryZVertical,0.4276818772230582,-0.2524051673800307,-0.8419426424999508,0.2109793478314861,0.6136626601219177,-0.6054854393005371,-0.5067597031593323,0,0,0,-1,-1,21400.046902,unknown,2,2025-04-21T17:14:58.791+03:00,2025-04-21T17:08:51.449+03:00,9,1.825274,0,0,6.41385,0,0,2025-04-21T17:14:58.791+03:00,0,0,0,0,1,0.25,2025-04-21T17:09:25.354+03:00,98,1.633333333333333,2025-04-21T12:30:07.995+03:00,0.02023345852159405,0
2025-04-21T17:15:06.140+03:00,1745244905.433555,40.95229523723509,29.14029212770079,76.51794,-1,-1,-1,-1,30,30.9981187017281,-9999,21407.39189104167,0.615447998046875,-0.5838165283203125,-0.5319061279296875,21407.38812104167,-2.965675106915341,0.8803212510386039,0.6504465884935262,0.01000119745731354,-0.02692689746618271,-0.001318792579695582,0.002500653266906738,0.02241206169128418,-0.02332550287246704,XArbitraryZVertical,0.4275813583700118,-0.2524797692994689,-0.8419854677880132,0.2109227523450956,0.6135271191596985,-0.6055418848991394,-0.5068563222885132,0,0,0,-1,-1,21400.046902,unknown,2,2025-04-21T17:14:58.791+03:00,2025-04-21T17:08:51.449+03:00,9,1.825274,0,0,6.41385,0,0,2025-04-21T17:14:58.791+03:00,0,0,0,0,1,0.25,2025-04-21T17:09:25.354+03:00,98,1.633333333333333,2025-04-21T12:30:07.995+03:00,0.02023345852159405,0
2025-04-21T17:15:06.150+03:00,1745244905.433555,40.95229523723509,29.14029212770079,76.51794,-1,-1,-1,-1,30,30.9981187017281,-9999,21407.40196604167,0.6103973388671875,-0.592132568359375,-0.527801513671875,21407.39819704167,-2.965746037970615,0.8801446894450005,0.6504415799208746,-1.009070547297597e-05,-0.01565153710544109,-0.002507194876670837,0.002007961273193359,0.02172142267227173,-0.02493947744369507,XArbitraryZVertical,0.427498222729716,-0.2525113832442176,-0.8420314936748744,0.2108696567024093,0.6134399771690369,-0.6055378913879395,-0.5069665312767029,0,0,0,-1,-1,21400.046902,unknown,2,2025-04-21T17:14:58.791+03:00,2025-04-21T17:08:51.449+03:00,9,1.825274,0,0,6.41385,0,0,2025-04-21T17:14:58.791+03:00,0,0,0,0,1,0.25,2025-04-21T17:09:25.354+03:00,98,1.633333333333333,2025-04-21T12:30:07.995+03:00,0.02023345852159405,0
2025-04-21T17:15:06.160+03:00,1745244905.433555,40.95229523723509,29.14029212770079,76.51794,-1,-1,-1,-1,30,30.9981187017281,-9999,21407.41204204167,0.609649658203125,-0.597412109375,-0.523193359375,21407.40827204167,-2.965710927880768,0.8799672931826553,0.6503536058004968,-0.009807061403989792,-0.01619482226669788,-0.005068356636911631,-0.002993762493133545,0.01333540678024292,-0.02069211006164551,XArbitraryZVertical,0.4274306175649553,-0.2524844902113583,-0.842079935133307,0.2108454729937222,0.6133910417556763,-0.6054678559303284,-0.5071092844009399,0,0,0,-1,-1,21400.046902,unknown,2,2025-04-21T17:14:58.791+03:00,2025-04-21T17:08:51.449+03:00,9,1.825274,0,0,6.41385,0,0,2025-04-21T17:14:58.791+03:00,0,0,0,0,1,0.25,2025-04-21T17:09:25.354+03:00,98,1.633333333333333,2025-04-21T12:30:07.995+03:00,0.02023345852159405,0
2025-04-21T17:15:06.170+03:00,1745244905.433555,40.95229523723509,29.14029212770079,76.51794,-1,-1,-1,-1,30,30.9981187017281,-9999,21407.42211704167,0.612579345703125,-0.590850830078125,-0.522125244140625,21407.41834804167,-2.965749341880453,0.8798312049225073,0.6502693808201255,0.004842055961489677,-0.01389132253825665,-0.006073234137147665,-0.0037117600440979,0.00798875093460083,-0.01596802473068237,XArbitraryZVertical,0.4273709963686267,-0.252470566354953,-0.8421267265949812,0.2107962540752722,0.6133613586425781,-0.6054008603096008,-0.5072252750396729,0,0,0,-1,-1,21400.046902,unknown,2,2025-04-21T17:14:58.791+03:00,2025-04-21T17:08:51.449+03:00,9,1.825274,0,0,6.41385,0,0,2025-04-21T17:14:58.791+03:00,0,0,0,0,1,0.25,2025-04-21T17:09:25.354+03:00,98,1.633333333333333,2025-04-21T12:30:07.995+03:00,0.02023345852159405,0
2025-04-21T17:15:06.180+03:00,1745244905.433555,40.95229523723509,29.14029212770079,76.51794,-1,-1,-1,-1,30,30.9981187017281,-9999,21407.43219304167,0.6159210205078125,-0.5826873779296875,-0.524993896484375,21407.42842304167,-2.965876742952181,0.8797353117029986,0.650282854967811,0.01195402722805738,-0.02082779072225094,-0.003373321611434221,-0.0007271170616149902,0.01456081867218018,-0.0148463249206543,XArbitraryZVertical,0.4273141290662297,-0.2525137285787873,-0.8421584619352472,0.2107330403740184,0.61330646276474,-0.6054115295410156,-0.5072789192199707,0,0,0,-1,-1,21400.046902,unknown,2,2025-04-21T17:14:58.791+03:00,2025-04-21T17:08:51.449+03:00,9,1.825274,0,0,6.41385,0,0,2025-04-21T17:14:58.791+03:00,0,0,0,0,1,0.25,2025-04-21T17:09:25.354+03:00,98,1.633333333333333,2025-04-21T12:30:07.995+03:00,0.02023345852159405,0
2025-04-21T17:15:06.190+03:00,1745244905.433555,40.95229523723509,29.14029212770079,76.51794,-1,-1,-1,-1,30,30.9981187017281,-9999,21407.44226804167,0.6171875,-0.5723419189453125,-0.524993896484375,21407.43849804167,-2.96601873141317,0.8795769096289014,0.6503429108663259,0.01657700911164284,-0.02891980670392513,0.004968897439539433,0.00272291898727417,0.02277201414108276,-0.01764094829559326,XArbitraryZVertical,0.4272276836169747,-0.2525867511283834,-0.8421975721547289,0.2106645539597802,0.6131981015205383,-0.6054593324661255,-0.507352888584137,0,0,0,-1,-1,21400.046902,unknown,2,2025-04-21T17:14:58.791+03:00,2025-04-21T17:08:51.449+03:00,9,1.825274,0,0,6.41385,0,0,2025-04-21T17:14:58.791+03:00,0,0,0,0,1,0.25,2025-04-21T17:09:25.354+03:00,98,1.633333333333333,2025-04-21T12:30:07.995+03:00,0.02023345852159405,0
2025-04-21T17:15:06.200+03:00,1745244905.433555,40.95229523723509,29.14029212770079,76.51794,-1,-1,-1,-1,30,30.9981187017281,-9999,21407.45234404167,0.6162109375,-0.569549560546875,-0.5292510986328125,21407.44857404167,-2.966109222481571,0.8792859891253736,0.6504330478457503,0.01298680063337088,-0.03193210437893867,0.00732899084687233,0.004179060459136963,0.03318929672241211,-0.01749736070632935,XArbitraryZVertical,0.4270910299479457,-0.2526757556867157,-0.8422546349842491,0.2106066692915399,0.6130083799362183,-0.6055310964584351,-0.5074964165687561,0,0,0,-1,-1,21400.046902,unknown,2,2025-04-21T17:14:58.791+03:00,2025-04-21T17:08:51.449+03:00,9,1.825274,0,0,6.41385,0,0,2025-04-21T17:14:58.791+03:00,0,0,0,0,1,0.25,2025-04-21T17:09:25.354+03:00,98,1.633333333333333,2025-04-21T12:30:07.995+03:00,0.02023345852159405,0
2025-04-21T17:15:06.210+03:00,1745244905.433555,40.95229523723509,29.14029212770079,76.51794,-1,-1,-1,-1,30,30.9981187017281,-9999,21407.46241904167,0.61236572265625,-0.580047607421875,-0.53485107421875,21407.45864904167,-2.966205828012983,0.8790640407941289,0.6504808459774918,0.01338174752891064,-0.02050741389393806,0.001091468031518161,0.003337442874908447,0.03601962327957153,-0.02163702249526978,XArbitraryZVertical,0.4269839104718522,-0.252740450742122,-0.8423044670748109,0.2105469359609537,0.6128734350204468,-0.6055691242218018,-0.5076140165328979,0,0,0,-1,-1,21400.046902,unknown,2,2025-04-21T17:14:58.791+03:00,2025-04-21T17:08:51.449+03:00,9,1.825274,0,0,6.41385,0,0,2025-04-21T17:14:58.791+03:00,0,0,0,0,1,0.25,2025-04-21T17:09:25.354+03:00,98,1.633333333333333,2025-04-21T12:30:07.995+03:00,0.02023345852159405,0
2025-04-21T17:15:06.220+03:00,1745244905.433555,40.95229523723509,29.14029212770079,76.51794,-1,-1,-1,-1,30,30.9981187017281,-9999,21407.47249504167,0.6069183349609375,-0.5840301513671875,-0.531158447265625,21407.46872504167,-2.966269572274749,0.8788869378384067,0.6504866521452281,0.004545113071799278,-0.01856117509305477,0.0004376620054244995,-0.0004152059555053711,0.02552622556686401,-0.02713066339492798,XArbitraryZVertical,0.4269010919694803,-0.2527752168036813,-0.8423480351072618,0.2104988004597499,0.6127808094024658,-0.6055737733840942,-0.5077202916145325,0,0,0,-1,-1,21400.046902,unknown,2,2025-04-21T17:14:58.791+03:00,2025-04-21T17:08:51.449+03:00,9,1.825274,0,0,6.41385,0,0,2025-04-21T17:14:58.791+03:00,0,0,0,0,1,0.25,2025-04-21T17:09:25.354+03:00,98,1.633333333333333,2025-04-21T12:30:07.995+03:00,0.02023345852159405,0
2025-04-21T17:15:06.230+03:00,1745244905.433555,40.95229523723509,29.14029212770079,76.51794,-1,-1,-1,-1,30,30.9981187017281,-9999,21407.48257004167,0.6112518310546875,-0.578521728515625,-0.5274658203125,21407.47880004167,-2.966252943494361,0.8785995931633744,0.6504903735517724,0.006450938060879707,-0.02840681374073029,0.005410483106970787,-0.005714893341064453,0.02154666185379028,-0.02326339483261108,XArbitraryZVertical,0.4267820520429464,-0.2528035171645114,-0.8424070245035343,0.2104701839962899,0.6126331686973572,-0.6055766940116882,-0.5078949332237244,0,0,0,-1,-1,21400.046902,unknown,2,2025-04-21T17:14:58.791+03:00,2025-04-21T17:08:51.449+03:00,9,1.825274,0,0,6.41385,0,0,2025-04-21T17:14:58.791+03:00,0,0,0,0,1,0.25,2025-04-21T17:09:25.354+03:00,98,1.633333333333333,2025-04-21T12:30:07.995+03:00,0.02023345852159405,0
2025-04-21T17:15:06.241+03:00,1745244905.433555,40.95229523723509,29.14029212770079,76.51794,-1,-1,-1,-1,30,30.9981187017281,-9999,21407.49264604167,0.613006591796875,-0.5838165283203125,-0.5223541259765625,21407.48887604167,-2.966272468923507,0.8783090866634469,0.6505437818116948,0.008435258641839027,-0.02538519166409969,0.004306070040911436,-0.001208901405334473,0.02709758281707764,-0.0194135308265686,XArbitraryZVertical,0.4266556149998408,-0.252861391546243,-0.8424623882532341,0.2104352810292183,0.6124606728553772,-0.6056191921234131,-0.5080522298812866,0,0,0,-1,-1,21400.046902,unknown,2,2025-04-21T17:14:58.791+03:00,2025-04-21T17:08:51.449+03:00,9,1.825274,0,0,6.41385,0,0,2025-04-21T17:14:58.791+03:00,0,0,0,0,1,0.25,2025-04-21T17:09:25.354+03:00,98,1.633333333333333,2025-04-21T12:30:07.995+03:00,0.02023345852159405,0
2025-04-21T17:15:06.252+03:00,1745244905.433555,40.95229523723509,29.14029212770079,76.51794,-1,-1,-1,-1,30,30.9981187017281,-9999,21407.50272104167,0.6082916259765625,-0.5877532958984375,-0.520538330078125,21407.49895104167,-2.96632965816852,0.8780661811848622,0.65059875833464,0.01210343092679977,-0.02260225638747215,-0.0001004297519102693,0.0006948709487915039,0.02184653282165527,-0.01417428255081177,XArbitraryZVertical,0.4265443986943226,-0.2529229512791699,-0.8425113574071522,0.210390807592352,0.6123116612434387,-0.6056629419326782,-0.5081797242164612,0,0,0,-1,-1,21400.046902,unknown,2,2025-04-21T17:14:58.791+03:00,2025-04-21T17:08:51.449+03:00,9,1.825274,0,0,6.41385,0,0,2025-04-21T17:14:58.791+03:00,0,0,0,0,1,0.25,2025-04-21T17:09:25.354+03:00,98,1.633333333333333,2025-04-21T12:30:07.995+03:00,0.02023345852159405,0
2025-04-21T17:15:06.261+03:00,1745244905.433555,40.95229523723509,29.14029212770079,76.51794,-1,-1,-1,-1,30,30.9981187017281,-9999,21407.51279704167,0.6087493896484375,-0.5806884765625,-0.521881103515625,21407.50902704167,-2.966493270264622,0.8779250518628854,0.65066817840004,0.0232293177396059,-0.02257828786969185,-0.001896731904707849,-0.003916025161743164,0.01796495914459229,-0.01229894161224365,XArbitraryZVertical,0.4264621442175607,-0.253002739047743,-0.842547511718604,0.2103170733273204,0.6122076511383057,-0.605718195438385,-0.5082393288612366,0,0,0,-1,-1,21400.046902,unknown,2,2025-04-21T17:14:58.791+03:00,2025-04-21T17:08:51.449+03:00,9,1.825274,0,0,6.41385,0,0,2025-04-21T17:14:58.791+03:00,0,0,0,0,1,0.25,2025-04-21T17:09:25.354+03:00,98,1.633333333333333,2025-04-21T12:30:07.995+03:00,0.02023345852159405,0
2025-04-21T17:15:06.271+03:00,1745244905.433555,40.95229523723509,29.14029212770079,76.51794,-1,-1,-1,-1,30,30.9981187017281,-9999,21407.52287204167,0.611053466796875,-0.577545166015625,-0.5257110595703125,21407.51910204167,-2.966758676129019,0.877814925659456,0.650761545844471,0.02962796203792095,-0.02707436867058277,-0.001456444733776152,-0.003358781337738037,0.02510404586791992,-0.01361048221588135,XArbitraryZVertical,0.4263793544394603,-0.2531113512883376,-0.8425837713245299,0.2102088770984686,0.6121081709861755,-0.6057924628257751,-0.5082705616950989,0,0,0,-1,-1,21400.046902,unknown,2,2025-04-21T17:14:58.791+03:00,2025-04-21T17:08:51.449+03:00,9,1.825274,0,0,6.41385,0,0,2025-04-21T17:14:58.791+03:00,0,0,0,0,1,0.25,2025-04-21T17:09:25.354+03:00,98,1.633333333333333,2025-04-21T12:30:07.995+03:00,0.02023345852159405,0
2025-04-21T17:15:06.281+03:00,1745244905.433555,40.95229523723509,29.14029212770079,76.51794,-1,-1,-1,-1,30,30.9981187017281,-9999,21407.53294804167,0.616424560546875,-0.5745391845703125,-0.5254058837890625,21407.52917804167,-2.967059796660818,0.8776740479371909,0.6508883490389901,0.03313374891877174,-0.03262412920594215,0.00201232242397964,-0.0009239912033081055,0.02834826707839966,-0.01740318536758423,XArbitraryZVertical,0.4262780449548687,-0.2532452646161529,-0.8426249485287293,0.2100880084254297,0.6119774580001831,-0.6058933734893799,-0.5083077549934387,0,0,0,-1,-1,21400.046902,unknown,2,2025-04-21T17:14:58.791+03:00,2025-04-21T17:08:51.449+03:00,9,1.825274,0,0,6.41385,0,0,2025-04-21T17:14:58.791+03:00,0,0,0,0,1,0.25,2025-04-21T17:09:25.354+03:00,98,1.633333333333333,2025-04-21T12:30:07.995+03:00,0.02023345852159405,0
2025-04-21T17:15:06.291+03:00,1745244905.433555,40.95229523723509,29.14029212770079,76.51794,-1,-1,-1,-1,30,30.9981187017281,-9999,21407.54302304167,0.615936279296875,-0.571868896484375,-0.52490234375,21407.53925304167,-2.96740728248971,0.8775231334026807,0.6510351075400008,0.03830574080348015,-0.03587917611002922,-0.002519378904253244,0.004592180252075195,0.03147095441818237,-0.01706254482269287,XArbitraryZVertical,0.4261659816299932,-0.2533987176590158,-0.8426699468467848,0.2099500588392042,0.6118323802947998,-0.6060101389884949,-0.5083432793617249,0,0,0,-1,-1,21400.046902,unknown,2,2025-04-21T17:14:58.791+03:00,2025-04-21T17:08:51.449+03:00,9,1.825274,0,0,6.41385,0,0,2025-04-21T17:14:58.791+03:00,0,0,0,0,1,0.25,2025-04-21T17:09:25.354+03:00,98,1.633333333333333,2025-04-21T12:30:07.995+03:00,0.02023345852159405,0
2025-04-21T17:15:06.301+03:00,1745244905.433555,40.95229523723509,29.14029212770079,76.51794,-1,-1,-1,-1,30,30.9981187017281,-9999,21407.55309904167,0.6155242919921875,-0.5716552734375,-0.525970458984375,21407.54932904167,-2.96779831072817,0.8773629139888096,0.6512252608470283,0.0447324812412262,-0.03781742602586746,-0.002195538487285376,0.00427401065826416,0.03429245948791504,-0.01653468608856201,XArbitraryZVertical,0.4260431257956927,-0.2535812010091018,-0.8427143857986431,0.2098007203827309,0.6116623282432556,-0.60616135597229,-0.508367657661438,0,0,0,-1,-1,21400.046902,unknown,2,2025-04-21T17:14:58.791+03:00,2025-04-21T17:08:51.449+03:00,9,1.825274,0,0,6.41385,0,0,2025-04-21T17:14:58.791+03:00,0,0,0,0,1,0.25,2025-04-21T17:09:25.354+03:00,98,1.633333333333333,2025-04-21T12:30:07.995+03:00,0.02023345852159405,0
2025-04-21T17:15:06.311+03:00,1745244905.433555,40.95229523723509,29.14029212770079,76.51794,-1,-1,-1,-1,30,30.9981187017281,-9999,21407.56317404167,0.6189422607421875,-0.5732421875,-0.526123046875,21407.55940404167,-2.968226422156104,0.87714147787999,0.651493422195589,0.05311810970306396,-0.04856927320361137,0.001815914292819798,0.004099607467651367,0.03471934795379639,-0.01757127046585083,XArbitraryZVertical,0.4258873351087633,-0.2538117574619503,-0.8427630580803926,0.209642620384034,0.6114246845245361,-0.6063746213912964,-0.5083991289138794,0,0,0,-1,-1,21400.046902,unknown,2,2025-04-21T17:14:58.791+03:00,2025-04-21T17:08:51.449+03:00,9,1.825274,0,0,6.41385,0,0,2025-04-21T17:14:58.791+03:00,0,0,0,0,1,0.25,2025-04-21T17:09:25.354+03:00,98,1.633333333333333,2025-04-21T12:30:07.995+03:00,0.02023345852159405,0
2025-04-21T17:15:06.321+03:00,1745244905.433555,40.95229523723509,29.14029212770079,76.51794,-1,-1,-1,-1,30,30.9981187017281,-9999,21407.57324904167,0.6175537109375,-0.575897216796875,-0.5259246826171875,21407.56948004167,-2.968749238508145,0.8769223857082075,0.6518338120583121,0.06610714644193649,-0.04988434165716171,0.003124325536191463,0.007787704467773438,0.03340309858322144,-0.01772195100784302,XArbitraryZVertical,0.4257182021043766,-0.2540934600722263,-0.8428094151552425,0.2094584323252605,0.6111545562744141,-0.6066452264785767,-0.5084010362625122,0,0,0,-1,-1,21400.046902,unknown,2,2025-04-21T17:14:58.791+03:00,2025-04-21T17:08:51.449+03:00,9,1.825274,0,0,6.41385,0,0,2025-04-21T17:14:58.791+03:00,0,0,0,0,1,0.25,2025-04-21T17:09:25.354+03:00,98,1.633333333333333,2025-04-21T12:30:07.995+03:00,0.02023345852159405,0
2025-04-21T17:15:06.331+03:00,1745244905.433555,40.95229523723509,29.14029212770079,76.51794,-1,-1,-1,-1,30,30.9981187017281,-9999,21407.58332504167,0.61602783203125,-0.5801849365234375,-0.5252227783203125,21407.57955504167,-2.969395377076769,0.8767996148778116,0.6522194475610495,0.07255092263221741,-0.05068329349160194,-0.001435139449313283,0.0066414475440979,0.03105467557907104,-0.01759821176528931,XArbitraryZVertical,0.4255724688916563,-0.254410867914741,-0.8428407187600467,0.2092429790976585,0.6109122633934021,-0.6069517731666565,-0.5083263516426086,0,0,0,-1,-1,21400.046902,unknown,2,2025-04-21T17:14:58.791+03:00,2025-04-21T17:08:51.449+03:00,9,1.825274,0,0,6.41385,0,0,2025-04-21T17:14:58.791+03:00,0,0,0,0,1,0.25,2025-04-21T17:09:25.354+03:00,98,1.633333333333333,2025-04-21T12:30:07.995+03:00,0.02023345852159405,0
2025-04-21T17:15:06.341+03:00,1745244905.433555,40.95229523723509,29.14029212770079,76.51794,-1,-1,-1,-1,30,30.9981187017281,-9999,21407.59340004167,0.6182861328125,-0.576690673828125,-0.5227813720703125,21407.58963104167,-2.97022561501616,0.8767017158775139,0.6526621061202209,0.09376433491706848,-0.06262277066707611,-0.009744469076395035,0.005371928215026855,0.02711862325668335,-0.01700842380523682,XArbitraryZVertical,0.4254118021230449,-0.2547894389586366,-0.8428767749197403,0.2089637808505304,0.6106559038162231,-0.6073035001754761,-0.5082142949104309,0,0,0,-1,-1,21400.046902,unknown,2,2025-04-21T17:14:58.791+03:00,2025-04-21T17:08:51.449+03:00,9,1.825274,0,0,6.41385,0,0,2025-04-21T17:14:58.791+03:00,0,0,0,0,1,0.25,2025-04-21T17:09:25.354+03:00,98,1.633333333333333,2025-04-21T12:30:07.995+03:00,0.02023345852159405,0
2025-04-21T17:15:06.352+03:00,1745244905.433555,40.95229523723509,29.14029212770079,76.51794,-1,-1,-1,-1,30,30.9981187017281,-9999,21407.60347604167,0.624847412109375,-0.5666656494140625,-0.524688720703125,21407.59970604167,-2.971297541453209,0.8766189680430296,0.6532268221219434,0.1169787794351578,-0.08135711401700974,-0.004007653333246708,0.007936000823974609,0.03106141090393066,-0.01473599672317505,XArbitraryZVertical,0.4252225997853769,-0.2552705798347259,-0.842914934492358,0.2086075661410381,0.6103501915931702,-0.6077520847320557,-0.5080453157424927,0,0,0,-1,-1,21400.046902,unknown,2,2025-04-21T17:14:58.791+03:00,2025-04-21T17:08:51.449+03:00,9,1.825274,0,0,6.41385,0,0,2025-04-21T17:14:58.791+03:00,0,0,0,0,1,0.25,2025-04-21T17:09:25.354+03:00,98,1.633333333333333,2025-04-21T12:30:07.995+03:00,0.02023345852159405,0
2025-04-21T17:15:06.362+03:00,1745244905.433555,40.95229523723509,29.14029212770079,76.51794,-1,-1,-1,-1,30,30.9981187017281,-9999,21407.61355279167,0.6292724609375,-0.5621337890625,-0.526275634765625,21407.60978204167,-2.972623514137566,0.8765164370281341,0.6539664353192362,0.1500549763441086,-0.09493310749530792,-0.01065090857446194,0.01489496231079102,0.04167371988296509,-0.01686853170394897,XArbitraryZVertical,0.4249866507263724,-0.2558834033941596,-0.8429549797661456,0.2081746252665706,0.6099523901939392,-0.608339250087738,-0.5078200697898865,0,0,0,-1,-1,21400.046902,unknown,2,2025-04-21T17:14:58.791+03:00,2025-04-21T17:08:51.449+03:00,9,1.825274,0,0,6.41385,0,0,2025-04-21T17:14:58.791+03:00,0,0,0,0,1,0.25,2025-04-21T17:09:25.354+03:00,98,1.633333333333333,2025-04-21T12:30:07.995+03:00,0.02023345852159405,0
2025-04-21T17:15:06.372+03:00,1745244905.433555,40.95229523723509,29.14029212770079,76.51794,-1,-1,-1,-1,30,30.9981187017281,-9999,21407.62362779167,0.62811279296875,-0.55963134765625,-0.528076171875,21407.61985779167,-2.974303267166865,0.8765062141027368,0.6548535650285959,0.1723528206348419,-0.1043702885508537,-0.007408509962260723,0.01974016427993774,0.04690933227539062,-0.0187947154045105,XArbitraryZVertical,0.4247387295377891,-0.2566253272460051,-0.8429883784629002,0.2076320778007364,0.6095322966575623,-0.6090431213378906,-0.5074809193611145,0,0,0,-1,-1,21400.046902,unknown,2,2025-04-21T17:14:58.791+03:00,2025-04-21T17:08:51.449+03:00,9,1.825274,0,0,6.41385,0,0,2025-04-21T17:14:58.791+03:00,0,0,0,0,1,0.25,2025-04-21T17:09:25.354+03:00,98,1.633333333333333,2025-04-21T12:30:07.995+03:00,0.02023345852159405,0
2025-04-21T17:15:06.381+03:00,1745244905.433555,40.95229523723509,29.14029212770079,76.51794,-1,-1,-1,-1,30,30.9981187017281,-9999,21407.63370279167,0.6261749267578125,-0.5490875244140625,-0.5304718017578125,21407.62993379167,-2.976190410780784,0.8766614657390446,0.6558917619533234,0.1963465660810471,-0.09916301071643829,-0.01119951996952295,0.01898801326751709,0.05023491382598877,-0.0210946798324585,XArbitraryZVertical,0.424527952088371,-0.25745929003095,-0.8429829120810174,0.207051910270484,0.6091247200965881,-0.609866201877594,-0.5069814920425415,0,0,0,-1,-1,21400.046902,unknown,2,2025-04-21T17:14:58.791+03:00,2025-04-21T17:08:51.449+03:00,9,1.825274,0,0,6.41385,0,0,2025-04-21T17:14:58.791+03:00,0,0,0,0,1,0.25,2025-04-21T17:09:25.354+03:00,98,1.633333333333333,2025-04-21T12:30:07.995+03:00,0.02023345852159405,0
2025-04-21T17:15:06.392+03:00,1745244905.433555,40.95229523723509,29.14029212770079,76.51794,-1,-1,-1,-1,30,30.9981187017281,-9999,21407.64377879167,0.62908935546875,-0.5457000732421875,-0.5274200439453125,21407.64000879167,-2.978329411237656,0.8768524378063489,0.6571028263709473,0.220127671957016,-0.1212165206670761,-0.005062864162027836,0.01752156019210815,0.06173801422119141,-0.02407932281494141,XArbitraryZVertical,0.4242925795123259,-0.2584174951464203,-0.8429674164378383,0.2064029508751463,0.6086533665657043,-0.6108255386352539,-0.5063924193382263,0,0,0,-1,-1,21400.046902,unknown,2,2025-04-21T17:14:58.791+03:00,2025-04-21T17:08:51.449+03:00,9,1.825274,0,0,6.41385,0,0,2025-04-21T17:14:58.791+03:00,0,0,0,0,1,0.25,2025-04-21T17:09:25.354+03:00,98,1.633333333333333,2025-04-21T12:30:07.995+03:00,0.02023345852159405,0
2025-04-21T17:15:06.402+03:00,1745244905.433555,40.95229523723509,29.14029212770079,76.51794,-1,-1,-1,-1,30,30.9981187017281,-9999,21407.65385379167,0.637054443359375,-0.556854248046875,-0.529876708984375,21407.65008479167,-2.980723099249289,0.8770437445678506,0.6584941954243475,0.2641752958297729,-0.1411271095275879,-0.009541235864162445,0.02099317312240601,0.06622660160064697,-0.02168798446655273,XArbitraryZVertical,0.4240164459914088,-0.2595073194577236,-0.8429479923959999,0.205680979065971,0.608096182346344,-0.6119265556335449,-0.505731999874115,0,0,0,-1,-1,21400.046902,unknown,2,2025-04-21T17:14:58.791+03:00,2025-04-21T17:08:51.449+03:00,9,1.825274,0,0,6.41385,0,0,2025-04-21T17:14:58.791+03:00,0,0,0,0,1,0.25,2025-04-21T17:09:25.354+03:00,98,1.633333333333333,2025-04-21T12:30:07.995+03:00,0.02023345852159405,0
2025-04-21T17:15:06.412+03:00,1745244905.433555,40.95229523723509,29.14029212770079,76.51794,-1,-1,-1,-1,30,30.9981187017281,-9999,21407.66392979167,0.6392669677734375,-0.5598907470703125,-0.5330963134765625,21407.66015979167,-2.983588366102611,0.8772253415731324,0.660207870806818,0.3144108951091766,-0.1656458973884583,-0.005182373337447643,0.02967369556427002,0.05642682313919067,-0.02492624521255493,XArbitraryZVertical,0.4236612826583883,-0.2608369083416734,-0.8429258094989709,0.2048201451606677,0.607380747795105,-0.6132810711860657,-0.5049504637718201,0,0,0,-1,-1,21400.046902,unknown,2,2025-04-21T17:14:58.791+03:00,2025-04-21T17:08:51.449+03:00,9,1.825274,0,0,6.41385,0,0,2025-04-21T17:14:58.791+03:00,0,0,0,0,1,0.25,2025-04-21T17:09:25.354+03:00,98,1.633333333333333,2025-04-21T12:30:07.995+03:00,0.02023345852159405,0
2025-04-21T17:15:06.422+03:00,1745244905.433555,40.95229523723509,29.14029212770079,76.51794,-1,-1,-1,-1,30,30.9981187017281,-9999,21407.67400479167,0.6402435302734375,-0.5395050048828125,-0.52899169921875,21407.67023579167,-2.986992994885554,0.8775156303475568,0.6622918726091706,0.3765821158885956,-0.192697748541832,-0.006114745978266001,0.03272408246994019,0.05503511428833008,-0.02914005517959595,XArbitraryZVertical,0.4232646748585458,-0.2624288716266767,-0.8428741043743253,0.2038166798134601,0.6065428853034973,-0.6149258017539978,-0.5039561986923218,0,0,0,-1,-1,21400.046902,unknown,2,2025-04-21T17:14:58.791+03:00,2025-04-21T17:08:51.449+03:00,9,1.825274,0,0,6.41385,0,0,2025-04-21T17:14:58.791+03:00,0,0,0,0,1,0.25,2025-04-21T17:09:25.354+03:00,98,1.633333333333333,2025-04-21T12:30:07.995+03:00,0.02023345852159405,0
2025-04-21T17:15:06.432+03:00,1745244905.433555,40.95229523723509,29.14029212770079,76.51794,-1,-1,-1,-1,30,30.9981187017281,-9999,21407.68408079167,0.6433868408203125,-0.5269317626953125,-0.5305633544921875,21407.68031079167,-2.991150882061032,0.8779272977412581,0.6647873357766168,0.4593620300292969,-0.2296386510133743,-0.01591887325048447,0.03467577695846558,0.07738679647445679,-0.02626693248748779,XArbitraryZVertical,0.4227997652135093,-0.2643444529841062,-0.8428044828199406,0.2025904504406497,0.6055677533149719,-0.6168917417526245,-0.5027247667312622,0,0,0,-1,-1,21400.046902,unknown,2,2025-04-21T17:14:58.791+03:00,2025-04-21T17:08:51.449+03:00,9,1.825274,0,0,6.41385,0,0,2025-04-21T17:14:58.791+03:00,0,0,0,0,1,0.25,2025-04-21T17:09:25.354+03:00,98,1.633333333333333,2025-04-21T12:30:07.995+03:00,0.02023345852159405,0
2025-04-21T17:15:06.443+03:00,1745244905.433555,40.95229523723509,29.14029212770079,76.51794,-1,-1,-1,-1,30,30.9981187017281,-9999,21407.69415579167,0.6482086181640625,-0.5299530029296875,-0.542083740234375,21407.69038679167,-2.996538724695416,0.8787804168663412,0.6678030241109807,0.5967246890068054,-0.2642405927181244,-0.04057655110955238,0.0388256311416626,0.09233075380325317,-0.02954471111297607,XArbitraryZVertical,0.4223300560818952,-0.2666984095619239,-0.8426780352972111,0.2010047194672728,0.6045612692832947,-0.6192624568939209,-0.5010185837745667,0,0,0,-1,-1,21400.046902,unknown,2,2025-04-21T17:14:58.791+03:00,2025-04-21T17:08:51.449+03:00,9,1.825274,0,0,6.41385,0,0,2025-04-21T17:14:58.791+03:00,0,0,0,0,1,0.25,2025-04-21T17:09:25.354+03:00,98,1.633333333333333,2025-04-21T12:30:07.995+03:00,0.02023345852159405,0
2025-04-21T17:15:06.452+03:00,1745244905.433555,40.95229523723509,29.14029212770079,76.51794,-1,-1,-1,-1,30,30.9981187017281,-9999,21407.70423179167,0.660614013671875,-0.527252197265625,-0.564788818359375,21407.70046179167,-3.003634409860195,0.8803622736148473,0.6716779735801369,0.7575015425682068,-0.2959951162338257,-0.04515136033296585,0.04471009969711304,0.09234744310379028,-0.04355409741401672,XArbitraryZVertical,0.4218915537634244,-0.2697085814050376,-0.8424238686712588,0.1989639868635962,0.6034984588623047,-0.6223003268241882,-0.4985295832157135,0,0,0,-1,-1,21400.046902,unknown,2,2025-04-21T17:14:58.791+03:00,2025-04-21T17:08:51.449+03:00,9,1.825274,0,0,6.41385,0,0,2025-04-21T17:14:58.791+03:00,0,0,0,0,1,0.25,2025-04-21T17:09:25.354+03:00,98,1.633333333333333,2025-04-21T12:30:07.995+03:00,0.02023345852159405,0
2025-04-21T17:15:06.462+03:00,1745244905.433555,40.95229523723509,29.14029212770079,76.51794,-1,-1,-1,-1,30,30.9981187017281,-9999,21407.71430679167,0.68719482421875,-0.5145721435546875,-0.582794189453125,21407.71053779167,-3.012444237911406,0.8826712143275506,0.6766692573563357,0.9245299100875854,-0.3432821929454803,-0.05539680644869804,0.05837279558181763,0.09894752502441406,-0.06963270902633667,XArbitraryZVertical,0.4214582628930445,-0.2734865818212275,-0.8419962615581021,0.1965203935428188,0.6022411584854126,-0.6261996626853943,-0.4951560497283936,0,0,0,-1,-1,21400.046902,unknown,2,2025-04-21T17:14:58.791+03:00,2025-04-21T17:08:51.449+03:00,9,1.825274,0,0,6.41385,0,0,2025-04-21T17:14:58.791+03:00,0,0,0,0,1,0.25,2025-04-21T17:09:25.354+03:00,98,1.633333333333333,2025-04-21T12:30:07.995+03:00,0.02023345852159405,0
2025-04-21T17:15:06.490+03:00,1745244905.433555,40.95229523723509,29.14029212770079,76.51794,-1,-1,-1,-1,30,30.9981187017281,-9999,21407.72438279167,0.7188873291015625,-0.51220703125,-0.6011810302734375,21407.72061279167,-3.022837597873104,0.8853185414975276,0.6827794189777517,1.077694416046143,-0.430372029542923,-0.02063333615660667,0.08661806583404541,0.1163797378540039,-0.09166550636291504,XArbitraryZVertical,0.4208658288359515,-0.2780425059747242,-0.8414575422205872,0.1936838943093507,0.6005767583847046,-0.6309518218040466,-0.4911286234855652,0,0,0,-1,-1,21400.046902,unknown,2,2025-04-21T17:14:58.791+03:00,2025-04-21T17:08:51.449+03:00,9,1.825274,0,0,6.41385,0,0,2025-04-21T17:14:58.791+03:00,0,0,0,0,1,0.25,2025-04-21T17:09:25.354+03:00,98,1.633333333333333,2025-04-21T12:30:07.995+03:00,0.02023345852159405,0
2025-04-21T17:15:06.492+03:00,1745244905.433555,40.95229523723509,29.14029212770079,76.51794,-1,-1,-1,-1,30,30.9981187017281,-9999,21407.73445779167,0.74176025390625,-0.542083740234375,-0.6167144775390625,21407.73068879167,-3.034133885945613,0.8877968893759097,0.6900093344170884,1.1659334897995,-0.4885945916175842,0.03234466165304184,0.1206493973731995,0.124337375164032,-0.1144340634346008,XArbitraryZVertical,0.4199758704362103,-0.2832786903264709,-0.8408423696556019,0.1906763484599462,0.598237931728363,-0.636544406414032,-0.4867469072341919,0,0,0,-1,-1,21400.046902,unknown,2,2025-04-21T17:14:58.791+03:00,2025-04-21T17:08:51.449+03:00,9,1.825274,0,0,6.41385,0,0,2025-04-21T17:14:58.791+03:00,0,0,0,0,1,0.25,2025-04-21T17:09:25.354+03:00,98,1.633333333333333,2025-04-21T12:30:07.995+03:00,0.02023345852159405,0
2025-04-21T17:15:06.493+03:00,1745244905.433555,40.95229523723509,29.14029212770079,76.51794,-1,-1,-1,-1,30,30.9981187017281,-9999,21407.74453379167,0.7293853759765625,-0.5953216552734375,-0.6202850341796875,21407.74076379167,-3.045758136894339,0.8901819553394643,0.6978114498252515,1.174254059791565,-0.5152164101600647,0.04907620325684547,0.1462411880493164,0.1004586219787598,-0.1345357298851013,XArbitraryZVertical,0.4189142329026958,-0.288827826137526,-0.8401653320134601,0.1876469990981292,0.5955190658569336,-0.6425422430038452,-0.4821787178516388,0,0,0,-1,-1,21400.046902,unknown,2,2025-04-21T17:14:58.791+03:00,2025-04-21T17:08:51.449+03:00,9,1.825274,0,0,6.41385,0,0,2025-04-21T17:14:58.791+03:00,0,0,0,0,1,0.25,2025-04-21T17:09:25.354+03:00,98,1.633333333333333,2025-04-21T12:30:07.995+03:00,0.02023345852159405,0
2025-04-21T17:15:06.502+03:00,1745244905.433555,40.95229523723509,29.14029212770079,76.51794,-1,-1,-1,-1,30,30.9981187017281,-9999,21407.75460879167,0.70599365234375,-0.620849609375,-0.635223388671875,21407.75083979167,-3.057077525625783,0.8923620277879002,0.7054404395212875,1.108331680297852,-0.497003585100174,0.04414322972297668,0.1366502046585083,0.05304765701293945,-0.1424960196018219,XArbitraryZVertical,0.4177609013830691,-0.2942470782213635,-0.8395117314456995,0.1847007005264856,0.5927350521087646,-0.6483691930770874,-0.4777889847755432,0,0,0,-1,-1,21400.046902,unknown,2,2025-04-21T17:14:58.791+03:00,2025-04-21T17:08:51.449+03:00,9,1.825274,0,0,6.41385,0,0,2025-04-21T17:14:58.791+03:00,0,0,0,0,1,0.25,2025-04-21T17:09:25.354+03:00,98,1.633333333333333,2025-04-21T12:30:07.995+03:00,0.02023345852159405,0
2025-04-21T17:15:06.512+03:00,1745244905.433555,40.95229523723509,29.14029212770079,76.51794,-1,-1,-1,-1,30,30.9981187017281,-9999,21407.76468479167,0.6882476806640625,-0.6431732177734375,-0.6539764404296875,21407.76091479167,-3.067396021662916,0.8944474935758474,0.7121947690935456,0.9591166973114014,-0.425360769033432,0.02986019849777222,0.115692138671875,0.03264707326889038,-0.1614235639572144,XArbitraryZVertical,0.4167127972253615,-0.2990828426552516,-0.8389122898374632,0.1820055505754527,0.590301513671875,-0.6534966230392456,-0.4737997949123383,0,0,0,-1,-1,21400.046902,unknown,2,2025-04-21T17:14:58.791+03:00,2025-04-21T17:08:51.449+03:00,9,1.825274,0,0,6.41385,0,0,2025-04-21T17:14:58.791+03:00,0,0,0,0,1,0.25,2025-04-21T17:09:25.354+03:00,98,1.633333333333333,2025-04-21T12:30:07.995+03:00,0.02023345852159405,0
2025-04-21T17:15:06.522+03:00,1745244905.433555,40.95229523723509,29.14029212770079,76.51794,-1,-1,-1,-1,30,30.9981187017281,-9999,21407.77475979167,0.6806488037109375,-0.694305419921875,-0.6480865478515625,21407.77099079167,-3.076663105918138,0.8964631534722921,0.7180597805839273,0.8279509544372559,-0.3685320913791656,0.02192983776330948,0.09999638795852661,0.0147516131401062,-0.183768630027771,XArbitraryZVertical,0.4158044202311779,-0.3033196116371719,-0.8383645085733729,0.1795795837364135,0.5882512927055359,-0.6579247713088989,-0.4702077805995941,0,0,0,-1,-1,21400.046902,unknown,2,2025-04-21T17:14:58.791+03:00,2025-04-21T17:08:51.449+03:00,9,1.825274,0,0,6.41385,0,0,2025-04-21T17:14:58.791+03:00,0,0,0,0,1,0.25,2025-04-21T17:09:25.354+03:00,98,1.633333333333333,2025-04-21T12:30:07.995+03:00,0.02023345852159405,0
2025-04-21T17:15:06.533+03:00,1745244905.433555,40.95229523723509,29.14029212770079,76.51794,-1,-1,-1,-1,30,30.9981187017281,-9999,21407.78483579167,0.691314697265625,-0.7106170654296875,-0.65380859375,21407.78106579167,-3.083969038208667,0.8987134857084598,0.7231467301785521,0.6555244922637939,-0.1406016051769257,0.0919305607676506,0.0939674973487854,-0.0325581431388855,-0.1812935769557953,XArbitraryZVertical,0.41530982860765,-0.3067919306740649,-0.8377104983304055,0.1778690038471099,0.5866812467575073,-0.6617471575737,-0.4667929112911224,0,0,0,-1,-1,21400.046902,unknown,2,2025-04-21T17:14:58.791+03:00,2025-04-21T17:08:51.449+03:00,9,1.825274,0,0,6.41385,0,0,2025-04-21T17:14:58.791+03:00,0,0,0,0,1,0.25,2025-04-21T17:09:25.354+03:00,98,1.633333333333333,2025-04-21T12:30:07.995+03:00,0.02023345852159405,0
2025-04-21T17:15:06.543+03:00,1745244905.433555,40.95229523723509,29.14029212770079,76.51794,-1,-1,-1,-1,30,30.9981187017281,-9999,21407.79491079167,0.7140350341796875,-0.66326904296875,-0.67718505859375,21407.79114179167,-3.089661823203236,0.9024527258332691,0.7283630648330488,0.6564400792121887,0.1002461761236191,0.1886427253484726,0.1056091785430908,-0.04496806859970093,-0.1913579702377319,XArbitraryZVertical,0.4156546702893125,-0.3098481865972462,-0.8365767610239732,0.1771005665575736,0.5857055187225342,-0.6656489372253418,-0.4624505937099457,0,0,0,-1,-1,21400.046902,unknown,2,2025-04-21T17:14:58.791+03:00,2025-04-21T17:08:51.449+03:00,9,1.825274,0,0,6.41385,0,0,2025-04-21T17:14:58.791+03:00,0,0,0,0,1,0.25,2025-04-21T17:09:25.354+03:00,98,1.633333333333333,2025-04-21T12:30:07.995+03:00,0.02023345852159405,0
2025-04-21T17:15:06.553+03:00,1745244905.433555,40.95229523723509,29.14029212770079,76.51794,-1,-1,-1,-1,30,30.9981187017281,-9999,21407.80498679167,0.72802734375,-0.61346435546875,-0.659637451171875,21407.80121679167,-3.09455652440975,0.9069104592190279,0.7338967337972842,0.5764187574386597,0.1499186456203461,0.2295347601175308,0.1291839480400085,0.006499350070953369,-0.2196266651153564,XArbitraryZVertical,0.4163811156346154,-0.3128059768561441,-0.8351653812572111,0.176855841338823,0.584851086139679,-0.6697683334350586,-0.4575583636760712,0,0,0,-1,-1,21400.046902,unknown,2,2025-04-21T17:14:58.791+03:00,2025-04-21T17:08:51.449+03:00,9,1.825274,0,0,6.41385,0,0,2025-04-21T17:14:58.791+03:00,0,0,0,0,1,0.25,2025-04-21T17:09:25.354+03:00,98,1.633333333333333,2025-04-21T12:30:07.995+03:00,0.02023345852159405,0
2025-04-21T17:15:06.563+03:00,1745244905.433555,40.95229523723509,29.14029212770079,76.51794,-1,-1,-1,-1,30,30.9981187017281,-9999,21407.81506279167,0.7200164794921875,-0.58935546875,-0.58001708984375,21407.81129279167,-3.09809234404582,0.9112201532623975,0.739088013212822,0.4632189273834229,0.231592208147049,0.2664589583873749,0.1439654231071472,0.06014984846115112,-0.2067406177520752,XArbitraryZVertical,0.4172630825166469,-0.3153460148873267,-0.83371663872791,0.1771013597899272,0.5840619206428528,-0.6736141443252563,-0.4528968334197998,0,0,0,-1,-1,21400.046902,unknown,2,2025-04-21T17:14:58.791+03:00,2025-04-21T17:08:51.449+03:00,9,1.825274,0,0,6.41385,0,0,2025-04-21T17:14:58.791+03:00,0,0,0,0,1,0.25,2025-04-21T17:09:25.354+03:00,98,1.633333333333333,2025-04-21T12:30:07.995+03:00,0.02023345852159405,0
2025-04-21T17:15:06.573+03:00,1745244905.433555,40.95229523723509,29.14029212770079,76.51794,-1,-1,-1,-1,30,30.9981187017281,-9999,21407.82513779167,0.6982421875,-0.63531494140625,-0.50018310546875,21407.82136779167,-3.099742243219524,0.9147816836052697,0.7435618047584872,0.2703565359115601,0.2515824437141418,0.2833034694194794,0.136739194393158,0.08755850791931152,-0.131045937538147,XArbitraryZVertical,0.41816843970253,-0.3172532155065977,-0.8323724637531368,0.1778807465633069,0.5832772850990295,-0.6769139170646667,-0.4489710927009583,0,0,0,-1,-1,21400.046902,unknown,2,2025-04-21T17:14:58.791+03:00,2025-04-21T17:08:51.449+03:00,9,1.825274,0,0,6.41385,0,0,2025-04-21T17:14:58.791+03:00,0,0,0,0,1,0.25,2025-04-21T17:09:25.354+03:00,98,1.633333333333333,2025-04-21T12:30:07.995+03:00,0.02023345852159405,0
2025-04-21T17:15:06.583+03:00,1745244905.433555,40.95229523723509,29.14029212770079,76.51794,-1,-1,-1,-1,30,30.9981187017281,-9999,21407.83521379167,0.6776275634765625,-0.698486328125,-0.43719482421875,21407.83144379167,-3.100076630531691,0.9172740444716511,0.7470704380139633,0.2173226326704025,0.1905073523521423,0.249366506934166,0.1157369017601013,0.04417747259140015,-0.05411383509635925,XArbitraryZVertical,0.4189000767387231,-0.3185719886161831,-0.8312928793201563,0.1788482112030666,0.5825052261352539,-0.6794922947883606,-0.4460692405700684,0,0,0,-1,-1,21400.046902,unknown,2,2025-04-21T17:14:58.791+03:00,2025-04-21T17:08:51.449+03:00,9,1.825274,0,0,6.41385,0,0,2025-04-21T17:14:58.791+03:00,0,0,0,0,1,0.25,2025-04-21T17:09:25.354+03:00,98,1.633333333333333,2025-04-21T12:30:07.995+03:00,0.02023345852159405,0
2025-04-21T17:15:06.593+03:00,1745244905.433555,40.95229523723509,29.14029212770079,76.51794,-1,-1,-1,-1,30,30.9981187017281,-9999,21407.84528879167,0.6497955322265625,-0.7303009033203125,-0.41839599609375,21407.84151879167,-3.100774806496861,0.919507457858652,0.750468682176918,0.2743150591850281,0.1617617309093475,0.2259080708026886,0.09596729278564453,-0.01650458574295044,0.006170004606246948,XArbitraryZVertical,0.4194702370696091,-0.3199411678598788,-0.8303159516368567,0.1796040467747183,0.5816602110862732,-0.68198162317276,-0.4433647394180298,0,0,0,-1,-1,21400.046902,unknown,2,2025-04-21T17:14:58.791+03:00,2025-04-21T17:08:51.449+03:00,9,1.825274,0,0,6.41385,0,0,2025-04-21T17:14:58.791+03:00,0,0,0,0,1,0.25,2025-04-21T17:09:25.354+03:00,98,1.633333333333333,2025-04-21T12:30:07.995+03:00,0.02023345852159405,0
2025-04-21T17:15:06.603+03:00,1745244905.433555,40.95229523723509,29.14029212770079,76.51794,-1,-1,-1,-1,30,30.9981187017281,-9999,21407.85536479167,0.62579345703125,-0.706695556640625,-0.43359375,21407.85159479167,-3.102343010677826,0.9220616402464831,0.7539723253290342,0.3266760110855103,0.1279616802930832,0.1941221803426743,0.0689123272895813,-0.04576092958450317,0.02203536033630371,XArbitraryZVertical,0.4200218885584922,-0.3215057528672077,-0.8293301592379198,0.1800751941469441,0.5808832049369812,-0.6845398545265198,-0.4404313266277313,0,0,0,-1,-1,21400.046902,unknown,2,2025-04-21T17:14:58.791+03:00,2025-04-21T17:08:51.449+03:00,9,1.825274,0,0,6.41385,0,0,2025-04-21T17:14:58.791+03:00,0,0,0,0,1,0.25,2025-04-21T17:09:25.354+03:00,98,1.633333333333333,2025-04-21T12:30:07.995+03:00,0.02023345852159405,0
2025-04-21T17:15:06.613+03:00,1745244905.433555,40.95229523723509,29.14029212770079,76.51794,-1,-1,-1,-1,30,30.9981187017281,-9999,21407.86543979167,0.597320556640625,-0.66900634765625,-0.4159393310546875,21407.86166979167,-3.104845463907449,0.9250924841680135,0.7573540484231089,0.3650476336479187,0.1455731689929962,0.1131759285926819,0.04543024301528931,-0.01969432830810547,0.003679513931274414,XArbitraryZVertical,0.4206234692235563,-0.3231706864620802,-0.8283469663985482,0.1802160962800909,0.5803632140159607,-0.6870011687278748,-0.4372732043266296,0,0,0,-1,-1,21400.046902,unknown,2,2025-04-21T17:14:58.791+03:00,2025-04-21T17:08:51.449+03:00,9,1.825274,0,0,6.41385,0,0,2025-04-21T17:14:58.791+03:00,0,0,0,0,1,0.25,2025-04-21T17:09:25.354+03:00,98,1.633333333333333,2025-04-21T12:30:07.995+03:00,0.02023345852159405,0
2025-04-21T17:15:06.623+03:00,1745244905.433555,40.95229523723509,29.14029212770079,76.51794,-1,-1,-1,-1,30,30.9981187017281,-9999,21407.87551579167,0.565338134765625,-0.6783294677734375,-0.3860931396484375,21407.87174579167,-3.108478314245387,0.9291693870473282,0.759992693120485,0.3512492477893829,0.1528420001268387,0.002138623036444187,0.01663368940353394,0.01990979909896851,0.01787775754928589,XArbitraryZVertical,0.4215233547638835,-0.3246683132404402,-0.827369278906864,0.1799128929266814,0.5806869268417358,-0.6889161467552185,-0.4338170886039734,0,0,0,-1,-1,21400.046902,unknown,2,2025-04-21T17:14:58.791+03:00,2025-04-21T17:08:51.449+03:00,9,1.825274,0,0,6.41385,0,0,2025-04-21T17:14:58.791+03:00,0,0,0,0,1,0.25,2025-04-21T17:09:25.354+03:00,98,1.633333333333333,2025-04-21T12:30:07.995+03:00,0.02023345852159405,0
2025-04-21T17:15:06.634+03:00,1745244905.433555,40.95229523723509,29.14029212770079,76.51794,-1,-1,-1,-1,30,30.9981187017281,-9999,21407.88559079167,0.5560760498046875,-0.7418365478515625,-0.32781982421875,21407.88182079167,-3.112060781805807,0.9329871259765459,0.7616422200077986,0.2526826858520508,0.1120918393135071,-0.04557473585009575,-0.01608693599700928,0.01178145408630371,0.0448266863822937,XArbitraryZVertical,0.4223926932178182,-0.3257675857091307,-0.8266066014642901,0.1793918129459605,0.5814251303672791,-0.6901108622550964,-0.4309197962284088,0,0,0,-1,-1,21400.046902,unknown,2,2025-04-21T17:14:58.791+03:00,2025-04-21T17:08:51.449+03:00,9,1.825274,0,0,6.41385,0,0,2025-04-21T17:14:58.791+03:00,0,0,0,0,1,0.25,2025-04-21T17:09:25.354+03:00,98,1.633333333333333,2025-04-21T12:30:07.995+03:00,0.02023345852159405,0
2025-04-21T17:15:06.644+03:00,1745244905.433555,40.95229523723509,29.14029212770079,76.51794,-1,-1,-1,-1,30,30.9981187017281,-9999,21407.89566679167,0.551483154296875,-0.8420562744140625,-0.2749786376953125,21407.89189679167,-3.115104285768394,0.936210400039472,0.7622314233835289,0.1715992242097855,0.1213132441043854,-0.1307984590530396,-0.02640742063522339,-0.0512993335723877,0.1009824872016907,XArbitraryZVertical,0.4231823692864379,-0.326367176221712,-0.8260981901806365,0.1787816416706355,0.5824834704399109,-0.69053715467453,-0.4288023114204407,0,0,0,-1,-1,21407.78483579167,unknown,2,2025-04-21T17:15:06.529+03:00,2025-04-21T17:08:51.449+03:00,9,1.825274,0,0,6.41385,0,0,2025-04-21T17:14:58.791+03:00,0,0,0,0,1,0.25,2025-04-21T17:09:25.354+03:00,98,1.633333333333333,2025-04-21T12:30:07.995+03:00,0.02023345852159405,0
2025-04-21T17:15:06.654+03:00,1745244905.433555,40.95229523723509,29.14029212770079,76.51794,-1,-1,-1,-1,30,30.9981187017281,-9999,21407.90574179167,0.5163116455078125,-0.924163818359375,-0.267791748046875,21407.90197179167,-3.118131161924013,0.9398376754881094,0.7617058752896,0.1116982623934746,0.1866144090890884,-0.1887524724006653,-0.03284478187561035,-0.1518992781639099,0.1519220471382141,XArbitraryZVertical,0.424227676454171,-0.3264667540231304,-0.8256882511267051,0.1780145473630938,0.5843279361724854,-0.6901569366455078,-0.4269006848335266,0,0,0,-1,-1,21407.78483579167,unknown,2,2025-04-21T17:15:06.529+03:00,2025-04-21T17:08:51.449+03:00,9,1.825274,0,0,6.41385,0,0,2025-04-21T17:14:58.791+03:00,0,0,0,0,1,0.25,2025-04-21T17:09:25.354+03:00,98,1.633333333333333,2025-04-21T12:30:07.995+03:00,0.02023345852159405,0
2025-04-21T17:15:06.664+03:00,1745244905.433555,40.95229523723509,29.14029212770079,76.51794,-1,-1,-1,-1,30,30.9981187017281,-9999,21407.91581779167,0.5307159423828125,-0.9239501953125,-0.2804107666015625,21407.91204779167,-3.12083979618928,0.9440256980120705,0.7608332996572462,0.09134745597839355,0.2642975151538849,-0.178820475935936,-0.07028657197952271,-0.234638512134552,0.1570110619068146,XArbitraryZVertical,0.4255836936186313,-0.3263083565892803,-0.8251855173217924,0.1773979520802324,0.5865981578826904,-0.6895251870155334,-0.4248027503490448,0,0,0,-1,-1,21407.78483579167,unknown,2,2025-04-21T17:15:06.529+03:00,2025-04-21T17:08:51.449+03:00,9,1.825274,0,0,6.41385,0,0,2025-04-21T17:14:58.791+03:00,0,0,0,0,1,0.25,2025-04-21T17:09:25.354+03:00,98,1.633333333333333,2025-04-21T12:30:07.995+03:00,0.02023345852159405,0
2025-04-21T17:15:06.674+03:00,1745244905.433555,40.95229523723509,29.14029212770079,76.51794,-1,-1,-1,-1,30,30.9981187017281,-9999,21407.92589279167,0.570892333984375,-0.84735107421875,-0.3106842041015625,21407.92212279167,-3.123144987539293,0.9482706020032562,0.7596775878944692,0.05040974169969559,0.2528699934482574,-0.2064055651426315,-0.05832719802856445,-0.235262393951416,0.1423625648021698,XArbitraryZVertical,0.427051688519657,-0.3259451380979691,-0.8246780829922798,0.1768967248822172,0.5890430808067322,-0.6886877417564392,-0.4227732419967651,0,0,0,-1,-1,21407.78483579167,unknown,2,2025-04-21T17:15:06.529+03:00,2025-04-21T17:08:51.449+03:00,9,1.825274,0,0,6.41385,0,0,2025-04-21T17:14:58.791+03:00,0,0,0,0,1,0.25,2025-04-21T17:09:25.354+03:00,98,1.633333333333333,2025-04-21T12:30:07.995+03:00,0.02023345852159405,0
2025-04-21T17:15:06.684+03:00,1745244905.433555,40.95229523723509,29.14029212770079,76.51794,-1,-1,-1,-1,30,30.9981187017281,-9999,21407.93596879167,0.578704833984375,-0.7631378173828125,-0.2973480224609375,21407.93219879167,-3.125421005374504,0.9520166688639289,0.7580776657567432,0.03545263037085533,0.188402071595192,-0.2389682978391647,-0.02062720060348511,-0.1598241925239563,0.1105181574821472,XArbitraryZVertical,0.4283551774816912,-0.3254392221847002,-0.8243444094981884,0.1762308442076998,0.5915195345878601,-0.6875268220901489,-0.4212023019790649,0,0,0,-1,-1,21407.78483579167,unknown,2,2025-04-21T17:15:06.529+03:00,2025-04-21T17:08:51.449+03:00,9,1.825274,0,0,6.41385,0,0,2025-04-21T17:14:58.791+03:00,0,0,0,0,1,0.25,2025-04-21T17:09:25.354+03:00,98,1.633333333333333,2025-04-21T12:30:07.995+03:00,0.02023345852159405,0
2025-04-21T17:15:06.694+03:00,1745244905.433555,40.95229523723509,29.14029212770079,76.51794,-1,-1,-1,-1,30,30.9981187017281,-9999,21407.94604379167,0.5676422119140625,-0.732574462890625,-0.2723846435546875,21407.94227379167,-3.127721217739513,0.9551530570173025,0.7559167563588711,0.006566185969859362,0.125886544585228,-0.3034796118736267,-0.01534438133239746,-0.07718169689178467,0.1228539943695068,XArbitraryZVertical,0.4294504416607536,-0.3247634799745723,-0.8242321829327137,0.1753345549075227,0.5940492153167725,-0.6859560012817383,-0.4202019870281219,0,0,0,-1,-1,21407.78483579167,unknown,2,2025-04-21T17:15:06.529+03:00,2025-04-21T17:08:51.449+03:00,9,1.825274,0,0,6.41385,0,0,2025-04-21T17:14:58.791+03:00,0,0,0,0,1,0.25,2025-04-21T17:09:25.354+03:00,98,1.633333333333333,2025-04-21T12:30:07.995+03:00,0.02023345852159405,0
2025-04-21T17:15:06.704+03:00,1745244905.433555,40.95229523723509,29.14029212770079,76.51794,-1,-1,-1,-1,30,30.9981187017281,-9999,21407.95611979167,0.5509033203125,-0.7073211669921875,-0.267425537109375,21407.95234979167,-3.131073318594628,0.9583357546769794,0.7534123447471971,0.112180233001709,0.02655517123639584,-0.3646258115768433,-0.02914518117904663,-0.04844284057617188,0.1469109058380127,XArbitraryZVertical,0.4304243519554405,-0.324171455963551,-0.8242535445356972,0.1739360440521812,0.5967873930931091,-0.6841315627098083,-0.4192954897880554,0,0,0,-1,-1,21407.78483579167,unknown,2,2025-04-21T17:15:06.529+03:00,2025-04-21T17:08:51.449+03:00,9,1.825274,0,0,6.41385,0,0,2025-04-21T17:14:58.791+03:00,0,0,0,0,1,0.25,2025-04-21T17:09:25.354+03:00,98,1.633333333333333,2025-04-21T12:30:07.995+03:00,0.02023345852159405,0
2025-04-21T17:15:06.714+03:00,1745244905.433555,40.95229523723509,29.14029212770079,76.51794,-1,-1,-1,-1,30,30.9981187017281,-9999,21407.96619479167,0.54376220703125,-0.62969970703125,-0.266143798828125,21407.96242479167,-3.135915391203843,0.9610981136422614,0.751675400498226,0.2627683281898499,-0.1216343641281128,-0.3374454975128174,-0.04801338911056519,-0.02445739507675171,0.1508997082710266,XArbitraryZVertical,0.4309223408059408,-0.3242581247730856,-0.8243621617335996,0.1720163974375357,0.5989167094230652,-0.6828636527061462,-0.4183252155780792,0,0,0,-1,-1,21407.78483579167,unknown,2,2025-04-21T17:15:06.529+03:00,2025-04-21T17:08:51.449+03:00,9,1.825274,0,0,6.41385,0,0,2025-04-21T17:14:58.791+03:00,0,0,0,0,1,0.25,2025-04-21T17:09:25.354+03:00,98,1.633333333333333,2025-04-21T12:30:07.995+03:00,0.02023345852159405,0
2025-04-21T17:15:06.724+03:00,1745244905.433555,40.95229523723509,29.14029212770079,76.51794,-1,-1,-1,-1,30,30.9981187017281,-9999,21407.97627079167,0.523529052734375,-0.5540008544921875,-0.2173004150390625,21407.97250079167,3.141104081767479,0.9631402670663245,0.750581211921862,0.3349743485450745,-0.3050206899642944,-0.3257153332233429,-0.05662053823471069,0.0523642897605896,0.1513837575912476,XArbitraryZVertical,0.4308557603632528,-0.3249608245577028,-0.8246268383304959,0.1695707588614234,0.6003827452659607,-0.6820639371871948,-0.4175275564193726,0,0,0,-1,-1,21407.78483579167,unknown,2,2025-04-21T17:15:06.529+03:00,2025-04-21T17:08:51.449+03:00,9,1.825274,0,0,6.41385,0,0,2025-04-21T17:14:58.791+03:00,0,0,0,0,1,0.25,2025-04-21T17:09:25.354+03:00,98,1.633333333333333,2025-04-21T12:30:07.995+03:00,0.02023345852159405,0
2025-04-21T17:15:06.734+03:00,1745244905.433555,40.95229523723509,29.14029212770079,76.51794,-1,-1,-1,-1,30,30.9981187017281,-9999,21407.98634579167,0.484771728515625,-0.5498199462890625,-0.1606597900390625,21407.98257579167,3.134874903188632,0.9639286132941082,0.7496156799842614,0.271013617515564,-0.396913468837738,-0.3447313010692596,-0.07772332429885864,0.1273567676544189,0.2001291215419769,XArbitraryZVertical,0.430250097907632,-0.325837584992875,-0.8251374005727908,0.1669214625768169,0.6012523174285889,-0.6813575029373169,-0.4174294471740723,0,0,0,-1,-1,21407.78483579167,unknown,2,2025-04-21T17:15:06.529+03:00,2025-04-21T17:08:51.449+03:00,9,1.825274,0,0,6.41385,0,0,2025-04-21T17:14:58.791+03:00,0,0,0,0,1,0.25,2025-04-21T17:09:25.354+03:00,98,1.633333333333333,2025-04-21T12:30:07.995+03:00,0.02023345852159405,0
2025-04-21T17:15:06.757+03:00,1745244905.433555,40.95229523723509,29.14029212770079,76.51794,-1,-1,-1,-1,30,30.9981187017281,-9999,21407.99642179167,0.458740234375,-0.587066650390625,-0.0999908447265625,21407.99265179167,3.129447276848582,0.9629622635235908,0.7476035788795878,0.1600894927978516,-0.5407814383506775,-0.4298315346240997,-0.1172012090682983,0.1300634741783142,0.2581326365470886,XArbitraryZVertical,0.429140641159899,-0.326254620710914,-0.8261182747042546,0.1640878857823758,0.6019729971885681,-0.6798833608627319,-0.4187924563884735,0,0,0,-1,-1,21407.78483579167,unknown,2,2025-04-21T17:15:06.529+03:00,2025-04-21T17:08:51.449+03:00,9,1.825274,0,0,6.41385,0,0,2025-04-21T17:14:58.791+03:00,0,0,0,0,1,0.25,2025-04-21T17:09:25.354+03:00,98,1.633333333333333,2025-04-21T12:30:07.995+03:00,0.02023345852159405,0
2025-04-21T17:15:06.760+03:00,1745244905.433555,40.95229523723509,29.14029212770079,76.51794,-1,-1,-1,-1,30,30.9981187017281,-9999,21408.00649679167,0.4735565185546875,-0.61456298828125,-0.08062744140625,21408.00272779167,3.125129130827573,0.9594606962659531,0.7449459595415238,0.04240867123007774,-0.7141590714454651,-0.3657316565513611,-0.1432400345802307,0.09086555242538452,0.3219425082206726,XArbitraryZVertical,0.4272202364687713,-0.32636826562657,-0.8276443221379476,0.161156224916899,0.6019802689552307,-0.67793208360672,-0.4219332635402679,0,0,0,-1,-1,21407.78483579167,unknown,2,2025-04-21T17:15:06.529+03:00,2025-04-21T17:08:51.449+03:00,9,1.825274,0,0,6.41385,0,0,2025-04-21T17:14:58.791+03:00,0,0,0,0,1,0.25,2025-04-21T17:09:25.354+03:00,98,1.633333333333333,2025-04-21T12:30:07.995+03:00,0.02023345852159405,0
2025-04-21T17:15:06.765+03:00,1745244905.433555,40.95229523723509,29.14029212770079,76.51794,-1,-1,-1,-1,30,30.9981187017281,-9999,21408.01657279167,0.482818603515625,-0.5963592529296875,-0.1044464111328125,21408.01280279167,3.123039900766186,0.9528908909886596,0.742109468931025,-0.1302749514579773,-0.8655038475990295,-0.2342862635850906,-0.1272037625312805,0.06128132343292236,0.3463639318943024,XArbitraryZVertical,0.4244046576159034,-0.3261671881070889,-0.8296621595759617,0.1586069296838285,0.6007602214813232,-0.6758441925048828,-0.4269913136959076,0,0,0,-1,-1,21407.78483579167,unknown,2,2025-04-21T17:15:06.529+03:00,2025-04-21T17:08:51.449+03:00,9,1.825274,0,0,6.41385,0,0,2025-04-21T17:14:58.791+03:00,0,0,0,0,1,0.25,2025-04-21T17:09:25.354+03:00,98,1.633333333333333,2025-04-21T12:30:07.995+03:00,0.02023345852159405,0
2025-04-21T17:15:06.776+03:00,1745244905.433555,40.95229523723509,29.14029212770079,76.51794,-1,-1,-1,-1,30,30.9981187017281,-9999,21408.02664779167,0.442596435546875,-0.5932769775390625,-0.1609954833984375,21408.02287879167,3.124108731606582,0.9435783067483626,0.7390283088458713,-0.3475074768066406,-0.8401117324829102,-0.1760902404785156,-0.1156224608421326,0.07721090316772461,0.3293410837650299,XArbitraryZVertical,0.4209761166953938,-0.3254003748517186,-0.8320360960906378,0.1568738815515787,0.5984410047531128,-0.6735700368881226,-0.4337874054908752,0,0,0,-1,-1,21407.78483579167,unknown,2,2025-04-21T17:15:06.529+03:00,2025-04-21T17:08:51.449+03:00,9,1.825274,0,0,6.41385,0,0,2025-04-21T17:14:58.791+03:00,0,0,0,0,1,0.25,2025-04-21T17:09:25.354+03:00,98,1.633333333333333,2025-04-21T12:30:07.995+03:00,0.02023345852159405,0
