loggingTime(txt),locationTimestamp_since1970(s),locationLatitude(WGS84),locationLongitude(WGS84),locationAltitude(m),locationSpeed(m/s),locationSpeedAccuracy(m/s),locationCourse(°),locationCourseAccuracy(°),locationVerticalAccuracy(m),locationHorizontalAccuracy(m),locationFloor(Z),accelerometerTimestamp_sinceReboot(s),accelerometerAccelerationX(G),accelerometerAccelerationY(G),accelerometerAccelerationZ(G),motionTimestamp_sinceReboot(s),motionYaw(rad),motionRoll(rad),motionPitch(rad),motionRotationRateX(rad/s),motionRotationRateY(rad/s),motionRotationRateZ(rad/s),motionUserAccelerationX(G),motionUserAccelerationY(G),motionUserAccelerationZ(G),motionAttitudeReferenceFrame(txt),motionQuaternionX(R),motionQuaternionY(R),motionQuaternionZ(R),motionQuaternionW(R),motionGravityX(G),motionGravityY(G),motionGravityZ(G),motionMagneticFieldX(µT),motionMagneticFieldY(µT),motionMagneticFieldZ(µT),motionHeading(°),motionMagneticFieldCalibrationAccuracy(Z),activityTimestamp_sinceReboot(s),activity(txt),activityActivityConfidence(Z),activityActivityStartDate(txt),pedometerStartDate(txt),pedometerNumberofSteps(N),pedometerAverageActivePace(s/m),pedometerCurrentPace(s/m),pedometerCurrentCadence(steps/s),pedometerDistance(m),pedometerFloorAscended(N),pedometerFloorDescended(N),pedometerEndDate(txt),altimeterTimestamp_sinceReboot(s),altimeterReset(bool),altimeterRelativeAltitude(m),altimeterPressure(kPa),batteryState(N),batteryLevel(R),heartRateBPMTimestamp(txt),heartRateBPM(N),heartRateBPS(R),heartRateVariabilityTimestamp(txt),heartRateVariability(ms),label
2025-04-20T23:15:51.362+03:00,1745180151.14359,40.985586866833,29.13735278228028,126.3665,-1,-1,-1,-1,30,22.26780044147412,-9999,10082.324479125,-0.446807861328125,0.8352203369140625,-0.2737579345703125,10082.315670125,-2.246335654308538,-1.035068087812561,-0.9875828300398349,-0.06180640310049057,-0.04893741384148598,-0.01218767277896404,0.01723900437355042,0.001926779747009277,0.01210659742355347,XArbitraryZVertical,0.5709987386789935,-0.1827592478820356,0.588340579648724,-0.5426000578208241,-0.4735530912876129,0.8346972465515137,-0.2811189889907837,0,0,0,-1,-1,10078.943875375,unknown,2,2025-04-20T23:15:47.951+03:00,2025-04-20T21:57:49.637+03:00,29,4.348656,0,0,23.86625,0,0,2025-04-20T22:59:32.906+03:00,766872950.634814,0,-0.8999996,99.74757,1,0.95,2025-04-20T23:15:47.660+03:00,101,1.683333333333333,2025-04-19T12:19:17.059+03:00,0.05691595998002078,0
2025-04-20T23:15:51.364+03:00,1745180151.14359,40.985586866833,29.13735278228028,126.3665,-1,-1,-1,-1,30,22.26780044147412,-9999,10082.334555125,-0.4504547119140625,0.8431854248046875,-0.2770538330078125,10082.325747125,-2.247430824434875,-1.036549755474797,-0.9876969534485553,-0.05671130865812302,-0.06726375222206116,-0.03794193640351295,0.02639263868331909,0.001879215240478516,0.007907629013061523,XArbitraryZVertical,0.5713412882910446,-0.1827152421890172,0.5881825773637681,-0.5424255806733919,-0.4738871455192566,0.8347601294517517,-0.2803685367107391,0,0,0,-1,-1,10078.943875375,unknown,2,2025-04-20T23:15:47.951+03:00,2025-04-20T21:57:49.637+03:00,29,4.348656,0,0,23.86625,0,0,2025-04-20T22:59:32.906+03:00,766872950.634814,0,-0.8999996,99.74757,1,0.95,2025-04-20T23:15:47.660+03:00,101,1.683333333333333,2025-04-19T12:19:17.059+03:00,0.05691595998002078,0
2025-04-20T23:15:51.365+03:00,1745180151.14359,40.985586866833,29.13735278228028,126.3665,-1,-1,-1,-1,30,22.26780044147412,-9999,10082.344631125,-0.4496917724609375,0.856292724609375,-0.277557373046875,10082.335823125,-2.248882880590532,-1.038540111134279,-0.9874288399594752,-0.06668218225240707,-0.0921962708234787,-0.08934201300144196,0.02544873952865601,0.001614868640899658,0.003873080015182495,XArbitraryZVertical,0.5717781551189265,-0.18248453868108,0.5880824360064435,-0.5421513026097997,-0.4746369123458862,0.8346124291419983,-0.2795382738113403,0,0,0,-1,-1,10078.943875375,unknown,2,2025-04-20T23:15:47.951+03:00,2025-04-20T21:57:49.637+03:00,29,4.348656,0,0,23.86625,0,0,2025-04-20T22:59:32.906+03:00,766872950.634814,0,-0.8999996,99.74757,1,0.95,2025-04-20T23:15:47.660+03:00,101,1.683333333333333,2025-04-19T12:19:17.059+03:00,0.05691595998002078,0
2025-04-20T23:15:51.367+03:00,1745180151.14359,40.985586866833,29.13735278228028,126.3665,-1,-1,-1,-1,30,22.26780044147412,-9999,10082.354707125,-0.4534454345703125,0.8404083251953125,-0.2805938720703125,10082.345899125,-2.250174442382898,-1.040499192293574,-0.9870571474052189,-0.02998016215860844,-0.0907643586397171,-0.05191038176417351,0.02693438529968262,0.01791763305664062,0.001634687185287476,XArbitraryZVertical,0.5722145944541202,-0.1821759895319087,0.5879761520689468,-0.5419097824173228,-0.4754511713981628,0.83440762758255,-0.2787647247314453,0,0,0,-1,-1,10078.943875375,unknown,2,2025-04-20T23:15:47.951+03:00,2025-04-20T21:57:49.637+03:00,29,4.348656,0,0,23.86625,0,0,2025-04-20T22:59:32.906+03:00,766872950.634814,0,-0.8999996,99.74757,1,0.95,2025-04-20T23:15:47.660+03:00,101,1.683333333333333,2025-04-19T12:19:17.059+03:00,0.05691595998002078,0
2025-04-20T23:15:51.377+03:00,1745180151.14359,40.985586866833,29.13735278228028,126.3665,-1,-1,-1,-1,30,22.26780044147412,-9999,10082.364784125,-0.4616851806640625,0.8269500732421875,-0.2743072509765625,10082.355975125,-2.251036650921181,-1.042176272705546,-0.9867297830013467,-0.02588342130184174,-0.09657803922891617,-0.05881329625844955,0.02370026707649231,0.01777762174606323,-0.0003223717212677002,XArbitraryZVertical,0.5726100310909767,-0.1818389570127965,0.5878213103809956,-0.5417732093935016,-0.4761538207530975,0.8342272043228149,-0.278104692697525,0,0,0,-1,-1,10078.943875375,unknown,2,2025-04-20T23:15:47.951+03:00,2025-04-20T21:57:49.637+03:00,29,4.348656,0,0,23.86625,0,0,2025-04-20T22:59:32.906+03:00,766872950.634814,0,-0.8999996,99.74757,1,0.95,2025-04-20T23:15:47.660+03:00,101,1.683333333333333,2025-04-19T12:19:17.059+03:00,0.05691595998002078,0
2025-04-20T23:15:51.387+03:00,1745180151.14359,40.985586866833,29.13735278228028,126.3665,-1,-1,-1,-1,30,22.26780044147412,-9999,10082.374860125,-0.462188720703125,0.7914276123046875,-0.2635345458984375,10082.366052125,-2.251655910332042,-1.044544538251614,-0.985697305476359,-0.0370679683983326,-0.1477728486061096,-0.08383719623088837,0.02034139633178711,-0.003472566604614258,-0.001704931259155273,XArbitraryZVertical,0.5731899377473362,-0.1809665439385368,0.5875995277802728,-0.5416927704668945,-0.4775557219982147,0.8336573839187622,-0.2774088084697723,0,0,0,-1,-1,10078.943875375,unknown,2,2025-04-20T23:15:47.951+03:00,2025-04-20T21:57:49.637+03:00,29,4.348656,0,0,23.86625,0,0,2025-04-20T22:59:32.906+03:00,766872950.634814,0,-0.8999996,99.74757,1,0.95,2025-04-20T23:15:47.660+03:00,101,1.683333333333333,2025-04-19T12:19:17.059+03:00,0.05691595998002078,0
2025-04-20T23:15:51.397+03:00,1745180151.14359,40.985586866833,29.13735278228028,126.3665,-1,-1,-1,-1,30,22.26780044147412,-9999,10082.384936125,-0.4787445068359375,0.822540283203125,-0.2710723876953125,10082.376128125,-2.252454683418232,-1.046408325351939,-0.9858121403070089,0.01953059807419777,-0.1050685197114944,0.02115260809659958,0.01337417960166931,-0.01362210512161255,0.007488399744033813,XArbitraryZVertical,0.5736717497761354,-0.1807362309715356,0.5872493027356832,-0.5416393320768405,-0.4779889583587646,0.8337208032608032,-0.276470273733139,0,0,0,-1,-1,10078.943875375,unknown,2,2025-04-20T23:15:47.951+03:00,2025-04-20T21:57:49.637+03:00,29,4.348656,0,0,23.86625,0,0,2025-04-20T22:59:32.906+03:00,766872950.634814,0,-0.8999996,99.74757,1,0.95,2025-04-20T23:15:47.660+03:00,101,1.683333333333333,2025-04-19T12:19:17.059+03:00,0.05691595998002078,0
2025-04-20T23:15:51.407+03:00,1745180151.14359,40.985586866833,29.13735278228028,126.3665,-1,-1,-1,-1,30,22.26780044147412,-9999,10082.395013125,-0.47625732421875,0.8758392333984375,-0.278564453125,10082.386204125,-2.252384295690887,-1.047143559522068,-0.9856831017103099,0.008863239549100399,-0.06707167625427246,-0.03339096158742905,0.01414373517036438,-0.05421531200408936,0.01492705941200256,XArbitraryZVertical,0.5738865127921806,-0.1804657474923147,0.5870556451647156,-0.5417122307403195,-0.4782856404781342,0.8336495757102966,-0.2761727571487427,0,0,0,-1,-1,10078.943875375,unknown,2,2025-04-20T23:15:47.951+03:00,2025-04-20T21:57:49.637+03:00,29,4.348656,0,0,23.86625,0,0,2025-04-20T22:59:32.906+03:00,766872950.634814,0,-0.8999996,99.74757,1,0.95,2025-04-20T23:15:47.660+03:00,101,1.683333333333333,2025-04-19T12:19:17.059+03:00,0.05691595998002078,0
2025-04-20T23:15:51.417+03:00,1745180151.14359,40.985586866833,29.13735278228028,126.3665,-1,-1,-1,-1,30,22.26780044147412,-9999,10082.405089125,-0.474822998046875,0.82861328125,-0.272796630859375,10082.396281125,-2.2526008237998,-1.047994359471553,-0.9855393780057847,-0.01422157324850559,-0.06718406081199646,-0.004279415123164654,-0.005827248096466064,0.03981232643127441,-0.00489044189453125,XArbitraryZVertical,0.5741084895685332,-0.1802407315896844,0.5869101621969236,-0.541709405697762,-0.478624016046524,0.8335701823234558,-0.2758254408836365,0,0,0,-1,-1,10078.943875375,unknown,2,2025-04-20T23:15:47.951+03:00,2025-04-20T21:57:49.637+03:00,29,4.348656,0,0,23.86625,0,0,2025-04-20T22:59:32.906+03:00,766872950.634814,0,-0.8999996,99.74757,1,0.95,2025-04-20T23:15:47.660+03:00,101,1.683333333333333,2025-04-19T12:19:17.059+03:00,0.05691595998002078,0
2025-04-20T23:15:51.427+03:00,1745180151.14359,40.985586866833,29.13735278228028,126.3665,-1,-1,-1,-1,30,22.26780044147412,-9999,10082.415165125,-0.486907958984375,0.8332061767578125,-0.2799224853515625,10082.406357125,-2.252799088774152,-1.048812997928006,-0.9858290045459184,-0.03037324547767639,-0.0606679767370224,0.01524415239691734,0.00844082236289978,0.01459741592407227,0.003279536962509155,XArbitraryZVertical,0.5743473289895905,-0.1801903718843152,0.5866478233519926,-0.5417571561277953,-0.4786403775215149,0.8337301015853882,-0.275313138961792,0,0,0,-1,-1,10078.943875375,unknown,2,2025-04-20T23:15:47.951+03:00,2025-04-20T21:57:49.637+03:00,29,4.348656,0,0,23.86625,0,0,2025-04-20T22:59:32.906+03:00,766872950.634814,0,-0.8999996,99.74757,1,0.95,2025-04-20T23:15:47.660+03:00,101,1.683333333333333,2025-04-19T12:19:17.059+03:00,0.05691595998002078,0
2025-04-20T23:15:51.437+03:00,1745180151.14359,40.985586866833,29.13735278228028,126.3665,-1,-1,-1,-1,30,22.26780044147412,-9999,10082.425242125,-0.4813995361328125,0.8454132080078125,-0.277313232421875,10082.416433125,-2.252956632925307,-1.049546437748018,-0.9861200500083116,-0.01904309168457985,-0.05854250490665436,0.01276581455022097,-0.004202127456665039,-0.007245957851409912,-0.002395689487457275,XArbitraryZVertical,0.5745647805345304,-0.1801519530989665,0.5863984084964584,-0.5418093710934663,-0.4786317050457001,0.8338907957077026,-0.2748411595821381,0,0,0,-1,-1,10078.943875375,unknown,2,2025-04-20T23:15:47.951+03:00,2025-04-20T21:57:49.637+03:00,29,4.348656,0,0,23.86625,0,0,2025-04-20T22:59:32.906+03:00,766872950.634814,0,-0.8999996,99.74757,1,0.95,2025-04-20T23:15:47.660+03:00,101,1.683333333333333,2025-04-19T12:19:17.059+03:00,0.05691595998002078,0
2025-04-20T23:15:51.447+03:00,1745180151.14359,40.985586866833,29.13735278228028,126.3665,-1,-1,-1,-1,30,22.26780044147412,-9999,10082.43531675,-0.4811859130859375,0.84716796875,-0.2779083251953125,10082.426510125,-2.252974722487309,-1.050147548528468,-0.986368581901054,-0.007348088081926107,-0.06341395527124405,0.01583058014512062,-0.006520867347717285,0.005800485610961914,-0.004037797451019287,XArbitraryZVertical,0.574753455202606,-0.1800924792622762,0.5861610738200945,-0.5418858647778486,-0.4786170721054077,0.8340279459953308,-0.2744503319263458,0,0,0,-1,-1,10078.943875375,unknown,2,2025-04-20T23:15:47.951+03:00,2025-04-20T21:57:49.637+03:00,29,4.348656,0,0,23.86625,0,0,2025-04-20T22:59:32.906+03:00,766872950.634814,0,-0.8999996,99.74757,1,0.95,2025-04-20T23:15:47.660+03:00,101,1.683333333333333,2025-04-19T12:19:17.059+03:00,0.05691595998002078,0
2025-04-20T23:15:51.457+03:00,1745180151.14359,40.985586866833,29.13735278228028,126.3665,-1,-1,-1,-1,30,22.26780044147412,-9999,10082.44539275,-0.4841461181640625,0.8381195068359375,-0.2772216796875,10082.43658475,-2.25284720697111,-1.050655683759528,-0.9865613102088731,0.001360449008643627,-0.06246693804860115,0.01196207199245691,-0.001104086637496948,0.01385760307312012,-0.00378108024597168,XArbitraryZVertical,0.5749247407015411,-0.1799942732667786,0.5859265484211157,-0.5419904333639755,-0.4786169826984406,0.8341342806816101,-0.2741272151470184,0,0,0,-1,-1,10078.943875375,unknown,2,2025-04-20T23:15:47.951+03:00,2025-04-20T21:57:49.637+03:00,29,4.348656,0,0,23.86625,0,0,2025-04-20T22:59:32.906+03:00,766872950.634814,0,-0.8999996,99.74757,1,0.95,2025-04-20T23:15:47.660+03:00,101,1.683333333333333,2025-04-19T12:19:17.059+03:00,0.05691595998002078,0
2025-04-20T23:15:51.467+03:00,1745180151.14359,40.985586866833,29.13735278228028,126.3665,-1,-1,-1,-1,30,22.26780044147412,-9999,10082.45546975,-0.48480224609375,0.8351287841796875,-0.270233154296875,10082.44666075,-2.252604735199366,-1.051041743819202,-0.9866795368176866,0.01015627011656761,-0.05411612614989281,0.0120838787406683,-0.004288136959075928,0.007460057735443115,-0.004121601581573486,XArbitraryZVertical,0.5750663151879425,-0.1798665984701531,0.5857168072755284,-0.5421093816748219,-0.4786372780799866,0.8341994881629944,-0.2738934755325317,0,0,0,-1,-1,10078.943875375,unknown,2,2025-04-20T23:15:47.951+03:00,2025-04-20T21:57:49.637+03:00,29,4.348656,0,0,23.86625,0,0,2025-04-20T22:59:32.906+03:00,766872950.634814,0,-0.8999996,99.74757,1,0.95,2025-04-20T23:15:47.660+03:00,101,1.683333333333333,2025-04-19T12:19:17.059+03:00,0.05691595998002078,0
2025-04-20T23:15:51.477+03:00,1745180151.14359,40.985586866833,29.13735278228028,126.3665,-1,-1,-1,-1,30,22.26780044147412,-9999,10082.46554575,-0.4842376708984375,0.833099365234375,-0.2574462890625,10082.45673775,-2.252230026643406,-1.051247052454249,-0.9866832697711437,0.02611073665320873,-0.05079170316457748,0.009196745231747627,-0.005363911390304565,0.001339137554168701,-0.001413881778717041,XArbitraryZVertical,0.5751603443214444,-0.1797047261258887,0.5855550494071694,-0.5422379288200322,-0.4786906540393829,0.8342015147209167,-0.2737935781478882,0,0,0,-1,-1,10078.943875375,unknown,2,2025-04-20T23:15:47.951+03:00,2025-04-20T21:57:49.637+03:00,29,4.348656,0,0,23.86625,0,0,2025-04-20T22:59:32.906+03:00,766872950.634814,0,-0.8999996,99.74757,1,0.95,2025-04-20T23:15:47.660+03:00,101,1.683333333333333,2025-04-19T12:19:17.059+03:00,0.05691595998002078,0
2025-04-20T23:15:51.487+03:00,1745180151.14359,40.985586866833,29.13735278228028,126.3665,-1,-1,-1,-1,30,22.26780044147412,-9999,10082.47562175,-0.482574462890625,0.835693359375,-0.26873779296875,10082.46681375,-2.251747112487173,-1.051411818640448,-0.9866374488494448,0.02410797215998173,-0.05850987508893013,0.01543290447443724,-0.00722348690032959,9.79304313659668e-05,0.01158776879310608,XArbitraryZVertical,0.5752493506657674,-0.1795030721431233,0.5853895302350139,-0.5423889823725226,-0.478768914937973,0.834176242351532,-0.2737336754798889,0,0,0,-1,-1,10078.943875375,unknown,2,2025-04-20T23:15:47.951+03:00,2025-04-20T21:57:49.637+03:00,29,4.348656,0,0,23.86625,0,0,2025-04-20T22:59:32.906+03:00,766872950.634814,0,-0.8999996,99.74757,1,0.95,2025-04-20T23:15:47.660+03:00,101,1.683333333333333,2025-04-19T12:19:17.059+03:00,0.05691595998002078,0
2025-04-20T23:15:51.497+03:00,1745180151.14359,40.985586866833,29.13735278228028,126.3665,-1,-1,-1,-1,30,22.26780044147412,-9999,10082.48569875,-0.4816741943359375,0.8355712890625,-0.277252197265625,10082.47688975,-2.251167192157414,-1.051460624862018,-0.9866780595486725,0.03132487460970879,-0.04549207910895348,0.0179770216345787,-0.004126816987991333,-0.0003822445869445801,0.01369902491569519,XArbitraryZVertical,0.5753179712370701,-0.1793390944110921,0.5852067748450699,-0.5425675705817603,-0.4787527918815613,0.8341986536979675,-0.2736934423446655,0,0,0,-1,-1,10078.943875375,unknown,2,2025-04-20T23:15:47.951+03:00,2025-04-20T21:57:49.637+03:00,29,4.348656,0,0,23.86625,0,0,2025-04-20T22:59:32.906+03:00,766872950.634814,0,-0.8999996,99.74757,1,0.95,2025-04-20T23:15:47.660+03:00,101,1.683333333333333,2025-04-19T12:19:17.059+03:00,0.05691595998002078,0
2025-04-20T23:15:51.507+03:00,1745180151.14359,40.985586866833,29.13735278228028,126.3665,-1,-1,-1,-1,30,22.26780044147412,-9999,10082.49577475,-0.4790802001953125,0.83160400390625,-0.26361083984375,10082.48696675,-2.250427529805977,-1.051259763051586,-0.9866505698026494,0.04586666449904442,-0.03945482894778252,0.0126144140958786,-0.003566771745681763,0.002547323703765869,-0.002657681703567505,XArbitraryZVertical,0.5753239324958241,-0.1791699555355201,0.5850715756950972,-0.5427629222584613,-0.4787177443504333,0.8341835141181946,-0.2738009989261627,0,0,0,-1,-1,10078.943875375,unknown,2,2025-04-20T23:15:47.951+03:00,2025-04-20T21:57:49.637+03:00,29,4.348656,0,0,23.86625,0,0,2025-04-20T22:59:32.906+03:00,766872950.634814,0,-0.8999996,99.74757,1,0.95,2025-04-20T23:15:47.660+03:00,101,1.683333333333333,2025-04-19T12:19:17.059+03:00,0.05691595998002078,0
2025-04-20T23:15:51.518+03:00,1745180151.14359,40.985586866833,29.13735278228028,126.3665,-1,-1,-1,-1,30,22.26780044147412,-9999,10082.50585075,-0.475494384765625,0.8291168212890625,-0.25933837890625,10082.49704275,-2.249576435528735,-1.050936868840684,-0.9865029457823639,0.04865232855081558,-0.03438496962189674,0.01099973917007446,-0.001778244972229004,-0.001857280731201172,0.002608776092529297,XArbitraryZVertical,0.5752972432930356,-0.1789544354461791,0.5849748501486699,-0.5429666067833809,-0.4787362813949585,0.8341020941734314,-0.274016797542572,0,0,0,-1,-1,10078.943875375,unknown,2,2025-04-20T23:15:47.951+03:00,2025-04-20T21:57:49.637+03:00,29,4.348656,0,0,23.86625,0,0,2025-04-20T22:59:32.906+03:00,766872950.634814,0,-0.8999996,99.74757,1,0.95,2025-04-20T23:15:47.660+03:00,101,1.683333333333333,2025-04-19T12:19:17.059+03:00,0.05691595998002078,0
2025-04-20T23:15:51.528+03:00,1745180151.14359,40.985586866833,29.13735278228028,126.3665,-1,-1,-1,-1,30,22.26780044147412,-9999,10082.51592775,-0.4761962890625,0.8238677978515625,-0.2599334716796875,10082.50711875,-2.248815843517597,-1.050673169356707,-0.9863910663851349,0.03462193161249161,-0.04250155389308929,0.01243248581886292,0.001846790313720703,-0.003168880939483643,0.01410335302352905,XArbitraryZVertical,0.5752817290726363,-0.1787630724411609,0.5848755118124347,-0.5431530628365112,-0.4787449836730957,0.8340403437614441,-0.2741893827915192,0,0,0,-1,-1,10078.943875375,unknown,2,2025-04-20T23:15:47.951+03:00,2025-04-20T21:57:49.637+03:00,29,4.348656,0,0,23.86625,0,0,2025-04-20T22:59:32.906+03:00,766872950.634814,0,-0.8999996,99.74757,1,0.95,2025-04-20T23:15:47.660+03:00,101,1.683333333333333,2025-04-19T12:19:17.059+03:00,0.05691595998002078,0
2025-04-20T23:15:51.538+03:00,1745180151.14359,40.985586866833,29.13735278228028,126.3665,-1,-1,-1,-1,30,22.26780044147412,-9999,10082.52600375,-0.4791412353515625,0.82861328125,-0.265380859375,10082.51719575,-2.248244074034299,-1.050604354298589,-0.986366374475075,0.02412987686693668,-0.04376974701881409,0.01116748433560133,0.003112256526947021,-0.007595539093017578,0.01449748873710632,XArbitraryZVertical,0.5753112766445249,-0.178607562450656,0.5847468902266146,-0.5433113536430924,-0.4787439405918121,0.8340267539024353,-0.2742325365543365,0,0,0,-1,-1,10078.943875375,unknown,2,2025-04-20T23:15:47.951+03:00,2025-04-20T21:57:49.637+03:00,29,4.348656,0,0,23.86625,0,0,2025-04-20T22:59:32.906+03:00,766872950.634814,0,-0.8999996,99.74757,1,0.95,2025-04-20T23:15:47.660+03:00,101,1.683333333333333,2025-04-19T12:19:17.059+03:00,0.05691595998002078,0
2025-04-20T23:15:51.548+03:00,1745180151.14359,40.985586866833,29.13735278228028,126.3665,-1,-1,-1,-1,30,22.26780044147412,-9999,10082.53607975,-0.4786529541015625,0.83343505859375,-0.2704620361328125,10082.52727175,-2.247814270970625,-1.050711724130143,-0.9863421298766829,0.01909663528203964,-0.04884293675422668,0.004821904934942722,0.001419812440872192,-0.008970677852630615,0.01172488927841187,XArbitraryZVertical,0.5753796222818802,-0.1784451283755004,0.5846060951037896,-0.5434439370262537,-0.4787910282611847,0.8340133428573608,-0.2741912603378296,0,0,0,-1,-1,10078.943875375,unknown,2,2025-04-20T23:15:47.951+03:00,2025-04-20T21:57:49.637+03:00,29,4.348656,0,0,23.86625,0,0,2025-04-20T22:59:32.906+03:00,766872950.634814,0,-0.8999996,99.74757,1,0.95,2025-04-20T23:15:47.660+03:00,101,1.683333333333333,2025-04-19T12:19:17.059+03:00,0.05691595998002078,0
2025-04-20T23:15:51.558+03:00,1745180151.14359,40.985586866833,29.13735278228028,126.3665,-1,-1,-1,-1,30,22.26780044147412,-9999,10082.54615675,-0.474822998046875,0.8299407958984375,-0.2746734619140625,10082.53734775,-2.247581244186999,-1.051054491792539,-0.9863001040694822,0.01168985292315483,-0.05748968943953514,-0.0004141364188399166,-0.001080214977264404,-0.002309918403625488,0.006252884864807129,XArbitraryZVertical,0.5754981510940872,-0.1782683031855698,0.5844559835086749,-0.5435379865754107,-0.4789154827594757,0.8339901566505432,-0.2740445733070374,0,0,0,-1,-1,10078.943875375,unknown,2,2025-04-20T23:15:47.951+03:00,2025-04-20T21:57:49.637+03:00,29,4.348656,0,0,23.86625,0,0,2025-04-20T22:59:32.906+03:00,766872950.634814,0,-0.8999996,99.74757,1,0.95,2025-04-20T23:15:47.660+03:00,101,1.683333333333333,2025-04-19T12:19:17.059+03:00,0.05691595998002078,0
2025-04-20T23:15:51.568+03:00,1745180151.14359,40.985586866833,29.13735278228028,126.3665,-1,-1,-1,-1,30,22.26780044147412,-9999,10082.55623275,-0.4751129150390625,0.827880859375,-0.2742462158203125,10082.54742475,-2.247510061994389,-1.051597392987401,-0.9861968704437496,0.01024735067039728,-0.06019772589206696,-0.01106564886868,0.002332121133804321,-0.00170367956161499,0.0008474588394165039,XArbitraryZVertical,0.5756572003855088,-0.1780595834633088,0.5843091862034409,-0.5435956485220435,-0.4791387617588043,0.8339331746101379,-0.2738271355628967,0,0,0,-1,-1,10078.943875375,unknown,2,2025-04-20T23:15:47.951+03:00,2025-04-20T21:57:49.637+03:00,29,4.348656,0,0,23.86625,0,0,2025-04-20T22:59:32.906+03:00,766872950.634814,0,-0.8999996,99.74757,1,0.95,2025-04-20T23:15:47.660+03:00,101,1.683333333333333,2025-04-19T12:19:17.059+03:00,0.05691595998002078,0
2025-04-20T23:15:51.578+03:00,1745180151.14359,40.985586866833,29.13735278228028,126.3665,-1,-1,-1,-1,30,22.26780044147412,-9999,10082.56630875,-0.4734649658203125,0.8270721435546875,-0.2726898193359375,10082.55750075,-2.24754196381706,-1.05229388547708,-0.9860387102603509,0.004275478422641754,-0.06632885336875916,-0.01431417278945446,0.004163265228271484,-0.005919277667999268,-0.001755475997924805,XArbitraryZVertical,0.5758487090978102,-0.1778169604212107,0.5841617378693962,-0.5436307890068489,-0.4794440269470215,0.8338459134101868,-0.2735587954521179,0,0,0,-1,-1,10078.943875375,unknown,2,2025-04-20T23:15:47.951+03:00,2025-04-20T21:57:49.637+03:00,29,4.348656,0,0,23.86625,0,0,2025-04-20T22:59:32.906+03:00,766872950.634814,0,-0.8999996,99.74757,1,0.95,2025-04-20T23:15:47.660+03:00,101,1.683333333333333,2025-04-19T12:19:17.059+03:00,0.05691595998002078,0
2025-04-20T23:15:51.589+03:00,1745180151.14359,40.985586866833,29.13735278228028,126.3665,-1,-1,-1,-1,30,22.26780044147412,-9999,10082.57638575,-0.4776458740234375,0.8256072998046875,-0.2703094482421875,10082.56757675,-2.247643976393933,-1.053018415009524,-0.9859408528539837,-0.006152661517262459,-0.06213703379034996,-0.008204614743590355,0.005790263414382935,-0.005697429180145264,-0.0003840923309326172,XArbitraryZVertical,0.576045618035431,-0.1776107593297502,0.5840082365373001,-0.5436545058911978,-0.4797129929065704,0.8337919116020203,-0.2732517421245575,0,0,0,-1,-1,10078.943875375,unknown,2,2025-04-20T23:15:47.951+03:00,2025-04-20T21:57:49.637+03:00,29,4.348656,0,0,23.86625,0,0,2025-04-20T22:59:32.906+03:00,766872950.634814,0,-0.8999996,99.74757,1,0.95,2025-04-20T23:15:47.660+03:00,101,1.683333333333333,2025-04-19T12:19:17.059+03:00,0.05691595998002078,0
2025-04-20T23:15:51.602+03:00,1745180151.14359,40.985586866833,29.13735278228028,126.3665,-1,-1,-1,-1,30,22.26780044147412,-9999,10082.58646175,-0.4793853759765625,0.829742431640625,-0.2686004638671875,10082.57765375,-2.247826975085969,-1.053800745416841,-0.9859371978448502,-0.01216314919292927,-0.06115379557013512,-0.001976280007511377,0.004663854837417603,-0.0072975754737854,0.001927614212036133,XArbitraryZVertical,0.5762575671662529,-0.177449346112793,0.5838336767851832,-0.5436701345494862,-0.4799293279647827,0.8337898850440979,-0.2728779017925262,0,0,0,-1,-1,10078.943875375,unknown,2,2025-04-20T23:15:47.951+03:00,2025-04-20T21:57:49.637+03:00,29,4.348656,0,0,23.86625,0,0,2025-04-20T22:59:32.906+03:00,766872950.634814,0,-0.8999996,99.74757,1,0.95,2025-04-20T23:15:47.660+03:00,101,1.683333333333333,2025-04-19T12:19:17.059+03:00,0.05691595998002078,0
2025-04-20T23:15:51.608+03:00,1745180151.14359,40.985586866833,29.13735278228028,126.3665,-1,-1,-1,-1,30,22.26780044147412,-9999,10082.59653775,-0.481109619140625,0.837982177734375,-0.2687835693359375,10082.58772975,-2.248047917048963,-1.054605037972678,-0.9860211339518811,-0.01158784050494432,-0.0598762109875679,0.004795638844370842,0.001160085201263428,-0.006718337535858154,0.002376675605773926,XArbitraryZVertical,0.5764775241155297,-0.1773275465348112,0.5836383818057411,-0.5436863124329729,-0.4800876975059509,0.8338361978530884,-0.2724572122097015,0,0,0,-1,-1,10078.943875375,unknown,2,2025-04-20T23:15:47.951+03:00,2025-04-20T21:57:49.637+03:00,29,4.348656,0,0,23.86625,0,0,2025-04-20T22:59:32.906+03:00,766872950.634814,0,-0.8999996,99.74757,1,0.95,2025-04-20T23:15:47.660+03:00,101,1.683333333333333,2025-04-19T12:19:17.059+03:00,0.05691595998002078,0
2025-04-20T23:15:51.632+03:00,1745180151.14359,40.985586866833,29.13735278228028,126.3665,-1,-1,-1,-1,30,22.26780044147412,-9999,10082.60661475,-0.48797607421875,0.8453826904296875,-0.266815185546875,10082.59780575,-2.248117684848859,-1.055230145306785,-0.98614231393995,-0.0004347878857515752,-0.05310459434986115,0.01136246137320995,0.0004336237907409668,-1.031160354614258e-05,0.002911686897277832,XArbitraryZVertical,0.5766606437817852,-0.1772255806267268,0.583443135779014,-0.5437348635027217,-0.4801699221134186,0.8339030742645264,-0.2721071839332581,0,0,0,-1,-1,10078.943875375,unknown,2,2025-04-20T23:15:47.951+03:00,2025-04-20T21:57:49.637+03:00,29,4.348656,0,0,23.86625,0,0,2025-04-20T22:59:32.906+03:00,766872950.634814,0,-0.8999996,99.74757,1,0.95,2025-04-20T23:15:47.660+03:00,101,1.683333333333333,2025-04-19T12:19:17.059+03:00,0.05691595998002078,0
2025-04-20T23:15:51.633+03:00,1745180151.14359,40.985586866833,29.13735278228028,126.3665,-1,-1,-1,-1,30,22.26780044147412,-9999,10082.61669075,-0.488067626953125,0.8455810546875,-0.2614898681640625,10082.60788275,-2.247858475510987,-1.055461171603609,-0.9862110562251618,0.01950103603303432,-0.03674779087305069,0.01248255372047424,-0.003688395023345947,0.007825255393981934,0.00303196907043457,XArbitraryZVertical,0.5767548905365021,-0.1771150920364547,0.5832868747967418,-0.5438386572727187,-0.4801830351352692,0.8339410424232483,-0.2719680666923523,0,0,0,-1,-1,10078.943875375,unknown,2,2025-04-20T23:15:47.951+03:00,2025-04-20T21:57:49.637+03:00,29,4.348656,0,0,23.86625,0,0,2025-04-20T22:59:32.906+03:00,766872950.634814,0,-0.8999996,99.74757,1,0.95,2025-04-20T23:15:47.660+03:00,101,1.683333333333333,2025-04-19T12:19:17.059+03:00,0.05691595998002078,0
2025-04-20T23:15:51.639+03:00,1745180151.14359,40.985586866833,29.13735278228028,126.3665,-1,-1,-1,-1,30,22.26780044147412,-9999,10082.62676675,-0.4852142333984375,0.84490966796875,-0.261322021484375,10082.61795875,-2.247312491151845,-1.055306155489638,-0.9861930628148664,0.03412818163633347,-0.02274329401552677,0.01390334963798523,-0.008676707744598389,0.01212286949157715,0.008912086486816406,XArbitraryZVertical,0.5767570044840181,-0.1769927395251452,0.5831880712967615,-0.5439821137677535,-0.4801538288593292,0.8339310884475708,-0.2720498442649841,0,0,0,-1,-1,10078.943875375,unknown,2,2025-04-20T23:15:47.951+03:00,2025-04-20T21:57:49.637+03:00,29,4.348656,0,0,23.86625,0,0,2025-04-20T22:59:32.906+03:00,766872950.634814,0,-0.8999996,99.74757,1,0.95,2025-04-20T23:15:47.660+03:00,101,1.683333333333333,2025-04-19T12:19:17.059+03:00,0.05691595998002078,0
2025-04-20T23:15:51.649+03:00,1745180151.14359,40.985586866833,29.13735278228028,126.3665,-1,-1,-1,-1,30,22.26780044147412,-9999,10082.63684375,-0.4857940673828125,0.8451690673828125,-0.26348876953125,10082.62803475,-2.246476084842497,-1.054748262356635,-0.9861282172822573,0.04936179518699646,-0.006136019714176655,0.01671381667256355,-0.006553798913955688,0.01093798875808716,0.01138859987258911,XArbitraryZVertical,0.5766646236393118,-0.176877754797556,0.5831395498095905,-0.5441693970403472,-0.4800489842891693,0.8338953256607056,-0.2723443508148193,0,0,0,-1,-1,10078.943875375,unknown,2,2025-04-20T23:15:47.951+03:00,2025-04-20T21:57:49.637+03:00,29,4.348656,0,0,23.86625,0,0,2025-04-20T22:59:32.906+03:00,766872950.634814,0,-0.8999996,99.74757,1,0.95,2025-04-20T23:15:47.660+03:00,101,1.683333333333333,2025-04-19T12:19:17.059+03:00,0.05691595998002078,0
2025-04-20T23:15:51.659+03:00,1745180151.14359,40.985586866833,29.13735278228028,126.3665,-1,-1,-1,-1,30,22.26780044147412,-9999,10082.64691975,-0.484405517578125,0.8490447998046875,-0.263519287109375,10082.63811175,-2.245343038122371,-1.053779453820809,-0.9859461532627599,0.0741981714963913,0.008694324642419815,0.01586293801665306,-0.005327790975570679,0.01106899976730347,0.01018908619880676,XArbitraryZVertical,0.5764718328056535,-0.1767429003205938,0.5831615445196837,-0.5443938883273043,-0.479916900396347,0.8337948322296143,-0.272884339094162,0,0,0,-1,-1,10078.943875375,unknown,2,2025-04-20T23:15:47.951+03:00,2025-04-20T21:57:49.637+03:00,29,4.348656,0,0,23.86625,0,0,2025-04-20T22:59:32.906+03:00,766872950.634814,0,-0.8999996,99.74757,1,0.95,2025-04-20T23:15:47.660+03:00,101,1.683333333333333,2025-04-19T12:19:17.059+03:00,0.05691595998002078,0
2025-04-20T23:15:51.669+03:00,1745180151.14359,40.985586866833,29.13735278228028,126.3665,-1,-1,-1,-1,30,22.26780044147412,-9999,10082.65699575,-0.483917236328125,0.8455352783203125,-0.26507568359375,10082.64818775,-2.243866574101676,-1.052404153882436,-0.9856425401565858,0.09658896178007126,0.01918265223503113,0.01036151219159365,-0.005178540945053101,0.01338815689086914,0.009875655174255371,XArbitraryZVertical,0.5761836036716483,-0.1765720466963025,0.5832409646960788,-0.5446693115139081,-0.479761004447937,0.8336271643638611,-0.2736695408821106,0,0,0,-1,-1,10078.943875375,unknown,2,2025-04-20T23:15:47.951+03:00,2025-04-20T21:57:49.637+03:00,29,4.348656,0,0,23.86625,0,0,2025-04-20T22:59:32.906+03:00,766872950.634814,0,-0.8999996,99.74757,1,0.95,2025-04-20T23:15:47.660+03:00,101,1.683333333333333,2025-04-19T12:19:17.059+03:00,0.05691595998002078,0
2025-04-20T23:15:51.679+03:00,1745180151.14359,40.985586866833,29.13735278228028,126.3665,-1,-1,-1,-1,30,22.26780044147412,-9999,10082.66707275,-0.486907958984375,0.8410797119140625,-0.267913818359375,10082.65826375,-2.242160237370585,-1.050713848303911,-0.9852397101183297,0.1059859246015549,0.03164411336183548,0.01540740393102169,-0.005091100931167603,0.01557904481887817,0.01077672839164734,XArbitraryZVertical,0.575817602372001,-0.1763820963387184,0.5833757930088995,-0.5449733562615955,-0.4795890152454376,0.8334046006202698,-0.2746468782424927,0,0,0,-1,-1,10078.943875375,unknown,2,2025-04-20T23:15:47.951+03:00,2025-04-20T21:57:49.637+03:00,29,4.348656,0,0,23.86625,0,0,2025-04-20T22:59:32.906+03:00,766872950.634814,0,-0.8999996,99.74757,1,0.95,2025-04-20T23:15:47.660+03:00,101,1.683333333333333,2025-04-19T12:19:17.059+03:00,0.05691595998002078,0
2025-04-20T23:15:51.689+03:00,1745180151.14359,40.985586866833,29.13735278228028,126.3665,-1,-1,-1,-1,30,22.26780044147412,-9999,10082.67714875,-0.4925537109375,0.8362884521484375,-0.2682342529296875,10082.66834075,-2.240180446225646,-1.048678593466079,-0.9848117776557176,0.1250184774398804,0.0449972078204155,0.0215944591909647,-0.005448758602142334,0.009895265102386475,0.008145928382873535,XArbitraryZVertical,0.5753729996097995,-0.1761980705954175,0.5835419041066671,-0.5453245978431518,-0.4793382287025452,0.8331680297851562,-0.2758002877235413,0,0,0,-1,-1,10078.943875375,unknown,2,2025-04-20T23:15:47.951+03:00,2025-04-20T21:57:49.637+03:00,29,4.348656,0,0,23.86625,0,0,2025-04-20T22:59:32.906+03:00,766872950.634814,0,-0.8999996,99.74757,1,0.95,2025-04-20T23:15:47.660+03:00,101,1.683333333333333,2025-04-19T12:19:17.059+03:00,0.05691595998002078,0
2025-04-20T23:15:51.699+03:00,1745180151.14359,40.985586866833,29.13735278228028,126.3665,-1,-1,-1,-1,30,22.26780044147412,-9999,10082.68722475,-0.4930877685546875,0.8380889892578125,-0.270904541015625,10082.67841675,-2.237803583319036,-1.046214360357447,-0.9843329462740261,0.1497589647769928,0.0541241243481636,0.02551836147904396,-0.0112777054309845,0.005689382553100586,0.008824169635772705,XArbitraryZVertical,0.5748344035125769,-0.1759976505030945,0.5837363943447911,-0.5457490400681464,-0.4790024161338806,0.8329030871391296,-0.2771804630756378,0,0,0,-1,-1,10078.943875375,unknown,2,2025-04-20T23:15:47.951+03:00,2025-04-20T21:57:49.637+03:00,29,4.348656,0,0,23.86625,0,0,2025-04-20T22:59:32.906+03:00,766872950.634814,0,-0.8999996,99.74757,1,0.95,2025-04-20T23:15:47.660+03:00,101,1.683333333333333,2025-04-19T12:19:17.059+03:00,0.05691595998002078,0
2025-04-20T23:15:51.709+03:00,1745180151.14359,40.985586866833,29.13735278228028,126.3665,-1,-1,-1,-1,30,22.26780044147412,-9999,10082.69730175,-0.4880218505859375,0.841827392578125,-0.27459716796875,10082.68849275,-2.235036981901849,-1.043358920483394,-0.9837206363783505,0.1758617460727692,0.05939005687832832,0.0246154498308897,-0.01561319828033447,0.002915501594543457,0.009806543588638306,XArbitraryZVertical,0.5742067576177617,-0.175740648820389,0.5839728611228863,-0.5462392669432402,-0.4786494374275208,0.832564115524292,-0.2788036465644836,0,0,0,-1,-1,10078.943875375,unknown,2,2025-04-20T23:15:47.951+03:00,2025-04-20T21:57:49.637+03:00,29,4.348656,0,0,23.86625,0,0,2025-04-20T22:59:32.906+03:00,766872950.634814,0,-0.8999996,99.74757,1,0.95,2025-04-20T23:15:47.660+03:00,101,1.683333333333333,2025-04-19T12:19:17.059+03:00,0.05691595998002078,0
2025-04-20T23:15:51.719+03:00,1745180151.14359,40.985586866833,29.13735278228028,126.3665,-1,-1,-1,-1,30,22.26780044147412,-9999,10082.70737775,-0.4835052490234375,0.839599609375,-0.277862548828125,10082.69856975,-2.231991810853768,-1.040288684198606,-0.9830196213587583,0.1908193975687027,0.05370021611452103,0.02705144323408604,-0.01209238171577454,0.007927477359771729,0.007160276174545288,XArbitraryZVertical,0.5735339011277063,-0.1754288459577711,0.5842181829956444,-0.5467838381825405,-0.4782945513725281,0.8321755528450012,-0.2805671691894531,0,0,0,-1,-1,10078.943875375,unknown,2,2025-04-20T23:15:47.951+03:00,2025-04-20T21:57:49.637+03:00,29,4.348656,0,0,23.86625,0,0,2025-04-20T22:59:32.906+03:00,766872950.634814,0,-0.8999996,99.74757,1,0.95,2025-04-20T23:15:47.660+03:00,101,1.683333333333333,2025-04-19T12:19:17.059+03:00,0.05691595998002078,0
2025-04-20T23:15:51.729+03:00,1745180151.14359,40.985586866833,29.13735278228028,126.3665,-1,-1,-1,-1,30,22.26780044147412,-9999,10082.71745375,-0.4822845458984375,0.83868408203125,-0.2836151123046875,10082.70864575,-2.228780690461752,-1.0371022604995,-0.9822980440225064,0.199125662446022,0.0530790314078331,0.02812875807285309,-0.006933033466339111,0.009472250938415527,0.006790995597839355,XArbitraryZVertical,0.5728386707646843,-0.1750949915257071,0.5844552119140138,-0.5473660473879364,-0.4779149889945984,0.8317752480506897,-0.282395213842392,0,0,0,-1,-1,10078.943875375,unknown,2,2025-04-20T23:15:47.951+03:00,2025-04-20T21:57:49.637+03:00,29,4.348656,0,0,23.86625,0,0,2025-04-20T22:59:32.906+03:00,766872950.634814,0,-0.8999996,99.74757,1,0.95,2025-04-20T23:15:47.660+03:00,101,1.683333333333333,2025-04-19T12:19:17.059+03:00,0.05691595998002078,0
2025-04-20T23:15:51.739+03:00,1745180151.14359,40.985586866833,29.13735278228028,126.3665,-1,-1,-1,-1,30,22.26780044147412,-9999,10082.72753075,-0.4784088134765625,0.8410186767578125,-0.282318115234375,10082.71872175,-2.225278171833085,-1.033681066599999,-0.9814502883660932,0.2249713689088821,0.04883848130702972,0.0251886285841465,-0.004412353038787842,0.007257580757141113,0.003871768712997437,XArbitraryZVertical,0.5720902884122239,-0.1746942092422768,0.5847128108502855,-0.5480013107809186,-0.4775517284870148,0.8313043117523193,-0.2843892574310303,0,0,0,-1,-1,10078.943875375,unknown,2,2025-04-20T23:15:47.951+03:00,2025-04-20T21:57:49.637+03:00,29,4.348656,0,0,23.86625,0,0,2025-04-20T22:59:32.906+03:00,766872950.634814,0,-0.8999996,99.74757,1,0.95,2025-04-20T23:15:47.660+03:00,101,1.683333333333333,2025-04-19T12:19:17.059+03:00,0.05691595998002078,0
2025-04-20T23:15:51.750+03:00,1745180151.14359,40.985586866833,29.13735278228028,126.3665,-1,-1,-1,-1,30,22.26780044147412,-9999,10082.73760675,-0.474639892578125,0.8402557373046875,-0.2884368896484375,10082.72879875,-2.2215576854784,-1.030115950175764,-0.9804814408091905,0.2367025315761566,0.05063365399837494,0.01820472069084644,-0.003487765789031982,0.00901716947555542,0.003087729215621948,XArbitraryZVertical,0.5713085220291211,-0.1742250878044348,0.5849831748321348,-0.5486772325691792,-0.4772250652313232,0.830765426158905,-0.2865043878555298,0,0,0,-1,-1,10078.943875375,unknown,2,2025-04-20T23:15:47.951+03:00,2025-04-20T21:57:49.637+03:00,29,4.348656,0,0,23.86625,0,0,2025-04-20T22:59:32.906+03:00,766872950.634814,0,-0.8999996,99.74757,1,0.95,2025-04-20T23:15:47.660+03:00,101,1.683333333333333,2025-04-19T12:19:17.059+03:00,0.05691595998002078,0
2025-04-20T23:15:51.760+03:00,1745180151.14359,40.985586866833,29.13735278228028,126.3665,-1,-1,-1,-1,30,22.26780044147412,-9999,10082.74768275,-0.4730377197265625,0.8311920166015625,-0.290069580078125,10082.73887475,-2.21769054447219,-1.026407446552834,-0.9793539974838408,0.252813845872879,0.05372717976570129,0.008396033197641373,0.0006115138530731201,0.01152211427688599,0.004135012626647949,XArbitraryZVertical,0.5704840568202237,-0.1736932650545047,0.5852959648519227,-0.5493698004778587,-0.4769603610038757,0.8301373720169067,-0.2887571752071381,0,0,0,-1,-1,10078.943875375,unknown,2,2025-04-20T23:15:47.951+03:00,2025-04-20T21:57:49.637+03:00,29,4.348656,0,0,23.86625,0,0,2025-04-20T22:59:32.906+03:00,766872950.634814,0,-0.8999996,99.74757,1,0.95,2025-04-20T23:15:47.660+03:00,101,1.683333333333333,2025-04-19T12:19:17.059+03:00,0.05691595998002078,0
2025-04-20T23:15:51.770+03:00,1745180151.14359,40.985586866833,29.13735278228028,126.3665,-1,-1,-1,-1,30,22.26780044147412,-9999,10082.75775975,-0.4722442626953125,0.822845458984375,-0.2891387939453125,10082.74895075,-2.213772237077727,-1.022588538584887,-0.9780859283539116,0.2560095191001892,0.063230000436306,0.002794007305055857,0.002753078937530518,0.006980717182159424,0.0008111894130706787,XArbitraryZVertical,0.5696187298250119,-0.1731244662234233,0.5856623297221374,-0.550056274043238,-0.4767520725727081,0.8294296860694885,-0.2911248505115509,0,0,0,-1,-1,10078.943875375,unknown,2,2025-04-20T23:15:47.951+03:00,2025-04-20T21:57:49.637+03:00,29,4.348656,0,0,23.86625,0,0,2025-04-20T22:59:32.906+03:00,766872950.634814,0,-0.8999996,99.74757,1,0.95,2025-04-20T23:15:47.660+03:00,101,1.683333333333333,2025-04-19T12:19:17.059+03:00,0.05691595998002078,0
2025-04-20T23:15:51.780+03:00,1745180151.14359,40.985586866833,29.13735278228028,126.3665,-1,-1,-1,-1,30,22.26780044147412,-9999,10082.76783575,-0.473724365234375,0.8252410888671875,-0.2930145263671875,10082.75902775,-2.209893148813744,-1.018745148770531,-0.976737137257038,0.2621811032295227,0.06816910207271576,-0.002623927546665072,0.004322320222854614,-0.003144562244415283,0.003349900245666504,XArbitraryZVertical,0.5687333975687205,-0.172544403572647,0.5860660001567383,-0.550724338090936,-0.4765818119049072,0.8286754488945007,-0.2935414910316467,0,0,0,-1,-1,10078.943875375,unknown,2,2025-04-20T23:15:47.951+03:00,2025-04-20T21:57:49.637+03:00,29,4.348656,0,0,23.86625,0,0,2025-04-20T22:59:32.906+03:00,766872950.634814,0,-0.8999996,99.74757,1,0.95,2025-04-20T23:15:47.660+03:00,101,1.683333333333333,2025-04-19T12:19:17.059+03:00,0.05691595998002078,0
2025-04-20T23:15:51.790+03:00,1745180151.14359,40.985586866833,29.13735278228028,126.3665,-1,-1,-1,-1,30,22.26780044147412,-9999,10082.77791175,-0.47479248046875,0.826416015625,-0.29522705078125,10082.76910375,-2.205962850379237,-1.014829104372921,-0.9753289178532408,0.2666091620922089,0.07022106647491455,0.001026999903842807,0.003412127494812012,-0.003896713256835938,0.005661696195602417,XArbitraryZVertical,0.5678229638306463,-0.1719492304421726,0.5864894922280078,-0.551398611686694,-0.4764192700386047,0.8278864026069641,-0.2960210740566254,0,0,0,-1,-1,10078.943875375,unknown,2,2025-04-20T23:15:47.951+03:00,2025-04-20T21:57:49.637+03:00,29,4.348656,0,0,23.86625,0,0,2025-04-20T22:59:32.906+03:00,766872950.634814,0,-0.8999996,99.74757,1,0.95,2025-04-20T23:15:47.660+03:00,101,1.683333333333333,2025-04-19T12:19:17.059+03:00,0.05691595998002078,0
2025-04-20T23:15:51.800+03:00,1745180151.14359,40.985586866833,29.13735278228028,126.3665,-1,-1,-1,-1,30,22.26780044147412,-9999,10082.78798875,-0.4738311767578125,0.8272552490234375,-0.299591064453125,10082.77917975,-2.202003354890147,-1.0108821013578,-0.9739249865551117,0.2606631219387054,0.07132521271705627,0.001964432653039694,0.001668006181716919,-0.0008500814437866211,0.004281133413314819,XArbitraryZVertical,0.5669021010637253,-0.171358908676409,0.5869092850535059,-0.5520828697586941,-0.476231575012207,0.8270981311798096,-0.2985162734985352,0,0,0,-1,-1,10078.943875375,unknown,2,2025-04-20T23:15:47.951+03:00,2025-04-20T21:57:49.637+03:00,29,4.348656,0,0,23.86625,0,0,2025-04-20T22:59:32.906+03:00,766872950.634814,0,-0.8999996,99.74757,1,0.95,2025-04-20T23:15:47.660+03:00,101,1.683333333333333,2025-04-19T12:19:17.059+03:00,0.05691595998002078,0
2025-04-20T23:15:51.810+03:00,1745180151.14359,40.985586866833,29.13735278228028,126.3665,-1,-1,-1,-1,30,22.26780044147412,-9999,10082.79806475,-0.475006103515625,0.8291015625,-0.3002777099609375,10082.78925675,-2.198050711281546,-1.006980004807995,-0.9726199076859463,0.2597857415676117,0.06316808611154556,0.01409293431788683,0.00215911865234375,0.0002045631408691406,0.002929538488388062,XArbitraryZVertical,0.5659971818018183,-0.1708003688720561,0.5872871592044984,-0.5527820689982698,-0.475974977016449,0.8263639211654663,-0.3009488582611084,0,0,0,-1,-1,10078.943875375,unknown,2,2025-04-20T23:15:47.951+03:00,2025-04-20T21:57:49.637+03:00,29,4.348656,0,0,23.86625,0,0,2025-04-20T22:59:32.906+03:00,766872950.634814,0,-0.8999996,99.74757,1,0.95,2025-04-20T23:15:47.660+03:00,101,1.683333333333333,2025-04-19T12:19:17.059+03:00,0.05691595998002078,0
2025-04-20T23:15:51.820+03:00,1745180151.14359,40.985586866833,29.13735278228028,126.3665,-1,-1,-1,-1,30,22.26780044147412,-9999,10082.80814075,-0.4727935791015625,0.831817626953125,-0.3014678955078125,10082.79933275,-2.194081403483751,-1.003132928793456,-0.9713226848608147,0.2584288418292999,0.05530057474970818,0.01347747817635536,0.001291096210479736,0.002568542957305908,0.002740621566772461,XArbitraryZVertical,0.5651066023539707,-0.1702279032798936,0.5876395426852735,-0.5534950464286298,-0.4757173657417297,0.8256326913833618,-0.3033539652824402,0,0,0,-1,-1,10078.943875375,unknown,2,2025-04-20T23:15:47.951+03:00,2025-04-20T21:57:49.637+03:00,29,4.348656,0,0,23.86625,0,0,2025-04-20T22:59:32.906+03:00,766872950.634814,0,-0.8999996,99.74757,1,0.95,2025-04-20T23:15:47.660+03:00,101,1.683333333333333,2025-04-19T12:19:17.059+03:00,0.05691595998002078,0
2025-04-20T23:15:51.830+03:00,1745180151.14359,40.985586866833,29.13735278228028,126.3665,-1,-1,-1,-1,30,22.26780044147412,-9999,10082.81821775,-0.4684295654296875,0.8311004638671875,-0.300048828125,10082.80940875,-2.190053000763982,-0.9992936111897757,-0.970081602566814,0.2574656009674072,0.05216896533966064,0.01769725605845451,0.00121307373046875,0.005283474922180176,0.004355758428573608,XArbitraryZVertical,0.5642240331015461,-0.1696621255464566,0.587954034497034,-0.5542344364648754,-0.4754104018211365,0.8249318599700928,-0.3057320117950439,0,0,0,-1,-1,10078.943875375,unknown,2,2025-04-20T23:15:47.951+03:00,2025-04-20T21:57:49.637+03:00,29,4.348656,0,0,23.86625,0,0,2025-04-20T22:59:32.906+03:00,766872950.634814,0,-0.8999996,99.74757,1,0.95,2025-04-20T23:15:47.660+03:00,101,1.683333333333333,2025-04-19T12:19:17.059+03:00,0.05691595998002078,0
2025-04-20T23:15:51.840+03:00,1745180151.14359,40.985586866833,29.13735278228028,126.3665,-1,-1,-1,-1,30,22.26780044147412,-9999,10082.82829375,-0.463409423828125,0.8237457275390625,-0.3048248291015625,10082.81948575,-2.18609598586993,-0.9955602508373022,-0.9687812857315182,0.257741242647171,0.04638804122805595,0.009001769125461578,0.004965811967849731,0.009177684783935547,0.007383197546005249,XArbitraryZVertical,0.5633582053284191,-0.1690665598562832,0.5882718249014113,-0.5549594991345869,-0.4751653373241425,0.8241961598396301,-0.3080880641937256,0,0,0,-1,-1,10078.943875375,unknown,2,2025-04-20T23:15:47.951+03:00,2025-04-20T21:57:49.637+03:00,29,4.348656,0,0,23.86625,0,0,2025-04-20T22:59:32.906+03:00,766872950.634814,0,-0.8999996,99.74757,1,0.95,2025-04-20T23:15:47.660+03:00,101,1.683333333333333,2025-04-19T12:19:17.059+03:00,0.05691595998002078,0
2025-04-20T23:15:51.850+03:00,1745180151.14359,40.985586866833,29.13735278228028,126.3665,-1,-1,-1,-1,30,22.26780044147412,-9999,10082.83836975,-0.464019775390625,0.819091796875,-0.3099822998046875,10082.82956175,-2.182166397671318,-0.9918383271398974,-0.9674958775989942,0.2578315138816833,0.051279466599226,0.01408867351710796,0.009875029325485229,0.004565834999084473,0.00820314884185791,XArbitraryZVertical,0.5624909291569121,-0.1684843598432617,0.5885866945793561,-0.5556820670547388,-0.4749018847942352,0.8234675526618958,-0.310433954000473,0,0,0,-1,-1,10078.943875375,unknown,2,2025-04-20T23:15:47.951+03:00,2025-04-20T21:57:49.637+03:00,29,4.348656,0,0,23.86625,0,0,2025-04-20T22:59:32.906+03:00,766872950.634814,0,-0.8999996,99.74757,1,0.95,2025-04-20T23:15:47.660+03:00,101,1.683333333333333,2025-04-19T12:19:17.059+03:00,0.05691595998002078,0
2025-04-20T23:15:51.860+03:00,1745180151.14359,40.985586866833,29.13735278228028,126.3665,-1,-1,-1,-1,30,22.26780044147412,-9999,10082.84844675,-0.4631500244140625,0.8191070556640625,-0.317657470703125,10082.83963775,-2.178337545646782,-0.9881204658289461,-0.9662131024363561,0.251135528087616,0.06394839286804199,0.007820123806595802,0.01153704524040222,-0.001877367496490479,0.005268067121505737,XArbitraryZVertical,0.5616130174155911,-0.1679334334366984,0.5889243205675463,-0.5563785797477058,-0.4746260046958923,0.8227390646934509,-0.3127783536911011,0,0,0,-1,-1,10078.943875375,unknown,2,2025-04-20T23:15:47.951+03:00,2025-04-20T21:57:49.637+03:00,29,4.348656,0,0,23.86625,0,0,2025-04-20T22:59:32.906+03:00,766872950.634814,0,-0.8999996,99.74757,1,0.95,2025-04-20T23:15:47.660+03:00,101,1.683333333333333,2025-04-19T12:19:17.059+03:00,0.05691595998002078,0
2025-04-20T23:15:51.871+03:00,1745180151.14359,40.985586866833,29.13735278228028,126.3665,-1,-1,-1,-1,30,22.26780044147412,-9999,10082.85852275,-0.4627532958984375,0.821197509765625,-0.331634521484375,10082.84971475,-2.174595564542954,-0.9843410069342364,-0.9648710413848486,0.2549724280834198,0.08020546287298203,0.002850965596735477,0.009775489568710327,-0.002761721611022949,0.001750051975250244,XArbitraryZVertical,0.560701107160307,-0.1674033169486027,0.5893168546585135,-0.5570421370480646,-0.4743598103523254,0.8219754695892334,-0.3151808083057404,0,0,0,-1,-1,10078.943875375,unknown,2,2025-04-20T23:15:47.951+03:00,2025-04-20T21:57:49.637+03:00,29,4.348656,0,0,23.86625,0,0,2025-04-20T22:59:32.906+03:00,766872950.634814,0,-0.8999996,99.74757,1,0.95,2025-04-20T23:15:47.660+03:00,101,1.683333333333333,2025-04-19T12:19:17.059+03:00,0.05691595998002078,0
2025-04-20T23:15:51.881+03:00,1745180151.14359,40.985586866833,29.13735278228028,126.3665,-1,-1,-1,-1,30,22.26780044147412,-9999,10082.86859875,-0.4639434814453125,0.827239990234375,-0.347442626953125,10082.85979075,-2.171028446049744,-0.9805261346291515,-0.9635294040240816,0.2309059500694275,0.09853413701057434,0.001576376846060157,0.0114995539188385,-0.001432359218597412,-0.005533725023269653,XArbitraryZVertical,0.5597605466989286,-0.1669351560876214,0.5897645771437975,-0.5576543093672518,-0.4740696549415588,0.8212106227874756,-0.3176015615463257,0,0,0,-1,-1,10078.943875375,unknown,2,2025-04-20T23:15:47.951+03:00,2025-04-20T21:57:49.637+03:00,29,4.348656,0,0,23.86625,0,0,2025-04-20T22:59:32.906+03:00,766872950.634814,0,-0.8999996,99.74757,1,0.95,2025-04-20T23:15:47.660+03:00,101,1.683333333333333,2025-04-19T12:19:17.059+03:00,0.05691595998002078,0
2025-04-20T23:15:51.891+03:00,1745180151.14359,40.985586866833,29.13735278228028,126.3665,-1,-1,-1,-1,30,22.26780044147412,-9999,10082.87867575,-0.4644012451171875,0.82769775390625,-0.3546295166015625,10082.86986675,-2.168038871146629,-0.9769822505884296,-0.9622910211867474,0.1886849999427795,0.1191038563847542,-0.01598557271063328,0.01052698493003845,0.002586185932159424,-0.01981210708618164,XArbitraryZVertical,0.5588572363422081,-0.1665963287730406,0.5902660972046203,-0.5581309443269792,-0.4737838208675385,0.8205033540725708,-0.319848507642746,0,0,0,-1,-1,10078.943875375,unknown,2,2025-04-20T23:15:47.951+03:00,2025-04-20T21:57:49.637+03:00,29,4.348656,0,0,23.86625,0,0,2025-04-20T22:59:32.906+03:00,766872950.634814,0,-0.8999996,99.74757,1,0.95,2025-04-20T23:15:47.660+03:00,101,1.683333333333333,2025-04-19T12:19:17.059+03:00,0.05691595998002078,0
2025-04-20T23:15:51.919+03:00,1745180151.14359,40.985586866833,29.13735278228028,126.3665,-1,-1,-1,-1,30,22.26780044147412,-9999,10082.88875175,-0.46282958984375,0.8124237060546875,-0.3622894287109375,10082.87994375,-2.166183684397152,-0.974231665521102,-0.9613152517693829,0.1039405539631844,0.1261969208717346,-0.02675672806799412,0.008201777935028076,0.01019388437271118,-0.03025227785110474,XArbitraryZVertical,0.5581141421774194,-0.1664589140736294,0.5907873803416231,-0.5583638578963784,-0.4735642969608307,0.8199451565742493,-0.321600079536438,0,0,0,-1,-1,10078.943875375,unknown,2,2025-04-20T23:15:47.951+03:00,2025-04-20T21:57:49.637+03:00,29,4.348656,0,0,23.86625,0,0,2025-04-20T22:59:32.906+03:00,766872950.634814,0,-0.8999996,99.74757,1,0.95,2025-04-20T23:15:47.660+03:00,101,1.683333333333333,2025-04-19T12:19:17.059+03:00,0.05691595998002078,0
2025-04-20T23:15:51.923+03:00,1745180151.14359,40.985586866833,29.13735278228028,126.3665,-1,-1,-1,-1,30,22.26780044147412,-9999,10082.89882775,-0.47991943359375,0.81689453125,-0.3745880126953125,10082.89001975,-2.165177047982457,-0.972161344414356,-0.9606153762049228,0.07803632318973541,0.1276982128620148,-0.02365064807236195,0.01103013753890991,0.0009664297103881836,-0.03473234176635742,XArbitraryZVertical,0.5575243251686069,-0.1664784346504224,0.5912780842703127,-0.5584278710252634,-0.4733714461326599,0.8195443153381348,-0.3229031264781952,0,0,0,-1,-1,10078.943875375,unknown,2,2025-04-20T23:15:47.951+03:00,2025-04-20T21:57:49.637+03:00,29,4.348656,0,0,23.86625,0,0,2025-04-20T22:59:32.906+03:00,766872950.634814,0,-0.8999996,99.74757,1,0.95,2025-04-20T23:15:47.660+03:00,101,1.683333333333333,2025-04-19T12:19:17.059+03:00,0.05691595998002078,0
2025-04-20T23:15:51.925+03:00,1745180151.14359,40.985586866833,29.13735278228028,126.3665,-1,-1,-1,-1,30,22.26780044147412,-9999,10082.90890475,-0.4906005859375,0.83026123046875,-0.385162353515625,10082.90009575,-2.164057943621009,-0.9699350949797,-0.9598212969925287,0.1245295181870461,0.1327310502529144,-0.03577841818332672,0.003125876188278198,-0.008420169353485107,-0.04377895593643188,XArbitraryZVertical,0.5568884124813188,-0.1664730630155064,0.591806232343155,-0.5585045936613441,-0.4731881320476532,0.8190890550613403,-0.3243240416049957,0,0,0,-1,-1,10078.943875375,unknown,2,2025-04-20T23:15:47.951+03:00,2025-04-20T21:57:49.637+03:00,29,4.348656,0,0,23.86625,0,0,2025-04-20T22:59:32.906+03:00,766872950.634814,0,-0.8999996,99.74757,1,0.95,2025-04-20T23:15:47.660+03:00,101,1.683333333333333,2025-04-19T12:19:17.059+03:00,0.05691595998002078,0
2025-04-20T23:15:51.931+03:00,1745180151.14359,40.985586866833,29.13735278228028,126.3665,-1,-1,-1,-1,30,22.26780044147412,-9999,10082.91898075,-0.4992828369140625,0.8438262939453125,-0.408233642578125,10082.91017275,-2.162281704333714,-0.9671218146665389,-0.958635324810566,0.1874043494462967,0.1334991008043289,-0.04632799699902534,-0.01328542828559875,0.007000744342803955,-0.05257898569107056,XArbitraryZVertical,0.5560969414717765,-0.1662937399885979,0.5924217635064667,-0.5586940239139401,-0.4730732142925262,0.8184081315994263,-0.3262051641941071,0,0,0,-1,-1,10078.943875375,unknown,2,2025-04-20T23:15:47.951+03:00,2025-04-20T21:57:49.637+03:00,29,4.348656,0,0,23.86625,0,0,2025-04-20T22:59:32.906+03:00,766872950.634814,0,-0.8999996,99.74757,1,0.95,2025-04-20T23:15:47.660+03:00,101,1.683333333333333,2025-04-19T12:19:17.059+03:00,0.05691595998002078,0
2025-04-20T23:15:51.942+03:00,1745180151.14359,40.985586866833,29.13735278228028,126.3665,-1,-1,-1,-1,30,22.26780044147412,-9999,10082.92905675,-0.4962158203125,0.8661956787109375,-0.4386444091796875,10082.92024875,-2.159743028130442,-0.9637846828366429,-0.9568951165241478,0.2443986535072327,0.1141192838549614,-0.07843214273452759,-0.02179819345474243,0.01831692457199097,-0.06711214780807495,XArbitraryZVertical,0.5551607512727258,-0.1658298706885402,0.5931216127246449,-0.5590203807692279,-0.4731511175632477,0.8174068927764893,-0.3285939991474152,0,0,0,-1,-1,10078.943875375,unknown,2,2025-04-20T23:15:47.951+03:00,2025-04-20T21:57:49.637+03:00,29,4.348656,0,0,23.86625,0,0,2025-04-20T22:59:32.906+03:00,766872950.634814,0,-0.8999996,99.74757,1,0.95,2025-04-20T23:15:47.660+03:00,101,1.683333333333333,2025-04-19T12:19:17.059+03:00,0.05691595998002078,0
2025-04-20T23:15:51.951+03:00,1745180151.14359,40.985586866833,29.13735278228028,126.3665,-1,-1,-1,-1,30,22.26780044147412,-9999,10082.93913375,-0.48919677734375,0.8845977783203125,-0.487274169921875,10082.93032475,-2.157127102593479,-0.960719608842047,-0.9546742455777981,0.2650697827339172,0.0694553405046463,-0.1070841923356056,-0.02631065249443054,0.03885483741760254,-0.09105253219604492,XArbitraryZVertical,0.5542634086126582,-0.1650792312039809,0.5938547330837352,-0.5593544182479039,-0.4736283123493195,0.8161255121231079,-0.3310818374156952,0,0,0,-1,-1,10078.943875375,unknown,2,2025-04-20T23:15:47.951+03:00,2025-04-20T21:57:49.637+03:00,29,4.348656,0,0,23.86625,0,0,2025-04-20T22:59:32.906+03:00,766872950.634814,0,-0.8999996,99.74757,1,0.95,2025-04-20T23:15:47.660+03:00,101,1.683333333333333,2025-04-19T12:19:17.059+03:00,0.05691595998002078,0
2025-04-20T23:15:51.961+03:00,1745180151.14359,40.985586866833,29.13735278228028,126.3665,-1,-1,-1,-1,30,22.26780044147412,-9999,10082.94920975,-0.494049072265625,0.883758544921875,-0.5316619873046875,10082.94040175,-2.153866944585459,-0.9575316362540778,-0.9519466045803339,0.3607938885688782,0.0345064140856266,-0.1231284067034721,-0.01608934998512268,0.06292563676834106,-0.1274946331977844,XArbitraryZVertical,0.5533298862263137,-0.1639847512631536,0.5945789978252016,-0.5598310404049427,-0.4743891358375549,0.8145462870597839,-0.3338700830936432,0,0,0,-1,-1,10078.943875375,unknown,2,2025-04-20T23:15:47.951+03:00,2025-04-20T21:57:49.637+03:00,29,4.348656,0,0,23.86625,0,0,2025-04-20T22:59:32.906+03:00,766872950.634814,0,-0.8999996,99.74757,1,0.95,2025-04-20T23:15:47.660+03:00,101,1.683333333333333,2025-04-19T12:19:17.059+03:00,0.05691595998002078,0
2025-04-20T23:15:51.971+03:00,1745180151.14359,40.985586866833,29.13735278228028,126.3665,-1,-1,-1,-1,30,22.26780044147412,-9999,10082.95928575,-0.48822021484375,0.886749267578125,-0.564697265625,10082.95047775,-2.149064256115796,-0.9533421437961184,-0.9480391619136718,0.5356945991516113,0.01935888640582561,-0.2028438746929169,-0.01575526595115662,0.07359087467193604,-0.1743901968002319,XArbitraryZVertical,0.5521036485218621,-0.1622781591913598,0.5954692307161628,-0.5605922509710618,-0.475577712059021,0.812273383140564,-0.3376947343349457,0,0,0,-1,-1,10078.943875375,unknown,2,2025-04-20T23:15:47.951+03:00,2025-04-20T21:57:49.637+03:00,29,4.348656,0,0,23.86625,0,0,2025-04-20T22:59:32.906+03:00,766872950.634814,0,-0.8999996,99.74757,1,0.95,2025-04-20T23:15:47.660+03:00,101,1.683333333333333,2025-04-19T12:19:17.059+03:00,0.05691595998002078,0
2025-04-20T23:15:51.981+03:00,1745180151.14359,40.985586866833,29.13735278228028,126.3665,-1,-1,-1,-1,30,22.26780044147412,-9999,10082.96936175,-0.475006103515625,0.891693115234375,-0.5915679931640625,10082.96055375,-2.143504627616872,-0.9490128357277257,-0.9428911891315298,0.5700168609619141,-0.06656986474990845,-0.2430331110954285,-0.01567539572715759,0.07297271490097046,-0.2062039375305176,XArbitraryZVertical,0.5507602961260857,-0.1599133256903043,0.5965197490073734,-0.5614756565820951,-0.4775038957595825,0.8092598915100098,-0.3421816527843475,0,0,0,-1,-1,10078.943875375,unknown,2,2025-04-20T23:15:47.951+03:00,2025-04-20T21:57:49.637+03:00,29,4.348656,0,0,23.86625,0,0,2025-04-20T22:59:32.906+03:00,766872950.634814,0,-0.8999996,99.74757,1,0.95,2025-04-20T23:15:47.660+03:00,101,1.683333333333333,2025-04-19T12:19:17.059+03:00,0.05691595998002078,0
2025-04-20T23:15:51.992+03:00,1745180151.14359,40.985586866833,29.13735278228028,126.3665,-1,-1,-1,-1,30,22.26780044147412,-9999,10082.97943875,-0.486328125,0.858612060546875,-0.62109375,10082.97062975,-2.137166695027083,-0.9449417216231865,-0.9375779188145592,0.6430400609970093,-0.1546386778354645,-0.1733001917600632,9.289383888244629e-05,0.08703070878982544,-0.2329683303833008,XArbitraryZVertical,0.5495173732511128,-0.1572014084992746,0.5973165099473411,-0.5626111705423796,-0.4795850515365601,0.8061271905899048,-0.3466367423534393,0,0,0,-1,-1,10078.943875375,unknown,2,2025-04-20T23:15:47.951+03:00,2025-04-20T21:57:49.637+03:00,29,4.348656,0,0,23.86625,0,0,2025-04-20T22:59:32.906+03:00,766872950.634814,0,-0.8999996,99.74757,1,0.95,2025-04-20T23:15:47.660+03:00,101,1.683333333333333,2025-04-19T12:19:17.059+03:00,0.05691595998002078,0
2025-04-20T23:15:52.001+03:00,1745180151.14359,40.985586866833,29.13735278228028,126.3665,-1,-1,-1,-1,30,22.26780044147412,-9999,10082.98951475,-0.4990234375,0.8339080810546875,-0.652191162109375,10082.98070675,-2.129198238009048,-0.9408705298908449,-0.9326541974369488,0.6923724412918091,-0.298689603805542,-0.06424561142921448,0.004091739654541016,0.07539713382720947,-0.2530225515365601,XArbitraryZVertical,0.5484169626472624,-0.1542034250140397,0.5975368219831551,-0.5642781660171585,-0.4813714027404785,0.8032038807868958,-0.3509202897548676,0,0,0,-1,-1,10078.943875375,unknown,2,2025-04-20T23:15:47.951+03:00,2025-04-20T21:57:49.637+03:00,29,4.348656,0,0,23.86625,0,0,2025-04-20T22:59:32.906+03:00,766872950.634814,0,-0.8999996,99.74757,1,0.95,2025-04-20T23:15:47.660+03:00,101,1.683333333333333,2025-04-19T12:19:17.059+03:00,0.05691595998002078,0
