loggingTime(txt),locationTimestamp_since1970(s),locationLatitude(WGS84),locationLongitude(WGS84),locationAltitude(m),locationSpeed(m/s),locationSpeedAccuracy(m/s),locationCourse(°),locationCourseAccuracy(°),locationVerticalAccuracy(m),locationHorizontalAccuracy(m),locationFloor(Z),accelerometerTimestamp_sinceReboot(s),accelerometerAccelerationX(G),accelerometerAccelerationY(G),accelerometerAccelerationZ(G),motionTimestamp_sinceReboot(s),motionYaw(rad),motionRoll(rad),motionPitch(rad),motionRotationRateX(rad/s),motionRotationRateY(rad/s),motionRotationRateZ(rad/s),motionUserAccelerationX(G),motionUserAccelerationY(G),motionUserAccelerationZ(G),motionAttitudeReferenceFrame(txt),motionQuaternionX(R),motionQuaternionY(R),motionQuaternionZ(R),motionQuaternionW(R),motionGravityX(G),motionGravityY(G),motionGravityZ(G),motionMagneticFieldX(µT),motionMagneticFieldY(µT),motionMagneticFieldZ(µT),motionHeading(°),motionMagneticFieldCalibrationAccuracy(Z),activityTimestamp_sinceReboot(s),activity(txt),activityActivityConfidence(Z),activityActivityStartDate(txt),pedometerStartDate(txt),pedometerNumberofSteps(N),pedometerAverageActivePace(s/m),pedometerCurrentPace(s/m),pedometerCurrentCadence(steps/s),pedometerDistance(m),pedometerFloorAscended(N),pedometerFloorDescended(N),pedometerEndDate(txt),altimeterTimestamp_sinceReboot(s),altimeterReset(bool),altimeterRelativeAltitude(m),altimeterPressure(kPa),batteryState(N),batteryLevel(R),heartRateBPMTimestamp(txt),heartRateBPM(N),heartRateBPS(R),heartRateVariabilityTimestamp(txt),heartRateVariability(ms),label
2025-04-20T23:00:47.311+03:00,1745179246.460543,40.98553810758849,29.1374092842291,83.50758,-1,-1,-1,-1,30.00216584921526,27.66431350007163,-9999,9713.155142541667,-0.615997314453125,0.6583709716796875,-0.3800811767578125,9713.150104541668,-2.45785423417395,-1.036722780062063,-0.7415064461182113,0.8365465402603149,-1.004773736000061,-1.130554914474487,0.004948318004608154,0.02529913187026978,0.002272218465805054,XArbitraryZVertical,-0.540579031910475,0.1416920808666051,-0.7025786451973576,0.4405460817535882,-0.6347547769546509,0.6753996014595032,-0.3753953278064728,0,0,0,-1,-1,9674.059003125001,unknown,2,2025-04-20T22:59:17.430+03:00,2025-04-20T21:57:49.637+03:00,29,4.348656,0,0,23.86625,0,0,2025-04-20T22:59:32.906+03:00,766871980.7366149,0,0.6499996,99.72914,1,0.95,2025-04-20T22:59:42.035+03:00,100,1.666666666666667,2025-04-19T12:19:17.059+03:00,0.05691595998002078,0
2025-04-20T23:00:47.313+03:00,1745179246.460543,40.98553810758849,29.1374092842291,83.50758,-1,-1,-1,-1,30.00216584921526,27.66431350007163,-9999,9713.165217541668,-0.54339599609375,0.3889007568359375,-0.3442230224609375,9713.160180541667,-2.458932017286483,-1.042427666113741,-0.7365702262969469,-0.150140792131424,-0.3440514206886292,-0.04269332811236382,0.01301807165145874,0.02382063865661621,-0.009368240833282471,XArbitraryZVertical,-0.5422552723054765,0.1386978927481488,-0.7023834166089763,0.4397495012039104,-0.6397575736045837,0.6717511415481567,-0.3734442293643951,0,0,0,-1,-1,9674.059003125001,unknown,2,2025-04-20T22:59:17.430+03:00,2025-04-20T21:57:49.637+03:00,29,4.348656,0,0,23.86625,0,0,2025-04-20T22:59:32.906+03:00,766871980.7366149,0,0.6499996,99.72914,1,0.95,2025-04-20T22:59:42.035+03:00,100,1.666666666666667,2025-04-19T12:19:17.059+03:00,0.05691595998002078,0
2025-04-20T23:00:47.314+03:00,1745179246.460543,40.98553810758849,29.1374092842291,83.50758,-1,-1,-1,-1,30.00216584921526,27.66431350007163,-9999,9713.175293541668,-0.6572723388671875,0.686492919921875,-0.3614654541015625,9713.170255541667,-2.459908835402498,-1.045651048709181,-0.735940682783881,0.01155257411301136,-0.1594570130109787,-0.08774412423372269,0.04526972770690918,-0.1449633240699768,0.007975161075592041,XArbitraryZVertical,-0.5432873831676343,0.1379956292092137,-0.7018648814364938,0.4395243927858857,-0.6413238048553467,0.6712846755981445,-0.3715920448303223,0,0,0,-1,-1,9674.059003125001,unknown,2,2025-04-20T22:59:17.430+03:00,2025-04-20T21:57:49.637+03:00,29,4.348656,0,0,23.86625,0,0,2025-04-20T22:59:32.906+03:00,766871980.7366149,0,0.6499996,99.72914,1,0.95,2025-04-20T22:59:42.035+03:00,100,1.666666666666667,2025-04-19T12:19:17.059+03:00,0.05691595998002078,0
2025-04-20T23:00:47.324+03:00,1745179246.460543,40.98553810758849,29.1374092842291,83.50758,-1,-1,-1,-1,30.00216584921526,27.66431350007163,-9999,9713.185369541667,-0.71551513671875,0.833038330078125,-0.3957977294921875,9713.180331541667,-2.460183774770845,-1.04730339754077,-0.734640437449075,0.08674612641334534,-0.1698822230100632,-0.1474772244691849,0.09816718101501465,-0.207551896572113,0.02988821268081665,XArbitraryZVertical,-0.5437827043557487,0.1371729924749317,-0.7017683214230052,0.4393235133836776,-0.6426923274993896,0.6703203916549683,-0.3709678947925568,0,0,0,-1,-1,9674.059003125001,unknown,2,2025-04-20T22:59:17.430+03:00,2025-04-20T21:57:49.637+03:00,29,4.348656,0,0,23.86625,0,0,2025-04-20T22:59:32.906+03:00,766871980.7366149,0,0.6499996,99.72914,1,0.95,2025-04-20T22:59:42.035+03:00,100,1.666666666666667,2025-04-19T12:19:17.059+03:00,0.05691595998002078,0
2025-04-20T23:00:47.335+03:00,1745179246.460543,40.98553810758849,29.1374092842291,83.50758,-1,-1,-1,-1,30.00216584921526,27.66431350007163,-9999,9713.195445541667,-0.603057861328125,0.6878204345703125,-0.36474609375,9713.190407541668,-2.460609380679005,-1.048963590597183,-0.7333585044564906,0.01067253295332193,-0.1179688200354576,-0.05845781043171883,-0.101858913898468,0.1654397249221802,-0.01852655410766602,XArbitraryZVertical,-0.5442715461578799,0.1363975122101578,-0.7016978736561721,0.4390720547972148,-0.644051730632782,0.66936856508255,-0.3703283965587616,0,0,0,-1,-1,9674.059003125001,unknown,2,2025-04-20T22:59:17.430+03:00,2025-04-20T21:57:49.637+03:00,29,4.348656,0,0,23.86625,0,0,2025-04-20T22:59:32.906+03:00,766871980.7366149,0,0.6499996,99.72914,1,0.95,2025-04-20T22:59:42.035+03:00,100,1.666666666666667,2025-04-19T12:19:17.059+03:00,0.05691595998002078,0
2025-04-20T23:00:47.344+03:00,1745179246.460543,40.98553810758849,29.1374092842291,83.50758,-1,-1,-1,-1,30.00216584921526,27.66431350007163,-9999,9713.205521541668,-0.6489410400390625,0.6114959716796875,-0.3780517578125,9713.200483541666,-2.460564849392055,-1.049775637699542,-0.7331181754355744,0.0146318543702364,-0.05873240157961845,-0.01069934293627739,0.006536900997161865,0.08950746059417725,-0.00932610034942627,XArbitraryZVertical,-0.5445473831337745,0.1361084306298586,-0.7015208600864438,0.4391024380392468,-0.6444916129112244,0.669189989566803,-0.3698852956295013,0,0,0,-1,-1,9674.059003125001,unknown,2,2025-04-20T22:59:17.430+03:00,2025-04-20T21:57:49.637+03:00,29,4.348656,0,0,23.86625,0,0,2025-04-20T22:59:32.906+03:00,766871980.7366149,0,0.6499996,99.72914,1,0.95,2025-04-20T22:59:42.035+03:00,100,1.666666666666667,2025-04-19T12:19:17.059+03:00,0.05691595998002078,0
2025-04-20T23:00:47.354+03:00,1745179246.460543,40.98553810758849,29.1374092842291,83.50758,-1,-1,-1,-1,30.00216584921526,27.66431350007163,-9999,9713.215596541668,-0.6559600830078125,0.64605712890625,-0.3778533935546875,9713.210559541667,-2.460569451175698,-1.050338547714791,-0.7329078200150239,0.01196796074509621,-0.05691046640276909,-0.02758601307868958,0.02659684419631958,-0.0288054347038269,0.002771258354187012,XArbitraryZVertical,-0.5447339188648366,0.1358996668238928,-0.701415835704604,0.4391036360520899,-0.6448219418525696,0.6690336465835571,-0.3695924878120422,0,0,0,-1,-1,9674.059003125001,unknown,2,2025-04-20T22:59:17.430+03:00,2025-04-20T21:57:49.637+03:00,29,4.348656,0,0,23.86625,0,0,2025-04-20T22:59:32.906+03:00,766871980.7366149,0,0.6499996,99.72914,1,0.95,2025-04-20T22:59:42.035+03:00,100,1.666666666666667,2025-04-19T12:19:17.059+03:00,0.05691595998002078,0
2025-04-20T23:00:47.365+03:00,1745179246.460543,40.98553810758849,29.1374092842291,83.50758,-1,-1,-1,-1,30.00216584921526,27.66431350007163,-9999,9713.225672541666,-0.6320648193359375,0.7021026611328125,-0.3651123046875,9713.220634541667,-2.46055035013221,-1.050901230059321,-0.732648766801672,0.01243774220347404,-0.0582021027803421,-0.01668649539351463,-0.01845508813858032,-0.05707049369812012,-0.01400032639503479,XArbitraryZVertical,-0.5449195272057896,0.1356645285249717,-0.7013164742954552,0.4391047897824187,-0.6451801657676697,0.6688410639762878,-0.3693156838417053,0,0,0,-1,-1,9674.059003125001,unknown,2,2025-04-20T22:59:17.430+03:00,2025-04-20T21:57:49.637+03:00,29,4.348656,0,0,23.86625,0,0,2025-04-20T22:59:32.906+03:00,766871980.7366149,0,0.6499996,99.72914,1,0.95,2025-04-20T22:59:42.035+03:00,100,1.666666666666667,2025-04-19T12:19:17.059+03:00,0.05691595998002078,0
2025-04-20T23:00:47.375+03:00,1745179246.460543,40.98553810758849,29.1374092842291,83.50758,-1,-1,-1,-1,30.00216584921526,27.66431350007163,-9999,9713.235748541667,-0.64007568359375,0.6605682373046875,-0.369110107421875,9713.230710541668,-2.460471223239209,-1.051380254734843,-0.7325434677288114,0.003915826790034771,-0.048964723944664,0.001999808242544532,0.005220413208007812,0.01811158657073975,0.0009690821170806885,XArbitraryZVertical,-0.545087559182735,0.1354945362339205,-0.7011922119677999,0.4391472229847771,-0.6454182267189026,0.6687628030776978,-0.3690415620803833,0,0,0,-1,-1,9674.059003125001,unknown,2,2025-04-20T22:59:17.430+03:00,2025-04-20T21:57:49.637+03:00,29,4.348656,0,0,23.86625,0,0,2025-04-20T22:59:32.906+03:00,766871980.7366149,0,0.6499996,99.72914,1,0.95,2025-04-20T22:59:42.035+03:00,100,1.666666666666667,2025-04-19T12:19:17.059+03:00,0.05691595998002078,0
2025-04-20T23:00:47.385+03:00,1745179246.460543,40.98553810758849,29.1374092842291,83.50758,-1,-1,-1,-1,30.00216584921526,27.66431350007163,-9999,9713.245824541667,-0.64630126953125,0.644195556640625,-0.369049072265625,9713.240786541668,-2.460371964850334,-1.051746933611744,-0.7325810641231746,0.002026846632361412,-0.03900370374321938,0.005489081609994173,0.01134580373764038,0.01844978332519531,0.002535700798034668,XArbitraryZVertical,-0.5452247169972688,0.1354024106545843,-0.7010620068005234,0.4392131978512315,-0.6455315947532654,0.6687907576560974,-0.3687923848628998,0,0,0,-1,-1,9674.059003125001,unknown,2,2025-04-20T22:59:17.430+03:00,2025-04-20T21:57:49.637+03:00,29,4.348656,0,0,23.86625,0,0,2025-04-20T22:59:32.906+03:00,766871980.7366149,0,0.6499996,99.72914,1,0.95,2025-04-20T22:59:42.035+03:00,100,1.666666666666667,2025-04-19T12:19:17.059+03:00,0.05691595998002078,0
2025-04-20T23:00:47.395+03:00,1745179246.460543,40.98553810758849,29.1374092842291,83.50758,-1,-1,-1,-1,30.00216584921526,27.66431350007163,-9999,9713.255900541668,-0.6456756591796875,0.665985107421875,-0.366363525390625,9713.250862541667,-2.460289056874295,-1.052058079753073,-0.7325858214070871,0.007886532694101334,-0.03111255913972855,0.003680362366139889,0.0005630254745483398,-0.02548378705978394,-0.001603484153747559,XArbitraryZVertical,-0.545339621709157,0.1353134188812618,-0.7009579182246182,0.4392641277019541,-0.6456435918807983,0.6687942743301392,-0.3685899376869202,0,0,0,-1,-1,9674.059003125001,unknown,2,2025-04-20T22:59:17.430+03:00,2025-04-20T21:57:49.637+03:00,29,4.348656,0,0,23.86625,0,0,2025-04-20T22:59:32.906+03:00,766871980.7366149,0,0.6499996,99.72914,1,0.95,2025-04-20T22:59:42.035+03:00,100,1.666666666666667,2025-04-19T12:19:17.059+03:00,0.05691595998002078,0
2025-04-20T23:00:47.405+03:00,1745179246.460543,40.98553810758849,29.1374092842291,83.50758,-1,-1,-1,-1,30.00216584921526,27.66431350007163,-9999,9713.265975541668,-0.64459228515625,0.671478271484375,-0.3663482666015625,9713.260937541667,-2.460177068439629,-1.05226891659011,-0.7325508667410484,0.006409011781215668,-0.02733859047293663,0.002623353851959109,-0.0008191466331481934,-0.01424258947372437,0.001399993896484375,XArbitraryZVertical,-0.545419341904573,0.1352222399359562,-0.7008836206429089,0.4393117009745972,-0.6457415223121643,0.6687682867050171,-0.3684653639793396,0,0,0,-1,-1,9674.059003125001,unknown,2,2025-04-20T22:59:17.430+03:00,2025-04-20T21:57:49.637+03:00,29,4.348656,0,0,23.86625,0,0,2025-04-20T22:59:32.906+03:00,766871980.7366149,0,0.6499996,99.72914,1,0.95,2025-04-20T22:59:42.035+03:00,100,1.666666666666667,2025-04-19T12:19:17.059+03:00,0.05691595998002078,0
2025-04-20T23:00:47.415+03:00,1745179246.460543,40.98553810758849,29.1374092842291,83.50758,-1,-1,-1,-1,30.00216584921526,27.66431350007163,-9999,9713.276051541667,-0.644500732421875,0.66845703125,-0.3669281005859375,9713.271013541667,-2.460060067216432,-1.052447699060191,-0.7325438405581999,0.009952613152563572,-0.02420271933078766,0.0006653979071415961,0.0007004737854003906,0.002120018005371094,0.001790463924407959,XArbitraryZVertical,-0.5454895365706647,0.135148148593291,-0.7008107970023216,0.4393636216058915,-0.6458115577697754,0.6687631011009216,-0.3683522939682007,0,0,0,-1,-1,9674.059003125001,unknown,2,2025-04-20T22:59:17.430+03:00,2025-04-20T21:57:49.637+03:00,29,4.348656,0,0,23.86625,0,0,2025-04-20T22:59:32.906+03:00,766871980.7366149,0,0.6499996,99.72914,1,0.95,2025-04-20T22:59:42.035+03:00,100,1.666666666666667,2025-04-19T12:19:17.059+03:00,0.05691595998002078,0
2025-04-20T23:00:47.425+03:00,1745179246.460543,40.98553810758849,29.1374092842291,83.50758,-1,-1,-1,-1,30.00216584921526,27.66431350007163,-9999,9713.286127541667,-0.6446990966796875,0.6690216064453125,-0.368438720703125,9713.281089541668,-2.459926415707026,-1.052610332051615,-0.732506268873156,0.01580331288278103,-0.02642672508955002,0.0006070747622288764,0.001423060894012451,0.001385033130645752,0.000950157642364502,XArbitraryZVertical,-0.5455536706637525,0.1350605515324013,-0.7007454744186203,0.4394150670146747,-0.6458932757377625,0.668735146522522,-0.3682596683502197,0,0,0,-1,-1,9674.059003125001,unknown,2,2025-04-20T22:59:17.430+03:00,2025-04-20T21:57:49.637+03:00,29,4.348656,0,0,23.86625,0,0,2025-04-20T22:59:32.906+03:00,766871980.7366149,0,0.6499996,99.72914,1,0.95,2025-04-20T22:59:42.035+03:00,100,1.666666666666667,2025-04-19T12:19:17.059+03:00,0.05691595998002078,0
2025-04-20T23:00:47.435+03:00,1745179246.460543,40.98553810758849,29.1374092842291,83.50758,-1,-1,-1,-1,30.00216584921526,27.66431350007163,-9999,9713.296203541668,-0.6431884765625,0.673431396484375,-0.3712615966796875,9713.291165541666,-2.459749641198933,-1.052768652760843,-0.7324227945294185,0.01694008335471153,-0.0278662983328104,-0.0002626471396069974,0.001423001289367676,-0.001482665538787842,0.0007992088794708252,XArbitraryZVertical,-0.545616895164325,0.1349433012302466,-0.7006821062055362,0.4394735313965997,-0.6459999680519104,0.6686730980873108,-0.3681850135326385,0,0,0,-1,-1,9674.059003125001,unknown,2,2025-04-20T22:59:17.430+03:00,2025-04-20T21:57:49.637+03:00,29,4.348656,0,0,23.86625,0,0,2025-04-20T22:59:32.906+03:00,766871980.7366149,0,0.6499996,99.72914,1,0.95,2025-04-20T22:59:42.035+03:00,100,1.666666666666667,2025-04-19T12:19:17.059+03:00,0.05691595998002078,0
2025-04-20T23:00:47.445+03:00,1745179246.460543,40.98553810758849,29.1374092842291,83.50758,-1,-1,-1,-1,30.00216584921526,27.66431350007163,-9999,9713.306279541668,-0.642059326171875,0.6722869873046875,-0.37261962890625,9713.301241541667,-2.459529799641438,-1.052947128070824,-0.732339016398379,0.01814223267138004,-0.03501155599951744,0.002845794428139925,0.001918792724609375,0.002424895763397217,-0.002034932374954224,XArbitraryZVertical,-0.5456900445470318,0.1348097254750041,-0.7006038619406546,0.4395483851543868,-0.6461142897605896,0.6686108112335205,-0.3680974245071411,0,0,0,-1,-1,9674.059003125001,unknown,2,2025-04-20T22:59:17.430+03:00,2025-04-20T21:57:49.637+03:00,29,4.348656,0,0,23.86625,0,0,2025-04-20T22:59:32.906+03:00,766871980.7366149,0,0.6499996,99.72914,1,0.95,2025-04-20T22:59:42.035+03:00,100,1.666666666666667,2025-04-19T12:19:17.059+03:00,0.05691595998002078,0
2025-04-20T23:00:47.455+03:00,1745179246.460543,40.98553810758849,29.1374092842291,83.50758,-1,-1,-1,-1,30.00216584921526,27.66431350007163,-9999,9713.316354541666,-0.64324951171875,0.6636962890625,-0.373443603515625,9713.311316541667,-2.459299581220525,-1.053115911742993,-0.7322851594701244,0.01783936470746994,-0.0288165807723999,0.005080685950815678,0.003644883632659912,0.005470931529998779,-0.004109859466552734,XArbitraryZVertical,-0.5457619673853593,0.1346876947351099,-0.700519309009531,0.4396312876900636,-0.6462077498435974,0.6685707569122314,-0.3680061995983124,0,0,0,-1,-1,9674.059003125001,unknown,2,2025-04-20T22:59:17.430+03:00,2025-04-20T21:57:49.637+03:00,29,4.348656,0,0,23.86625,0,0,2025-04-20T22:59:32.906+03:00,766871980.7366149,0,0.6499996,99.72914,1,0.95,2025-04-20T22:59:42.035+03:00,100,1.666666666666667,2025-04-19T12:19:17.059+03:00,0.05691595998002078,0
2025-04-20T23:00:47.465+03:00,1745179246.460543,40.98553810758849,29.1374092842291,83.50758,-1,-1,-1,-1,30.00216584921526,27.66431350007163,-9999,9713.326430541667,-0.6445465087890625,0.66314697265625,-0.3715362548828125,9713.321392541668,-2.459042559273307,-1.053236939728788,-0.7322462869256768,0.02075739018619061,-0.03006107732653618,0.007016004994511604,0.003498375415802002,-0.001442968845367432,-0.00592997670173645,XArbitraryZVertical,-0.5458197178095191,0.1345750252589952,-0.7004384183123626,0.4397228382660019,-0.6462748050689697,0.6685418486595154,-0.3679407835006714,0,0,0,-1,-1,9674.059003125001,unknown,2,2025-04-20T22:59:17.430+03:00,2025-04-20T21:57:49.637+03:00,29,4.348656,0,0,23.86625,0,0,2025-04-20T22:59:32.906+03:00,766871980.7366149,0,0.6499996,99.72914,1,0.95,2025-04-20T22:59:42.035+03:00,100,1.666666666666667,2025-04-19T12:19:17.059+03:00,0.05691595998002078,0
2025-04-20T23:00:47.476+03:00,1745179246.460543,40.98553810758849,29.1374092842291,83.50758,-1,-1,-1,-1,30.00216584921526,27.66431350007163,-9999,9713.336506541667,-0.6418914794921875,0.6635589599609375,-0.374267578125,9713.331468541668,-2.458782184102394,-1.053345679883638,-0.7322286906262011,0.01524025388062,-0.02717913500964642,0.00983329676091671,0.002099037170410156,-0.005427658557891846,-0.004056543111801147,XArbitraryZVertical,-0.5458744190830277,0.1344728143899751,-0.7003554753092271,0.4398183723040398,-0.6463250517845154,0.6685287356376648,-0.3678763508796692,0,0,0,-1,-1,9674.059003125001,unknown,2,2025-04-20T22:59:17.430+03:00,2025-04-20T21:57:49.637+03:00,29,4.348656,0,0,23.86625,0,0,2025-04-20T22:59:32.906+03:00,766871980.7366149,0,0.6499996,99.72914,1,0.95,2025-04-20T22:59:42.035+03:00,100,1.666666666666667,2025-04-19T12:19:17.059+03:00,0.05691595998002078,0
2025-04-20T23:00:47.486+03:00,1745179246.460543,40.98553810758849,29.1374092842291,83.50758,-1,-1,-1,-1,30.00216584921526,27.66431350007163,-9999,9713.346582541668,-0.6388092041015625,0.661407470703125,-0.3652496337890625,9713.341544541667,-2.458553068190308,-1.0534648484526,-0.7322655719360129,0.01236350741237402,-0.02859513647854328,0.01368209719657898,0.002457201480865479,-0.004600584506988525,-0.005702108144760132,XArbitraryZVertical,-0.5459333941396085,0.1343991810371907,-0.7002643399027428,0.4399128775461543,-0.6463475227355957,0.6685561537742615,-0.3677871823310852,0,0,0,-1,-1,9674.059003125001,unknown,2,2025-04-20T22:59:17.430+03:00,2025-04-20T21:57:49.637+03:00,29,4.348656,0,0,23.86625,0,0,2025-04-20T22:59:32.906+03:00,766871980.7366149,0,0.6499996,99.72914,1,0.95,2025-04-20T22:59:42.035+03:00,100,1.666666666666667,2025-04-19T12:19:17.059+03:00,0.05691595998002078,0
2025-04-20T23:00:47.496+03:00,1745179246.460543,40.98553810758849,29.1374092842291,83.50758,-1,-1,-1,-1,30.00216584921526,27.66431350007163,-9999,9713.356657541668,-0.640167236328125,0.6644439697265625,-0.3622283935546875,9713.351620541667,-2.458328148526479,-1.053604780801073,-0.7323312492551329,0.01223600748926401,-0.02893275953829288,0.01468920521438122,0.006300389766693115,-0.006648361682891846,-0.002228468656539917,XArbitraryZVertical,-0.5460008152931421,0.134333974850055,-0.7001618691196034,0.4400121220359106,-0.6463607549667358,0.6686050295829773,-0.3676749765872955,0,0,0,-1,-1,9674.059003125001,unknown,2,2025-04-20T22:59:17.430+03:00,2025-04-20T21:57:49.637+03:00,29,4.348656,0,0,23.86625,0,0,2025-04-20T22:59:32.906+03:00,766871980.7366149,0,0.6499996,99.72914,1,0.95,2025-04-20T22:59:42.035+03:00,100,1.666666666666667,2025-04-19T12:19:17.059+03:00,0.05691595998002078,0
2025-04-20T23:00:47.506+03:00,1745179246.460543,40.98553810758849,29.1374092842291,83.50758,-1,-1,-1,-1,30.00216584921526,27.66431350007163,-9999,9713.366733541667,-0.64459228515625,0.66455078125,-0.3704833984375,9713.361695541667,-2.458096655233325,-1.053713997508959,-0.7324422856852407,0.00894886814057827,-0.02289430797100067,0.01974335126578808,0.007420480251312256,-0.006944477558135986,0.006102383136749268,XArbitraryZVertical,-0.5460601694199344,0.1342922627261902,-0.7000563074247891,0.440119339324652,-0.6463364958763123,0.6686875820159912,-0.3675677478313446,0,0,0,-1,-1,9674.059003125001,unknown,2,2025-04-20T22:59:17.430+03:00,2025-04-20T21:57:49.637+03:00,29,4.348656,0,0,23.86625,0,0,2025-04-20T22:59:32.906+03:00,766871980.7366149,0,0.6499996,99.72914,1,0.95,2025-04-20T22:59:42.035+03:00,100,1.666666666666667,2025-04-19T12:19:17.059+03:00,0.05691595998002078,0
2025-04-20T23:00:47.516+03:00,1745179246.460543,40.98553810758849,29.1374092842291,83.50758,-1,-1,-1,-1,30.00216584921526,27.66431350007163,-9999,9713.376809541667,-0.643402099609375,0.665069580078125,-0.372467041015625,9713.371771541668,-2.45792553490308,-1.053789125512079,-0.7325812709381389,-0.008768010884523392,-0.01587415114045143,0.01636503078043461,0.003262639045715332,-0.003690898418426514,0.001765906810760498,XArbitraryZVertical,-0.5461049721586397,0.1342860617416403,-0.6999668771425489,0.4402077825551995,-0.6462832689285278,0.6687909364700317,-0.3674732148647308,0,0,0,-1,-1,9674.059003125001,unknown,2,2025-04-20T22:59:17.430+03:00,2025-04-20T21:57:49.637+03:00,29,4.348656,0,0,23.86625,0,0,2025-04-20T22:59:32.906+03:00,766871980.7366149,0,0.6499996,99.72914,1,0.95,2025-04-20T22:59:42.035+03:00,100,1.666666666666667,2025-04-19T12:19:17.059+03:00,0.05691595998002078,0
2025-04-20T23:00:47.526+03:00,1745179246.460543,40.98553810758849,29.1374092842291,83.50758,-1,-1,-1,-1,30.00216584921526,27.66431350007163,-9999,9713.386885541668,-0.639251708984375,0.6685028076171875,-0.3710784912109375,9713.381847541667,-2.458167325839014,-1.054070136822346,-0.7328537598094389,-0.0438317209482193,-0.01162427756935358,0.01232155412435532,0.00151371955871582,-0.004915773868560791,-0.005692660808563232,XArbitraryZVertical,-0.5462007878276134,0.1344020293584183,-0.6998822295020344,0.4401881983760142,-0.6462280750274658,0.6689934730529785,-0.3672015964984894,0,0,0,-1,-1,9674.059003125001,unknown,2,2025-04-20T22:59:17.430+03:00,2025-04-20T21:57:49.637+03:00,29,4.348656,0,0,23.86625,0,0,2025-04-20T22:59:32.906+03:00,766871980.7366149,0,0.6499996,99.72914,1,0.95,2025-04-20T22:59:42.035+03:00,100,1.666666666666667,2025-04-19T12:19:17.059+03:00,0.05691595998002078,0
2025-04-20T23:00:47.537+03:00,1745179246.460543,40.98553810758849,29.1374092842291,83.50758,-1,-1,-1,-1,30.00216584921526,27.66431350007163,-9999,9713.396961541668,-0.6369781494140625,0.665130615234375,-0.37939453125,9713.391923541667,-2.458567944145984,-1.054452951364684,-0.7331561177669524,-0.05300051718950272,-0.011972950771451,0.01050604414194822,0.005186140537261963,-0.003095805644989014,-0.004132628440856934,XArbitraryZVertical,-0.5463230045963903,0.1345512928114813,-0.6997978621632435,0.4401249350059099,-0.6461926102638245,0.6692181825637817,-0.3668542504310608,0,0,0,-1,-1,9674.059003125001,unknown,2,2025-04-20T22:59:17.430+03:00,2025-04-20T21:57:49.637+03:00,29,4.348656,0,0,23.86625,0,0,2025-04-20T22:59:32.906+03:00,766871980.7366149,0,0.6499996,99.72914,1,0.95,2025-04-20T22:59:42.035+03:00,100,1.666666666666667,2025-04-19T12:19:17.059+03:00,0.05691595998002078,0
2025-04-20T23:00:47.546+03:00,1745179246.460543,40.98553810758849,29.1374092842291,83.50758,-1,-1,-1,-1,30.00216584921526,27.66431350007163,-9999,9713.407036541666,-0.63623046875,0.6581878662109375,-0.38323974609375,9713.401999541667,-2.459225067589494,-1.055054797962778,-0.7335785050858807,-0.06450457870960236,-0.02667732909321785,0.01119207497686148,0.008136391639709473,-0.00231093168258667,-0.007758557796478271,XArbitraryZVertical,-0.5465104375053284,0.1347716592653908,-0.6996832321484954,0.4400071769182687,-0.6461673974990845,0.6695319414138794,-0.3663258850574493,0,0,0,-1,-1,9674.059003125001,unknown,2,2025-04-20T22:59:17.430+03:00,2025-04-20T21:57:49.637+03:00,29,4.348656,0,0,23.86625,0,0,2025-04-20T22:59:32.906+03:00,766871980.7366149,0,0.6499996,99.72914,1,0.95,2025-04-20T22:59:42.035+03:00,100,1.666666666666667,2025-04-19T12:19:17.059+03:00,0.05691595998002078,0
2025-04-20T23:00:47.556+03:00,1745179246.460543,40.98553810758849,29.1374092842291,83.50758,-1,-1,-1,-1,30.00216584921526,27.66431350007163,-9999,9713.417112541667,-0.6348724365234375,0.6550750732421875,-0.37982177734375,9713.412074541668,-2.459796564631672,-1.055785827372164,-0.7339387357229994,-0.04900757595896721,-0.04366982728242874,0.01103884261101484,0.01010137796401978,-0.007980048656463623,-0.01800867915153503,XArbitraryZVertical,-0.5467455424216706,0.1349148090379616,-0.6995282499724849,0.4399176781747625,-0.6462250947952271,0.6697995066642761,-0.3657346069812775,0,0,0,-1,-1,9674.059003125001,unknown,2,2025-04-20T22:59:17.430+03:00,2025-04-20T21:57:49.637+03:00,29,4.348656,0,0,23.86625,0,0,2025-04-20T22:59:32.906+03:00,766871980.7366149,0,0.6499996,99.72914,1,0.95,2025-04-20T22:59:42.035+03:00,100,1.666666666666667,2025-04-19T12:19:17.059+03:00,0.05691595998002078,0
2025-04-20T23:00:47.572+03:00,1745179246.460543,40.98553810758849,29.1374092842291,83.50758,-1,-1,-1,-1,30.00216584921526,27.66431350007163,-9999,9713.427188541667,-0.6343994140625,0.663482666015625,-0.376495361328125,9713.422150541668,-2.460143284909106,-1.056493665496501,-0.7342392585900925,-0.0269550047814846,-0.05581330880522728,0.01691244542598724,0.009910225868225098,-0.01415413618087769,-0.01571178436279297,XArbitraryZVertical,-0.5469845815895024,0.1349771903840112,-0.6993434301987007,0.4398952126160256,-0.6463084816932678,0.6700226068496704,-0.3651780486106873,0,0,0,-1,-1,9674.059003125001,unknown,2,2025-04-20T22:59:17.430+03:00,2025-04-20T21:57:49.637+03:00,29,4.348656,0,0,23.86625,0,0,2025-04-20T22:59:32.906+03:00,766871980.7366149,0,0.6499996,99.72914,1,0.95,2025-04-20T22:59:42.035+03:00,100,1.666666666666667,2025-04-19T12:19:17.059+03:00,0.05691595998002078,0
2025-04-20T23:00:47.576+03:00,1745179246.460543,40.98553810758849,29.1374092842291,83.50758,-1,-1,-1,-1,30.00216584921526,27.66431350007163,-9999,9713.437264541668,-0.6409149169921875,0.66302490234375,-0.3741607666015625,9713.432226541667,-2.460197537640995,-1.057130016460534,-0.7344576713993799,-0.005941730923950672,-0.06877451390028,0.01694753207266331,0.01343291997909546,-0.01138657331466675,-0.01401305198669434,XArbitraryZVertical,-0.5472141880061475,0.134941629768673,-0.6991322036691671,0.4399563037530516,-0.646413266658783,0.6701847314834595,-0.3646947741508484,0,0,0,-1,-1,9674.059003125001,unknown,2,2025-04-20T22:59:17.430+03:00,2025-04-20T21:57:49.637+03:00,29,4.348656,0,0,23.86625,0,0,2025-04-20T22:59:32.906+03:00,766871980.7366149,0,0.6499996,99.72914,1,0.95,2025-04-20T22:59:42.035+03:00,100,1.666666666666667,2025-04-19T12:19:17.059+03:00,0.05691595998002078,0
2025-04-20T23:00:47.586+03:00,1745179246.460543,40.98553810758849,29.1374092842291,83.50758,-1,-1,-1,-1,30.00216584921526,27.66431350007163,-9999,9713.447340541667,-0.6424407958984375,0.6655120849609375,-0.3744964599609375,9713.442302541667,-2.460143204310869,-1.057853355586532,-0.7346387908743607,-0.006823769770562649,-0.0824650302529335,0.01798216998577118,0.008540093898773193,-0.006043076515197754,-0.01049673557281494,XArbitraryZVertical,-0.547479591885482,0.1348418974378039,-0.6988815581224241,0.4400548734949402,-0.6465710997581482,0.670319139957428,-0.3641675114631653,0,0,0,-1,-1,9674.059003125001,unknown,2,2025-04-20T22:59:17.430+03:00,2025-04-20T21:57:49.637+03:00,29,4.348656,0,0,23.86625,0,0,2025-04-20T22:59:32.906+03:00,766871980.7366149,0,0.6499996,99.72914,1,0.95,2025-04-20T22:59:42.035+03:00,100,1.666666666666667,2025-04-19T12:19:17.059+03:00,0.05691595998002078,0
2025-04-20T23:00:47.596+03:00,1745179246.460543,40.98553810758849,29.1374092842291,83.50758,-1,-1,-1,-1,30.00216584921526,27.66431350007163,-9999,9713.457416541667,-0.64404296875,0.6678924560546875,-0.3764495849609375,9713.452378541668,-2.460217614274019,-1.05871940353386,-0.7348178108128434,-0.02375301904976368,-0.08230689913034439,0.008258802816271782,0.004661262035369873,-0.007427096366882324,-0.01123771071434021,XArbitraryZVertical,-0.5477859464257878,0.1347450771879795,-0.6986205896493966,0.4401177353659985,-0.6467816829681396,0.6704519987106323,-0.3635486364364624,0,0,0,-1,-1,9674.059003125001,unknown,2,2025-04-20T22:59:17.430+03:00,2025-04-20T21:57:49.637+03:00,29,4.348656,0,0,23.86625,0,0,2025-04-20T22:59:32.906+03:00,766871980.7366149,0,0.6499996,99.72914,1,0.95,2025-04-20T22:59:42.035+03:00,100,1.666666666666667,2025-04-19T12:19:17.059+03:00,0.05691595998002078,0
2025-04-20T23:00:47.606+03:00,1745179246.460543,40.98553810758849,29.1374092842291,83.50758,-1,-1,-1,-1,30.00216584921526,27.66431350007163,-9999,9713.467491541667,-0.6392059326171875,0.6656646728515625,-0.388214111328125,9713.462453541668,-2.46047330711259,-1.059748185399755,-0.7349982504343671,-0.0268595963716507,-0.09375050663948059,0.003223031293600798,0.004303872585296631,-0.002815425395965576,-0.01145890355110168,XArbitraryZVertical,-0.5481368552305428,0.1346626790305948,-0.6983544558236248,0.4401284909806183,-0.6470498442649841,0.6705858707427979,-0.3628239035606384,0,0,0,-1,-1,9674.059003125001,unknown,2,2025-04-20T22:59:17.430+03:00,2025-04-20T21:57:49.637+03:00,29,4.348656,0,0,23.86625,0,0,2025-04-20T22:59:32.906+03:00,766871980.7366149,0,0.6499996,99.72914,1,0.95,2025-04-20T22:59:42.035+03:00,100,1.666666666666667,2025-04-19T12:19:17.059+03:00,0.05691595998002078,0
2025-04-20T23:00:47.616+03:00,1745179246.460543,40.98553810758849,29.1374092842291,83.50758,-1,-1,-1,-1,30.00216584921526,27.66431350007163,-9999,9713.477567541668,-0.634429931640625,0.666168212890625,-0.3964996337890625,9713.472529541667,-2.460874051228629,-1.061003380665958,-0.7351481893282832,-0.04939792677760124,-0.1027847453951836,-0.004692149814218283,0.005510091781616211,-0.003460884094238281,-0.02034661173820496,XArbitraryZVertical,-0.5485554270066288,0.1345578586366446,-0.6980645864175496,0.4400985789470638,-0.6474167704582214,0.6706970930099487,-0.3619622588157654,0,0,0,-1,-1,9674.059003125001,unknown,2,2025-04-20T22:59:17.430+03:00,2025-04-20T21:57:49.637+03:00,29,4.348656,0,0,23.86625,0,0,2025-04-20T22:59:32.906+03:00,766871980.7366149,0,0.6499996,99.72914,1,0.95,2025-04-20T22:59:42.035+03:00,100,1.666666666666667,2025-04-19T12:19:17.059+03:00,0.05691595998002078,0
2025-04-20T23:00:47.626+03:00,1745179246.460543,40.98553810758849,29.1374092842291,83.50758,-1,-1,-1,-1,30.00216584921526,27.66431350007163,-9999,9713.487643541668,-0.6397552490234375,0.66351318359375,-0.3961029052734375,9713.482605541667,-2.462022433748284,-1.062782882537897,-0.7355359120267356,-0.1491655260324478,-0.1040678545832634,-0.014583395794034,0.01189219951629639,-0.00533527135848999,-0.03361916542053223,XArbitraryZVertical,-0.5491178549925355,0.1346403069614905,-0.6977417971350178,0.4398839624864015,-0.6478327512741089,0.6709846258163452,-0.3606831431388855,0,0,0,-1,-1,9674.059003125001,unknown,2,2025-04-20T22:59:17.430+03:00,2025-04-20T21:57:49.637+03:00,29,4.348656,0,0,23.86625,0,0,2025-04-20T22:59:32.906+03:00,766871980.7366149,0,0.6499996,99.72914,1,0.95,2025-04-20T22:59:42.035+03:00,100,1.666666666666667,2025-04-19T12:19:17.059+03:00,0.05691595998002078,0
2025-04-20T23:00:47.637+03:00,1745179246.460543,40.98553810758849,29.1374092842291,83.50758,-1,-1,-1,-1,30.00216584921526,27.66431350007163,-9999,9713.497719541667,-0.639617919921875,0.651153564453125,-0.4014892578125,9713.492681541667,-2.464484748833848,-1.065565554713407,-0.7363472031526664,-0.2473425716161728,-0.1340746283531189,-0.01880470477044582,0.0125388503074646,-0.005860269069671631,-0.03823506832122803,XArbitraryZVertical,-0.5499610618433906,0.1350374332280429,-0.6973359752733072,0.4393520347653828,-0.6483573317527771,0.6715859174728394,-0.3586154580116272,0,0,0,-1,-1,9674.059003125001,unknown,2,2025-04-20T22:59:17.430+03:00,2025-04-20T21:57:49.637+03:00,29,4.348656,0,0,23.86625,0,0,2025-04-20T22:59:32.906+03:00,766871980.7366149,0,0.6499996,99.72914,1,0.95,2025-04-20T22:59:42.035+03:00,100,1.666666666666667,2025-04-19T12:19:17.059+03:00,0.05691595998002078,0
2025-04-20T23:00:47.647+03:00,1745179246.460543,40.98553810758849,29.1374092842291,83.50758,-1,-1,-1,-1,30.00216584921526,27.66431350007163,-9999,9713.507795541667,-0.635955810546875,0.6355133056640625,-0.411956787109375,9713.502757541668,-2.467825999705368,-1.069245570436586,-0.7375296959799651,-0.2973127961158752,-0.1632660627365112,-0.01233934983611107,0.006626546382904053,-0.01413649320602417,-0.04082250595092773,XArbitraryZVertical,-0.5510726999816523,0.1356333402764426,-0.6967903930998117,0.4386404890734962,-0.6489757895469666,0.6724616289138794,-0.3558449447154999,0,0,0,-1,-1,9674.059003125001,unknown,2,2025-04-20T22:59:17.430+03:00,2025-04-20T21:57:49.637+03:00,29,4.348656,0,0,23.86625,0,0,2025-04-20T22:59:32.906+03:00,766871980.7366149,0,0.6499996,99.72914,1,0.95,2025-04-20T22:59:42.035+03:00,100,1.666666666666667,2025-04-19T12:19:17.059+03:00,0.05691595998002078,0
2025-04-20T23:00:47.667+03:00,1745179246.460543,40.98553810758849,29.1374092842291,83.50758,-1,-1,-1,-1,30.00216584921526,27.66431350007163,-9999,9713.517870541667,-0.6419525146484375,0.62744140625,-0.4154815673828125,9713.512832541668,-2.471199990544431,-1.073226706256952,-0.7387456269119794,-0.2562192678451538,-0.1808984577655792,-0.01071502082049847,0.01401770114898682,-0.03008115291595459,-0.05351933836936951,XArbitraryZVertical,-0.5522849196003472,0.1361888291323303,-0.6961581326964831,0.4379470877905026,-0.649668276309967,0.67336106300354,-0.3528679311275482,0,0,0,-1,-1,9674.059003125001,unknown,2,2025-04-20T22:59:17.430+03:00,2025-04-20T21:57:49.637+03:00,29,4.348656,0,0,23.86625,0,0,2025-04-20T22:59:32.906+03:00,766871980.7366149,0,0.6499996,99.72914,1,0.95,2025-04-20T22:59:42.035+03:00,100,1.666666666666667,2025-04-19T12:19:17.059+03:00,0.05691595998002078,0
2025-04-20T23:00:47.669+03:00,1745179246.460543,40.98553810758849,29.1374092842291,83.50758,-1,-1,-1,-1,30.00216584921526,27.66431350007163,-9999,9713.527946541668,-0.6465606689453125,0.64459228515625,-0.4162139892578125,9713.522908541667,-2.473750751698372,-1.076699077684491,-0.7396776432136646,-0.1464256793260574,-0.1706138700246811,-0.01604560576379299,0.01195496320724487,-0.04436546564102173,-0.06382653117179871,XArbitraryZVertical,-0.5533603017848507,0.1365148242876512,-0.6955469372353281,0.4374590017067869,-0.6503368616104126,0.6740498542785645,-0.3503121435642242,0,0,0,-1,-1,9674.059003125001,unknown,2,2025-04-20T22:59:17.430+03:00,2025-04-20T21:57:49.637+03:00,29,4.348656,0,0,23.86625,0,0,2025-04-20T22:59:32.906+03:00,766871980.7366149,0,0.6499996,99.72914,1,0.95,2025-04-20T22:59:42.035+03:00,100,1.666666666666667,2025-04-19T12:19:17.059+03:00,0.05691595998002078,0
2025-04-20T23:00:47.677+03:00,1745179246.460543,40.98553810758849,29.1374092842291,83.50758,-1,-1,-1,-1,30.00216584921526,27.66431350007163,-9999,9713.538022541667,-0.646240234375,0.678009033203125,-0.4283447265625,9713.532984541667,-2.474528583999577,-1.078709962793657,-0.7397379945223062,0.0365995392203331,-0.1334241479635239,-0.02761038206517696,0.006121993064880371,-0.04187703132629395,-0.06722944974899292,XArbitraryZVertical,-0.5540089891214747,0.1363150054443502,-0.695146843785878,0.4373363281133957,-0.6510041952133179,0.6740943789482117,-0.3489845097064972,0,0,0,-1,-1,9674.059003125001,unknown,2,2025-04-20T22:59:17.430+03:00,2025-04-20T21:57:49.637+03:00,29,4.348656,0,0,23.86625,0,0,2025-04-20T22:59:32.906+03:00,766871980.7366149,0,0.6499996,99.72914,1,0.95,2025-04-20T22:59:42.035+03:00,100,1.666666666666667,2025-04-19T12:19:17.059+03:00,0.05691595998002078,0
2025-04-20T23:00:47.687+03:00,1745179246.460543,40.98553810758849,29.1374092842291,83.50758,-1,-1,-1,-1,30.00216584921526,27.66431350007163,-9999,9713.548098541667,-0.637786865234375,0.7037200927734375,-0.4618682861328125,9713.543060541668,-2.473421420711263,-1.079063629338448,-0.7387697789337463,0.2001711577177048,-0.09228070825338364,-0.05759011581540108,0.004333257675170898,-0.01239877939224243,-0.06966936588287354,XArbitraryZVertical,-0.5541651192605803,0.1355355370501761,-0.6950244785952986,0.4375752580200596,-0.6517026424407959,0.6733789443969727,-0.3490622639656067,0,0,0,-1,-1,9674.059003125001,unknown,2,2025-04-20T22:59:17.430+03:00,2025-04-20T21:57:49.637+03:00,29,4.348656,0,0,23.86625,0,0,2025-04-20T22:59:32.906+03:00,766871980.7366149,0,0.6499996,99.72914,1,0.95,2025-04-20T22:59:42.035+03:00,100,1.666666666666667,2025-04-19T12:19:17.059+03:00,0.05691595998002078,0
2025-04-20T23:00:47.697+03:00,1745179246.460543,40.98553810758849,29.1374092842291,83.50758,-1,-1,-1,-1,30.00216584921526,27.66431350007163,-9999,9713.558174541668,-0.62939453125,0.7073822021484375,-0.496429443359375,9713.553136541666,-2.47071030946917,-1.078039032936652,-0.7369113421985762,0.3154720664024353,-0.09613550454378128,-0.07801476866006851,0.01024937629699707,0.02088248729705811,-0.0940910279750824,XArbitraryZVertical,-0.5539100696791975,0.1342498786669963,-0.6951325551006494,0.438122473757824,-0.6524460911750793,0.6720038056373596,-0.3503212034702301,0,0,0,-1,-1,9674.059003125001,unknown,2,2025-04-20T22:59:17.430+03:00,2025-04-20T21:57:49.637+03:00,29,4.348656,0,0,23.86625,0,0,2025-04-20T22:59:32.906+03:00,766871980.7366149,0,0.6499996,99.72914,1,0.95,2025-04-20T22:59:42.035+03:00,100,1.666666666666667,2025-04-19T12:19:17.059+03:00,0.05691595998002078,0
2025-04-20T23:00:47.707+03:00,1745179246.460543,40.98553810758849,29.1374092842291,83.50758,-1,-1,-1,-1,30.00216584921526,27.66431350007163,-9999,9713.568249541668,-0.633392333984375,0.68731689453125,-0.521240234375,9713.563211541667,-2.46685563685499,-1.076155525634483,-0.7348288732922409,0.3830620050430298,-0.03123266622424126,-0.009424520656466484,0.01980608701705933,0.03893613815307617,-0.1270349621772766,XArbitraryZVertical,-0.5534186681968336,0.1327451059609304,-0.6952766955976823,0.4389723995846087,-0.6530153155326843,0.6704602241516113,-0.3522130250930786,0,0,0,-1,-1,9674.059003125001,unknown,2,2025-04-20T22:59:17.430+03:00,2025-04-20T21:57:49.637+03:00,29,4.348656,0,0,23.86625,0,0,2025-04-20T22:59:32.906+03:00,766871980.7366149,0,0.6499996,99.72914,1,0.95,2025-04-20T22:59:42.035+03:00,100,1.666666666666667,2025-04-19T12:19:17.059+03:00,0.05691595998002078,0
2025-04-20T23:00:47.717+03:00,1745179246.460543,40.98553810758849,29.1374092842291,83.50758,-1,-1,-1,-1,30.00216584921526,27.66431350007163,-9999,9713.578325541668,-0.6454620361328125,0.660003662109375,-0.552093505859375,9713.573287541667,-2.462592622124653,-1.073148317823704,-0.7332566938929814,0.3103422224521637,0.03555162250995636,0.02683678083121777,0.02357566356658936,0.03038352727890015,-0.1561862826347351,XArbitraryZVertical,-0.5525816800409308,0.131584661480389,-0.6955247136102876,0.4399821318677873,-0.6528786420822144,0.6692929267883301,-0.3546779155731201,0,0,0,-1,-1,9674.059003125001,unknown,2,2025-04-20T22:59:17.430+03:00,2025-04-20T21:57:49.637+03:00,29,4.348656,0,0,23.86625,0,0,2025-04-20T22:59:32.906+03:00,766871980.7366149,0,0.6499996,99.72914,1,0.95,2025-04-20T22:59:42.035+03:00,100,1.666666666666667,2025-04-19T12:19:17.059+03:00,0.05691595998002078,0
2025-04-20T23:00:47.727+03:00,1745179246.460543,40.98553810758849,29.1374092842291,83.50758,-1,-1,-1,-1,30.00216584921526,27.66431350007163,-9999,9713.588401541667,-0.6535491943359375,0.611968994140625,-0.603912353515625,9713.583363541667,-2.460100779676839,-1.07123446015662,-0.7326318032246329,0.0676824226975441,-0.01087153516709805,0.03326085582375526,0.01299351453781128,0.005716800689697266,-0.1773354113101959,XArbitraryZVertical,-0.5520499097957772,0.1310623360059593,-0.6956451817565608,0.4406147903478996,-0.6525657176971436,0.6688284873962402,-0.3561271131038666,0,0,0,-1,-1,9674.059003125001,unknown,2,2025-04-20T22:59:17.430+03:00,2025-04-20T21:57:49.637+03:00,29,4.348656,0,0,23.86625,0,0,2025-04-20T22:59:32.906+03:00,766871980.7366149,0,0.6499996,99.72914,1,0.95,2025-04-20T22:59:42.035+03:00,100,1.666666666666667,2025-04-19T12:19:17.059+03:00,0.05691595998002078,0
2025-04-20T23:00:47.738+03:00,1745179246.460543,40.98553810758849,29.1374092842291,83.50758,-1,-1,-1,-1,30.00216584921526,27.66431350007163,-9999,9713.598477541667,-0.6525115966796875,0.566253662109375,-0.651580810546875,9713.593439541668,-2.460961442566699,-1.072237570911531,-0.7336041662945736,-0.2709515392780304,-0.1062963232398033,0.07834471017122269,0.001777350902557373,-0.03127592802047729,-0.2218040823936462,XArbitraryZVertical,-0.5523887341661174,0.1314765733116386,-0.6953391596715363,0.4405497254246388,-0.6523510813713074,0.6695510149002075,-0.355161190032959,0,0,0,-1,-1,9674.059003125001,unknown,2,2025-04-20T22:59:17.430+03:00,2025-04-20T21:57:49.637+03:00,29,4.348656,0,0,23.86625,0,0,2025-04-20T22:59:32.906+03:00,766871980.7366149,0,0.6499996,99.72914,1,0.95,2025-04-20T22:59:42.035+03:00,100,1.666666666666667,2025-04-19T12:19:17.059+03:00,0.05691595998002078,0
2025-04-20T23:00:47.747+03:00,1745179246.460543,40.98553810758849,29.1374092842291,83.50758,-1,-1,-1,-1,30.00216584921526,27.66431350007163,-9999,9713.608553541668,-0.6362762451171875,0.5431365966796875,-0.6793365478515625,9713.603515541667,-2.465208898139815,-1.076848533563159,-0.7363592551147324,-0.5282001495361328,-0.2443255633115768,0.1025919914245605,-0.002475857734680176,-0.08475720882415771,-0.2779378592967987,XArbitraryZVertical,-0.5538388333254728,0.1327621816530256,-0.6943788322713073,0.4398575419819973,-0.6523550152778625,0.6715948581695557,-0.3512735068798065,0,0,0,-1,-1,9674.059003125001,unknown,2,2025-04-20T22:59:17.430+03:00,2025-04-20T21:57:49.637+03:00,29,4.348656,0,0,23.86625,0,0,2025-04-20T22:59:32.906+03:00,766871980.7366149,0,0.6499996,99.72914,1,0.95,2025-04-20T22:59:42.035+03:00,100,1.666666666666667,2025-04-19T12:19:17.059+03:00,0.05691595998002078,0
2025-04-20T23:00:47.758+03:00,1745179246.460543,40.98553810758849,29.1374092842291,83.50758,-1,-1,-1,-1,30.00216584921526,27.66431350007163,-9999,9713.618628541668,-0.6334991455078125,0.5382080078125,-0.66748046875,9713.613591541667,-2.471484140436922,-1.084201223090563,-0.7399834417930019,-0.5976375341415405,-0.3846831917762756,0.09307172894477844,0.008690953254699707,-0.122304379940033,-0.3234503567218781,XArbitraryZVertical,-0.5561311658773223,0.1343674676355981,-0.6929006513761782,0.4388075170661891,-0.6527643799781799,0.6742756962776184,-0.3453270196914673,0,0,0,-1,-1,9674.059003125001,unknown,2,2025-04-20T22:59:17.430+03:00,2025-04-20T21:57:49.637+03:00,29,4.348656,0,0,23.86625,0,0,2025-04-20T22:59:32.906+03:00,766871980.7366149,0,0.6499996,99.72914,1,0.95,2025-04-20T22:59:42.035+03:00,100,1.666666666666667,2025-04-19T12:19:17.059+03:00,0.05691595998002078,0
2025-04-20T23:00:47.768+03:00,1745179246.460543,40.98553810758849,29.1374092842291,83.50758,-1,-1,-1,-1,30.00216584921526,27.66431350007163,-9999,9713.628704541667,-0.643280029296875,0.5679473876953125,-0.6404571533203125,9713.623666541667,-2.477676822378602,-1.092486111053903,-0.7437638919447193,-0.5438309907913208,-0.4232907891273499,0.1474843770265579,0.0205075740814209,-0.1395414471626282,-0.3400252163410187,XArbitraryZVertical,-0.5587376617182475,0.135817927411705,-0.6910962941619049,0.4378943335562527,-0.6533352732658386,0.6770626306533813,-0.338731437921524,0,0,0,-1,-1,9674.059003125001,unknown,2,2025-04-20T22:59:17.430+03:00,2025-04-20T21:57:49.637+03:00,29,4.348656,0,0,23.86625,0,0,2025-04-20T22:59:32.906+03:00,766871980.7366149,0,0.6499996,99.72914,1,0.95,2025-04-20T22:59:42.035+03:00,100,1.666666666666667,2025-04-19T12:19:17.059+03:00,0.05691595998002078,0
2025-04-20T23:00:47.778+03:00,1745179246.460543,40.98553810758849,29.1374092842291,83.50758,-1,-1,-1,-1,30.00216584921526,27.66431350007163,-9999,9713.638780541667,-0.6579742431640625,0.625396728515625,-0.60260009765625,9713.633742541668,-2.484307986997468,-1.101786952766653,-0.7476691911722517,-0.6781765818595886,-0.4995919466018677,0.1013416424393654,0.01694792509078979,-0.1314696073532104,-0.3231898546218872,XArbitraryZVertical,-0.561646528413822,0.1372291787903875,-0.689059846910437,0.4369414074922626,-0.6540939211845398,0.6799314618110657,-0.331442654132843,0,0,0,-1,-1,9674.059003125001,unknown,2,2025-04-20T22:59:17.430+03:00,2025-04-20T21:57:49.637+03:00,29,4.348656,0,0,23.86625,0,0,2025-04-20T22:59:32.906+03:00,766871980.7366149,0,0.6499996,99.72914,1,0.95,2025-04-20T22:59:42.035+03:00,100,1.666666666666667,2025-04-19T12:19:17.059+03:00,0.05691595998002078,0
2025-04-20T23:00:47.788+03:00,1745179246.460543,40.98553810758849,29.1374092842291,83.50758,-1,-1,-1,-1,30.00216584921526,27.66431350007163,-9999,9713.648856541668,-0.6750030517578125,0.647796630859375,-0.5550689697265625,9713.643818541666,-2.492387246667337,-1.112630523273679,-0.7519838465396846,-0.7365663647651672,-0.5672010779380798,0.1500263661146164,0.006437361240386963,-0.08587527275085449,-0.3025497496128082,XArbitraryZVertical,-0.5649731175068912,0.138889732508674,-0.6867931884190557,0.4356950060503254,-0.6550122499465942,0.6830889582633972,-0.323030024766922,0,0,0,-1,-1,9674.059003125001,unknown,2,2025-04-20T22:59:17.430+03:00,2025-04-20T21:57:49.637+03:00,29,4.348656,0,0,23.86625,0,0,2025-04-20T22:59:32.906+03:00,766871980.7366149,0,0.6499996,99.72914,1,0.95,2025-04-20T22:59:42.035+03:00,100,1.666666666666667,2025-04-19T12:19:17.059+03:00,0.05691595998002078,0
2025-04-20T23:00:47.798+03:00,1745179246.460543,40.98553810758849,29.1374092842291,83.50758,-1,-1,-1,-1,30.00216584921526,27.66431350007163,-9999,9713.658932541668,-0.645843505859375,0.6696319580078125,-0.552947998046875,9713.653894541667,-2.500078350691392,-1.124152279359745,-0.7568346202225144,-0.6882081627845764,-0.6601291298866272,0.2318115085363388,-0.01653158664703369,-0.04482376575469971,-0.2603290975093842,XArbitraryZVertical,-0.5685413515961836,0.1405250337143845,-0.6841042697708741,0.4347582315609065,-0.655694305896759,0.6866236329078674,-0.3140268921852112,0,0,0,-1,-1,9674.059003125001,unknown,2,2025-04-20T22:59:17.430+03:00,2025-04-20T21:57:49.637+03:00,29,4.348656,0,0,23.86625,0,0,2025-04-20T22:59:32.906+03:00,766871980.7366149,0,0.6499996,99.72914,1,0.95,2025-04-20T22:59:42.035+03:00,100,1.666666666666667,2025-04-19T12:19:17.059+03:00,0.05691595998002078,0
2025-04-20T23:00:47.808+03:00,1745179246.460543,40.98553810758849,29.1374092842291,83.50758,-1,-1,-1,-1,30.00216584921526,27.66431350007163,-9999,9713.669008541667,-0.6244354248046875,0.7305908203125,-0.5404815673828125,9713.663970541667,-2.507050675288563,-1.136038120766049,-0.7623929962455273,-0.6734529733657837,-0.743285059928894,0.3304385840892792,-0.006719470024108887,-0.03704386949539185,-0.2459836304187775,XArbitraryZVertical,-0.5722646879156985,0.1421743266611774,-0.6809693230274927,0.4342582211662851,-0.6559086441993713,0.6906539797782898,-0.3045991659164429,0,0,0,-1,-1,9674.059003125001,unknown,2,2025-04-20T22:59:17.430+03:00,2025-04-20T21:57:49.637+03:00,29,4.348656,0,0,23.86625,0,0,2025-04-20T22:59:32.906+03:00,766871980.7366149,0,0.6499996,99.72914,1,0.95,2025-04-20T22:59:42.035+03:00,100,1.666666666666667,2025-04-19T12:19:17.059+03:00,0.05691595998002078,0
2025-04-20T23:00:47.818+03:00,1745179246.460543,40.98553810758849,29.1374092842291,83.50758,-1,-1,-1,-1,30.00216584921526,27.66431350007163,-9999,9713.679083541667,-0.5951690673828125,0.7883148193359375,-0.544464111328125,9713.674045541668,-2.512823974045105,-1.14802077372424,-0.768175713229286,-0.5555598735809326,-0.8592994809150696,0.3728519678115845,0.02174884080886841,0.002105474472045898,-0.2547454833984375,XArbitraryZVertical,-0.576068028045454,0.1435563038464328,-0.6774692881220781,0.4342494356032743,-0.6558582782745361,0.6948243975639343,-0.2950744330883026,0,0,0,-1,-1,9674.059003125001,unknown,2,2025-04-20T22:59:17.430+03:00,2025-04-20T21:57:49.637+03:00,29,4.348656,0,0,23.86625,0,0,2025-04-20T22:59:32.906+03:00,766872047.7996458,0,0.4799995,99.73148,1,0.95,2025-04-20T22:59:42.035+03:00,100,1.666666666666667,2025-04-19T12:19:17.059+03:00,0.05691595998002078,0
2025-04-20T23:00:47.828+03:00,1745179246.460543,40.98553810758849,29.1374092842291,83.50758,-1,-1,-1,-1,30.00216584921526,27.66431350007163,-9999,9713.689159541667,-0.5714569091796875,0.8214874267578125,-0.55731201171875,9713.684121541668,-2.517512193767593,-1.160653048884457,-0.7739323726414074,-0.5218871235847473,-0.9942200183868408,0.3975357413291931,0.04504495859146118,0.06418478488922119,-0.2518208026885986,XArbitraryZVertical,-0.5801237598558481,0.1444755728332101,-0.6735250298336652,0.4346806209004874,-0.6558542847633362,0.6989529132843018,-0.285166472196579,0,0,0,-1,-1,9674.059003125001,unknown,2,2025-04-20T22:59:17.430+03:00,2025-04-20T21:57:49.637+03:00,29,4.348656,0,0,23.86625,0,0,2025-04-20T22:59:32.906+03:00,766872047.7996458,0,0.4799995,99.73148,1,0.95,2025-04-20T22:59:42.035+03:00,100,1.666666666666667,2025-04-19T12:19:17.059+03:00,0.05691595998002078,0
2025-04-20T23:00:47.838+03:00,1745179246.460543,40.98553810758849,29.1374092842291,83.50758,-1,-1,-1,-1,30.00216584921526,27.66431350007163,-9999,9713.699235541668,-0.551239013671875,0.8242645263671875,-0.5587005615234375,9713.694197541667,-2.521879028526068,-1.174344722017179,-0.7795729137139606,-0.4697521328926086,-1.128583073616028,0.3905033469200134,0.07470524311065674,0.1032528281211853,-0.2808321714401245,XArbitraryZVertical,-0.5845097536840401,0.1450228228796578,-0.6691996474991881,0.4353026502456224,-0.6560497879981995,0.7029757499694824,-0.2746334671974182,0,0,0,-1,-1,9674.059003125001,unknown,2,2025-04-20T22:59:17.430+03:00,2025-04-20T21:57:49.637+03:00,29,4.348656,0,0,23.86625,0,0,2025-04-20T22:59:32.906+03:00,766872047.7996458,0,0.4799995,99.73148,1,0.95,2025-04-20T22:59:42.035+03:00,100,1.666666666666667,2025-04-19T12:19:17.059+03:00,0.05691595998002078,0
2025-04-20T23:00:47.848+03:00,1745179246.460543,40.98553810758849,29.1374092842291,83.50758,-1,-1,-1,-1,30.00216584921526,27.66431350007163,-9999,9713.709311541666,-0.53704833984375,0.7881927490234375,-0.572265625,9713.704273541667,-2.525997311094501,-1.189259030905917,-0.7849269547922713,-0.4822583496570587,-1.235439777374268,0.3761502206325531,0.0948331356048584,0.122327983379364,-0.2920520901679993,XArbitraryZVertical,-0.5892668284873567,0.1451131184886222,-0.6644938500712407,0.4360672733057175,-0.6565701961517334,0.7067735195159912,-0.2634135782718658,0,0,0,-1,-1,9674.059003125001,unknown,2,2025-04-20T22:59:17.430+03:00,2025-04-20T21:57:49.637+03:00,29,4.348656,0,0,23.86625,0,0,2025-04-20T22:59:32.906+03:00,766872047.7996458,0,0.4799995,99.73148,1,0.95,2025-04-20T22:59:42.035+03:00,100,1.666666666666667,2025-04-19T12:19:17.059+03:00,0.05691595998002078,0
2025-04-20T23:00:47.858+03:00,1745179246.460543,40.98553810758849,29.1374092842291,83.50758,-1,-1,-1,-1,30.00216584921526,27.66431350007163,-9999,9713.719387541667,-0.542083740234375,0.72344970703125,-0.5718231201171875,9713.714349541668,-2.52979405795669,-1.204963165650063,-0.7907584053176729,-0.3987410068511963,-1.385839581489563,0.5268397927284241,0.1146820187568665,0.09875965118408203,-0.3167673349380493,XArbitraryZVertical,-0.5942595456250871,0.1451192780063191,-0.6593364779980693,0.437117085144636,-0.6567657589912415,0.7108868956565857,-0.2515919804573059,0,0,0,-1,-1,9674.059003125001,unknown,2,2025-04-20T22:59:17.430+03:00,2025-04-20T21:57:49.637+03:00,29,4.348656,0,0,23.86625,0,0,2025-04-20T22:59:32.906+03:00,766872047.7996458,0,0.4799995,99.73148,1,0.95,2025-04-20T22:59:42.035+03:00,100,1.666666666666667,2025-04-19T12:19:17.059+03:00,0.05691595998002078,0
2025-04-20T23:00:47.869+03:00,1745179246.460543,40.98553810758849,29.1374092842291,83.50758,-1,-1,-1,-1,30.00216584921526,27.66431350007163,-9999,9713.729462541667,-0.5291900634765625,0.6644439697265625,-0.56036376953125,9713.724425541668,-2.531665461451798,-1.221441382470894,-0.7972626189040802,-0.3242936730384827,-1.59320604801178,0.5853137373924255,0.1168671250343323,0.04372411966323853,-0.3325680792331696,XArbitraryZVertical,-0.5995889168971428,0.1446342078141613,-0.6533286381610579,0.4390165486382144,-0.656463623046875,0.7154462337493896,-0.2391481548547745,0,0,0,-1,-1,9674.059003125001,unknown,2,2025-04-20T22:59:17.430+03:00,2025-04-20T21:57:49.637+03:00,29,4.348656,0,0,23.86625,0,0,2025-04-20T22:59:32.906+03:00,766872047.7996458,0,0.4799995,99.73148,1,0.95,2025-04-20T22:59:42.035+03:00,100,1.666666666666667,2025-04-19T12:19:17.059+03:00,0.05691595998002078,0
2025-04-20T23:00:47.879+03:00,1745179246.460543,40.98553810758849,29.1374092842291,83.50758,-1,-1,-1,-1,30.00216584921526,27.66431350007163,-9999,9713.739538541668,-0.536102294921875,0.649688720703125,-0.50323486328125,9713.734500541666,-2.533244676688388,-1.239278364396831,-0.804313343180683,-0.3451426923274994,-1.735735177993774,0.6686781644821167,0.1180883646011353,-0.03181707859039307,-0.3445890247821808,XArbitraryZVertical,-0.6053106062337524,0.1439517539209523,-0.6466707907174131,0.4412410330976043,-0.6558385491371155,0.7203545570373535,-0.2257539182901382,0,0,0,-1,-1,9674.059003125001,unknown,2,2025-04-20T22:59:17.430+03:00,2025-04-20T21:57:49.637+03:00,29,4.348656,0,0,23.86625,0,0,2025-04-20T22:59:32.906+03:00,766872047.7996458,0,0.4799995,99.73148,1,0.95,2025-04-20T22:59:42.035+03:00,100,1.666666666666667,2025-04-19T12:19:17.059+03:00,0.05691595998002078,0
2025-04-20T23:00:47.889+03:00,1745179246.460543,40.98553810758849,29.1374092842291,83.50758,-1,-1,-1,-1,30.00216584921526,27.66431350007163,-9999,9713.749614541668,-0.5315093994140625,0.66656494140625,-0.4314117431640625,9713.744576541667,-2.534990939232368,-1.258975068711545,-0.8124606273301325,-0.4181540608406067,-1.9098140001297,0.7837317585945129,0.1243376731872559,-0.07330220937728882,-0.3256812691688538,XArbitraryZVertical,-0.6115317506917057,0.1433043158364698,-0.6391701151278183,0.4437953597375793,-0.6545500755310059,0.725981593132019,-0.2109855860471725,0,0,0,-1,-1,9674.059003125001,unknown,2,2025-04-20T22:59:17.430+03:00,2025-04-20T21:57:49.637+03:00,29,4.348656,0,0,23.86625,0,0,2025-04-20T22:59:32.906+03:00,766872047.7996458,0,0.4799995,99.73148,1,0.95,2025-04-20T22:59:42.035+03:00,100,1.666666666666667,2025-04-19T12:19:17.059+03:00,0.05691595998002078,0
2025-04-20T23:00:47.899+03:00,1745179246.460543,40.98553810758849,29.1374092842291,83.50758,-1,-1,-1,-1,30.00216584921526,27.66431350007163,-9999,9713.759690541667,-0.5413665771484375,0.7066650390625,-0.3549652099609375,9713.754652541667,-2.538817109374927,-1.281373670121649,-0.8219336530850638,-0.6397953033447266,-1.983438372612,0.8529587388038635,0.1164187788963318,-0.0789756178855896,-0.2719309329986572,XArbitraryZVertical,-0.6183459348529771,0.1431700001404715,-0.6309202866165794,0.4461951595503224,-0.6524904370307922,0.7324636578559875,-0.1943013072013855,0,0,0,-1,-1,9674.059003125001,unknown,2,2025-04-20T22:59:17.430+03:00,2025-04-20T21:57:49.637+03:00,29,4.348656,0,0,23.86625,0,0,2025-04-20T22:59:32.906+03:00,766872047.7996458,0,0.4799995,99.73148,1,0.95,2025-04-20T22:59:42.035+03:00,100,1.666666666666667,2025-04-19T12:19:17.059+03:00,0.05691595998002078,0
2025-04-20T23:00:47.909+03:00,1745179246.460543,40.98553810758849,29.1374092842291,83.50758,-1,-1,-1,-1,30.00216584921526,27.66431350007163,-9999,9713.769766541667,-0.554473876953125,0.710113525390625,-0.2627105712890625,9713.764728541668,-2.546025137420538,-1.307219594712904,-0.8325725158374356,-0.8596429228782654,-2.090887784957886,0.9072475433349609,0.116545557975769,-0.05202788114547729,-0.2211962789297104,XArbitraryZVertical,-0.625839931979943,0.1437270514434932,-0.6219958710080505,0.4480936436478469,-0.6497333645820618,0.7396650314331055,-0.1753338277339935,0,0,0,-1,-1,9674.059003125001,unknown,2,2025-04-20T22:59:17.430+03:00,2025-04-20T21:57:49.637+03:00,29,4.348656,0,0,23.86625,0,0,2025-04-20T22:59:32.906+03:00,766872047.7996458,0,0.4799995,99.73148,1,0.95,2025-04-20T22:59:42.035+03:00,100,1.666666666666667,2025-04-19T12:19:17.059+03:00,0.05691595998002078,0
2025-04-20T23:00:47.919+03:00,1745179246.460543,40.98553810758849,29.1374092842291,83.50758,-1,-1,-1,-1,30.00216584921526,27.66431350007163,-9999,9713.779842541668,-0.574920654296875,0.6869049072265625,-0.1958160400390625,9713.774804541667,-2.556109773718616,-1.335813836392173,-0.8441565449151422,-1.005083441734314,-2.076709985733032,0.996438205242157,0.09571957588195801,-0.03241479396820068,-0.1534095257520676,XArbitraryZVertical,-0.6337687423037942,0.1449029238393427,-0.6125289233572082,0.4496092318499733,-0.6461039781570435,0.7474110126495361,-0.1546806544065475,0,0,0,-1,-1,9674.059003125001,unknown,2,2025-04-20T22:59:17.430+03:00,2025-04-20T21:57:49.637+03:00,29,4.348656,0,0,23.86625,0,0,2025-04-20T22:59:32.906+03:00,766872047.7996458,0,0.4799995,99.73148,1,0.95,2025-04-20T22:59:42.035+03:00,100,1.666666666666667,2025-04-19T12:19:17.059+03:00,0.05691595998002078,0
2025-04-20T23:00:47.929+03:00,1745179246.460543,40.98553810758849,29.1374092842291,83.50758,-1,-1,-1,-1,30.00216584921526,27.66431350007163,-9999,9713.789917541668,-0.5992279052734375,0.65887451171875,-0.1458282470703125,9713.784880541667,-2.568117035134961,-1.36562627440574,-0.8569776652327307,-1.065207481384277,-2.046334028244019,1.155834436416626,0.08053761720657349,-0.05638915300369263,-0.09227269887924194,XArbitraryZVertical,-0.641667857580852,0.1468591782396519,-0.6027050970694817,0.451044619740277,-0.6409928798675537,0.7558672428131104,-0.133389487862587,0,0,0,-1,-1,9674.059003125001,unknown,2,2025-04-20T22:59:17.430+03:00,2025-04-20T21:57:49.637+03:00,29,4.348656,0,0,23.86625,0,0,2025-04-20T22:59:32.906+03:00,766872047.7996458,0,0.4799995,99.73148,1,0.95,2025-04-20T22:59:42.035+03:00,100,1.666666666666667,2025-04-19T12:19:17.059+03:00,0.05691595998002078,0
2025-04-20T23:00:47.939+03:00,1745179246.460543,40.98553810758849,29.1374092842291,83.50758,-1,-1,-1,-1,30.00216584921526,27.66431350007163,-9999,9713.799993541666,-0.5798492431640625,0.6431121826171875,-0.119903564453125,9713.794955541667,-2.580552972743323,-1.395340642444141,-0.8713701404515088,-1.048534989356995,-1.953760743141174,1.349433541297913,0.04135018587112427,-0.09213143587112427,-0.05737804621458054,XArbitraryZVertical,-0.6491933865431896,0.149532515134993,-0.5925304197611502,0.4528747569837746,-0.633894681930542,0.7652117013931274,-0.112375944852829,0,0,0,-1,-1,9674.059003125001,unknown,2,2025-04-20T22:59:17.430+03:00,2025-04-20T21:57:49.637+03:00,29,4.348656,0,0,23.86625,0,0,2025-04-20T22:59:32.906+03:00,766872047.7996458,0,0.4799995,99.73148,1,0.95,2025-04-20T22:59:42.035+03:00,100,1.666666666666667,2025-04-19T12:19:17.059+03:00,0.05691595998002078,0
2025-04-20T23:00:47.949+03:00,1745179246.460543,40.98553810758849,29.1374092842291,83.50758,-1,-1,-1,-1,30.00216584921526,27.66431350007163,-9999,9713.810069541667,-0.5442047119140625,0.6775970458984375,-0.1154327392578125,9713.805031541668,-2.593144130974859,-1.424781461276009,-0.8869492669535809,-1.018379211425781,-1.947719097137451,1.4461270570755,0.03162717819213867,-0.1282212138175964,-0.03591632097959518,XArbitraryZVertical,-0.6562914913469402,0.1527108276222337,-0.5821005686287173,0.4551040620159249,-0.6250566840171814,0.7751479744911194,-0.09192176163196564,0,0,0,-1,-1,9674.059003125001,unknown,2,2025-04-20T22:59:17.430+03:00,2025-04-20T21:57:49.637+03:00,29,4.348656,0,0,23.86625,0,0,2025-04-20T22:59:32.906+03:00,766872047.7996458,0,0.4799995,99.73148,1,0.95,2025-04-20T22:59:42.035+03:00,100,1.666666666666667,2025-04-19T12:19:17.059+03:00,0.05691595998002078,0
