loggingTime(txt),locationTimestamp_since1970(s),locationLatitude(WGS84),locationLongitude(WGS84),locationAltitude(m),locationSpeed(m/s),locationSpeedAccuracy(m/s),locationCourse(°),locationCourseAccuracy(°),locationVerticalAccuracy(m),locationHorizontalAccuracy(m),locationFloor(Z),accelerometerTimestamp_sinceReboot(s),accelerometerAccelerationX(G),accelerometerAccelerationY(G),accelerometerAccelerationZ(G),motionTimestamp_sinceReboot(s),motionYaw(rad),motionRoll(rad),motionPitch(rad),motionRotationRateX(rad/s),motionRotationRateY(rad/s),motionRotationRateZ(rad/s),motionUserAccelerationX(G),motionUserAccelerationY(G),motionUserAccelerationZ(G),motionAttitudeReferenceFrame(txt),motionQuaternionX(R),motionQuaternionY(R),motionQuaternionZ(R),motionQuaternionW(R),motionGravityX(G),motionGravityY(G),motionGravityZ(G),motionMagneticFieldX(µT),motionMagneticFieldY(µT),motionMagneticFieldZ(µT),motionHeading(°),motionMagneticFieldCalibrationAccuracy(Z),activityTimestamp_sinceReboot(s),activity(txt),activityActivityConfidence(Z),activityActivityStartDate(txt),pedometerStartDate(txt),pedometerNumberofSteps(N),pedometerAverageActivePace(s/m),pedometerCurrentPace(s/m),pedometerCurrentCadence(steps/s),pedometerDistance(m),pedometerFloorAscended(N),pedometerFloorDescended(N),pedometerEndDate(txt),altimeterTimestamp_sinceReboot(s),altimeterReset(bool),altimeterRelativeAltitude(m),altimeterPressure(kPa),batteryState(N),batteryLevel(R),heartRateBPMTimestamp(txt),heartRateBPM(N),heartRateBPS(R),heartRateVariabilityTimestamp(txt),heartRateVariability(ms),label
2025-04-18T11:13:32.383+03:00,1744964007.754961,40.95362129717808,29.14097204991264,92.63773,-1,-1,-1,-1,30,25.58828330858,-9999,63244.87586675,-0.7257080078125,0.7922210693359375,-0.18536376953125,63244.865791125,1.06391414219495,-1.295219502195139,-0.841896763986531,-0.4270134568214417,-0.3873519897460938,-0.2087615728378296,0.1271395087242126,0.06494426727294922,-0.001917779445648193,XArbitraryZVertical,-0.001573844836541532,-0.6398287529830227,0.5816609267738621,0.5022821329463518,-0.6409181952476501,0.7459077835083008,-0.1812333762645721,0,0,0,-1,-1,63242.35076375,unknown,2,2025-04-18T11:13:29.836+03:00,2025-04-17T15:44:39.500+03:00,7219,1.113714,0,0,5952.914,4,10,2025-04-18T11:13:14.360+03:00,766656809.9262178,0,107.53,100.5651,1,0.6,2025-04-18T11:13:29.294+03:00,87,1.45,2025-04-18T08:51:18.885+03:00,0.03057091307199995,1
2025-04-18T11:13:32.384+03:00,1744964007.754961,40.95362129717808,29.14097204991264,92.63773,-1,-1,-1,-1,30,25.58828330858,-9999,63244.88594175001,-0.7423095703125,0.7784271240234375,-0.1916961669921875,63244.87586675,1.057028296008183,-1.304197002169718,-0.8415733352623566,-0.3781591057777405,-0.3315252065658569,-0.08377861976623535,0.04599606990814209,0.03287214040756226,-0.006821870803833008,XArbitraryZVertical,-0.00105200640362269,-0.6420521495817983,0.5798884006538992,0.5014952289373721,-0.6427521109580994,0.7456923127174377,-0.1755358576774597,0,0,0,-1,-1,63242.35076375,unknown,2,2025-04-18T11:13:29.836+03:00,2025-04-17T15:44:39.500+03:00,7219,1.113714,0,0,5952.914,4,10,2025-04-18T11:13:14.360+03:00,766656809.9262178,0,107.53,100.5651,1,0.6,2025-04-18T11:13:29.294+03:00,87,1.45,2025-04-18T08:51:18.885+03:00,0.03057091307199995,1
2025-04-18T11:13:32.386+03:00,1744964007.754961,40.95362129717808,29.14097204991264,92.63773,-1,-1,-1,-1,30,25.58828330858,-9999,63244.89601775,-0.784881591796875,0.6427154541015625,-0.2129974365234375,63244.88594175001,1.053546368086124,-1.30874861549956,-0.8419990186980802,-0.1554541289806366,-0.05974214896559715,0.03111573867499828,-0.1109737157821655,0.06475412845611572,-0.01241028308868408,XArbitraryZVertical,-0.00101190594579793,-0.6432230227414462,0.5790854049194374,0.5009224303035366,-0.6432377099990845,0.7459759116172791,-0.1725262403488159,0,0,0,-1,-1,63242.35076375,unknown,2,2025-04-18T11:13:29.836+03:00,2025-04-17T15:44:39.500+03:00,7219,1.113714,0,0,5952.914,4,10,2025-04-18T11:13:14.360+03:00,766656809.9262178,0,107.53,100.5651,1,0.6,2025-04-18T11:13:29.294+03:00,87,1.45,2025-04-18T08:51:18.885+03:00,0.03057091307199995,1
2025-04-18T11:13:32.396+03:00,1744964007.754961,40.95362129717808,29.14097204991264,92.63773,-1,-1,-1,-1,30,25.58828330858,-9999,63244.90609275,-0.66595458984375,0.7448577880859375,-0.168914794921875,63244.89601775,1.050765374127431,-1.311660803404527,-0.8427612159009004,-0.2475499659776688,-0.1585182696580887,0.009058640338480473,-0.1073769330978394,-0.0317157506942749,-0.03391535580158234,XArbitraryZVertical,-0.001350291219673801,-0.6440069003919482,0.5785119987999306,0.5005770271637631,-0.6431878209114075,0.7464832663536072,-0.1705065816640854,0,0,0,-1,-1,63242.35076375,unknown,2,2025-04-18T11:13:29.836+03:00,2025-04-17T15:44:39.500+03:00,7219,1.113714,0,0,5952.914,4,10,2025-04-18T11:13:14.360+03:00,766656809.9262178,0,107.53,100.5651,1,0.6,2025-04-18T11:13:29.294+03:00,87,1.45,2025-04-18T08:51:18.885+03:00,0.03057091307199995,1
2025-04-18T11:13:32.408+03:00,1744964007.754961,40.95362129717808,29.14097204991264,92.63773,-1,-1,-1,-1,30,25.58828330858,-9999,63244.91616775,-0.5302734375,0.76397705078125,-0.157928466796875,63244.90609275,1.046424096717301,-1.317973699240653,-0.8432184478337791,-0.3168228566646576,-0.4552109837532043,-0.07157857716083527,-0.1261294484138489,-0.086417555809021,-0.03501278162002563,XArbitraryZVertical,-0.001096984192694636,-0.6456160655782955,0.5775035949182689,0.4996682193974168,-0.6439206600189209,0.746787428855896,-0.1663573831319809,0,0,0,-1,-1,63242.35076375,unknown,2,2025-04-18T11:13:29.836+03:00,2025-04-17T15:44:39.500+03:00,7219,1.113714,0,0,5952.914,4,10,2025-04-18T11:13:14.360+03:00,766656809.9262178,0,107.53,100.5651,1,0.6,2025-04-18T11:13:29.294+03:00,87,1.45,2025-04-18T08:51:18.885+03:00,0.03057091307199995,1
2025-04-18T11:13:32.416+03:00,1744964007.754961,40.95362129717808,29.14097204991264,92.63773,-1,-1,-1,-1,30,25.58828330858,-9999,63244.92624275001,-0.64495849609375,0.6600341796875,-0.206512451171875,63244.91616775,1.045166048246113,-1.320778053329428,-0.843406169066524,0.4566760361194611,0.6022400259971619,0.2293207943439484,0.04949182271957397,0.02992796897888184,0.007533907890319824,XArbitraryZVertical,-0.0007641949688196518,-0.6463290673678583,0.5772210675567342,0.4990733073472626,-0.6442489624023438,0.7469123005867004,-0.1645162999629974,0,0,0,-1,-1,63242.35076375,unknown,2,2025-04-18T11:13:29.836+03:00,2025-04-17T15:44:39.500+03:00,7219,1.113714,0,0,5952.914,4,10,2025-04-18T11:13:14.360+03:00,766656809.9262178,0,107.53,100.5651,1,0.6,2025-04-18T11:13:29.294+03:00,87,1.45,2025-04-18T08:51:18.885+03:00,0.03057091307199995,1
2025-04-18T11:13:32.426+03:00,1744964007.754961,40.95362129717808,29.14097204991264,92.63773,-1,-1,-1,-1,30,25.58828330858,-9999,63244.93631875001,-0.9237060546875,0.6955718994140625,-0.167144775390625,63244.92624275001,1.047463011217858,-1.314123332362454,-0.8442513231942426,-0.00449657067656517,0.6193665862083435,0.1322098672389984,0.1113247871398926,-0.01596760749816895,0.0001673698425292969,XArbitraryZVertical,-0.002261608110019402,-0.6447286884217848,0.5779259817671019,0.5003214108035947,-0.6425290703773499,0.7474739551544189,-0.168639600276947,0,0,0,-1,-1,63242.35076375,unknown,2,2025-04-18T11:13:29.836+03:00,2025-04-17T15:44:39.500+03:00,7219,1.113714,0,0,5952.914,4,10,2025-04-18T11:13:14.360+03:00,766656809.9262178,0,107.53,100.5651,1,0.6,2025-04-18T11:13:29.294+03:00,87,1.45,2025-04-18T08:51:18.885+03:00,0.03057091307199995,1
2025-04-18T11:13:32.436+03:00,1744964007.754961,40.95362129717808,29.14097204991264,92.63773,-1,-1,-1,-1,30,25.58828330858,-9999,63244.94639375,-0.52099609375,0.805816650390625,-0.148101806640625,63244.93631875001,1.047976737132176,-1.309875136641216,-0.8453305360097055,-0.001678147120401263,0.1835954040288925,0.05120742693543434,-0.15096515417099,-0.1154846549034119,-0.04005266726016998,XArbitraryZVertical,-0.003729231595668506,-0.6437440155176009,0.5782205075016514,0.5012394105615691,-0.6410270929336548,0.7481904625892639,-0.1711594760417938,0,0,0,-1,-1,63242.35076375,unknown,2,2025-04-18T11:13:29.836+03:00,2025-04-17T15:44:39.500+03:00,7219,1.113714,0,0,5952.914,4,10,2025-04-18T11:13:14.360+03:00,766656809.9262178,0,107.53,100.5651,1,0.6,2025-04-18T11:13:29.294+03:00,87,1.45,2025-04-18T08:51:18.885+03:00,0.03057091307199995,1
2025-04-18T11:13:32.446+03:00,1744964007.754961,40.95362129717808,29.14097204991264,92.63773,-1,-1,-1,-1,30,25.58828330858,-9999,63244.95646875,-0.4310455322265625,0.726348876953125,-0.1658782958984375,63244.94639375,1.047752078871652,-1.310405173886881,-0.8453270880083765,-0.02603781409561634,-0.1833514273166656,-0.03532533347606659,-0.1797569990158081,0.02135837078094482,0.02540409564971924,XArbitraryZVertical,-0.00364697515892065,-0.6438761889897028,0.5781646634873646,0.5011345394727068,-0.6411200761795044,0.7481881976127625,-0.1708203107118607,0,0,0,-1,-1,63242.35076375,unknown,2,2025-04-18T11:13:29.836+03:00,2025-04-17T15:44:39.500+03:00,7219,1.113714,0,0,5952.914,4,10,2025-04-18T11:13:14.360+03:00,766656809.9262178,0,107.53,100.5651,1,0.6,2025-04-18T11:13:29.294+03:00,87,1.45,2025-04-18T08:51:18.885+03:00,0.03057091307199995,1
2025-04-18T11:13:32.456+03:00,1744964007.754961,40.95362129717808,29.14097204991264,92.63773,-1,-1,-1,-1,30,25.58828330858,-9999,63244.96654475,-0.6264190673828125,0.7639007568359375,-0.1778717041015625,63244.95646875,1.047344153235774,-1.312570581582501,-0.8449371927934738,-0.00792246125638485,-0.1331718862056732,-0.03078757598996162,0.2262735962867737,0.02447050809860229,0.01150137186050415,XArbitraryZVertical,-0.003006039092996064,-0.6443895689328663,0.5780039185504351,0.5006641075594833,-0.6417704224586487,0.7479293942451477,-0.1695060878992081,0,0,0,-1,-1,63242.35076375,unknown,2,2025-04-18T11:13:29.836+03:00,2025-04-17T15:44:39.500+03:00,7219,1.113714,0,0,5952.914,4,10,2025-04-18T11:13:14.360+03:00,766656809.9262178,0,107.53,100.5651,1,0.6,2025-04-18T11:13:29.294+03:00,87,1.45,2025-04-18T08:51:18.885+03:00,0.03057091307199995,1
2025-04-18T11:13:32.466+03:00,1744964007.754961,40.95362129717808,29.14097204991264,92.63773,-1,-1,-1,-1,30,25.58828330858,-9999,63244.97661975001,-0.7152862548828125,0.76580810546875,-0.1783905029296875,63244.96654475,1.047417032367933,-1.312918696249209,-0.8448293111528598,0.02104847133159637,0.04731985554099083,0.02278830111026764,0.1391913890838623,-0.01577162742614746,-0.0006795972585678101,XArbitraryZVertical,-0.002841443811696406,-0.64446900829409,0.578005433925181,0.5005610457187502,-0.6419073939323425,0.7478578090667725,-0.1693032532930374,0,0,0,-1,-1,63242.35076375,unknown,2,2025-04-18T11:13:29.836+03:00,2025-04-17T15:44:39.500+03:00,7219,1.113714,0,0,5952.914,4,10,2025-04-18T11:13:14.360+03:00,766656809.9262178,0,107.53,100.5651,1,0.6,2025-04-18T11:13:29.294+03:00,87,1.45,2025-04-18T08:51:18.885+03:00,0.03057091307199995,1
2025-04-18T11:13:32.476+03:00,1744964007.754961,40.95362129717808,29.14097204991264,92.63773,-1,-1,-1,-1,30,25.58828330858,-9999,63244.98669475,-0.656646728515625,0.742523193359375,-0.1615142822265625,63244.97661975001,1.047901345834451,-1.311903205891491,-0.8450007173669505,0.02699664235115051,0.06156270951032639,0.03092185966670513,-0.03819835186004639,0.02500814199447632,-0.01100121438503265,XArbitraryZVertical,-0.003043275290519099,-0.6442279448891882,0.5781525443366305,0.5007002459327211,-0.6416112184524536,0.7479715943336487,-0.1699221879243851,0,0,0,-1,-1,63242.35076375,unknown,2,2025-04-18T11:13:29.836+03:00,2025-04-17T15:44:39.500+03:00,7219,1.113714,0,0,5952.914,4,10,2025-04-18T11:13:14.360+03:00,766656809.9262178,0,107.53,100.5651,1,0.6,2025-04-18T11:13:29.294+03:00,87,1.45,2025-04-18T08:51:18.885+03:00,0.03057091307199995,1
2025-04-18T11:13:32.486+03:00,1744964007.754961,40.95362129717808,29.14097204991264,92.63773,-1,-1,-1,-1,30,25.58828330858,-9999,63244.99677075,-0.594970703125,0.737396240234375,-0.1552276611328125,63244.98669475,1.048337760047308,-1.311373894131573,-0.845117638866861,0.01945723220705986,-0.02404859662055969,0.01433036755770445,-0.06319892406463623,0.00762706995010376,-0.0026121586561203,XArbitraryZVertical,-0.003099653876218769,-0.6441045863742547,0.5782796275454595,0.5007118700259489,-0.6414366960525513,0.7480491995811462,-0.1702393442392349,0,0,0,-1,-1,63242.35076375,unknown,2,2025-04-18T11:13:29.836+03:00,2025-04-17T15:44:39.500+03:00,7219,1.113714,0,0,5952.914,4,10,2025-04-18T11:13:14.360+03:00,766656809.9262178,0,107.53,100.5651,1,0.6,2025-04-18T11:13:29.294+03:00,87,1.45,2025-04-18T08:51:18.885+03:00,0.03057091307199995,1
2025-04-18T11:13:32.497+03:00,1744964007.754961,40.95362129717808,29.14097204991264,92.63773,-1,-1,-1,-1,30,25.58828330858,-9999,63245.00684575,-0.6128997802734375,0.73345947265625,-0.1612396240234375,63244.99677075,1.04859138022134,-1.311602220739581,-0.8451936450573405,0.01220917236059904,-0.05193242803215981,0.01568937860429287,0.01558136940002441,-0.008414506912231445,0.0125618577003479,XArbitraryZVertical,-0.002980513734086236,-0.644167641001298,0.5783555580793922,0.5005438127131505,-0.6414206624031067,0.7480996251106262,-0.1700783371925354,0,0,0,-1,-1,63242.35076375,unknown,2,2025-04-18T11:13:29.836+03:00,2025-04-17T15:44:39.500+03:00,7219,1.113714,0,0,5952.914,4,10,2025-04-18T11:13:14.360+03:00,766656809.9262178,0,107.53,100.5651,1,0.6,2025-04-18T11:13:29.294+03:00,87,1.45,2025-04-18T08:51:18.885+03:00,0.03057091307199995,1
2025-04-18T11:13:32.507+03:00,1744964007.754961,40.95362129717808,29.14097204991264,92.63773,-1,-1,-1,-1,30,25.58828330858,-9999,63245.01692075,-0.6484375,0.736785888671875,-0.16912841796875,63245.00684575,1.048848522863481,-1.311721108238325,-0.8453720835722822,0.009556397795677185,-0.01127234846353531,0.02861130237579346,0.04730230569839478,-0.01204252243041992,0.01367218792438507,XArbitraryZVertical,-0.002930259035006585,-0.6442107522954035,0.578448534919363,0.5003810541772589,-0.6413117051124573,0.7482179999351501,-0.169967845082283,0,0,0,-1,-1,63242.35076375,unknown,2,2025-04-18T11:13:29.836+03:00,2025-04-17T15:44:39.500+03:00,7219,1.113714,0,0,5952.914,4,10,2025-04-18T11:13:14.360+03:00,766656809.9262178,0,107.53,100.5651,1,0.6,2025-04-18T11:13:29.294+03:00,87,1.45,2025-04-18T08:51:18.885+03:00,0.03057091307199995,1
2025-04-18T11:13:32.517+03:00,1744964007.754961,40.95362129717808,29.14097204991264,92.63773,-1,-1,-1,-1,30,25.58828330858,-9999,63245.02699675001,-0.6438446044921875,0.7356109619140625,-0.1672821044921875,63245.01692075,1.049015313768877,-1.311561971302021,-0.8456751060143685,-0.004844912327826023,0.006529818288981915,0.03379594534635544,0.01144206523895264,-0.01459336280822754,0.005293205380439758,XArbitraryZVertical,-0.003036344515389884,-0.6441932115309708,0.5785382828557433,0.5002992583177858,-0.6410654783248901,0.7484190464019775,-0.1700117737054825,0,0,0,-1,-1,63242.35076375,unknown,2,2025-04-18T11:13:29.836+03:00,2025-04-17T15:44:39.500+03:00,7219,1.113714,0,0,5952.914,4,10,2025-04-18T11:13:14.360+03:00,766656812.5109538,0,107.51,100.565,1,0.6,2025-04-18T11:13:29.294+03:00,87,1.45,2025-04-18T08:51:18.885+03:00,0.03057091307199995,1
2025-04-18T11:13:32.527+03:00,1744964007.754961,40.95362129717808,29.14097204991264,92.63773,-1,-1,-1,-1,30,25.58828330858,-9999,63245.03707175,-0.6261138916015625,0.737091064453125,-0.1661529541015625,63245.02699675001,1.048954953299686,-1.311661610479899,-0.8459882426597296,-0.01782049797475338,-0.01938100904226303,0.02451769076287746,-0.01046550273895264,-0.01055908203125,0.0003475099802017212,XArbitraryZVertical,-0.00314454964748664,-0.644240783376047,0.5785731864734888,0.5001970007872939,-0.6408559083938599,0.7486266493797302,-0.1698878556489944,0,0,0,-1,-1,63242.35076375,unknown,2,2025-04-18T11:13:29.836+03:00,2025-04-17T15:44:39.500+03:00,7219,1.113714,0,0,5952.914,4,10,2025-04-18T11:13:14.360+03:00,766656812.5109538,0,107.51,100.565,1,0.6,2025-04-18T11:13:29.294+03:00,87,1.45,2025-04-18T08:51:18.885+03:00,0.03057091307199995,1
2025-04-18T11:13:32.537+03:00,1744964007.754961,40.95362129717808,29.14097204991264,92.63773,-1,-1,-1,-1,30,25.58828330858,-9999,63245.04714675,-0.6262969970703125,0.7526702880859375,-0.166656494140625,63245.03707175,1.048705986646548,-1.312113313086186,-0.8462450913214526,-0.02281712181866169,-0.03243156149983406,0.01660663820803165,0.004073679447174072,-0.01448297500610352,0.003426805138587952,XArbitraryZVertical,-0.003190520468592194,-0.6443719715432823,0.5785525453625026,0.5000515883408917,-0.6407467126846313,0.7487969398498535,-0.1695491671562195,0,0,0,-1,-1,63242.35076375,unknown,2,2025-04-18T11:13:29.836+03:00,2025-04-17T15:44:39.500+03:00,7219,1.113714,0,0,5952.914,4,10,2025-04-18T11:13:14.360+03:00,766656812.5109538,0,107.51,100.565,1,0.6,2025-04-18T11:13:29.294+03:00,87,1.45,2025-04-18T08:51:18.885+03:00,0.03057091307199995,1
2025-04-18T11:13:32.547+03:00,1744964007.754961,40.95362129717808,29.14097204991264,92.63773,-1,-1,-1,-1,30,25.58828330858,-9999,63245.05722275,-0.6343231201171875,0.7620086669921875,-0.1699371337890625,63245.04714675,1.048536686688566,-1.312574828717457,-0.8464526702461125,-0.008049893192946911,-0.03236205503344536,0.01792383752763271,0.01684951782226562,-0.006792664527893066,0.003396555781364441,XArbitraryZVertical,-0.00318955607884607,-0.6445020826911725,0.5785440000463633,0.4998939229503391,-0.6406747698783875,0.7489345073699951,-0.1692137867212296,0,0,0,-1,-1,63242.35076375,unknown,2,2025-04-18T11:13:29.836+03:00,2025-04-17T15:44:39.500+03:00,7219,1.113714,0,0,5952.914,4,10,2025-04-18T11:13:14.360+03:00,766656812.5109538,0,107.51,100.565,1,0.6,2025-04-18T11:13:29.294+03:00,87,1.45,2025-04-18T08:51:18.885+03:00,0.03057091307199995,1
2025-04-18T11:13:32.558+03:00,1744964007.754961,40.95362129717808,29.14097204991264,92.63773,-1,-1,-1,-1,30,25.58828330858,-9999,63245.06729775001,-0.6352386474609375,0.7633819580078125,-0.174224853515625,63245.05722275,1.048660205298242,-1.312809701415874,-0.8465852628062793,0.01792578026652336,-0.03394849970936775,0.01427903492003679,0.01140683889389038,0.008576512336730957,0.001221790909767151,XArbitraryZVertical,-0.003131511327430945,-0.6445705827207519,0.5785964061118258,0.4997451358148453,-0.6406182646751404,0.749022364616394,-0.1690379083156586,0,0,0,-1,-1,63242.35076375,unknown,2,2025-04-18T11:13:29.836+03:00,2025-04-17T15:44:39.500+03:00,7219,1.113714,0,0,5952.914,4,10,2025-04-18T11:13:14.360+03:00,766656812.5109538,0,107.51,100.565,1,0.6,2025-04-18T11:13:29.294+03:00,87,1.45,2025-04-18T08:51:18.885+03:00,0.03057091307199995,1
2025-04-18T11:13:32.567+03:00,1744964007.754961,40.95362129717808,29.14097204991264,92.63773,-1,-1,-1,-1,30,25.58828330858,-9999,63245.07737275001,-0.6351776123046875,0.7561798095703125,-0.1773223876953125,63245.06729775001,1.049158514784632,-1.312792575035964,-0.8466582312973244,0.04436744377017021,-0.03589267283678055,0.01815749518573284,0.006071567535400391,0.01426547765731812,-0.002153322100639343,XArbitraryZVertical,-0.003003248344505475,-0.644572349567015,0.5787325054521603,0.4995860036114149,-0.6405624747276306,0.7490707039833069,-0.1690349280834198,0,0,0,-1,-1,63242.35076375,unknown,2,2025-04-18T11:13:29.836+03:00,2025-04-17T15:44:39.500+03:00,7219,1.113714,0,0,5952.914,4,10,2025-04-18T11:13:14.360+03:00,766656812.5109538,0,107.51,100.565,1,0.6,2025-04-18T11:13:29.294+03:00,87,1.45,2025-04-18T08:51:18.885+03:00,0.03057091307199995,1
2025-04-18T11:13:32.577+03:00,1744964007.754961,40.95362129717808,29.14097204991264,92.63773,-1,-1,-1,-1,30,25.58828330858,-9999,63245.08744875,-0.6374664306640625,0.750823974609375,-0.18890380859375,63245.07737275001,1.049988003632807,-1.312492117925545,-0.8466944240016201,0.06635157018899918,-0.0251859687268734,0.02093197777867317,0.005765616893768311,0.01186114549636841,-0.005401074886322021,XArbitraryZVertical,-0.002836496215342528,-0.6445011362739707,0.5789449856669238,0.4994326967244579,-0.6404855251312256,0.7490946650505066,-0.1692204773426056,0,0,0,-1,-1,63242.35076375,unknown,2,2025-04-18T11:13:29.836+03:00,2025-04-17T15:44:39.500+03:00,7219,1.113714,0,0,5952.914,4,10,2025-04-18T11:13:14.360+03:00,766656812.5109538,0,107.51,100.565,1,0.6,2025-04-18T11:13:29.294+03:00,87,1.45,2025-04-18T08:51:18.885+03:00,0.03057091307199995,1
2025-04-18T11:13:32.587+03:00,1744964007.754961,40.95362129717808,29.14097204991264,92.63773,-1,-1,-1,-1,30,25.58828330858,-9999,63245.09752375,-0.6460723876953125,0.7623748779296875,-0.2088775634765625,63245.08744875,1.051474956839888,-1.311398004677621,-0.8467026076611286,0.1217590346932411,0.02643634751439095,0.0324249155819416,0.00429236888885498,0.004043161869049072,-0.01025615632534027,XArbitraryZVertical,-0.002677272376631209,-0.6442305982006966,0.5793160863970981,0.4993521968013497,-0.6402939558029175,0.7491000890731812,-0.1699195355176926,0,0,0,-1,-1,63242.35076375,unknown,2,2025-04-18T11:13:29.836+03:00,2025-04-17T15:44:39.500+03:00,7219,1.113714,0,0,5952.914,4,10,2025-04-18T11:13:14.360+03:00,766656812.5109538,0,107.51,100.565,1,0.6,2025-04-18T11:13:29.294+03:00,87,1.45,2025-04-18T08:51:18.885+03:00,0.03057091307199995,1
2025-04-18T11:13:32.598+03:00,1744964007.754961,40.95362129717808,29.14097204991264,92.63773,-1,-1,-1,-1,30,25.58828330858,-9999,63245.10759875,-0.657958984375,0.7801361083984375,-0.2221832275390625,63245.09752375,1.053726396033368,-1.309160660429176,-0.8466820307825947,0.167279377579689,0.08649435639381409,0.04183626174926758,0.0003549456596374512,0.003446459770202637,-0.02348373830318451,XArbitraryZVertical,-0.002593013527860219,-0.6436734020187068,0.579872052782116,0.4994258764158249,-0.639927089214325,0.7490864992141724,-0.1713556498289108,0,0,0,-1,-1,63242.35076375,unknown,2,2025-04-18T11:13:29.836+03:00,2025-04-17T15:44:39.500+03:00,7219,1.113714,0,0,5952.914,4,10,2025-04-18T11:13:14.360+03:00,766656812.5109538,0,107.51,100.565,1,0.6,2025-04-18T11:13:29.294+03:00,87,1.45,2025-04-18T08:51:18.885+03:00,0.03057091307199995,1
2025-04-18T11:13:32.608+03:00,1744964007.754961,40.95362129717808,29.14097204991264,92.63773,-1,-1,-1,-1,30,25.58828330858,-9999,63245.11767475001,-0.6588287353515625,0.772674560546875,-0.2192840576171875,63245.10759875,1.056511433136886,-1.305778415313234,-0.8466415182073119,0.1768285483121872,0.1729929000139236,0.0426255576312542,-0.01168876886367798,0.02152448892593384,-0.04229319095611572,XArbitraryZVertical,-0.002663334160391833,-0.6428291980363831,0.5805568609053587,0.4997173007977942,-0.6393733024597168,0.7490596175193787,-0.1735270619392395,0,0,0,-1,-1,63242.35076375,unknown,2,2025-04-18T11:13:29.836+03:00,2025-04-17T15:44:39.500+03:00,7219,1.113714,0,0,5952.914,4,10,2025-04-18T11:13:14.360+03:00,766656812.5109538,0,107.51,100.565,1,0.6,2025-04-18T11:13:29.294+03:00,87,1.45,2025-04-18T08:51:18.885+03:00,0.03057091307199995,1
2025-04-18T11:13:32.618+03:00,1744964007.754961,40.95362129717808,29.14097204991264,92.63773,-1,-1,-1,-1,30,25.58828330858,-9999,63245.12774975001,-0.666717529296875,0.75689697265625,-0.2174835205078125,63245.11767475001,1.058961634452139,-1.301627972551311,-0.8467632974213128,0.131958544254303,0.2946721911430359,0.0682065486907959,-0.01987242698669434,0.03001928329467773,-0.0457535982131958,XArbitraryZVertical,-0.003127607546159435,-0.6418042811678147,0.5811824684051575,0.5003044107552851,-0.6385595798492432,0.7491403222084045,-0.1761549711227417,0,0,0,-1,-1,63242.35076375,unknown,2,2025-04-18T11:13:29.836+03:00,2025-04-17T15:44:39.500+03:00,7219,1.113714,0,0,5952.914,4,10,2025-04-18T11:13:14.360+03:00,766656812.5109538,0,107.51,100.565,1,0.6,2025-04-18T11:13:29.294+03:00,87,1.45,2025-04-18T08:51:18.885+03:00,0.03057091307199995,1
2025-04-18T11:13:32.628+03:00,1744964007.754961,40.95362129717808,29.14097204991264,92.63773,-1,-1,-1,-1,30,25.58828330858,-9999,63245.13782475,-0.6830596923828125,0.7454986572265625,-0.23345947265625,63245.12774975001,1.061484670854334,-1.295161573068157,-0.8468791169959912,0.09890471398830414,0.5956472158432007,0.0378478430211544,-0.02338188886642456,0.01904779672622681,-0.03750133514404297,XArbitraryZVertical,-0.004242653290432756,-0.6401980822917991,0.5818204694363159,0.5016108750869255,-0.6373237371444702,0.7492170333862305,-0.1802568286657333,0,0,0,-1,-1,63242.35076375,unknown,2,2025-04-18T11:13:29.836+03:00,2025-04-17T15:44:39.500+03:00,7219,1.113714,0,0,5952.914,4,10,2025-04-18T11:13:14.360+03:00,766656812.5109538,0,107.51,100.565,1,0.6,2025-04-18T11:13:29.294+03:00,87,1.45,2025-04-18T08:51:18.885+03:00,0.03057091307199995,1
2025-04-18T11:13:32.638+03:00,1744964007.754961,40.95362129717808,29.14097204991264,92.63773,-1,-1,-1,-1,30,25.58828330858,-9999,63245.14789975,-0.7115936279296875,0.749603271484375,-0.278839111328125,63245.13782475,1.062543700948298,-1.286383512714158,-0.8472727473172734,0.01727217435836792,0.9964854121208191,0.07848821580410004,-0.03567832708358765,-0.0008661150932312012,-0.03504838049411774,XArbitraryZVertical,-0.006606808373374209,-0.6380247455716286,0.582123222616499,0.503997559212547,-0.6354338526725769,0.7494776844978333,-0.1857615411281586,0,0,0,-1,-1,63242.35076375,unknown,2,2025-04-18T11:13:29.836+03:00,2025-04-17T15:44:39.500+03:00,7219,1.113714,0,0,5952.914,4,10,2025-04-18T11:13:14.360+03:00,766656812.5109538,0,107.51,100.565,1,0.6,2025-04-18T11:13:29.294+03:00,87,1.45,2025-04-18T08:51:18.885+03:00,0.03057091307199995,1
2025-04-18T11:13:32.648+03:00,1744964007.754961,40.95362129717808,29.14097204991264,92.63773,-1,-1,-1,-1,30,25.58828330858,-9999,63245.15797575,-0.7197265625,0.7464599609375,-0.3550872802734375,63245.14789975,1.062641384005551,-1.27360543174853,-0.8482548851231186,-0.07568026334047318,1.350633025169373,0.1647408753633499,-0.06070441007614136,-0.001912772655487061,-0.05120766162872314,XArbitraryZVertical,-0.01066589385328804,-0.6348710113565889,0.5822411735528807,0.5077600653750333,-0.6323040723800659,0.7501274943351746,-0.1936500817537308,0,0,0,-1,-1,63242.35076375,unknown,2,2025-04-18T11:13:29.836+03:00,2025-04-17T15:44:39.500+03:00,7219,1.113714,0,0,5952.914,4,10,2025-04-18T11:13:14.360+03:00,766656812.5109538,0,107.51,100.565,1,0.6,2025-04-18T11:13:29.294+03:00,87,1.45,2025-04-18T08:51:18.885+03:00,0.03057091307199995,1
2025-04-18T11:13:32.676+03:00,1744964007.754961,40.95362129717808,29.14097204991264,92.63773,-1,-1,-1,-1,30,25.58828330858,-9999,63245.16805075001,-0.633819580078125,0.7591705322265625,-0.41204833984375,63245.15797575,1.06505507852652,-1.257249097012556,-0.8508808756026548,0.1815683096647263,1.536815881729126,0.2837338447570801,-0.09393894672393799,-0.0048065185546875,-0.1049614250659943,XArbitraryZVertical,-0.01566113691575581,-0.6309325870970875,0.5831369430378663,0.5114978727981663,-0.6271761655807495,0.7518614530563354,-0.2033575922250748,0,0,0,-1,-1,63242.35076375,unknown,2,2025-04-18T11:13:29.836+03:00,2025-04-17T15:44:39.500+03:00,7219,1.113714,0,0,5952.914,4,10,2025-04-18T11:13:14.360+03:00,766656812.5109538,0,107.51,100.565,1,0.6,2025-04-18T11:13:29.294+03:00,87,1.45,2025-04-18T08:51:18.885+03:00,0.03057091307199995,1
2025-04-18T11:13:32.677+03:00,1744964007.754961,40.95362129717808,29.14097204991264,92.63773,-1,-1,-1,-1,30,25.58828330858,-9999,63245.17812575,-0.43841552734375,0.7154083251953125,-0.4588470458984375,63245.16805075001,1.073670384300753,-1.238452493184606,-0.8512112947583411,0.6225614547729492,0.7132073044776917,0.03920615464448929,-0.07619524002075195,-0.0003703832626342773,-0.1621685326099396,XArbitraryZVertical,-0.01856919125549152,-0.6262114998487448,0.5852340467973555,0.514796450731874,-0.6230082511901855,0.7520793080329895,-0.2150286883115768,0,0,0,-1,-1,63242.35076375,unknown,2,2025-04-18T11:13:29.836+03:00,2025-04-17T15:44:39.500+03:00,7219,1.113714,0,0,5952.914,4,10,2025-04-18T11:13:14.360+03:00,766656812.5109538,0,107.51,100.565,1,0.6,2025-04-18T11:13:29.294+03:00,87,1.45,2025-04-18T08:51:18.885+03:00,0.03057091307199995,1
2025-04-18T11:13:32.678+03:00,1744964007.754961,40.95362129717808,29.14097204991264,92.63773,-1,-1,-1,-1,30,25.58828330858,-9999,63245.18820175,-0.2878570556640625,0.632659912109375,-0.4976348876953125,63245.17812575,1.083138439641585,-1.228145983906535,-0.848810794689274,0.7765848636627197,-0.01884824223816395,-0.0399874672293663,0.04665207862854004,0.003304481506347656,-0.2108323574066162,XArbitraryZVertical,-0.01771990820477445,-0.6234291551679091,0.5872448952362279,0.5159124017614763,-0.6224578022956848,0.7504950165748596,-0.2220441848039627,0,0,0,-1,-1,63242.35076375,unknown,2,2025-04-18T11:13:29.836+03:00,2025-04-17T15:44:39.500+03:00,7219,1.113714,0,0,5952.914,4,10,2025-04-18T11:13:14.360+03:00,766656812.5109538,0,107.51,100.565,1,0.6,2025-04-18T11:13:29.294+03:00,87,1.45,2025-04-18T08:51:18.885+03:00,0.03057091307199995,1
2025-04-18T11:13:32.688+03:00,1744964007.754961,40.95362129717808,29.14097204991264,92.63773,-1,-1,-1,-1,30,25.58828330858,-9999,63245.19827675,-0.4256134033203125,0.766876220703125,-0.5244598388671875,63245.18820175,1.095510899400779,-1.221011266616073,-0.8451019807583383,1.006641387939453,-0.3818785846233368,-0.09380272775888443,0.2711276412010193,-0.07331037521362305,-0.2423709630966187,XArbitraryZVertical,-0.01455902594765139,-0.6213470058693695,0.5898697527941577,0.515528533838386,-0.6234683394432068,0.7480387687683105,-0.2274318635463715,0,0,0,-1,-1,63242.35076375,unknown,2,2025-04-18T11:13:29.836+03:00,2025-04-17T15:44:39.500+03:00,7219,1.113714,0,0,5952.914,4,10,2025-04-18T11:13:14.360+03:00,766656812.5109538,0,107.51,100.565,1,0.6,2025-04-18T11:13:29.294+03:00,87,1.45,2025-04-18T08:51:18.885+03:00,0.03057091307199995,1
2025-04-18T11:13:32.698+03:00,1744964007.754961,40.95362129717808,29.14097204991264,92.63773,-1,-1,-1,-1,30,25.58828330858,-9999,63245.20835175001,-0.5990447998046875,0.824310302734375,-0.521026611328125,63245.19827675,1.110977778325333,-1.214233780695296,-0.8405685226047451,1.18504273891449,-0.5539869666099548,-0.01226925197988749,0.3108903765678406,-0.08776533603668213,-0.2827304005622864,XArbitraryZVertical,-0.01004349155055467,-0.6192595397297831,0.5932014021277416,0.5143237670061751,-0.6250841617584229,0.7450224757194519,-0.2328335046768188,0,0,0,-1,-1,63242.35076375,unknown,2,2025-04-18T11:13:29.836+03:00,2025-04-17T15:44:39.500+03:00,7219,1.113714,0,0,5952.914,4,10,2025-04-18T11:13:14.360+03:00,766656812.5109538,0,107.51,100.565,1,0.6,2025-04-18T11:13:29.294+03:00,87,1.45,2025-04-18T08:51:18.885+03:00,0.03057091307199995,1
2025-04-18T11:13:32.708+03:00,1744964007.754961,40.95362129717808,29.14097204991264,92.63773,-1,-1,-1,-1,30,25.58828330858,-9999,63245.21842775001,-0.7047271728515625,0.6831207275390625,-0.5256805419921875,63245.20835175001,1.127549728995951,-1.207835405579689,-0.8371638931597921,1.060457706451416,-0.62205970287323,0.1484930068254471,0.1256440877914429,0.07899969816207886,-0.2836653590202332,XArbitraryZVertical,-0.005531250771368177,-0.6173375860255921,0.5969825640818077,0.5123237103523453,-0.6259492635726929,0.7427471280097961,-0.2377274185419083,0,0,0,-1,-1,63242.35076375,unknown,2,2025-04-18T11:13:29.836+03:00,2025-04-17T15:44:39.500+03:00,7219,1.113714,0,0,5952.914,4,10,2025-04-18T11:13:14.360+03:00,766656812.5109538,0,107.51,100.565,1,0.6,2025-04-18T11:13:29.294+03:00,87,1.45,2025-04-18T08:51:18.885+03:00,0.03057091307199995,1
2025-04-18T11:13:32.718+03:00,1744964007.754961,40.95362129717808,29.14097204991264,92.63773,-1,-1,-1,-1,30,25.58828330858,-9999,63245.22850275,-0.776397705078125,0.596466064453125,-0.5275115966796875,63245.21842775001,1.141299650060977,-1.204351555597296,-0.8362004999312073,0.6875463724136353,-0.6805350184440613,0.3359276056289673,-0.01746457815170288,0.03695100545883179,-0.2833813428878784,XArbitraryZVertical,-0.001967815077604268,-0.6163721823083059,0.6003647941870688,0.5095522928175769,-0.6257848739624023,0.7421017289161682,-0.2401629239320755,0,0,0,-1,-1,63242.35076375,unknown,2,2025-04-18T11:13:29.836+03:00,2025-04-17T15:44:39.500+03:00,7219,1.113714,0,0,5952.914,4,10,2025-04-18T11:13:14.360+03:00,766656812.5109538,0,107.51,100.565,1,0.6,2025-04-18T11:13:29.294+03:00,87,1.45,2025-04-18T08:51:18.885+03:00,0.03057091307199995,1
2025-04-18T11:13:32.728+03:00,1744964007.754961,40.95362129717808,29.14097204991264,92.63773,-1,-1,-1,-1,30,25.58828330858,-9999,63245.23857775,-0.80291748046875,0.5998382568359375,-0.5185699462890625,63245.22850275,1.149620041512682,-1.204238933864592,-0.8384157453304949,0.1839340627193451,-0.5247103571891785,0.4485298693180084,-0.1119081974029541,-0.1074458360671997,-0.2866776883602142,XArbitraryZVertical,-0.000276119744908805,-0.6165858590247325,0.6027587688914902,0.5064618532940163,-0.6242215633392334,0.7435847520828247,-0.2396436035633087,0,0,0,-1,-1,63242.35076375,unknown,2,2025-04-18T11:13:29.836+03:00,2025-04-17T15:44:39.500+03:00,7219,1.113714,0,0,5952.914,4,10,2025-04-18T11:13:14.360+03:00,766656812.5109538,0,107.51,100.565,1,0.6,2025-04-18T11:13:29.294+03:00,87,1.45,2025-04-18T08:51:18.885+03:00,0.03057091307199995,1
2025-04-18T11:13:32.738+03:00,1744964007.754961,40.95362129717808,29.14097204991264,92.63773,-1,-1,-1,-1,30,25.58828330858,-9999,63245.24865375,-0.7580108642578125,0.64776611328125,-0.4981536865234375,63245.23857775,1.151874189596557,-1.20723960019426,-0.842682420593323,-0.1575423032045364,-0.4286102056503296,0.4476065635681152,-0.1702845692634583,-0.1553205847740173,-0.2914064526557922,XArbitraryZVertical,-0.00028996413885531,-0.6178028315987735,0.6038648042105742,0.5036536110194397,-0.621967077255249,0.7464308738708496,-0.2366391569375992,0,0,0,-1,-1,63242.35076375,unknown,2,2025-04-18T11:13:29.836+03:00,2025-04-17T15:44:39.500+03:00,7219,1.113714,0,0,5952.914,4,10,2025-04-18T11:13:14.360+03:00,766656812.5109538,0,107.51,100.565,1,0.6,2025-04-18T11:13:29.294+03:00,87,1.45,2025-04-18T08:51:18.885+03:00,0.03057091307199995,1
2025-04-18T11:13:32.749+03:00,1744964007.754961,40.95362129717808,29.14097204991264,92.63773,-1,-1,-1,-1,30,25.58828330858,-9999,63245.25872875001,-0.6649627685546875,0.76348876953125,-0.4614105224609375,63245.24865375,1.152182365378064,-1.211852797988408,-0.8472532792575738,-0.1052502766251564,-0.5514979362487793,0.4083040654659271,-0.1763677597045898,-0.1381824016571045,-0.2754749059677124,XArbitraryZVertical,-0.0005292764682438588,-0.6194485562117935,0.6045172026530128,0.5008414992874685,-0.6198511719703674,0.7494648098945618,-0.2325664162635803,0,0,0,-1,-1,63242.35076375,unknown,2,2025-04-18T11:13:29.836+03:00,2025-04-17T15:44:39.500+03:00,7219,1.113714,0,0,5952.914,4,10,2025-04-18T11:13:14.360+03:00,766656812.5109538,0,107.51,100.565,1,0.6,2025-04-18T11:13:29.294+03:00,87,1.45,2025-04-18T08:51:18.885+03:00,0.03057091307199995,1
2025-04-18T11:13:32.759+03:00,1744964007.754961,40.95362129717808,29.14097204991264,92.63773,-1,-1,-1,-1,30,25.58828330858,-9999,63245.26880375,-0.6103057861328125,0.8650054931640625,-0.36688232421875,63245.25872875001,1.153695063926282,-1.217225692150309,-0.8509859708138267,0.02981885895133018,-0.7397858500480652,0.3613173961639404,-0.1043763160705566,-0.06763505935668945,-0.2663968801498413,XArbitraryZVertical,0.0001549944929845705,-0.6211833351563678,0.6053647855174724,0.4976593841738867,-0.6184630990028381,0.7519307732582092,-0.2282624840736389,0,0,0,-1,-1,63242.35076375,unknown,2,2025-04-18T11:13:29.836+03:00,2025-04-17T15:44:39.500+03:00,7219,1.113714,0,0,5952.914,4,10,2025-04-18T11:13:14.360+03:00,766656812.5109538,0,107.51,100.565,1,0.6,2025-04-18T11:13:29.294+03:00,87,1.45,2025-04-18T08:51:18.885+03:00,0.03057091307199995,1
2025-04-18T11:13:32.769+03:00,1744964007.754961,40.95362129717808,29.14097204991264,92.63773,-1,-1,-1,-1,30,25.58828330858,-9999,63245.27887975,-0.5970611572265625,0.8820648193359375,-0.3231201171875,63245.26880375,1.156197433711265,-1.223434537844756,-0.854027978830765,0.06029374152421951,-0.8559907078742981,0.3155812323093414,-0.02103352546691895,0.057575523853302,-0.2008305191993713,XArbitraryZVertical,0.001666595557576598,-0.6230393311566937,0.6063659304606096,0.4941048864927391,-0.6177147030830383,0.7539327144622803,-0.2236384302377701,0,0,0,-1,-1,63242.35076375,unknown,2,2025-04-18T11:13:29.836+03:00,2025-04-17T15:44:39.500+03:00,7219,1.113714,0,0,5952.914,4,10,2025-04-18T11:13:14.360+03:00,766656812.5109538,0,107.51,100.565,1,0.6,2025-04-18T11:13:29.294+03:00,87,1.45,2025-04-18T08:51:18.885+03:00,0.03057091307199995,1
2025-04-18T11:13:32.779+03:00,1744964007.754961,40.95362129717808,29.14097204991264,92.63773,-1,-1,-1,-1,30,25.58828330858,-9999,63245.28895475,-0.598785400390625,0.9038238525390625,-0.2822113037109375,63245.27887975,1.1586832504326,-1.230490638706258,-0.8565360332397702,0.08634398877620697,-0.9217585325241089,0.2618066668510437,0.01570141315460205,0.1221686005592346,-0.1269080638885498,XArbitraryZVertical,0.003638307766110958,-0.6250324547787001,0.6072858217109732,0.490433603577151,-0.6174927949905396,0.7555779814720154,-0.218642383813858,0,0,0,-1,-1,63242.35076375,unknown,2,2025-04-18T11:13:29.836+03:00,2025-04-17T15:44:39.500+03:00,7219,1.113714,0,0,5952.914,4,10,2025-04-18T11:13:14.360+03:00,766656812.5109538,0,107.51,100.565,1,0.6,2025-04-18T11:13:29.294+03:00,87,1.45,2025-04-18T08:51:18.885+03:00,0.03057091307199995,1
2025-04-18T11:13:32.789+03:00,1744964007.754961,40.95362129717808,29.14097204991264,92.63773,-1,-1,-1,-1,30,25.58828330858,-9999,63245.29902975001,-0.5897979736328125,0.932647705078125,-0.221923828125,63245.28895475,1.161619689374114,-1.237989293436628,-0.858348743879732,0.1526812016963959,-1.010197997093201,0.2038377821445465,0.02049899101257324,0.1297258138656616,-0.09712603688240051,XArbitraryZVertical,0.00615424171113849,-0.6270430908935756,0.6082153216413317,0.4866758460728128,-0.6178196668624878,0.7567641735076904,-0.2135581821203232,0,0,0,-1,-1,63242.35076375,unknown,2,2025-04-18T11:13:29.836+03:00,2025-04-17T15:44:39.500+03:00,7219,1.113714,0,0,5952.914,4,10,2025-04-18T11:13:14.360+03:00,766656812.5109538,0,107.51,100.565,1,0.6,2025-04-18T11:13:29.294+03:00,87,1.45,2025-04-18T08:51:18.885+03:00,0.03057091307199995,1
2025-04-18T11:13:32.822+03:00,1744964007.754961,40.95362129717808,29.14097204991264,92.63773,-1,-1,-1,-1,30,25.58828330858,-9999,63245.30910575001,-0.583343505859375,0.91143798828125,-0.15509033203125,63245.29902975001,1.164904779094156,-1.246128507689813,-0.8594532132331233,0.1602922379970551,-1.095282077789307,0.1360534131526947,0.02208030223846436,0.1605746150016785,-0.05311191082000732,XArbitraryZVertical,0.009248273873654613,-0.6291156991025363,0.6091215800949713,0.4828031733710874,-0.6187447309494019,0.7574856877326965,-0.2082558125257492,0,0,0,-1,-1,63242.35076375,unknown,2,2025-04-18T11:13:29.836+03:00,2025-04-17T15:44:39.500+03:00,7219,1.113714,0,0,5952.914,4,10,2025-04-18T11:13:14.360+03:00,766656812.5109538,0,107.51,100.565,1,0.6,2025-04-18T11:13:29.294+03:00,87,1.45,2025-04-18T08:51:18.885+03:00,0.03057091307199995,1
2025-04-18T11:13:32.826+03:00,1744964007.754961,40.95362129717808,29.14097204991264,92.63773,-1,-1,-1,-1,30,25.58828330858,-9999,63245.31918075,-0.5986480712890625,0.8575592041015625,-0.086151123046875,63245.30910575001,1.16681400213294,-1.255816178786161,-0.8599567277830011,0.03381586447358131,-1.105712056159973,0.0359521396458149,0.03382259607315063,0.1732770204544067,0.006027817726135254,XArbitraryZVertical,0.01261289735368682,-0.6314855790240542,0.6095927659473243,0.4790236310235468,-0.6203705072402954,0.757814347743988,-0.2021337598562241,0,0,0,-1,-1,63242.35076375,unknown,2,2025-04-18T11:13:29.836+03:00,2025-04-17T15:44:39.500+03:00,7219,1.113714,0,0,5952.914,4,10,2025-04-18T11:13:14.360+03:00,766656812.5109538,0,107.51,100.565,1,0.6,2025-04-18T11:13:29.294+03:00,87,1.45,2025-04-18T08:51:18.885+03:00,0.03057091307199995,1
2025-04-18T11:13:32.829+03:00,1744964007.754961,40.95362129717808,29.14097204991264,92.63773,-1,-1,-1,-1,30,25.58828330858,-9999,63245.32925575,-0.63275146484375,0.820526123046875,-0.0211944580078125,63245.31918075,1.165967164961005,-1.267365180028589,-0.8600197809186123,-0.144046813249588,-1.047947764396667,-0.05262086912989616,0.03722971677780151,0.1331510543823242,0.06530290842056274,XArbitraryZVertical,0.01584065011858659,-0.6342541488923962,0.6093167709574703,0.475608995423727,-0.6226179003715515,0.7578554749488831,-0.1949414908885956,0,0,0,-1,-1,63242.35076375,unknown,2,2025-04-18T11:13:29.836+03:00,2025-04-17T15:44:39.500+03:00,7219,1.113714,0,0,5952.914,4,10,2025-04-18T11:13:14.360+03:00,766656812.5109538,0,107.51,100.565,1,0.6,2025-04-18T11:13:29.294+03:00,87,1.45,2025-04-18T08:51:18.885+03:00,0.03057091307199995,1
2025-04-18T11:13:32.831+03:00,1744964007.754961,40.95362129717808,29.14097204991264,92.63773,-1,-1,-1,-1,30,25.58828330858,-9999,63245.33933075,-0.6569061279296875,0.805023193359375,0.032989501953125,63245.32925575,1.161995209445539,-1.280449830376004,-0.8598592784826893,-0.34109827876091,-0.9475345611572266,-0.132537916302681,0.01536840200424194,0.08244389295578003,0.1272123008966446,XArbitraryZVertical,0.01862074210933734,-0.6373748692820937,0.6082409243965504,0.4727044672459924,-0.6252316832542419,0.7577507495880127,-0.186813086271286,0,0,0,-1,-1,63242.35076375,unknown,2,2025-04-18T11:13:29.836+03:00,2025-04-17T15:44:39.500+03:00,7219,1.113714,0,0,5952.914,4,10,2025-04-18T11:13:14.360+03:00,766656812.5109538,0,107.51,100.565,1,0.6,2025-04-18T11:13:29.294+03:00,87,1.45,2025-04-18T08:51:18.885+03:00,0.03057091307199995,1
2025-04-18T11:13:32.839+03:00,1744964007.754961,40.95362129717808,29.14097204991264,92.63773,-1,-1,-1,-1,30,25.58828330858,-9999,63245.34940675001,-0.660064697265625,0.7916412353515625,0.0740966796875,63245.33933075,1.154720883784853,-1.294947356901052,-0.8593535111409435,-0.5333124995231628,-0.8328407406806946,-0.2257176488637924,-0.01621198654174805,0.05652898550033569,0.1780322790145874,XArbitraryZVertical,0.02088671627821256,-0.6408173075969401,0.606313173751559,0.4704267503175375,-0.6282429695129395,0.7574205994606018,-0.1778338402509689,0,0,0,-1,-1,63242.35076375,unknown,2,2025-04-18T11:13:29.836+03:00,2025-04-17T15:44:39.500+03:00,7219,1.113714,0,0,5952.914,4,10,2025-04-18T11:13:14.360+03:00,766656812.5109538,0,107.51,100.565,1,0.6,2025-04-18T11:13:29.294+03:00,87,1.45,2025-04-18T08:51:18.885+03:00,0.03057091307199995,1
2025-04-18T11:13:32.849+03:00,1744964007.754961,40.95362129717808,29.14097204991264,92.63773,-1,-1,-1,-1,30,25.58828330858,-9999,63245.35948175001,-0.6568450927734375,0.78350830078125,0.0933074951171875,63245.34940675001,1.14450443192046,-1.310458531217808,-0.8583513194058853,-0.6800647974014282,-0.7146343588829041,-0.31780144572258,-0.02799373865127563,0.04337453842163086,0.2188005447387695,XArbitraryZVertical,0.02266855577411515,-0.6444799753074352,0.6036036479589522,0.4688224527791016,-0.6316590309143066,0.7567659020423889,-0.1682633906602859,0,0,0,-1,-1,63242.35076375,unknown,2,2025-04-18T11:13:29.836+03:00,2025-04-17T15:44:39.500+03:00,7219,1.113714,0,0,5952.914,4,10,2025-04-18T11:13:14.360+03:00,766656812.5109538,0,107.51,100.565,1,0.6,2025-04-18T11:13:29.294+03:00,87,1.45,2025-04-18T08:51:18.885+03:00,0.03057091307199995,1
2025-04-18T11:13:32.860+03:00,1744964007.754961,40.95362129717808,29.14097204991264,92.63773,-1,-1,-1,-1,30,25.58828330858,-9999,63245.36955675,-0.646759033203125,0.7779693603515625,0.0956878662109375,63245.35948175001,1.132796741817032,-1.326151404091458,-0.8565200936147853,-0.6916524767875671,-0.6522101163864136,-0.4174886047840118,-0.02428597211837769,0.03318989276885986,0.241994246840477,XArbitraryZVertical,0.02428889664996548,-0.6481335311254147,0.6004105589088994,0.4678037487510007,-0.6355652213096619,0.7555675506591797,-0.1586659550666809,0,0,0,-1,-1,63242.35076375,unknown,2,2025-04-18T11:13:29.836+03:00,2025-04-17T15:44:39.500+03:00,7219,1.113714,0,0,5952.914,4,10,2025-04-18T11:13:14.360+03:00,766656812.5109538,0,107.51,100.565,1,0.6,2025-04-18T11:13:29.294+03:00,87,1.45,2025-04-18T08:51:18.885+03:00,0.03057091307199995,1
2025-04-18T11:13:32.870+03:00,1744964007.754961,40.95362129717808,29.14097204991264,92.63773,-1,-1,-1,-1,30,25.58828330858,-9999,63245.37963275,-0.6362152099609375,0.7878570556640625,0.0959625244140625,63245.36955675,1.120738693152783,-1.341693022199367,-0.8535724138368919,-0.7038542628288269,-0.6269175410270691,-0.5124909281730652,-0.01397812366485596,0.02786093950271606,0.2447184175252914,XArbitraryZVertical,0.02611564706267183,-0.6516752681754785,0.5969510151092381,0.4672119855863412,-0.6401205062866211,0.7536333203315735,-0.1492746323347092,0,0,0,-1,-1,63242.35076375,unknown,2,2025-04-18T11:13:29.836+03:00,2025-04-17T15:44:39.500+03:00,7219,1.113714,0,0,5952.914,4,10,2025-04-18T11:13:14.360+03:00,766656812.5109538,0,107.51,100.565,1,0.6,2025-04-18T11:13:29.294+03:00,87,1.45,2025-04-18T08:51:18.885+03:00,0.03057091307199995,1
2025-04-18T11:13:32.880+03:00,1744964007.754961,40.95362129717808,29.14097204991264,92.63773,-1,-1,-1,-1,30,25.58828330858,-9999,63245.38970775,-0.6317901611328125,0.796295166015625,0.08770751953125,63245.37963275,1.108397709040295,-1.35720071842014,-0.8499271463350229,-0.7089435458183289,-0.6107220649719238,-0.5470025539398193,0.0031471848487854,0.02893435955047607,0.2361794114112854,XArbitraryZVertical,0.02804702102814764,-0.6551774806221462,0.5932901235455452,0.4668648385740657,-0.6450387239456177,0.7512323260307312,-0.1399116665124893,0,0,0,-1,-1,63242.35076375,unknown,2,2025-04-18T11:13:29.836+03:00,2025-04-17T15:44:39.500+03:00,7219,1.113714,0,0,5952.914,4,10,2025-04-18T11:13:14.360+03:00,766656812.5109538,0,107.51,100.565,1,0.6,2025-04-18T11:13:29.294+03:00,87,1.45,2025-04-18T08:51:18.885+03:00,0.03057091307199995,1
2025-04-18T11:13:32.890+03:00,1744964007.754961,40.95362129717808,29.14097204991264,92.63773,-1,-1,-1,-1,30,25.58828330858,-9999,63245.39978275001,-0.634674072265625,0.77838134765625,0.07989501953125,63245.38970775,1.096064518569222,-1.372616422419952,-0.8458038072228132,-0.7055261135101318,-0.6078852415084839,-0.5809029340744019,0.01659005880355835,0.04524266719818115,0.2243562787771225,XArbitraryZVertical,0.03007703239879941,-0.6586464353792538,0.5895227104654353,0.466629832226552,-0.6501503586769104,0.7485044002532959,-0.1305604875087738,0,0,0,-1,-1,63242.35076375,unknown,2,2025-04-18T11:13:29.836+03:00,2025-04-17T15:44:39.500+03:00,7219,1.113714,0,0,5952.914,4,10,2025-04-18T11:13:14.360+03:00,766656812.5109538,0,107.51,100.565,1,0.6,2025-04-18T11:13:29.294+03:00,87,1.45,2025-04-18T08:51:18.885+03:00,0.03057091307199995,1
2025-04-18T11:13:32.900+03:00,1744964007.754961,40.95362129717808,29.14097204991264,92.63773,-1,-1,-1,-1,30,25.58828330858,-9999,63245.40985875,-0.641082763671875,0.7613525390625,0.0606842041015625,63245.39978275001,1.084165268047941,-1.38740400377906,-0.8413966482913249,-0.6726797819137573,-0.5601262450218201,-0.5730149149894714,0.0234871506690979,0.04716527462005615,0.2069515585899353,XArbitraryZVertical,0.03211709940178387,-0.6619683463912099,0.5857833012267988,0.4665023126099714,-0.6552468538284302,0.7455745935440063,-0.1215327978134155,0,0,0,-1,-1,63242.35076375,unknown,2,2025-04-18T11:13:29.836+03:00,2025-04-17T15:44:39.500+03:00,7219,1.113714,0,0,5952.914,4,10,2025-04-18T11:13:14.360+03:00,766656812.5109538,0,107.51,100.565,1,0.6,2025-04-18T11:13:29.294+03:00,87,1.45,2025-04-18T08:51:18.885+03:00,0.03057091307199995,1
2025-04-18T11:13:32.910+03:00,1744964007.754961,40.95362129717808,29.14097204991264,92.63773,-1,-1,-1,-1,30,25.58828330858,-9999,63245.41993375,-0.638519287109375,0.736114501953125,0.0533599853515625,63245.40985875,1.072869175537031,-1.401332822482707,-0.8369082832209626,-0.6514984965324402,-0.5417538285255432,-0.571587860584259,0.02312862873077393,0.02718418836593628,0.187146008014679,XArbitraryZVertical,0.03408614584766964,-0.6651009438351381,0.5821487558008468,0.4664566021174327,-0.6601678729057312,0.7425759434700012,-0.112957738339901,0,0,0,-1,-1,63242.35076375,unknown,2,2025-04-18T11:13:29.836+03:00,2025-04-17T15:44:39.500+03:00,7219,1.113714,0,0,5952.914,4,10,2025-04-18T11:13:14.360+03:00,766656812.5109538,0,107.51,100.565,1,0.6,2025-04-18T11:13:29.294+03:00,87,1.45,2025-04-18T08:51:18.885+03:00,0.03057091307199995,1
2025-04-18T11:13:32.920+03:00,1744964007.754961,40.95362129717808,29.14097204991264,92.63773,-1,-1,-1,-1,30,25.58828330858,-9999,63245.43000875,-0.6321258544921875,0.6716156005859375,0.0706634521484375,63245.41993375,1.061752358304672,-1.415179016350388,-0.8320871877771612,-0.6653884649276733,-0.5760151147842407,-0.6128825545310974,0.02373337745666504,0.01705509424209595,0.1588797569274902,XArbitraryZVertical,0.0361659010252672,-0.668215535186124,0.5784633080226274,0.4664335987030352,-0.6651976704597473,0.7393383383750916,-0.1043600514531136,0,0,0,-1,-1,63242.35076375,unknown,2,2025-04-18T11:13:29.836+03:00,2025-04-17T15:44:39.500+03:00,7219,1.113714,0,0,5952.914,4,10,2025-04-18T11:13:14.360+03:00,766656812.5109538,0,107.51,100.565,1,0.6,2025-04-18T11:13:29.294+03:00,87,1.45,2025-04-18T08:51:18.885+03:00,0.03057091307199995,1
2025-04-18T11:13:32.930+03:00,1744964007.754961,40.95362129717808,29.14097204991264,92.63773,-1,-1,-1,-1,30,25.58828330858,-9999,63245.44008475001,-0.6383819580078125,0.62310791015625,0.11505126953125,63245.43000875,1.050315105565808,-1.429644416864629,-0.8267823728857208,-0.6974942684173584,-0.6215270161628723,-0.6605104207992554,0.03534883260726929,-0.02097338438034058,0.1525591015815735,XArbitraryZVertical,0.03844517991291538,-0.6714783677636273,0.5745653733537784,0.4663833263253856,-0.6705111861228943,0.7357560396194458,-0.09527754038572311,0,0,0,-1,-1,63242.35076375,unknown,2,2025-04-18T11:13:29.836+03:00,2025-04-17T15:44:39.500+03:00,7219,1.113714,0,0,5952.914,4,10,2025-04-18T11:13:14.360+03:00,766656812.5109538,0,107.51,100.565,1,0.6,2025-04-18T11:13:29.294+03:00,87,1.45,2025-04-18T08:51:18.885+03:00,0.03057091307199995,1
2025-04-18T11:13:32.940+03:00,1744964007.754961,40.95362129717808,29.14097204991264,92.63773,-1,-1,-1,-1,30,25.58828330858,-9999,63245.45015975001,-0.66064453125,0.618133544921875,0.16888427734375,63245.44008475001,1.038536996882265,-1.444761313484164,-0.8208470475255917,-0.7068747282028198,-0.661894679069519,-0.7154738306999207,0.04364216327667236,-0.08281290531158447,0.1698154807090759,XArbitraryZVertical,0.04097220836042612,-0.6748941118029846,0.570413163672486,0.4663347583094803,-0.6761953234672546,0.731723427772522,-0.08567842841148376,0,0,0,-1,-1,63242.35076375,unknown,2,2025-04-18T11:13:29.836+03:00,2025-04-17T15:44:39.500+03:00,7219,1.113714,0,0,5952.914,4,10,2025-04-18T11:13:14.360+03:00,766656812.5109538,0,107.51,100.565,1,0.6,2025-04-18T11:13:29.294+03:00,87,1.45,2025-04-18T08:51:18.885+03:00,0.03057091307199995,1
2025-04-18T11:13:32.950+03:00,1744964007.754961,40.95362129717808,29.14097204991264,92.63773,-1,-1,-1,-1,30,25.58828330858,-9999,63245.46023475,-0.6749267578125,0.6410064697265625,0.2049560546875,63245.45015975001,1.027411883929292,-1.459655975509649,-0.8143619267917106,-0.6471980810165405,-0.6844124794006348,-0.7378678917884827,0.03637665510177612,-0.1104665398597717,0.2130241990089417,XArbitraryZVertical,0.04379870017865135,-0.6782481268248128,0.566261758665777,0.4662711200076886,-0.6820980906486511,0.7272878289222717,-0.07612230628728867,0,0,0,-1,-1,63242.35076375,unknown,2,2025-04-18T11:13:29.836+03:00,2025-04-17T15:44:39.500+03:00,7219,1.113714,0,0,5952.914,4,10,2025-04-18T11:13:14.360+03:00,766656812.5109538,0,107.51,100.565,1,0.6,2025-04-18T11:13:29.294+03:00,87,1.45,2025-04-18T08:51:18.885+03:00,0.03057091307199995,1
2025-04-18T11:13:32.960+03:00,1744964007.754961,40.95362129717808,29.14097204991264,92.63773,-1,-1,-1,-1,30,25.58828330858,-9999,63245.47031075,-0.6729888916015625,0.655914306640625,0.264984130859375,63245.46023475,1.017383340850997,-1.474131491223096,-0.8075383802484085,-0.56639164686203,-0.7586134672164917,-0.7496422529220581,0.02034288644790649,-0.09760284423828125,0.249015212059021,XArbitraryZVertical,0.04694554461148087,-0.6814960842642053,0.5622543973403594,0.4660787511217703,-0.6880523562431335,0.7225877046585083,-0.06671840697526932,0,0,0,-1,-1,63242.35076375,unknown,2,2025-04-18T11:13:29.836+03:00,2025-04-17T15:44:39.500+03:00,7219,1.113714,0,0,5952.914,4,10,2025-04-18T11:13:14.360+03:00,766656812.5109538,0,107.51,100.565,1,0.6,2025-04-18T11:13:29.294+03:00,87,1.45,2025-04-18T08:51:18.885+03:00,0.03057091307199995,1
2025-04-18T11:13:32.970+03:00,1744964007.754961,40.95362129717808,29.14097204991264,92.63773,-1,-1,-1,-1,30,25.58828330858,-9999,63245.48038575,-0.6572265625,0.658355712890625,0.3233489990234375,63245.47031075,1.008940230166084,-1.48854378993705,-0.8004303398292115,-0.4635145664215088,-0.8881701231002808,-0.7590245008468628,0.01742309331893921,-0.06685322523117065,0.2826493978500366,XArbitraryZVertical,0.05066597675370878,-0.6847079580615013,0.5585044255621265,0.4654899352583207,-0.6940436959266663,0.7176558375358582,-0.05721594020724297,0,0,0,-1,-1,63242.35076375,unknown,2,2025-04-18T11:13:29.836+03:00,2025-04-17T15:44:39.500+03:00,7219,1.113714,0,0,5952.914,4,10,2025-04-18T11:13:14.360+03:00,766656812.5109538,0,107.51,100.565,1,0.6,2025-04-18T11:13:29.294+03:00,87,1.45,2025-04-18T08:51:18.885+03:00,0.03057091307199995,1
2025-04-18T11:13:32.980+03:00,1744964007.754961,40.95362129717808,29.14097204991264,92.63773,-1,-1,-1,-1,30,25.58828330858,-9999,63245.49046075001,-0.6501922607421875,0.6902923583984375,0.397857666015625,63245.48038575,1.002643190086354,-1.502369943812927,-0.7932984895404619,-0.2887456715106964,-0.9564785957336426,-0.7105437517166138,0.03219324350357056,-0.05761116743087769,0.3363547325134277,XArbitraryZVertical,0.05491989317250568,-0.6877514292594007,0.5552062475870884,0.464465127179894,-0.6998568177223206,0.7126710414886475,-0.04796355217695236,0,0,0,-1,-1,63242.35076375,unknown,2,2025-04-18T11:13:29.836+03:00,2025-04-17T15:44:39.500+03:00,7219,1.113714,0,0,5952.914,4,10,2025-04-18T11:13:14.360+03:00,766656812.5109538,0,107.51,100.565,1,0.6,2025-04-18T11:13:29.294+03:00,87,1.45,2025-04-18T08:51:18.885+03:00,0.03057091307199995,1
2025-04-18T11:13:32.991+03:00,1744964007.754961,40.95362129717808,29.14097204991264,92.63773,-1,-1,-1,-1,30,25.58828330858,-9999,63245.50053675001,-0.6517486572265625,0.7285308837890625,0.536773681640625,63245.49046075001,0.9997034311097934,-1.514300172339196,-0.7866105623533188,-0.02796967327594757,-1.004561424255371,-0.6440713405609131,0.05174082517623901,-0.04121553897857666,0.3861316442489624,XArbitraryZVertical,0.05960814019038052,-0.6902950849991145,0.5527791377353377,0.4630062836512107,-0.705122172832489,0.7079635858535767,-0.03987913206219673,0,0,0,-1,-1,63242.35076375,unknown,2,2025-04-18T11:13:29.836+03:00,2025-04-17T15:44:39.500+03:00,7219,1.113714,0,0,5952.914,4,10,2025-04-18T11:13:14.360+03:00,766656812.5109538,0,107.51,100.565,1,0.6,2025-04-18T11:13:29.294+03:00,87,1.45,2025-04-18T08:51:18.885+03:00,0.03057091307199995,1
2025-04-18T11:13:33.001+03:00,1744964007.754961,40.95362129717808,29.14097204991264,92.63773,-1,-1,-1,-1,30,25.58828330858,-9999,63245.51061175,-0.644927978515625,0.674407958984375,0.6998443603515625,63245.50053675001,1.001278194942256,-1.523571692260641,-0.7806142247751103,0.3225630521774292,-1.042770862579346,-0.5157573223114014,0.05986332893371582,0.005298972129821777,0.4761515259742737,XArbitraryZVertical,0.06485351715777203,-0.6921156990028533,0.5515785225149304,0.4610109423068878,-0.7096894383430481,0.7037159204483032,-0.03353976085782051,0,0,0,-1,-1,63242.35076375,unknown,2,2025-04-18T11:13:29.836+03:00,2025-04-17T15:44:39.500+03:00,7219,1.113714,0,0,5952.914,4,10,2025-04-18T11:13:14.360+03:00,766656812.5109538,0,107.51,100.565,1,0.6,2025-04-18T11:13:29.294+03:00,87,1.45,2025-04-18T08:51:18.885+03:00,0.03057091307199995,1
2025-04-18T11:13:33.010+03:00,1744964007.754961,40.95362129717808,29.14097204991264,92.63773,-1,-1,-1,-1,30,25.58828330858,-9999,63245.52068675,-0.57061767578125,0.5420074462890625,0.8992462158203125,63245.51061175,1.008962838132335,-1.528771349619455,-0.7761227581434385,0.8342149257659912,-1.035393834114075,-0.3192068040370941,0.0592268705368042,0.02108567953109741,0.6282330751419067,XArbitraryZVertical,0.07054872908745295,-0.6928434468080193,0.5522068140864421,0.4583214290013901,-0.7130049467086792,0.7005177736282349,-0.02998167090117931,0,0,0,-1,-1,63242.35076375,unknown,2,2025-04-18T11:13:29.836+03:00,2025-04-17T15:44:39.500+03:00,7219,1.113714,0,0,5952.914,4,10,2025-04-18T11:13:14.360+03:00,766656812.5109538,0,107.51,100.565,1,0.6,2025-04-18T11:13:29.294+03:00,87,1.45,2025-04-18T08:51:18.885+03:00,0.03057091307199995,1
2025-04-18T11:13:33.021+03:00,1744964007.754961,40.95362129717808,29.14097204991264,92.63773,-1,-1,-1,-1,30,25.58828330858,-9999,63245.53076275,-0.444000244140625,0.421539306640625,1.0938720703125,63245.52068675,1.025487135089503,-1.526667414800957,-0.7737698014330303,1.578263759613037,-0.7842091917991638,-0.04276936873793602,0.0886542797088623,-0.0700066089630127,0.7996819019317627,XArbitraryZVertical,0.07652226065647386,-0.6916409242216133,0.5555559166043212,0.4551208254404646,-0.7145851850509644,0.6988366842269897,-0.03155435249209404,0,0,0,-1,-1,63242.35076375,unknown,2,2025-04-18T11:13:29.836+03:00,2025-04-17T15:44:39.500+03:00,7219,1.113714,0,0,5952.914,4,10,2025-04-18T11:13:14.360+03:00,766656812.5109538,0,107.51,100.565,1,0.6,2025-04-18T11:13:29.294+03:00,87,1.45,2025-04-18T08:51:18.885+03:00,0.03057091307199995,1
2025-04-18T11:13:33.031+03:00,1744964007.754961,40.95362129717808,29.14097204991264,92.63773,-1,-1,-1,-1,30,25.58828330858,-9999,63245.54083775001,-0.3450775146484375,0.400360107421875,1.165283203125,63245.53076275,1.053188692902979,-1.510470406274887,-0.7736657691299786,2.318166017532349,0.3017272353172302,0.2286834716796875,0.1876702308654785,-0.2076429128646851,1.022910475730896,XArbitraryZVertical,0.08157897491234105,-0.6868629868378634,0.5624636677252157,0.4529886496996962,-0.714052677154541,0.6987622380256653,-0.04312821477651596,0,0,0,-1,-1,63242.35076375,unknown,2,2025-04-18T11:13:29.836+03:00,2025-04-17T15:44:39.500+03:00,7219,1.113714,0,0,5952.914,4,10,2025-04-18T11:13:14.360+03:00,766656812.5109538,0,107.51,100.565,1,0.6,2025-04-18T11:13:29.294+03:00,87,1.45,2025-04-18T08:51:18.885+03:00,0.03057091307199995,1
2025-04-18T11:13:33.041+03:00,1744964007.754961,40.95362129717808,29.14097204991264,92.63773,-1,-1,-1,-1,30,25.58828330858,-9999,63245.55091275,-0.3372039794921875,0.4293365478515625,1.339736938476562,63245.54083775001,1.09005571678381,-1.472169460098589,-0.7759408453652465,2.783457040786743,2.2292160987854,0.6378230452537537,0.3123444318771362,-0.3028049468994141,1.203567743301392,XArbitraryZVertical,0.08246253817294352,-0.6768004838603999,0.5728570861615179,0.4549458613633587,-0.7102936506271362,0.7003879547119141,-0.07028207182884216,0,0,0,-1,-1,63242.35076375,unknown,2,2025-04-18T11:13:29.836+03:00,2025-04-17T15:44:39.500+03:00,7219,1.113714,0,0,5952.914,4,10,2025-04-18T11:13:14.360+03:00,766656812.5109538,0,107.51,100.565,1,0.6,2025-04-18T11:13:29.294+03:00,87,1.45,2025-04-18T08:51:18.885+03:00,0.03057091307199995,1
2025-04-18T11:13:33.051+03:00,1744964007.754961,40.95362129717808,29.14097204991264,92.63773,-1,-1,-1,-1,30,25.58828330858,-9999,63245.56098775,-0.423614501953125,0.2901458740234375,1.8033447265625,63245.55091275,1.12562130791124,-1.413789053142702,-0.7805840913604986,1.903067708015442,4.431596755981445,0.9388628602027893,0.3691979646682739,-0.2848559617996216,1.308056831359863,XArbitraryZVertical,0.07580439483296417,-0.6623484889016255,0.5841890272789932,0.4628946737909112,-0.701763391494751,0.7036945223808289,-0.1110963448882103,0,0,0,-1,-1,63242.35076375,unknown,2,2025-04-18T11:13:29.836+03:00,2025-04-17T15:44:39.500+03:00,7219,1.113714,0,0,5952.914,4,10,2025-04-18T11:13:14.360+03:00,766656812.5109538,0,107.51,100.565,1,0.6,2025-04-18T11:13:29.294+03:00,87,1.45,2025-04-18T08:51:18.885+03:00,0.03057091307199995,1
