loggingTime(txt),locationTimestamp_since1970(s),locationLatitude(WGS84),locationLongitude(WGS84),locationAltitude(m),locationSpeed(m/s),locationSpeedAccuracy(m/s),locationCourse(°),locationCourseAccuracy(°),locationVerticalAccuracy(m),locationHorizontalAccuracy(m),locationFloor(Z),accelerometerTimestamp_sinceReboot(s),accelerometerAccelerationX(G),accelerometerAccelerationY(G),accelerometerAccelerationZ(G),motionTimestamp_sinceReboot(s),motionYaw(rad),motionRoll(rad),motionPitch(rad),motionRotationRateX(rad/s),motionRotationRateY(rad/s),motionRotationRateZ(rad/s),motionUserAccelerationX(G),motionUserAccelerationY(G),motionUserAccelerationZ(G),motionAttitudeReferenceFrame(txt),motionQuaternionX(R),motionQuaternionY(R),motionQuaternionZ(R),motionQuaternionW(R),motionGravityX(G),motionGravityY(G),motionGravityZ(G),motionMagneticFieldX(µT),motionMagneticFieldY(µT),motionMagneticFieldZ(µT),motionHeading(°),motionMagneticFieldCalibrationAccuracy(Z),activityTimestamp_sinceReboot(s),activity(txt),activityActivityConfidence(Z),activityActivityStartDate(txt),pedometerStartDate(txt),pedometerNumberofSteps(N),pedometerAverageActivePace(s/m),pedometerCurrentPace(s/m),pedometerCurrentCadence(steps/s),pedometerDistance(m),pedometerFloorAscended(N),pedometerFloorDescended(N),pedometerEndDate(txt),altimeterTimestamp_sinceReboot(s),altimeterReset(bool),altimeterRelativeAltitude(m),altimeterPressure(kPa),batteryState(N),batteryLevel(R),heartRateBPMTimestamp(txt),heartRateBPM(N),heartRateBPS(R),heartRateVariabilityTimestamp(txt),heartRateVariability(ms),label
2025-04-18T11:58:50.048+03:00,1744966726.847687,40.95364123838744,29.14097494601333,94.02177,-1,-1,-1,-1,30,37.13093486593176,-9999,65286.683371625,-0.7703857421875,0.6429443359375,-0.048187255859375,65286.67329662501,0.7306885735195812,-1.499525863867777,-0.6902149487630831,0.02282283827662468,-0.02577590011060238,0.0157198179513216,-0.01562315225601196,0.003326952457427979,0.01014161482453346,XArbitraryZVertical,-0.002130489655175846,-0.6874154946961191,0.4613752857320734,0.5608817021791789,-0.7691516280174255,0.6367029547691345,-0.05491079762578011,0,0,0,-1,-1,65282.44046179167,unknown,2,2025-04-18T11:58:45.784+03:00,2025-04-17T15:44:39.500+03:00,7543,1.130489,0,0,6217.765,4,10,2025-04-18T11:58:45.784+03:00,766659528.449855,0,107.23,100.5705,1,0.5,2025-04-18T11:57:49.420+03:00,76,1.266666666666667,2025-04-18T08:51:18.885+03:00,0.03057091307199995,1
2025-04-18T11:58:50.049+03:00,1744966726.847687,40.95364123838744,29.14097494601333,94.02177,-1,-1,-1,-1,30,37.13093486593176,-9999,65286.693447625,-0.774871826171875,0.640899658203125,-0.050048828125,65286.683371625,0.731143823197429,-1.499454017768321,-0.690398982587027,0.03943803161382675,-0.03059249371290207,0.02173723094165325,-0.00169062614440918,0.006755590438842773,0.007304556667804718,XArbitraryZVertical,-0.002057356345689022,-0.6873986589685105,0.4615498408456032,0.5607589555128625,-0.769030749797821,0.6368448734283447,-0.05495770275592804,0,0,0,-1,-1,65282.44046179167,unknown,2,2025-04-18T11:58:45.784+03:00,2025-04-17T15:44:39.500+03:00,7543,1.130489,0,0,6217.765,4,10,2025-04-18T11:58:45.784+03:00,766659528.449855,0,107.23,100.5705,1,0.5,2025-04-18T11:57:49.420+03:00,76,1.266666666666667,2025-04-18T08:51:18.885+03:00,0.03057091307199995,1
2025-04-18T11:58:50.052+03:00,1744966726.847687,40.95364123838744,29.14097494601333,94.02177,-1,-1,-1,-1,30,37.13093486593176,-9999,65286.703522625,-0.7768707275390625,0.639129638671875,-0.05108642578125,65286.693447625,0.731678906674555,-1.499315009828601,-0.6906094448295713,0.03041118197143078,-0.01807889901101589,0.02799882180988789,-0.005448281764984131,0.004579246044158936,0.005250394344329834,XArbitraryZVertical,-0.001981938659146584,-0.6873634785811246,0.4617533719118756,0.560634896213973,-0.7688895463943481,0.6370071172714233,-0.05505504086613655,0,0,0,-1,-1,65282.44046179167,unknown,2,2025-04-18T11:58:45.784+03:00,2025-04-17T15:44:39.500+03:00,7543,1.130489,0,0,6217.765,4,10,2025-04-18T11:58:45.784+03:00,766659528.449855,0,107.23,100.5705,1,0.5,2025-04-18T11:57:49.420+03:00,76,1.266666666666667,2025-04-18T08:51:18.885+03:00,0.03057091307199995,1
2025-04-18T11:58:50.062+03:00,1744966726.847687,40.95364123838744,29.14097494601333,94.02177,-1,-1,-1,-1,30,37.13093486593176,-9999,65286.71359762501,-0.776092529296875,0.6395111083984375,-0.0529937744140625,65286.703522625,0.7320554087882658,-1.499184690764916,-0.6908552210174623,0.02280519343912601,-0.007645432371646166,0.02604672499001026,-0.007274866104125977,0.001277029514312744,0.004484884440898895,XArbitraryZVertical,-0.001971822181390561,-0.6873311370503915,0.4619214420146925,0.560536149169885,-0.7687262296676636,0.6371965408325195,-0.0551440417766571,0,0,0,-1,-1,65282.44046179167,unknown,2,2025-04-18T11:58:45.784+03:00,2025-04-17T15:44:39.500+03:00,7543,1.130489,0,0,6217.765,4,10,2025-04-18T11:58:45.784+03:00,766659528.449855,0,107.23,100.5705,1,0.5,2025-04-18T11:57:49.420+03:00,76,1.266666666666667,2025-04-18T08:51:18.885+03:00,0.03057091307199995,1
2025-04-18T11:58:50.072+03:00,1744966726.847687,40.95364123838744,29.14097494601333,94.02177,-1,-1,-1,-1,30,37.13093486593176,-9999,65286.723672625,-0.771942138671875,0.6331329345703125,-0.05242919921875,65286.71359762501,0.7323534786642172,-1.499077799647243,-0.6910583462983224,0.01912171021103859,-0.008936598896980286,0.01991849020123482,-0.008264362812042236,0.002493739128112793,0.00258946418762207,XArbitraryZVertical,-0.001967764443599918,-0.6873046366346859,0.4620566643817171,0.560457151053816,-0.7685911655426025,0.6373530626296997,-0.05521692708134651,0,0,0,-1,-1,65282.44046179167,unknown,2,2025-04-18T11:58:45.784+03:00,2025-04-17T15:44:39.500+03:00,7543,1.130489,0,0,6217.765,4,10,2025-04-18T11:58:45.784+03:00,766659528.449855,0,107.23,100.5705,1,0.5,2025-04-18T11:57:49.420+03:00,76,1.266666666666667,2025-04-18T08:51:18.885+03:00,0.03057091307199995,1
2025-04-18T11:58:50.082+03:00,1744966726.847687,40.95364123838744,29.14097494601333,94.02177,-1,-1,-1,-1,30,37.13093486593176,-9999,65286.733748625,-0.770294189453125,0.632354736328125,-0.0480804443359375,65286.723672625,0.7325603817169427,-1.499071937961242,-0.6911875400234686,0.01372534595429897,-0.01259551756083965,0.00973243173211813,-0.003067374229431152,-0.003144741058349609,0.001886129379272461,XArbitraryZVertical,-0.00194487567533414,-0.687305211545138,0.4621475752503055,0.5603815095944817,-0.7685086131095886,0.6374526023864746,-0.05521552637219429,0,0,0,-1,-1,65282.44046179167,unknown,2,2025-04-18T11:58:45.784+03:00,2025-04-17T15:44:39.500+03:00,7543,1.130489,0,0,6217.765,4,10,2025-04-18T11:58:45.784+03:00,766659528.449855,0,107.23,100.5705,1,0.5,2025-04-18T11:57:49.420+03:00,76,1.266666666666667,2025-04-18T08:51:18.885+03:00,0.03057091307199995,1
2025-04-18T11:58:50.092+03:00,1744966726.847687,40.95364123838744,29.14097494601333,94.02177,-1,-1,-1,-1,30,37.13093486593176,-9999,65286.743823625,-0.7674560546875,0.62860107421875,-0.0491790771484375,65286.733748625,0.7326668898604252,-1.499137310151927,-0.6912405929348282,0.009477138519287109,-0.009953327476978302,-0.002732459688559175,-0.001647830009460449,-0.005566000938415527,0.007097721099853516,XArbitraryZVertical,-0.0019124374291407,-0.6873244548362009,0.4621909837745182,0.5603222770069007,-0.7684785723686218,0.6374934911727905,-0.05516287311911583,0,0,0,-1,-1,65282.44046179167,unknown,2,2025-04-18T11:58:45.784+03:00,2025-04-17T15:44:39.500+03:00,7543,1.130489,0,0,6217.765,4,10,2025-04-18T11:58:45.784+03:00,766659528.449855,0,107.23,100.5705,1,0.5,2025-04-18T11:57:49.420+03:00,76,1.266666666666667,2025-04-18T08:51:18.885+03:00,0.03057091307199995,1
2025-04-18T11:58:50.102+03:00,1744966726.847687,40.95364123838744,29.14097494601333,94.02177,-1,-1,-1,-1,30,37.13093486593176,-9999,65286.753899625,-0.7656097412109375,0.62744140625,-0.0490570068359375,65286.743823625,0.7326921896869684,-1.499297903657112,-0.6911536657489092,0.0003938949666917324,-0.01526473648846149,-0.005642229225486517,0.0007203817367553711,-0.007818341255187988,0.006169557571411133,XArbitraryZVertical,-0.001835100923336385,-0.6873681124440707,0.4621760607645539,0.560281318308637,-0.7685427665710449,0.637426495552063,-0.05504342168569565,0,0,0,-1,-1,65282.44046179167,unknown,2,2025-04-18T11:58:45.784+03:00,2025-04-17T15:44:39.500+03:00,7543,1.130489,0,0,6217.765,4,10,2025-04-18T11:58:45.784+03:00,766659528.449855,0,107.23,100.5705,1,0.5,2025-04-18T11:57:49.420+03:00,76,1.266666666666667,2025-04-18T08:51:18.885+03:00,0.03057091307199995,1
2025-04-18T11:58:50.112+03:00,1744966726.847687,40.95364123838744,29.14097494601333,94.02177,-1,-1,-1,-1,30,37.13093486593176,-9999,65286.76397462501,-0.767059326171875,0.6297607421875,-0.04595947265625,65286.753899625,0.7326707137628282,-1.499511828944198,-0.6910841495009638,0.0008949687471613288,-0.0193293858319521,-0.003680345136672258,0.003522932529449463,-0.01089280843734741,0.005611598491668701,XArbitraryZVertical,-0.001767826765018683,-0.687426936087944,0.4621525181280332,0.5602287817267456,-0.7685986757278442,0.6373729705810547,-0.05488216504454613,0,0,0,-1,-1,65282.44046179167,unknown,2,2025-04-18T11:58:45.784+03:00,2025-04-17T15:44:39.500+03:00,7543,1.130489,0,0,6217.765,4,10,2025-04-18T11:58:45.784+03:00,766659528.449855,0,107.23,100.5705,1,0.5,2025-04-18T11:57:49.420+03:00,76,1.266666666666667,2025-04-18T08:51:18.885+03:00,0.03057091307199995,1
2025-04-18T11:58:50.122+03:00,1744966726.847687,40.95364123838744,29.14097494601333,94.02177,-1,-1,-1,-1,30,37.13093486593176,-9999,65286.774049625,-0.766265869140625,0.63165283203125,-0.047576904296875,65286.76397462501,0.7327106516244101,-1.499686398515273,-0.6910498214802414,0.006471095606684685,-0.01837197877466679,-0.005705945193767548,0.001585900783538818,-0.007524728775024414,0.008454382419586182,XArbitraryZVertical,-0.001701280553390838,-0.6874753357356406,0.4621551241265243,0.5601673660161041,-0.7686299681663513,0.6373465061187744,-0.05474953725934029,0,0,0,-1,-1,65282.44046179167,unknown,2,2025-04-18T11:58:45.784+03:00,2025-04-17T15:44:39.500+03:00,7543,1.130489,0,0,6217.765,4,10,2025-04-18T11:58:45.784+03:00,766659528.449855,0,107.23,100.5705,1,0.5,2025-04-18T11:57:49.420+03:00,76,1.266666666666667,2025-04-18T08:51:18.885+03:00,0.03057091307199995,1
2025-04-18T11:58:50.132+03:00,1744966726.847687,40.95364123838744,29.14097494601333,94.02177,-1,-1,-1,-1,30,37.13093486593176,-9999,65286.784125625,-0.76495361328125,0.6311492919921875,-0.049041748046875,65286.774049625,0.7327942110117084,-1.499834968013286,-0.6910253695087912,0.01104061398655176,-0.01848962530493736,0.0008214955450966954,0.002662479877471924,-0.005873143672943115,0.007273197174072266,XArbitraryZVertical,-0.001629377400153666,-0.6875166316687369,0.4621723991475502,0.5601027068289605,-0.7686537504196167,0.6373276710510254,-0.05463645234704018,0,0,0,-1,-1,65282.44046179167,unknown,2,2025-04-18T11:58:45.784+03:00,2025-04-17T15:44:39.500+03:00,7543,1.130489,0,0,6217.765,4,10,2025-04-18T11:58:45.784+03:00,766659528.449855,0,107.23,100.5705,1,0.5,2025-04-18T11:57:49.420+03:00,76,1.266666666666667,2025-04-18T08:51:18.885+03:00,0.03057091307199995,1
2025-04-18T11:58:50.142+03:00,1744966726.847687,40.95364123838744,29.14097494601333,94.02177,-1,-1,-1,-1,30,37.13093486593176,-9999,65286.794200625,-0.7664337158203125,0.6341705322265625,-0.048858642578125,65286.784125625,0.7328776542215503,-1.499964290739513,-0.6910253997848741,0.00603813212364912,-0.01805686205625534,0.002868401119485497,0.003768086433410645,-0.005659520626068115,0.005785278975963593,XArbitraryZVertical,-0.001570824328330335,-0.6875529131444464,0.4621958725409301,0.5600389839909715,-0.7686607837677002,0.6373276710510254,-0.05453704670071602,0,0,0,-1,-1,65282.44046179167,unknown,2,2025-04-18T11:58:45.784+03:00,2025-04-17T15:44:39.500+03:00,7543,1.130489,0,0,6217.765,4,10,2025-04-18T11:58:45.784+03:00,766659528.449855,0,107.23,100.5705,1,0.5,2025-04-18T11:57:49.420+03:00,76,1.266666666666667,2025-04-18T08:51:18.885+03:00,0.03057091307199995,1
2025-04-18T11:58:50.152+03:00,1744966726.847687,40.95364123838744,29.14097494601333,94.02177,-1,-1,-1,-1,30,37.13093486593176,-9999,65286.80427562501,-0.76361083984375,0.63214111328125,-0.0499420166015625,65286.794200625,0.7329482243128538,-1.500124943699458,-0.6910425489000619,0.005607831757515669,-0.02132449299097061,0.003900542855262756,0.00216376781463623,-0.003460288047790527,0.0052947998046875,XArbitraryZVertical,-0.001515622262376801,-0.6875982211341958,0.462220154454957,0.5599633639404542,-0.7686585187911987,0.6373409032821655,-0.05441277846693993,0,0,0,-1,-1,65282.44046179167,unknown,2,2025-04-18T11:58:45.784+03:00,2025-04-17T15:44:39.500+03:00,7543,1.130489,0,0,6217.765,4,10,2025-04-18T11:58:45.784+03:00,766659528.449855,0,107.23,100.5705,1,0.5,2025-04-18T11:57:49.420+03:00,76,1.266666666666667,2025-04-18T08:51:18.885+03:00,0.03057091307199995,1
2025-04-18T11:58:50.162+03:00,1744966726.847687,40.95364123838744,29.14097494601333,94.02177,-1,-1,-1,-1,30,37.13093486593176,-9999,65286.81435162501,-0.7653961181640625,0.6322479248046875,-0.0510406494140625,65286.80427562501,0.732985085974051,-1.500325220521918,-0.6910724248557885,8.656617137603462e-05,-0.02156471088528633,0.005384722258895636,0.004810690879821777,-0.004215717315673828,0.003827273845672607,XArbitraryZVertical,-0.001467510359661665,-0.687654781546075,0.4622382331883392,0.5598791446934727,-0.7686504721641541,0.6373639106750488,-0.05425749719142914,0,0,0,-1,-1,65282.44046179167,unknown,2,2025-04-18T11:58:45.784+03:00,2025-04-17T15:44:39.500+03:00,7543,1.130489,0,0,6217.765,4,10,2025-04-18T11:58:45.784+03:00,766659528.449855,0,107.23,100.5705,1,0.5,2025-04-18T11:57:49.420+03:00,76,1.266666666666667,2025-04-18T08:51:18.885+03:00,0.03057091307199995,1
2025-04-18T11:58:50.173+03:00,1744966726.847687,40.95364123838744,29.14097494601333,94.02177,-1,-1,-1,-1,30,37.13093486593176,-9999,65286.824426625,-0.766937255859375,0.634979248046875,-0.050079345703125,65286.81435162501,0.732948366359222,-1.500595524838936,-0.6911125448167582,-0.002767609898000956,-0.02634727954864502,0.006413734052330256,0.004433512687683105,-0.005192756652832031,0.003556620329618454,XArbitraryZVertical,-0.001432176675172575,-0.6877310440998897,0.4622384116773556,0.5597852969166763,-0.7686394453048706,0.6373948454856873,-0.05404791980981827,0,0,0,-1,-1,65282.44046179167,unknown,2,2025-04-18T11:58:45.784+03:00,2025-04-17T15:44:39.500+03:00,7543,1.130489,0,0,6217.765,4,10,2025-04-18T11:58:45.784+03:00,766659528.449855,0,107.23,100.5705,1,0.5,2025-04-18T11:57:49.420+03:00,76,1.266666666666667,2025-04-18T08:51:18.885+03:00,0.03057091307199995,1
2025-04-18T11:58:50.182+03:00,1744966726.847687,40.95364123838744,29.14097494601333,94.02177,-1,-1,-1,-1,30,37.13093486593176,-9999,65286.834501625,-0.7677459716796875,0.6373443603515625,-0.0509796142578125,65286.824426625,0.7328873509900561,-1.500913262595902,-0.6911342232796793,-0.003583602607250214,-0.02676912397146225,0.0004692925722338259,0.001659810543060303,-0.002707004547119141,0.003692932426929474,XArbitraryZVertical,-0.001387595675637318,-0.68782025996087,0.4622270826775358,0.5596851695592343,-0.7686428427696228,0.6374115347862244,-0.0538027286529541,0,0,0,-1,-1,65282.44046179167,unknown,2,2025-04-18T11:58:45.784+03:00,2025-04-17T15:44:39.500+03:00,7543,1.130489,0,0,6217.765,4,10,2025-04-18T11:58:45.784+03:00,766659528.449855,0,107.23,100.5705,1,0.5,2025-04-18T11:57:49.420+03:00,76,1.266666666666667,2025-04-18T08:51:18.885+03:00,0.03057091307199995,1
2025-04-18T11:58:50.192+03:00,1744966726.847687,40.95364123838744,29.14097494601333,94.02177,-1,-1,-1,-1,30,37.13093486593176,-9999,65286.844577625,-0.7698822021484375,0.638275146484375,-0.0538330078125,65286.834501625,0.7328736001807258,-1.501221291389141,-0.6911728337081861,0.0001950234000105411,-0.02844998054206371,0.009518248029053211,0.001331329345703125,-0.001119256019592285,0.002874612808227539,XArbitraryZVertical,-0.001335151214987898,-0.6879070353318525,0.4622332846116611,0.5595735647432576,-0.7686348557472229,0.6374412775039673,-0.05356425791978836,0,0,0,-1,-1,65282.44046179167,unknown,2,2025-04-18T11:58:45.784+03:00,2025-04-17T15:44:39.500+03:00,7543,1.130489,0,0,6217.765,4,10,2025-04-18T11:58:45.784+03:00,766659528.449855,0,107.23,100.5705,1,0.5,2025-04-18T11:57:49.420+03:00,76,1.266666666666667,2025-04-18T08:51:18.885+03:00,0.03057091307199995,1
2025-04-18T11:58:50.202+03:00,1744966726.847687,40.95364123838744,29.14097494601333,94.02177,-1,-1,-1,-1,30,37.13093486593176,-9999,65286.85465262501,-0.7719879150390625,0.6394195556640625,-0.0531463623046875,65286.844577625,0.7328375547562981,-1.50151885448566,-0.691289169759123,-0.001813532551750541,-0.02367679588496685,0.01448104903101921,-0.0004051923751831055,0.000713646411895752,0.0005045570433139801,XArbitraryZVertical,-0.001320933097000201,-0.6879920470541123,0.4622531058051083,0.5594526324504989,-0.7685767412185669,0.6375309228897095,-0.05333039537072182,0,0,0,-1,-1,65282.44046179167,unknown,2,2025-04-18T11:58:45.784+03:00,2025-04-17T15:44:39.500+03:00,7543,1.130489,0,0,6217.765,4,10,2025-04-18T11:58:45.784+03:00,766659528.449855,0,107.23,100.5705,1,0.5,2025-04-18T11:57:49.420+03:00,76,1.266666666666667,2025-04-18T08:51:18.885+03:00,0.03057091307199995,1
2025-04-18T11:58:50.213+03:00,1744966726.847687,40.95364123838744,29.14097494601333,94.02177,-1,-1,-1,-1,30,37.13093486593176,-9999,65286.864727625,-0.769012451171875,0.6419219970703125,-0.0549468994140625,65286.85465262501,0.7328201063635243,-1.501766724846679,-0.6914500230417089,0.0007367103826254606,-0.02147622592747211,0.01732490584254265,-0.003530800342559814,0.001032233238220215,-0.0002424083650112152,XArbitraryZVertical,-0.001327961172790083,-0.688063826244186,0.4622894449388435,0.5593343157845074,-0.7684876322746277,0.6376548409461975,-0.05313281342387199,0,0,0,-1,-1,65282.44046179167,unknown,2,2025-04-18T11:58:45.784+03:00,2025-04-17T15:44:39.500+03:00,7543,1.130489,0,0,6217.765,4,10,2025-04-18T11:58:45.784+03:00,766659528.449855,0,107.23,100.5705,1,0.5,2025-04-18T11:57:49.420+03:00,76,1.266666666666667,2025-04-18T08:51:18.885+03:00,0.03057091307199995,1
2025-04-18T11:58:50.223+03:00,1744966726.847687,40.95364123838744,29.14097494601333,94.02177,-1,-1,-1,-1,30,37.13093486593176,-9999,65286.874803625,-0.7680206298828125,0.6429595947265625,-0.0537109375,65286.864727625,0.7328125277599886,-1.501948003498396,-0.6916007171707143,0.00159344938583672,-0.01093250513076782,0.01560663431882858,-0.0008552670478820801,0.003937423229217529,-0.001593705266714096,XArbitraryZVertical,-0.001343274024368405,-0.6881168153684072,0.4623259282461193,0.5592388800178348,-0.7684012651443481,0.6377708911895752,-0.05298688635230064,0,0,0,-1,-1,65282.44046179167,unknown,2,2025-04-18T11:58:45.784+03:00,2025-04-17T15:44:39.500+03:00,7543,1.130489,0,0,6217.765,4,10,2025-04-18T11:58:45.784+03:00,766659528.449855,0,107.23,100.5705,1,0.5,2025-04-18T11:57:49.420+03:00,76,1.266666666666667,2025-04-18T08:51:18.885+03:00,0.03057091307199995,1
2025-04-18T11:58:50.233+03:00,1744966726.847687,40.95364123838744,29.14097494601333,94.02177,-1,-1,-1,-1,30,37.13093486593176,-9999,65286.884878625,-0.770294189453125,0.6437835693359375,-0.0536346435546875,65286.874803625,0.7328349273360574,-1.502055492635992,-0.691756397751971,0.001541451085358858,-0.01298507116734982,0.01588117145001888,0.0002111196517944336,0.004595756530761719,-0.00116431713104248,XArbitraryZVertical,-0.001367193590743538,-0.688149248436422,0.4623719733001845,0.559160976387192,-0.7683081030845642,0.6378908157348633,-0.05289748683571815,0,0,0,-1,-1,65282.44046179167,unknown,2,2025-04-18T11:58:45.784+03:00,2025-04-17T15:44:39.500+03:00,7543,1.130489,0,0,6217.765,4,10,2025-04-18T11:58:45.784+03:00,766659528.449855,0,107.23,100.5705,1,0.5,2025-04-18T11:57:49.420+03:00,76,1.266666666666667,2025-04-18T08:51:18.885+03:00,0.03057091307199995,1
2025-04-18T11:58:50.243+03:00,1744966726.847687,40.95364123838744,29.14097494601333,94.02177,-1,-1,-1,-1,30,37.13093486593176,-9999,65286.89495362501,-0.7682952880859375,0.6440277099609375,-0.0508880615234375,65286.884878625,0.7329369853892308,-1.502153071342675,-0.6919005583553471,0.01134481374174356,-0.021038468927145,0.01356422249227762,-0.002088010311126709,0.005629122257232666,-2.490729093551636e-05,XArbitraryZVertical,-0.001361743184320943,-0.6881787892747098,0.4624373919560037,0.5590704499066432,-0.7682214379310608,0.6380018591880798,-0.05281620100140572,0,0,0,-1,-1,65282.44046179167,unknown,2,2025-04-18T11:58:45.784+03:00,2025-04-17T15:44:39.500+03:00,7543,1.130489,0,0,6217.765,4,10,2025-04-18T11:58:45.784+03:00,766659528.449855,0,107.23,100.5705,1,0.5,2025-04-18T11:57:49.420+03:00,76,1.266666666666667,2025-04-18T08:51:18.885+03:00,0.03057091307199995,1
2025-04-18T11:58:50.253+03:00,1744966726.847687,40.95364123838744,29.14097494601333,94.02177,-1,-1,-1,-1,30,37.13093486593176,-9999,65286.90502962501,-0.770599365234375,0.64404296875,-0.0504913330078125,65286.89495362501,0.7330567283312672,-1.502295972485022,-0.6920362884876551,0.003421243280172348,-0.0202694833278656,0.01624662429094315,7.623434066772461e-05,0.006043493747711182,0.001156389713287354,XArbitraryZVertical,-0.001336725355213031,-0.688220867560733,0.4625055795333018,0.5589624020977847,-0.7681427001953125,0.6381063461303711,-0.05270050093531609,0,0,0,-1,-1,65282.44046179167,unknown,2,2025-04-18T11:58:45.784+03:00,2025-04-17T15:44:39.500+03:00,7543,1.130489,0,0,6217.765,4,10,2025-04-18T11:58:45.784+03:00,766659528.449855,0,107.23,100.5705,1,0.5,2025-04-18T11:57:49.420+03:00,76,1.266666666666667,2025-04-18T08:51:18.885+03:00,0.03057091307199995,1
2025-04-18T11:58:50.263+03:00,1744966726.847687,40.95364123838744,29.14097494601333,94.02177,-1,-1,-1,-1,30,37.13093486593176,-9999,65286.915104625,-0.768707275390625,0.6402435302734375,-0.055084228515625,65286.90502962501,0.7330303078274008,-1.502454767110482,-0.6922162696173955,-0.004892879165709019,-0.01018355879932642,0.02071434445679188,-0.002410411834716797,0.005859076976776123,0.002857569605112076,XArbitraryZVertical,-0.001374303493914776,-0.688267952207463,0.4625442637608522,0.5588722595867966,-0.7680363655090332,0.6382449269294739,-0.05257067456841469,0,0,0,-1,-1,65282.44046179167,unknown,2,2025-04-18T11:58:45.784+03:00,2025-04-17T15:44:39.500+03:00,7543,1.130489,0,0,6217.765,4,10,2025-04-18T11:58:45.784+03:00,766659528.449855,0,107.23,100.5705,1,0.5,2025-04-18T11:57:49.420+03:00,76,1.266666666666667,2025-04-18T08:51:18.885+03:00,0.03057091307199995,1
2025-04-18T11:58:50.273+03:00,1744966726.847687,40.95364123838744,29.14097494601333,94.02177,-1,-1,-1,-1,30,37.13093486593176,-9999,65286.925179625,-0.7659149169921875,0.6410064697265625,-0.0575714111328125,65286.915104625,0.7330662340913874,-1.502507926405766,-0.6924464892574911,0.00540090398862958,-0.007114398293197155,0.02464696578681469,-0.001379311084747314,0.001806139945983887,-0.002854224294424057,XArbitraryZVertical,-0.001433080062312105,-0.6882863043826949,0.4626131070592945,0.5587925279364969,-0.7678925395011902,0.6384221315383911,-0.05251982063055038,0,0,0,-1,-1,65282.44046179167,unknown,2,2025-04-18T11:58:45.784+03:00,2025-04-17T15:44:39.500+03:00,7543,1.130489,0,0,6217.765,4,10,2025-04-18T11:58:45.784+03:00,766659528.449855,0,107.23,100.5705,1,0.5,2025-04-18T11:57:49.420+03:00,76,1.266666666666667,2025-04-18T08:51:18.885+03:00,0.03057091307199995,1
2025-04-18T11:58:50.283+03:00,1744966726.847687,40.95364123838744,29.14097494601333,94.02177,-1,-1,-1,-1,30,37.13093486593176,-9999,65286.935255625,-0.7672119140625,0.6411590576171875,-0.0543060302734375,65286.925179625,0.7331419001394034,-1.502528332226203,-0.6927245926423333,0.002029874827712774,-0.007253414951264858,0.03087477013468742,0.001557409763336182,0.001683712005615234,-0.005186140537261963,XArbitraryZVertical,-0.001503128080107782,-0.6882962439068893,0.4627052281881048,0.5587038892867094,-0.7677165865898132,0.6386361718177795,-0.05249204114079475,0,0,0,-1,-1,65282.44046179167,unknown,2,2025-04-18T11:58:45.784+03:00,2025-04-17T15:44:39.500+03:00,7543,1.130489,0,0,6217.765,4,10,2025-04-18T11:58:45.784+03:00,766659528.449855,0,107.23,100.5705,1,0.5,2025-04-18T11:57:49.420+03:00,76,1.266666666666667,2025-04-18T08:51:18.885+03:00,0.03057091307199995,1
2025-04-18T11:58:50.294+03:00,1744966726.847687,40.95364123838744,29.14097494601333,94.02177,-1,-1,-1,-1,30,37.13093486593176,-9999,65286.94533062501,-0.7685546875,0.63787841796875,-0.048004150390625,65286.935255625,0.7331951111067148,-1.502550592578616,-0.6930118162190099,0.0004358397563919425,-0.004415416624397039,0.02993314154446125,0.001070320606231689,0.002439260482788086,-0.002423346042633057,XArbitraryZVertical,-0.001583733446943868,-0.6883068166494155,0.4627934265895595,0.5586175193141794,-0.767534613609314,0.6388571262359619,-0.05246243625879288,0,0,0,-1,-1,65282.44046179167,unknown,2,2025-04-18T11:58:45.784+03:00,2025-04-17T15:44:39.500+03:00,7543,1.130489,0,0,6217.765,4,10,2025-04-18T11:58:45.784+03:00,766659528.449855,0,107.23,100.5705,1,0.5,2025-04-18T11:57:49.420+03:00,76,1.266666666666667,2025-04-18T08:51:18.885+03:00,0.03057091307199995,1
2025-04-18T11:58:50.305+03:00,1744966726.847687,40.95364123838744,29.14097494601333,94.02177,-1,-1,-1,-1,30,37.13093486593176,-9999,65286.95540562501,-0.764404296875,0.6371002197265625,-0.0478668212890625,65286.94533062501,0.7332246552152182,-1.50258425109609,-0.693248362553478,0.002360240090638399,-0.007177381310611963,0.01874307170510292,-0.001535356044769287,-0.0006113648414611816,0.003735601902008057,XArbitraryZVertical,-0.001651500368646768,-0.6883197821196756,0.4628620663776849,0.5585444733134529,-0.7673856019973755,0.6390390992164612,-0.0524263009428978,0,0,0,-1,-1,65282.44046179167,unknown,2,2025-04-18T11:58:45.784+03:00,2025-04-17T15:44:39.500+03:00,7543,1.130489,0,0,6217.765,4,10,2025-04-18T11:58:45.784+03:00,766659528.449855,0,107.23,100.5705,1,0.5,2025-04-18T11:57:49.420+03:00,76,1.266666666666667,2025-04-18T08:51:18.885+03:00,0.03057091307199995,1
2025-04-18T11:58:50.314+03:00,1744966726.847687,40.95364123838744,29.14097494601333,94.02177,-1,-1,-1,-1,30,37.13093486593176,-9999,65286.965481625,-0.7667694091796875,0.6345977783203125,-0.0478973388671875,65286.95540562501,0.7332703561737213,-1.502603406980328,-0.6934246370621341,0.001189647475257516,-0.002841356210410595,0.01691168360412121,0.002732515335083008,-0.001662492752075195,0.004048891365528107,XArbitraryZVertical,-0.001695183966939591,-0.6883278066577466,0.4629198481479872,0.5584864593955647,-0.767274022102356,0.6391746997833252,-0.05240391567349434,0,0,0,-1,-1,65282.44046179167,unknown,2,2025-04-18T11:58:45.784+03:00,2025-04-17T15:44:39.500+03:00,7543,1.130489,0,0,6217.765,4,10,2025-04-18T11:58:45.784+03:00,766659528.449855,0,107.23,100.5705,1,0.5,2025-04-18T11:57:49.420+03:00,76,1.266666666666667,2025-04-18T08:51:18.885+03:00,0.03057091307199995,1
2025-04-18T11:58:50.329+03:00,1744966726.847687,40.95364123838744,29.14097494601333,94.02177,-1,-1,-1,-1,30,37.13093486593176,-9999,65286.975556625,-0.76397705078125,0.634857177734375,-0.052459716796875,65286.965481625,0.7332717609832118,-1.50264888133617,-0.6935562666339089,-0.0003709648735821247,-0.004554301500320435,0.008195688016712666,0.000880897045135498,-0.004495084285736084,0.004939023405313492,XArbitraryZVertical,-0.001731886720594317,-0.6883424674809706,0.4629538549601744,0.5584401197235448,-0.767192542552948,0.6392759084701538,-0.05236329510807991,0,0,0,-1,-1,65282.44046179167,unknown,2,2025-04-18T11:58:45.784+03:00,2025-04-17T15:44:39.500+03:00,7543,1.130489,0,0,6217.765,4,10,2025-04-18T11:58:45.784+03:00,766659528.449855,0,107.23,100.5705,1,0.5,2025-04-18T11:57:49.420+03:00,76,1.266666666666667,2025-04-18T08:51:18.885+03:00,0.03057091307199995,1
2025-04-18T11:58:50.344+03:00,1744966726.847687,40.95364123838744,29.14097494601333,94.02177,-1,-1,-1,-1,30,37.13093486593176,-9999,65286.985631625,-0.7585296630859375,0.6343841552734375,-0.059112548828125,65286.975556625,0.7332215659809675,-1.502781897064022,-0.6936096212313551,-0.005990767385810614,-0.01306070387363434,0.0004128667642362416,0.002257645130157471,-0.004810750484466553,0.0008368566632270813,XArbitraryZVertical,-0.001737693536014513,-0.6883803584915797,0.4629535791071824,0.558393580876029,-0.7671654224395752,0.6393169164657593,-0.0522589236497879,0,0,0,-1,-1,65282.44046179167,unknown,2,2025-04-18T11:58:45.784+03:00,2025-04-17T15:44:39.500+03:00,7543,1.130489,0,0,6217.765,4,10,2025-04-18T11:58:45.784+03:00,766659528.449855,0,107.23,100.5705,1,0.5,2025-04-18T11:57:49.420+03:00,76,1.266666666666667,2025-04-18T08:51:18.885+03:00,0.03057091307199995,1
2025-04-18T11:58:50.345+03:00,1744966726.847687,40.95364123838744,29.14097494601333,94.02177,-1,-1,-1,-1,30,37.13093486593176,-9999,65286.99570762501,-0.7579498291015625,0.6332244873046875,-0.0611724853515625,65286.985631625,0.73307567533041,-1.503078847118035,-0.6935997934275033,-0.01755474507808685,-0.02231918275356293,-0.006878868211060762,0.007986187934875488,-0.005276203155517578,-0.006379060447216034,XArbitraryZVertical,-0.001715624901425955,-0.6884629883800254,0.4629105907766826,0.5583274406570315,-0.7671871781349182,0.6393094062805176,-0.05203153938055038,0,0,0,-1,-1,65282.44046179167,unknown,2,2025-04-18T11:58:45.784+03:00,2025-04-17T15:44:39.500+03:00,7543,1.130489,0,0,6217.765,4,10,2025-04-18T11:58:45.784+03:00,766659528.449855,0,107.23,100.5705,1,0.5,2025-04-18T11:57:49.420+03:00,76,1.266666666666667,2025-04-18T08:51:18.885+03:00,0.03057091307199995,1
2025-04-18T11:58:50.354+03:00,1744966726.847687,40.95364123838744,29.14097494601333,94.02177,-1,-1,-1,-1,30,37.13093486593176,-9999,65287.005782625,-0.7560882568359375,0.6359405517578125,-0.0580596923828125,65286.99570762501,0.7328062831078737,-1.50352888969022,-0.6934738221144106,-0.02393494546413422,-0.03576022386550903,-0.01804686710238457,0.008944392204284668,-0.006003320217132568,-0.009465452283620834,XArbitraryZVertical,-0.001658593414008928,-0.6885865274166268,0.4628035956127555,0.5582640203733941,-0.7672909498214722,0.6392124891281128,-0.051691684871912,0,0,0,-1,-1,65282.44046179167,unknown,2,2025-04-18T11:58:45.784+03:00,2025-04-17T15:44:39.500+03:00,7543,1.130489,0,0,6217.765,4,10,2025-04-18T11:58:45.784+03:00,766659528.449855,0,107.23,100.5705,1,0.5,2025-04-18T11:57:49.420+03:00,76,1.266666666666667,2025-04-18T08:51:18.885+03:00,0.03057091307199995,1
2025-04-18T11:58:50.364+03:00,1744966726.847687,40.95364123838744,29.14097494601333,94.02177,-1,-1,-1,-1,30,37.13093486593176,-9999,65287.015857625,-0.7606353759765625,0.6380157470703125,-0.0528717041015625,65287.005782625,0.7324864623527065,-1.50408603085889,-0.693290594589666,-0.02724179439246655,-0.03721004724502563,-0.02128979749977589,0.0112413763999939,-0.00358879566192627,-0.007687866687774658,XArbitraryZVertical,-0.001573438563581208,-0.68873908457904,0.4626679776950705,0.5581884765488693,-0.7674365043640137,0.6390715837478638,-0.05127199366688728,0,0,0,-1,-1,65282.44046179167,unknown,2,2025-04-18T11:58:45.784+03:00,2025-04-17T15:44:39.500+03:00,7543,1.130489,0,0,6217.765,4,10,2025-04-18T11:58:45.784+03:00,766659528.449855,0,107.23,100.5705,1,0.5,2025-04-18T11:57:49.420+03:00,76,1.266666666666667,2025-04-18T08:51:18.885+03:00,0.03057091307199995,1
2025-04-18T11:58:50.374+03:00,1744966726.847687,40.95364123838744,29.14097494601333,94.02177,-1,-1,-1,-1,30,37.13093486593176,-9999,65287.025933625,-0.7645111083984375,0.638519287109375,-0.0525360107421875,65287.015857625,0.7321072096459377,-1.504629156581191,-0.6930861884082244,-0.02902278304100037,-0.02576577849686146,-0.02588594891130924,0.007752597332000732,-0.001585245132446289,-0.002038359642028809,XArbitraryZVertical,-0.001504402106585969,-0.6888873871691855,0.4625103075948725,0.5581363208522742,-0.7675945162773132,0.6389143466949463,-0.05086380988359451,0,0,0,-1,-1,65282.44046179167,unknown,2,2025-04-18T11:58:45.784+03:00,2025-04-17T15:44:39.500+03:00,7543,1.130489,0,0,6217.765,4,10,2025-04-18T11:58:45.784+03:00,766659528.449855,0,107.23,100.5705,1,0.5,2025-04-18T11:57:49.420+03:00,76,1.266666666666667,2025-04-18T08:51:18.885+03:00,0.03057091307199995,1
2025-04-18T11:58:50.384+03:00,1744966726.847687,40.95364123838744,29.14097494601333,94.02177,-1,-1,-1,-1,30,37.13093486593176,-9999,65287.03600862501,-0.763153076171875,0.639892578125,-0.052001953125,65287.025933625,0.7317219211507683,-1.505123174375712,-0.692836611211862,-0.02480193972587585,-0.02113107964396477,-0.02577223256230354,0.003389596939086914,-0.0006150007247924805,-0.002620697021484375,XArbitraryZVertical,-0.001432537243509075,-0.6890213466823246,0.4623393104170241,0.5581128554266995,-0.7677786946296692,0.6387223601341248,-0.05049506202340126,0,0,0,-1,-1,65282.44046179167,unknown,2,2025-04-18T11:58:45.784+03:00,2025-04-17T15:44:39.500+03:00,7543,1.130489,0,0,6217.765,4,10,2025-04-18T11:58:45.784+03:00,766659528.449855,0,107.23,100.5705,1,0.5,2025-04-18T11:57:49.420+03:00,76,1.266666666666667,2025-04-18T08:51:18.885+03:00,0.03057091307199995,1
2025-04-18T11:58:50.394+03:00,1744966726.847687,40.95364123838744,29.14097494601333,94.02177,-1,-1,-1,-1,30,37.13093486593176,-9999,65287.04608362501,-0.7634124755859375,0.639892578125,-0.048858642578125,65287.03600862501,0.7313750939794817,-1.505534306512659,-0.6926033901962604,-0.02412895858287811,-0.01908630505204201,-0.0245991088449955,0.004459261894226074,0.001334488391876221,-0.00146186351776123,XArbitraryZVertical,-0.001372575998240425,-0.6891324676790224,0.4621831240311018,0.558105196000276,-0.7679480314254761,0.6385428905487061,-0.05018911510705948,0,0,0,-1,-1,65282.44046179167,unknown,2,2025-04-18T11:58:45.784+03:00,2025-04-17T15:44:39.500+03:00,7543,1.130489,0,0,6217.765,4,10,2025-04-18T11:58:45.784+03:00,766659528.449855,0,107.23,100.5705,1,0.5,2025-04-18T11:57:49.420+03:00,76,1.266666666666667,2025-04-18T08:51:18.885+03:00,0.03057091307199995,1
2025-04-18T11:58:50.404+03:00,1744966726.847687,40.95364123838744,29.14097494601333,94.02177,-1,-1,-1,-1,30,37.13093486593176,-9999,65287.056159625,-0.7641754150390625,0.6384429931640625,-0.0485382080078125,65287.04608362501,0.731010543059838,-1.505951891690803,-0.692385648522613,-0.0289442203938961,-0.01670437306165695,-0.019546028226614,0.00565648078918457,0.001288473606109619,0.00127827376127243,XArbitraryZVertical,-0.001322928282554059,-0.6892456214352982,0.4620258943709224,0.5580958830023837,-0.7681078314781189,0.6383752822875977,-0.04987744614481926,0,0,0,-1,-1,65282.44046179167,unknown,2,2025-04-18T11:58:45.784+03:00,2025-04-17T15:44:39.500+03:00,7543,1.130489,0,0,6217.765,4,10,2025-04-18T11:58:45.784+03:00,766659528.449855,0,107.23,100.5705,1,0.5,2025-04-18T11:57:49.420+03:00,76,1.266666666666667,2025-04-18T08:51:18.885+03:00,0.03057091307199995,1
2025-04-18T11:58:50.414+03:00,1744966726.847687,40.95364123838744,29.14097494601333,94.02177,-1,-1,-1,-1,30,37.13093486593176,-9999,65287.066234625,-0.763458251953125,0.6393280029296875,-0.04833984375,65287.056159625,0.7306698364378542,-1.506355107518123,-0.6921926905987597,-0.01806187815964222,-0.02101669833064079,-0.0247561689466238,0.003373265266418457,0.0001399517059326172,0.001129031181335449,XArbitraryZVertical,-0.001277351636148597,-0.6893551635308917,0.4618816681463669,0.5580799987211563,-0.7682507038116455,0.6382267475128174,-0.04957565292716026,0,0,0,-1,-1,65282.44046179167,unknown,2,2025-04-18T11:58:45.784+03:00,2025-04-17T15:44:39.500+03:00,7543,1.130489,0,0,6217.765,4,10,2025-04-18T11:58:45.784+03:00,766659528.449855,0,107.23,100.5705,1,0.5,2025-04-18T11:57:49.420+03:00,76,1.266666666666667,2025-04-18T08:51:18.885+03:00,0.03057091307199995,1
2025-04-18T11:58:50.425+03:00,1744966726.847687,40.95364123838744,29.14097494601333,94.02177,-1,-1,-1,-1,30,37.13093486593176,-9999,65287.076309625,-0.76361083984375,0.640472412109375,-0.05059814453125,65287.066234625,0.7304415891118866,-1.506690000172158,-0.6920205881903175,-0.01783630810678005,-0.02179993316531181,-0.01635362952947617,0.004704833030700684,0.001172661781311035,0.001168671995401382,XArbitraryZVertical,-0.00121637941154527,-0.6894460254180663,0.4617740992209881,0.5580568124716772,-0.7683767080307007,0.6380942463874817,-0.04932539537549019,0,0,0,-1,-1,65282.44046179167,unknown,2,2025-04-18T11:58:45.784+03:00,2025-04-17T15:44:39.500+03:00,7543,1.130489,0,0,6217.765,4,10,2025-04-18T11:58:45.784+03:00,766659528.449855,0,107.23,100.5705,1,0.5,2025-04-18T11:57:49.420+03:00,76,1.266666666666667,2025-04-18T08:51:18.885+03:00,0.03057091307199995,1
2025-04-18T11:58:50.435+03:00,1744966726.847687,40.95364123838744,29.14097494601333,94.02177,-1,-1,-1,-1,30,37.13093486593176,-9999,65287.08638562501,-0.7663726806640625,0.6396331787109375,-0.0498504638671875,65287.076309625,0.7302745946467553,-1.506962693109269,-0.6918579791082715,-0.01572328805923462,-0.01778994500637054,-0.01960944384336472,0.004836976528167725,0.002365946769714355,-0.0006516501307487488,XArbitraryZVertical,-0.001152124347037207,-0.689519713144228,0.4616859892016845,0.5580387306152037,-0.7684935927391052,0.6379690170288086,-0.04912247508764267,0,0,0,-1,-1,65282.44046179167,unknown,2,2025-04-18T11:58:45.784+03:00,2025-04-17T15:44:39.500+03:00,7543,1.130489,0,0,6217.765,4,10,2025-04-18T11:58:45.784+03:00,766659528.449855,0,107.23,100.5705,1,0.5,2025-04-18T11:57:49.420+03:00,76,1.266666666666667,2025-04-18T08:51:18.885+03:00,0.03057091307199995,1
2025-04-18T11:58:50.445+03:00,1744966726.847687,40.95364123838744,29.14097494601333,94.02177,-1,-1,-1,-1,30,37.13093486593176,-9999,65287.09646087501,-0.765869140625,0.6365509033203125,-0.0501708984375,65287.08638562501,0.7301323835618039,-1.507213698113298,-0.6916793405204519,-0.01003930531442165,-0.01854681596159935,-0.02200495824217796,0.003040492534637451,0.001847565174102783,-0.001859612762928009,XArbitraryZVertical,-0.001078658135757936,-0.6895871349478064,0.4616005700232825,0.5580264665340968,-0.7686199545860291,0.637831449508667,-0.04893684014678001,0,0,0,-1,-1,65282.44046179167,unknown,2,2025-04-18T11:58:45.784+03:00,2025-04-17T15:44:39.500+03:00,7543,1.130489,0,0,6217.765,4,10,2025-04-18T11:58:45.784+03:00,766659528.449855,0,107.23,100.5705,1,0.5,2025-04-18T11:57:49.420+03:00,76,1.266666666666667,2025-04-18T08:51:18.885+03:00,0.03057091307199995,1
2025-04-18T11:58:50.455+03:00,1744966726.847687,40.95364123838744,29.14097494601333,94.02177,-1,-1,-1,-1,30,37.13093486593176,-9999,65287.10653687501,-0.7703857421875,0.636932373046875,-0.0483551025390625,65287.09646087501,0.7299912823383699,-1.507507937763642,-0.691492468158305,-0.01212775520980358,-0.02364543825387955,-0.01943886838853359,0.003143250942230225,-0.001029789447784424,-0.0009948611259460449,XArbitraryZVertical,-0.0009917521730120281,-0.6896665236084695,0.4615134379198291,0.5580004541633278,-0.7687530517578125,0.6376875042915344,-0.04871820658445358,0,0,0,-1,-1,65282.44046179167,unknown,2,2025-04-18T11:58:45.784+03:00,2025-04-17T15:44:39.500+03:00,7543,1.130489,0,0,6217.765,4,10,2025-04-18T11:58:45.784+03:00,766659528.449855,0,107.23,100.5705,1,0.5,2025-04-18T11:57:49.420+03:00,76,1.266666666666667,2025-04-18T08:51:18.885+03:00,0.03057091307199995,1
2025-04-18T11:58:50.465+03:00,1744966726.847687,40.95364123838744,29.14097494601333,94.02177,-1,-1,-1,-1,30,37.13093486593176,-9999,65287.116611875,-0.7717132568359375,0.6370849609375,-0.0488433837890625,65287.10653687501,0.7298087769359799,-1.507837160211681,-0.691323725582899,-0.01331339497119188,-0.01949996128678322,-0.01772059686481953,-0.0005785822868347168,-0.0002894997596740723,-0.0006766244769096375,XArbitraryZVertical,-0.0009176601878985154,-0.6897559133566233,0.4614193806103731,0.5579678106882126,-0.768876314163208,0.6375575661659241,-0.04847187548875809,0,0,0,-1,-1,65282.44046179167,unknown,2,2025-04-18T11:58:45.784+03:00,2025-04-17T15:44:39.500+03:00,7543,1.130489,0,0,6217.765,4,10,2025-04-18T11:58:45.784+03:00,766659528.449855,0,107.23,100.5705,1,0.5,2025-04-18T11:57:49.420+03:00,76,1.266666666666667,2025-04-18T08:51:18.885+03:00,0.03057091307199995,1
2025-04-18T11:58:50.475+03:00,1744966726.847687,40.95364123838744,29.14097494601333,94.02177,-1,-1,-1,-1,30,37.13093486593176,-9999,65287.126686875,-0.7701416015625,0.639190673828125,-0.049285888671875,65287.116611875,0.7296089900507948,-1.508167868662963,-0.6911641098199158,-0.01504904311150312,-0.02385482937097549,-0.01832916215062141,-0.003528058528900146,0.000199735164642334,-0.001153409481048584,XArbitraryZVertical,-0.0008525604010811952,-0.6898458426153331,0.4613227891219939,0.557936667250386,-0.7689939737319946,0.6374345421791077,-0.04822397232055664,0,0,0,-1,-1,65282.44046179167,unknown,2,2025-04-18T11:58:45.784+03:00,2025-04-17T15:44:39.500+03:00,7543,1.130489,0,0,6217.765,4,10,2025-04-18T11:58:45.784+03:00,766659528.449855,0,107.23,100.5705,1,0.5,2025-04-18T11:57:49.420+03:00,76,1.266666666666667,2025-04-18T08:51:18.885+03:00,0.03057091307199995,1
2025-04-18T11:58:50.485+03:00,1744966726.847687,40.95364123838744,29.14097494601333,94.02177,-1,-1,-1,-1,30,37.13093486593176,-9999,65287.136762875,-0.76971435546875,0.6420745849609375,-0.0469207763671875,65287.126686875,0.7294310755043016,-1.508496876000747,-0.6909865453472409,-0.009537631645798683,-0.01972879283130169,-0.02242217399179935,-0.000545799732208252,0.001175761222839355,-0.001033183187246323,XArbitraryZVertical,-0.0007738359457445376,-0.6899350651003995,0.4612276717200117,0.5579051223125195,-0.7691227793693542,0.6372977495193481,-0.04797801375389099,0,0,0,-1,-1,65282.44046179167,unknown,2,2025-04-18T11:58:45.784+03:00,2025-04-17T15:44:39.500+03:00,7543,1.130489,0,0,6217.765,4,10,2025-04-18T11:58:45.784+03:00,766659528.449855,0,107.23,100.5705,1,0.5,2025-04-18T11:57:49.420+03:00,76,1.266666666666667,2025-04-18T08:51:18.885+03:00,0.03057091307199995,1
2025-04-18T11:58:50.495+03:00,1744966726.847687,40.95364123838744,29.14097494601333,94.02177,-1,-1,-1,-1,30,37.13093486593176,-9999,65287.14683787501,-0.768890380859375,0.641204833984375,-0.047882080078125,65287.136762875,0.7293012351182585,-1.508781135725797,-0.6907810572185488,-0.008260579779744148,-0.0162556990981102,-0.02167192846536636,0.0003766417503356934,0.004752159118652344,0.0003279969096183777,XArbitraryZVertical,-0.0006787924133978689,-0.6900114401700181,0.4611387310692262,0.5578843890224364,-0.769267201423645,0.6371393799781799,-0.04776750504970551,0,0,0,-1,-1,65282.44046179167,unknown,2,2025-04-18T11:58:45.784+03:00,2025-04-17T15:44:39.500+03:00,7543,1.130489,0,0,6217.765,4,10,2025-04-18T11:58:45.784+03:00,766659528.449855,0,107.23,100.5705,1,0.5,2025-04-18T11:57:49.420+03:00,76,1.266666666666667,2025-04-18T08:51:18.885+03:00,0.03057091307199995,1
2025-04-18T11:58:50.526+03:00,1744966726.847687,40.95364123838744,29.14097494601333,94.02177,-1,-1,-1,-1,30,37.13093486593176,-9999,65287.15691287501,-0.7705841064453125,0.6399688720703125,-0.0488128662109375,65287.14683787501,0.7292060592546127,-1.509027398387337,-0.6905714153433927,-0.002133977599442005,-0.01749460026621819,-0.02168977074325085,0.0007505416870117188,0.005203604698181152,5.520135164260864e-05,XArbitraryZVertical,-0.0005789801787192497,-0.6900771847249504,0.461058417491346,0.5578693677846009,-0.7694119811058044,0.6369777917861938,-0.04758628830313683,0,0,0,-1,-1,65282.44046179167,unknown,2,2025-04-18T11:58:45.784+03:00,2025-04-17T15:44:39.500+03:00,7543,1.130489,0,0,6217.765,4,10,2025-04-18T11:58:45.784+03:00,766659528.449855,0,107.23,100.5705,1,0.5,2025-04-18T11:57:49.420+03:00,76,1.266666666666667,2025-04-18T08:51:18.885+03:00,0.03057091307199995,1
2025-04-18T11:58:50.528+03:00,1744966726.847687,40.95364123838744,29.14097494601333,94.02177,-1,-1,-1,-1,30,37.13093486593176,-9999,65287.166988875,-0.7699127197265625,0.6367340087890625,-0.0486907958984375,65287.15691287501,0.7292086876566006,-1.509188898139553,-0.6904014446410596,0.002369294641539454,-0.01711496710777283,-0.01668655872344971,-0.000415503978729248,0.003442585468292236,-0.0007337331771850586,XArbitraryZVertical,-0.0004793993972018179,-0.6901198606661523,0.4610154784352442,0.5578521996766169,-0.7695277333259583,0.6368467211723328,-0.04746869578957558,0,0,0,-1,-1,65282.44046179167,unknown,2,2025-04-18T11:58:45.784+03:00,2025-04-17T15:44:39.500+03:00,7543,1.130489,0,0,6217.765,4,10,2025-04-18T11:58:45.784+03:00,766659528.449855,0,107.23,100.5705,1,0.5,2025-04-18T11:57:49.420+03:00,76,1.266666666666667,2025-04-18T08:51:18.885+03:00,0.03057091307199995,1
2025-04-18T11:58:50.529+03:00,1744966726.847687,40.95364123838744,29.14097494601333,94.02177,-1,-1,-1,-1,30,37.13093486593176,-9999,65287.177063875,-0.7680816650390625,0.6352691650390625,-0.0498199462890625,65287.166988875,0.7292667226339421,-1.509298500975065,-0.6902525953204298,0.005282260477542877,-0.01375192683190107,-0.01865676417946815,-0.0001173019409179688,0.0006428360939025879,-0.001132719218730927,XArbitraryZVertical,-0.0003802874271980892,-0.6901483654036055,0.4609934120609927,0.5578352391584456,-0.7696275115013123,0.6367319822311401,-0.0473901778459549,0,0,0,-1,-1,65282.44046179167,unknown,2,2025-04-18T11:58:45.784+03:00,2025-04-17T15:44:39.500+03:00,7543,1.130489,0,0,6217.765,4,10,2025-04-18T11:58:45.784+03:00,766659528.449855,0,107.23,100.5705,1,0.5,2025-04-18T11:57:49.420+03:00,76,1.266666666666667,2025-04-18T08:51:18.885+03:00,0.03057091307199995,1
2025-04-18T11:58:50.535+03:00,1744966726.847687,40.95364123838744,29.14097494601333,94.02177,-1,-1,-1,-1,30,37.13093486593176,-9999,65287.187138875,-0.7687225341796875,0.636810302734375,-0.0465850830078125,65287.177063875,0.7293520420101068,-1.509381684535889,-0.6900928470804923,0.008615406230092049,-0.01622527092695236,-0.01491851918399334,0.001666605472564697,-0.001049637794494629,-0.002579040825366974,XArbitraryZVertical,-0.0002739642691507783,-0.6901693404632917,0.4609760985668549,0.5578238095266509,-0.769733190536499,0.6366087794303894,-0.04733241349458694,0,0,0,-1,-1,65282.44046179167,unknown,2,2025-04-18T11:58:45.784+03:00,2025-04-17T15:44:39.500+03:00,7543,1.130489,0,0,6217.765,4,10,2025-04-18T11:58:45.784+03:00,766659528.449855,0,107.23,100.5705,1,0.5,2025-04-18T11:57:49.420+03:00,76,1.266666666666667,2025-04-18T08:51:18.885+03:00,0.03057091307199995,1
2025-04-18T11:58:50.545+03:00,1744966726.847687,40.95364123838744,29.14097494601333,94.02177,-1,-1,-1,-1,30,37.13093486593176,-9999,65287.19721487501,-0.77008056640625,0.63470458984375,-0.046844482421875,65287.187138875,0.7294753035843612,-1.509423649927437,-0.6899327835139905,0.00783856213092804,-0.01026085577905178,-0.01872497424483299,0.001678884029388428,-0.0001937747001647949,0.0004009529948234558,XArbitraryZVertical,-0.0001639133400778347,-0.6901788098673906,0.4609692906148102,0.5578178478271089,-0.7698370218276978,0.6364853382110596,-0.0473063662648201,0,0,0,-1,-1,65282.44046179167,unknown,2,2025-04-18T11:58:45.784+03:00,2025-04-17T15:44:39.500+03:00,7543,1.130489,0,0,6217.765,4,10,2025-04-18T11:58:45.784+03:00,766659528.449855,0,107.23,100.5705,1,0.5,2025-04-18T11:57:49.420+03:00,76,1.266666666666667,2025-04-18T08:51:18.885+03:00,0.03057091307199995,1
2025-04-18T11:58:50.555+03:00,1744966726.847687,40.95364123838744,29.14097494601333,94.02177,-1,-1,-1,-1,30,37.13093486593176,-9999,65287.207289875,-0.7663116455078125,0.63287353515625,-0.0463409423828125,65287.19721487501,0.7295503480279021,-1.509480769062133,-0.6897328693260784,0.006422426085919142,-0.01109828799962997,-0.02213255688548088,-0.000861823558807373,-0.0008788108825683594,0.0004257559776306152,XArbitraryZVertical,-5.251930289529946e-05,-0.6901919362248731,0.4609388412986736,0.5578266258007574,-0.7699664831161499,0.6363311409950256,-0.04727017506957054,0,0,0,-1,-1,65282.44046179167,unknown,2,2025-04-18T11:58:45.784+03:00,2025-04-17T15:44:39.500+03:00,7543,1.130489,0,0,6217.765,4,10,2025-04-18T11:58:45.784+03:00,766659528.449855,0,107.23,100.5705,1,0.5,2025-04-18T11:57:49.420+03:00,76,1.266666666666667,2025-04-18T08:51:18.885+03:00,0.03057091307199995,1
2025-04-18T11:58:50.566+03:00,1744966726.847687,40.95364123838744,29.14097494601333,94.02177,-1,-1,-1,-1,30,37.13093486593176,-9999,65287.217364875,-0.7652587890625,0.63116455078125,-0.03778076171875,65287.207289875,0.7295909457568843,-1.509588067327205,-0.6894877154623142,0.0009568206733092666,-0.01711596548557281,-0.0263677816838026,0.003907144069671631,-0.003375232219696045,0.0005815625190734863,XArbitraryZVertical,7.482821241564724e-05,-0.6902184008974597,0.4608870788772789,0.5578367115984919,-0.7701272964477539,0.6361420154571533,-0.04719710722565651,0,0,0,-1,-1,65282.44046179167,unknown,2,2025-04-18T11:58:45.784+03:00,2025-04-17T15:44:39.500+03:00,7543,1.130489,0,0,6217.765,4,10,2025-04-18T11:58:45.784+03:00,766659528.449855,0,107.23,100.5705,1,0.5,2025-04-18T11:57:49.420+03:00,76,1.266666666666667,2025-04-18T08:51:18.885+03:00,0.03057091307199995,1
2025-04-18T11:58:50.576+03:00,1744966726.847687,40.95364123838744,29.14097494601333,94.02177,-1,-1,-1,-1,30,37.13093486593176,-9999,65287.227440875,-0.767974853515625,0.632568359375,-0.0420684814453125,65287.217364875,0.7295034312755801,-1.509796993339419,-0.6892727428805793,-0.01314961072057486,-0.01395259611308575,-0.02432709932327271,0.004465401172637939,-0.004841983318328857,0.008821360766887665,XArbitraryZVertical,0.0001704704722405532,-0.6902736403944316,0.4608073313918113,0.5578342543356216,-0.7702736854553223,0.6359761357307434,-0.0470445454120636,0,0,0,-1,-1,65282.44046179167,unknown,2,2025-04-18T11:58:45.784+03:00,2025-04-17T15:44:39.500+03:00,7543,1.130489,0,0,6217.765,4,10,2025-04-18T11:58:45.784+03:00,766659528.449855,0,107.23,100.5705,1,0.5,2025-04-18T11:57:49.420+03:00,76,1.266666666666667,2025-04-18T08:51:18.885+03:00,0.03057091307199995,1
2025-04-18T11:58:50.586+03:00,1744966726.847687,40.95364123838744,29.14097494601333,94.02177,-1,-1,-1,-1,30,37.13093486593176,-9999,65287.23751587501,-0.7671356201171875,0.6309356689453125,-0.0469512939453125,65287.227440875,0.7292696078298537,-1.510108293901337,-0.689036116885529,-0.01715260930359364,-0.01763548143208027,-0.02852131240069866,0.003195822238922119,-0.003194570541381836,0.0054473876953125,XArbitraryZVertical,0.0002470475286837035,-0.6903571555698356,0.4606811952313463,0.5578349603092747,-0.7704383134841919,0.6357935070991516,-0.04681387171149254,0,0,0,-1,-1,65282.44046179167,unknown,2,2025-04-18T11:58:45.784+03:00,2025-04-17T15:44:39.500+03:00,7543,1.130489,0,0,6217.765,4,10,2025-04-18T11:58:45.784+03:00,766659528.449855,0,107.23,100.5705,1,0.5,2025-04-18T11:57:49.420+03:00,76,1.266666666666667,2025-04-18T08:51:18.885+03:00,0.03057091307199995,1
2025-04-18T11:58:50.596+03:00,1744966726.847687,40.95364123838744,29.14097494601333,94.02177,-1,-1,-1,-1,30,37.13093486593176,-9999,65287.24759087501,-0.766693115234375,0.632415771484375,-0.0469818115234375,65287.23751587501,0.7290559465065505,-1.510455287947486,-0.6887656219938272,-0.01330680400133133,-0.02548814564943314,-0.02939672768115997,0.00330740213394165,-0.004694819450378418,0.0008111037313938141,XArbitraryZVertical,0.0003509883269682639,-0.6904501628256522,0.4605519006536133,0.5578265125305445,-0.7706261277198792,0.6355847120285034,-0.04655689746141434,0,0,0,-1,-1,65282.44046179167,unknown,2,2025-04-18T11:58:45.784+03:00,2025-04-17T15:44:39.500+03:00,7543,1.130489,0,0,6217.765,4,10,2025-04-18T11:58:45.784+03:00,766659528.449855,0,107.23,100.5705,1,0.5,2025-04-18T11:57:49.420+03:00,76,1.266666666666667,2025-04-18T08:51:18.885+03:00,0.03057091307199995,1
2025-04-18T11:58:50.606+03:00,1744966726.847687,40.95364123838744,29.14097494601333,94.02177,-1,-1,-1,-1,30,37.13093486593176,-9999,65287.257666875,-0.7684783935546875,0.6331939697265625,-0.0431365966796875,65287.24759087501,0.7287923709160765,-1.510835757556436,-0.6884733364243667,-0.02238365449011326,-0.01962439715862274,-0.02976397611200809,0.003846168518066406,-0.003172099590301514,-0.001073122024536133,XArbitraryZVertical,0.0004531878562587673,-0.6905522267641983,0.4604029792214363,0.5578231213446028,-0.7708293199539185,0.635358989238739,-0.04627483338117599,0,0,0,-1,-1,65282.44046179167,unknown,2,2025-04-18T11:58:45.784+03:00,2025-04-17T15:44:39.500+03:00,7543,1.130489,0,0,6217.765,4,10,2025-04-18T11:58:45.784+03:00,766659528.449855,0,107.23,100.5705,1,0.5,2025-04-18T11:57:49.420+03:00,76,1.266666666666667,2025-04-18T08:51:18.885+03:00,0.03057091307199995,1
2025-04-18T11:58:50.616+03:00,1744966726.847687,40.95364123838744,29.14097494601333,94.02177,-1,-1,-1,-1,30,37.13093486593176,-9999,65287.267741875,-0.7723236083984375,0.6348876953125,-0.0432891845703125,65287.257666875,0.7284350379523338,-1.511205359144371,-0.6882319373251045,-0.02768407762050629,-0.01236988045275211,-0.02324266172945499,0.002673506736755371,-0.001749753952026367,0.002816740423440933,XArbitraryZVertical,0.0005021336040331297,-0.6906520256805706,0.4602410233609149,0.5578330630187925,-0.7709992527961731,0.6351726055145264,-0.04599905386567116,0,0,0,-1,-1,65282.44046179167,unknown,2,2025-04-18T11:58:45.784+03:00,2025-04-17T15:44:39.500+03:00,7543,1.130489,0,0,6217.765,4,10,2025-04-18T11:58:45.784+03:00,766659528.449855,0,107.23,100.5705,1,0.5,2025-04-18T11:57:49.420+03:00,76,1.266666666666667,2025-04-18T08:51:18.885+03:00,0.03057091307199995,1
2025-04-18T11:58:50.626+03:00,1744966726.847687,40.95364123838744,29.14097494601333,94.02177,-1,-1,-1,-1,30,37.13093486593176,-9999,65287.277816875,-0.77264404296875,0.6388702392578125,-0.0437774658203125,65287.267741875,0.7280793208713722,-1.511514244502661,-0.6880591972533516,-0.02276202291250229,-0.005913845263421535,-0.01635546050965786,-0.0001325011253356934,-0.0006549954414367676,0.002478301525115967,XArbitraryZVertical,0.0005127495206711334,-0.6907358638995743,0.460097161404786,0.557847981981423,-0.7711230516433716,0.6350391507148743,-0.0457674078643322,0,0,0,-1,-1,65282.44046179167,unknown,2,2025-04-18T11:58:45.784+03:00,2025-04-17T15:44:39.500+03:00,7543,1.130489,0,0,6217.765,4,10,2025-04-18T11:58:45.784+03:00,766659528.449855,0,107.23,100.5705,1,0.5,2025-04-18T11:57:49.420+03:00,76,1.266666666666667,2025-04-18T08:51:18.885+03:00,0.03057091307199995,1
2025-04-18T11:58:50.636+03:00,1744966726.847687,40.95364123838744,29.14097494601333,94.02177,-1,-1,-1,-1,30,37.13093486593176,-9999,65287.28789287501,-0.7725982666015625,0.6383209228515625,-0.0428314208984375,65287.277816875,0.7278341885342359,-1.511694879703511,-0.6879195878672685,-0.01518186926841736,0.002082829130813479,-0.01255033537745476,-0.001119136810302734,0.003511667251586914,0.002267960458993912,XArbitraryZVertical,0.0005200997281052798,-0.6907843784642246,0.4599927388979904,0.5578739365159283,-0.7712196707725525,0.6349313259124756,-0.04563334211707115,0,0,0,-1,-1,65282.44046179167,unknown,2,2025-04-18T11:58:45.784+03:00,2025-04-17T15:44:39.500+03:00,7543,1.130489,0,0,6217.765,4,10,2025-04-18T11:58:45.784+03:00,766659528.449855,0,107.23,100.5705,1,0.5,2025-04-18T11:57:49.420+03:00,76,1.266666666666667,2025-04-18T08:51:18.885+03:00,0.03057091307199995,1
2025-04-18T11:58:50.646+03:00,1744966726.847687,40.95364123838744,29.14097494601333,94.02177,-1,-1,-1,-1,30,37.13093486593176,-9999,65287.29796787501,-0.773895263671875,0.6391448974609375,-0.0418548583984375,65287.28789287501,0.7277057803700641,-1.511741097252177,-0.6878573310386962,-0.006367071997374296,0.00564134493470192,-0.002856696024537086,-0.001123309135437012,0.003819286823272705,0.002280350774526596,XArbitraryZVertical,0.0005088077427611669,-0.6907964368745462,0.4599407967582024,0.5579020241918647,-0.7712615132331848,0.6348832249641418,-0.0456000491976738,0,0,0,-1,-1,65282.44046179167,unknown,2,2025-04-18T11:58:45.784+03:00,2025-04-17T15:44:39.500+03:00,7543,1.130489,0,0,6217.765,4,10,2025-04-18T11:58:45.784+03:00,766659528.449855,0,107.23,100.5705,1,0.5,2025-04-18T11:57:49.420+03:00,76,1.266666666666667,2025-04-18T08:51:18.885+03:00,0.03057091307199995,1
2025-04-18T11:58:50.656+03:00,1744966726.847687,40.95364123838744,29.14097494601333,94.02177,-1,-1,-1,-1,30,37.13093486593176,-9999,65287.308043875,-0.7730712890625,0.6389007568359375,-0.0440673828125,65287.29796787501,0.7276213479464957,-1.511727500768279,-0.6878709380513962,-0.003435863647609949,0.008589597418904305,0.003676371183246374,-0.002063393592834473,0.003869771957397461,0.002992268651723862,XArbitraryZVertical,0.0004716150772595468,-0.6907928538784233,0.4599207681701761,0.5579229668011756,-0.7712522149085999,0.6348937153816223,-0.04561002179980278,0,0,0,-1,-1,65282.44046179167,unknown,2,2025-04-18T11:58:45.784+03:00,2025-04-17T15:44:39.500+03:00,7543,1.130489,0,0,6217.765,4,10,2025-04-18T11:58:45.784+03:00,766659528.449855,0,107.23,100.5705,1,0.5,2025-04-18T11:57:49.420+03:00,76,1.266666666666667,2025-04-18T08:51:18.885+03:00,0.03057091307199995,1
2025-04-18T11:58:50.666+03:00,1744966726.847687,40.95364123838744,29.14097494601333,94.02177,-1,-1,-1,-1,30,37.13093486593176,-9999,65287.318118875,-0.772430419921875,0.636871337890625,-0.04443359375,65287.308043875,0.7276553721100116,-1.511598085184227,-0.6879267044770044,0.00818430632352829,0.0131531897932291,0.007048199418932199,-0.002272427082061768,0.003750383853912354,0.002006649971008301,XArbitraryZVertical,0.0004334733744499149,-0.6907575152495464,0.4599446916316531,0.557946984432571,-0.7712109088897705,0.6349368095397949,-0.04570773616433144,0,0,0,-1,-1,65282.44046179167,unknown,2,2025-04-18T11:58:45.784+03:00,2025-04-17T15:44:39.500+03:00,7543,1.130489,0,0,6217.765,4,10,2025-04-18T11:58:45.784+03:00,766659528.449855,0,107.23,100.5705,1,0.5,2025-04-18T11:57:49.420+03:00,76,1.266666666666667,2025-04-18T08:51:18.885+03:00,0.03057091307199995,1
2025-04-18T11:58:50.676+03:00,1744966726.847687,40.95364123838744,29.14097494601333,94.02177,-1,-1,-1,-1,30,37.13093486593176,-9999,65287.328193875,-0.7689666748046875,0.63482666015625,-0.0436248779296875,65287.318118875,0.727760212926185,-1.51143228315796,-0.6879961308537845,0.009527605026960373,0.008838336914777756,0.008231707848608494,-0.001194894313812256,0.002018332481384277,0.001170571893453598,XArbitraryZVertical,0.000406437655009719,-0.6907121960775002,0.4599918664940017,0.5579643075156844,-0.7711594104766846,0.6349904537200928,-0.04583299532532692,0,0,0,-1,-1,65282.44046179167,unknown,2,2025-04-18T11:58:45.784+03:00,2025-04-17T15:44:39.500+03:00,7543,1.130489,0,0,6217.765,4,10,2025-04-18T11:58:45.784+03:00,766659528.449855,0,107.23,100.5705,1,0.5,2025-04-18T11:57:49.420+03:00,76,1.266666666666667,2025-04-18T08:51:18.885+03:00,0.03057091307199995,1
2025-04-18T11:58:50.686+03:00,1744966726.847687,40.95364123838744,29.14097494601333,94.02177,-1,-1,-1,-1,30,37.13093486593176,-9999,65287.33826987501,-0.7712554931640625,0.6312103271484375,-0.0431671142578125,65287.328193875,0.7278890573394466,-1.511254372109751,-0.6880769364535037,0.006600258871912956,0.01194518059492111,0.00877818837761879,0.001446545124053955,0.000506281852722168,0.001731932163238525,XArbitraryZVertical,0.0003808316001512361,-0.6906636577317837,0.4600487044910136,0.5579775019514038,-0.7710999846458435,0.6350528597831726,-0.04596713185310364,0,0,0,-1,-1,65282.44046179167,unknown,2,2025-04-18T11:58:45.784+03:00,2025-04-17T15:44:39.500+03:00,7543,1.130489,0,0,6217.765,4,10,2025-04-18T11:58:45.784+03:00,766659528.449855,0,107.23,100.5705,1,0.5,2025-04-18T11:57:49.420+03:00,76,1.266666666666667,2025-04-18T08:51:18.885+03:00,0.03057091307199995,1
2025-04-18T11:58:50.696+03:00,1744966726.847687,40.95364123838744,29.14097494601333,94.02177,-1,-1,-1,-1,30,37.13093486593176,-9999,65287.348344875,-0.772918701171875,0.6349029541015625,-0.0415191650390625,65287.33826987501,0.7279876941738193,-1.511075790846417,-0.6881457897670284,0.01035638153553009,0.01063890010118484,0.007135550491511822,0.0003723502159118652,-0.003926217555999756,0.002782583236694336,XArbitraryZVertical,0.0003489422361093963,-0.6906147737527771,0.4600940210693718,0.5580006382464617,-0.7710480690002441,0.6351060271263123,-0.04610222578048706,0,0,0,-1,-1,65282.44046179167,unknown,2,2025-04-18T11:58:45.784+03:00,2025-04-17T15:44:39.500+03:00,7543,1.130489,0,0,6217.765,4,10,2025-04-18T11:58:45.784+03:00,766659528.449855,0,107.23,100.5705,1,0.5,2025-04-18T11:57:49.420+03:00,76,1.266666666666667,2025-04-18T08:51:18.885+03:00,0.03057091307199995,1
