loggingTime(txt),locationTimestamp_since1970(s),locationLatitude(WGS84),locationLongitude(WGS84),locationAltitude(m),locationSpeed(m/s),locationSpeedAccuracy(m/s),locationCourse(°),locationCourseAccuracy(°),locationVerticalAccuracy(m),locationHorizontalAccuracy(m),locationFloor(Z),accelerometerTimestamp_sinceReboot(s),accelerometerAccelerationX(G),accelerometerAccelerationY(G),accelerometerAccelerationZ(G),motionTimestamp_sinceReboot(s),motionYaw(rad),motionRoll(rad),motionPitch(rad),motionRotationRateX(rad/s),motionRotationRateY(rad/s),motionRotationRateZ(rad/s),motionUserAccelerationX(G),motionUserAccelerationY(G),motionUserAccelerationZ(G),motionAttitudeReferenceFrame(txt),motionQuaternionX(R),motionQuaternionY(R),motionQuaternionZ(R),motionQuaternionW(R),motionGravityX(G),motionGravityY(G),motionGravityZ(G),motionMagneticFieldX(µT),motionMagneticFieldY(µT),motionMagneticFieldZ(µT),motionHeading(°),motionMagneticFieldCalibrationAccuracy(Z),activityTimestamp_sinceReboot(s),activity(txt),activityActivityConfidence(Z),activityActivityStartDate(txt),pedometerStartDate(txt),pedometerNumberofSteps(N),pedometerAverageActivePace(s/m),pedometerCurrentPace(s/m),pedometerCurrentCadence(steps/s),pedometerDistance(m),pedometerFloorAscended(N),pedometerFloorDescended(N),pedometerEndDate(txt),altimeterTimestamp_sinceReboot(s),altimeterReset(bool),altimeterRelativeAltitude(m),altimeterPressure(kPa),batteryState(N),batteryLevel(R),heartRateBPMTimestamp(txt),heartRateBPM(N),heartRateBPS(R),heartRateVariabilityTimestamp(txt),heartRateVariability(ms),label
2025-04-18T11:40:59.561+03:00,1744965658.052891,40.95365802376528,29.14099035342986,93.56898,-1,-1,-1,-1,30,26.11647419390102,-9999,64670.54048150001,-0.7626953125,0.6331939697265625,-0.12579345703125,64670.5304055,1.072847080735025,-1.413906895458595,-0.6674827809968273,0.07282277941703796,-0.01175545528531075,-0.07685591280460358,-0.01688146591186523,0.00740814208984375,-0.001630485057830811,XArbitraryZVertical,0.09954211755662276,-0.654778360309602,0.5500293677382578,0.5087478879395306,-0.775736391544342,0.6190109848976135,-0.1227133348584175,0,0,0,-1,-1,64658.66040075,unknown,2,2025-04-18T11:40:47.659+03:00,2025-04-17T15:44:39.500+03:00,7521,1.123721,0,0,6201.632,4,10,2025-04-18T11:40:37.342+03:00,766658458.0735135,0,107.96,100.559,1,0.55,2025-04-18T11:40:54.294+03:00,101,1.683333333333333,2025-04-18T08:51:18.885+03:00,0.03057091307199995,1
2025-04-18T11:40:59.563+03:00,1744965658.052891,40.95365802376528,29.14099035342986,93.56898,-1,-1,-1,-1,30,26.11647419390102,-9999,64670.55055650001,-0.7747650146484375,0.62322998046875,-0.1229095458984375,64670.54048150001,1.073575155511134,-1.413411776120859,-0.6667410631356732,0.05566349625587463,0.0190059207379818,-0.05812669917941093,0.01231962442398071,0.01705455780029297,-0.003860056400299072,XArbitraryZVertical,0.09991355798020275,-0.6545476371495266,0.5500908946331964,0.5089055182269198,-0.776128888130188,0.6184282898902893,-0.1231693401932716,0,0,0,-1,-1,64658.66040075,unknown,2,2025-04-18T11:40:47.659+03:00,2025-04-17T15:44:39.500+03:00,7521,1.123721,0,0,6201.632,4,10,2025-04-18T11:40:37.342+03:00,766658458.0735135,0,107.96,100.559,1,0.55,2025-04-18T11:40:54.294+03:00,101,1.683333333333333,2025-04-18T08:51:18.885+03:00,0.03057091307199995,1
2025-04-18T11:40:59.564+03:00,1744965658.052891,40.95365802376528,29.14099035342986,93.56898,-1,-1,-1,-1,30,26.11647419390102,-9999,64670.5606315,-0.7717132568359375,0.62078857421875,-0.1201171875,64670.55055650001,1.073968930143873,-1.412985411381591,-0.6660910369893058,0.01730438880622387,0.01184974052011967,-0.05189037322998047,0.002806603908538818,0.005968868732452393,0.0005470961332321167,XArbitraryZVertical,0.1001611657152547,-0.6543592593038402,0.550082434508534,0.5091082330049869,-0.7764731645584106,0.6179172992706299,-0.1235634014010429,0,0,0,-1,-1,64658.66040075,unknown,2,2025-04-18T11:40:47.659+03:00,2025-04-17T15:44:39.500+03:00,7521,1.123721,0,0,6201.632,4,10,2025-04-18T11:40:37.342+03:00,766658458.0735135,0,107.96,100.559,1,0.55,2025-04-18T11:40:54.294+03:00,101,1.683333333333333,2025-04-18T08:51:18.885+03:00,0.03057091307199995,1
2025-04-18T11:40:59.574+03:00,1744965658.052891,40.95365802376528,29.14099035342986,93.56898,-1,-1,-1,-1,30,26.11647419390102,-9999,64670.5707075,-0.7637176513671875,0.6188507080078125,-0.118316650390625,64670.5606315,1.073750587138723,-1.413123245428253,-0.6655799266785659,-0.03356118872761726,-0.00386983435600996,-0.04067500308156013,0.003944218158721924,0.003746271133422852,0.002747952938079834,XArbitraryZVertical,0.1003132516858609,-0.6543579167099599,0.5499177066481332,0.5092578750782982,-0.7768018841743469,0.6175153851509094,-0.1235059350728989,0,0,0,-1,-1,64658.66040075,unknown,2,2025-04-18T11:40:47.659+03:00,2025-04-17T15:44:39.500+03:00,7521,1.123721,0,0,6201.632,4,10,2025-04-18T11:40:37.342+03:00,766658458.0735135,0,107.96,100.559,1,0.55,2025-04-18T11:40:54.294+03:00,101,1.683333333333333,2025-04-18T08:51:18.885+03:00,0.03057091307199995,1
2025-04-18T11:40:59.584+03:00,1744965658.052891,40.95365802376528,29.14099035342986,93.56898,-1,-1,-1,-1,30,26.11647419390102,-9999,64670.5807825,-0.7602386474609375,0.6139984130859375,-0.12548828125,64670.5707075,1.072921195056308,-1.413893651442896,-0.6652801676397401,-0.08039440959692001,-0.04357297345995903,-0.02517111226916313,0.01307207345962524,0.002608776092529297,0.005199611186981201,XArbitraryZVertical,0.1003624316518903,-0.6545679442938472,0.5496078268748199,0.5093128574207912,-0.777079701423645,0.617279589176178,-0.122936375439167,0,0,0,-1,-1,64658.66040075,unknown,2,2025-04-18T11:40:47.659+03:00,2025-04-17T15:44:39.500+03:00,7521,1.123721,0,0,6201.632,4,10,2025-04-18T11:40:37.342+03:00,766658458.0735135,0,107.96,100.559,1,0.55,2025-04-18T11:40:54.294+03:00,101,1.683333333333333,2025-04-18T08:51:18.885+03:00,0.03057091307199995,1
2025-04-18T11:40:59.594+03:00,1744965658.052891,40.95365802376528,29.14099035342986,93.56898,-1,-1,-1,-1,30,26.11647419390102,-9999,64670.59085850001,-0.7483673095703125,0.6168365478515625,-0.1378326416015625,64670.5807825,1.071649201267974,-1.415372235585137,-0.6652058885387705,-0.1020272672176361,-0.0882943719625473,-0.02193989977240562,0.0162736177444458,-0.002368271350860596,-0.001557633280754089,XArbitraryZVertical,0.1003792069619721,-0.6550014142828224,0.5491948609303453,0.5091975098778466,-0.7773056626319885,0.6172211170196533,-0.1217943206429482,0,0,0,-1,-1,64658.66040075,unknown,2,2025-04-18T11:40:47.659+03:00,2025-04-17T15:44:39.500+03:00,7521,1.123721,0,0,6201.632,4,10,2025-04-18T11:40:37.342+03:00,766658458.0735135,0,107.96,100.559,1,0.55,2025-04-18T11:40:54.294+03:00,101,1.683333333333333,2025-04-18T08:51:18.885+03:00,0.03057091307199995,1
2025-04-18T11:40:59.604+03:00,1744965658.052891,40.95365802376528,29.14099035342986,93.56898,-1,-1,-1,-1,30,26.11647419390102,-9999,64670.60093350001,-0.7489166259765625,0.63262939453125,-0.133453369140625,64670.59085850001,1.070319241116148,-1.417244338384233,-0.6653022007144151,-0.09407473355531693,-0.1088097020983696,-0.01814832352101803,0.02796196937561035,-0.001650512218475342,-0.01683133840560913,XArbitraryZVertical,0.1004223184870044,-0.6555535297318952,0.5487817123177652,0.5089240484678944,-0.7774737477302551,0.6172969341278076,-0.1203298568725586,0,0,0,-1,-1,64658.66040075,unknown,2,2025-04-18T11:40:47.659+03:00,2025-04-17T15:44:39.500+03:00,7521,1.123721,0,0,6201.632,4,10,2025-04-18T11:40:37.342+03:00,766658458.0735135,0,107.96,100.559,1,0.55,2025-04-18T11:40:54.294+03:00,101,1.683333333333333,2025-04-18T08:51:18.885+03:00,0.03057091307199995,1
2025-04-18T11:40:59.614+03:00,1744965658.052891,40.95365802376528,29.14099035342986,93.56898,-1,-1,-1,-1,30,26.11647419390102,-9999,64670.6110085,-0.7655181884765625,0.6404876708984375,-0.1223907470703125,64670.60093350001,1.069255018704056,-1.419053780870974,-0.6653221587979647,-0.0594797357916832,-0.1149986162781715,-0.0225105807185173,0.03007352352142334,0.01270759105682373,-0.01581402122974396,XArbitraryZVertical,0.1005624259772918,-0.6560691217974635,0.5484240893030594,0.508617445437353,-0.7776781320571899,0.6173126101493835,-0.1189210116863251,0,0,0,-1,-1,64658.66040075,unknown,2,2025-04-18T11:40:47.659+03:00,2025-04-17T15:44:39.500+03:00,7521,1.123721,0,0,6201.632,4,10,2025-04-18T11:40:37.342+03:00,766658458.0735135,0,107.96,100.559,1,0.55,2025-04-18T11:40:54.294+03:00,101,1.683333333333333,2025-04-18T08:51:18.885+03:00,0.03057091307199995,1
2025-04-18T11:40:59.624+03:00,1744965658.052891,40.95365802376528,29.14099035342986,93.56898,-1,-1,-1,-1,30,26.11647419390102,-9999,64670.6210845,-0.7715301513671875,0.6435546875,-0.1133880615234375,64670.6110085,1.068716656554892,-1.42057423553016,-0.6651261539599028,-0.02330788597464561,-0.1231652051210403,-0.02674487419426441,0.01422935724258423,0.02285629510879517,-0.00611424446105957,XArbitraryZVertical,0.1008736985440263,-0.6564649439654171,0.5481710651689454,0.5083177089429447,-0.7779775857925415,0.6171584129333496,-0.1177565455436707,0,0,0,-1,-1,64658.66040075,unknown,2,2025-04-18T11:40:47.659+03:00,2025-04-17T15:44:39.500+03:00,7521,1.123721,0,0,6201.632,4,10,2025-04-18T11:40:37.342+03:00,766658458.0735135,0,107.96,100.559,1,0.55,2025-04-18T11:40:54.294+03:00,101,1.683333333333333,2025-04-18T08:51:18.885+03:00,0.03057091307199995,1
2025-04-18T11:40:59.635+03:00,1744965658.052891,40.95365802376528,29.14099035342986,93.56898,-1,-1,-1,-1,30,26.11647419390102,-9999,64670.6311595,-0.7758941650390625,0.639617919921875,-0.111328125,64670.6210845,1.06857981820916,-1.421829678098316,-0.6649965699828255,0.002100534737110138,-0.1151815727353096,-0.02039243467152119,0.007055044174194336,0.02613210678100586,0.002686426043510437,XArbitraryZVertical,0.1012198162292459,-0.6567790659238791,0.5480466556158661,0.5079771499333521,-0.7782039046287537,0.6170564293861389,-0.1167916133999825,0,0,0,-1,-1,64658.66040075,unknown,2,2025-04-18T11:40:47.659+03:00,2025-04-17T15:44:39.500+03:00,7521,1.123721,0,0,6201.632,4,10,2025-04-18T11:40:37.342+03:00,766658458.0735135,0,107.96,100.559,1,0.55,2025-04-18T11:40:54.294+03:00,101,1.683333333333333,2025-04-18T08:51:18.885+03:00,0.03057091307199995,1
2025-04-18T11:40:59.654+03:00,1744965658.052891,40.95365802376528,29.14099035342986,93.56898,-1,-1,-1,-1,30,26.11647419390102,-9999,64670.64123550001,-0.78851318359375,0.6327972412109375,-0.11187744140625,64670.6311595,1.068849119555228,-1.422724234383863,-0.664843972881102,0.04072735831141472,-0.09690637141466141,-0.008220025338232517,0.003162980079650879,0.023673415184021,0.005422115325927734,XArbitraryZVertical,0.1016087254533088,-0.6569787046206351,0.5480387789204342,0.5076496570299276,-0.7784010767936707,0.6169363260269165,-0.1161092966794968,0,0,0,-1,-1,64658.66040075,unknown,2,2025-04-18T11:40:47.659+03:00,2025-04-17T15:44:39.500+03:00,7521,1.123721,0,0,6201.632,4,10,2025-04-18T11:40:37.342+03:00,766658458.0735135,0,107.96,100.559,1,0.55,2025-04-18T11:40:54.294+03:00,101,1.683333333333333,2025-04-18T08:51:18.885+03:00,0.03057091307199995,1
2025-04-18T11:40:59.656+03:00,1744965658.052891,40.95365802376528,29.14099035342986,93.56898,-1,-1,-1,-1,30,26.11647419390102,-9999,64670.6513105,-0.79913330078125,0.6255035400390625,-0.1186981201171875,64670.64123550001,1.069500523011265,-1.423026792767855,-0.6648174562496511,0.05307856574654579,-0.04688367992639542,0.009450314566493034,-0.007863521575927734,0.01656848192214966,0.003861472010612488,XArbitraryZVertical,0.1019151689064289,-0.6570199305794997,0.548183292646245,0.5073789464386934,-0.7784525752067566,0.6169154644012451,-0.1158762201666832,0,0,0,-1,-1,64658.66040075,unknown,2,2025-04-18T11:40:47.659+03:00,2025-04-17T15:44:39.500+03:00,7521,1.123721,0,0,6201.632,4,10,2025-04-18T11:40:37.342+03:00,766658458.0735135,0,107.96,100.559,1,0.55,2025-04-18T11:40:54.294+03:00,101,1.683333333333333,2025-04-18T08:51:18.885+03:00,0.03057091307199995,1
2025-04-18T11:40:59.664+03:00,1744965658.052891,40.95365802376528,29.14099035342986,93.56898,-1,-1,-1,-1,30,26.11647419390102,-9999,64670.6613855,-0.798858642578125,0.6118316650390625,-0.123565673828125,64670.6513105,1.070157550461254,-1.422846437717838,-0.664900013076966,0.04177957400679588,-0.003086133394390345,0.009561900980770588,-0.01998937129974365,0.01009476184844971,-0.001010477542877197,XArbitraryZVertical,0.1020517069607292,-0.6569481786160027,0.548375880504964,0.5072361189093328,-0.7783810496330261,0.6169804334640503,-0.1160090789198875,0,0,0,-1,-1,64658.66040075,unknown,2,2025-04-18T11:40:47.659+03:00,2025-04-17T15:44:39.500+03:00,7521,1.123721,0,0,6201.632,4,10,2025-04-18T11:40:37.342+03:00,766658458.0735135,0,107.96,100.559,1,0.55,2025-04-18T11:40:54.294+03:00,101,1.683333333333333,2025-04-18T08:51:18.885+03:00,0.03057091307199995,1
2025-04-18T11:40:59.674+03:00,1744965658.052891,40.95365802376528,29.14099035342986,93.56898,-1,-1,-1,-1,30,26.11647419390102,-9999,64670.6714615,-0.790283203125,0.6064300537109375,-0.124114990234375,64670.6613855,1.070593066182629,-1.422481413418886,-0.6649986703254478,0.01756158284842968,0.01258337404578924,0.01210308913141489,-0.02158725261688232,-0.003654718399047852,-0.006121695041656494,XArbitraryZVertical,0.102058897269094,-0.6568423527732311,0.548524919180318,0.5072106074250495,-0.7782785296440125,0.6170580983161926,-0.1162842065095901,0,0,0,-1,-1,64658.66040075,unknown,2,2025-04-18T11:40:47.659+03:00,2025-04-17T15:44:39.500+03:00,7521,1.123721,0,0,6201.632,4,10,2025-04-18T11:40:37.342+03:00,766658458.0735135,0,107.96,100.559,1,0.55,2025-04-18T11:40:54.294+03:00,101,1.683333333333333,2025-04-18T08:51:18.885+03:00,0.03057091307199995,1
2025-04-18T11:40:59.685+03:00,1744965658.052891,40.95365802376528,29.14099035342986,93.56898,-1,-1,-1,-1,30,26.11647419390102,-9999,64670.68153650001,-0.787628173828125,0.6110076904296875,-0.1243438720703125,64670.6714615,1.070824882529933,-1.422040051068856,-0.6651965623455607,0.002500341972336173,0.02881267666816711,0.0144007308408618,-0.01289403438568115,-0.01136356592178345,-0.007459521293640137,XArbitraryZVertical,0.1019422543330321,-0.6567366092696458,0.5486462356776297,0.5072398029454677,-0.7781063914299011,0.6172137856483459,-0.1166096031665802,0,0,0,-1,-1,64658.66040075,unknown,2,2025-04-18T11:40:47.659+03:00,2025-04-17T15:44:39.500+03:00,7521,1.123721,0,0,6201.632,4,10,2025-04-18T11:40:37.342+03:00,766658458.0735135,0,107.96,100.559,1,0.55,2025-04-18T11:40:54.294+03:00,101,1.683333333333333,2025-04-18T08:51:18.885+03:00,0.03057091307199995,1
2025-04-18T11:40:59.695+03:00,1744965658.052891,40.95365802376528,29.14099035342986,93.56898,-1,-1,-1,-1,30,26.11647419390102,-9999,64670.69161250001,-0.7815704345703125,0.6156463623046875,-0.121856689453125,64670.68153650001,1.070977854879561,-1.421639543201794,-0.6654743763091161,0.002773582469671965,0.01271946169435978,0.019985381513834,-0.009906113147735596,-0.00714188814163208,-0.007737979292869568,XArbitraryZVertical,0.1017819882930532,-0.6566525445860563,0.5487615881863649,0.5072559019240112,-0.7778898477554321,0.6174323558807373,-0.1168957278132439,0,0,0,-1,-1,64658.66040075,unknown,2,2025-04-18T11:40:47.659+03:00,2025-04-17T15:44:39.500+03:00,7521,1.123721,0,0,6201.632,4,10,2025-04-18T11:40:37.342+03:00,766658458.0735135,0,107.96,100.559,1,0.55,2025-04-18T11:40:54.294+03:00,101,1.683333333333333,2025-04-18T08:51:18.885+03:00,0.03057091307199995,1
2025-04-18T11:40:59.705+03:00,1744965658.052891,40.95365802376528,29.14099035342986,93.56898,-1,-1,-1,-1,30,26.11647419390102,-9999,64670.7016875,-0.779205322265625,0.6248321533203125,-0.119415283203125,64670.69161250001,1.071112257969508,-1.421335730417515,-0.6658120607490624,0.00841815210878849,0.02727816440165043,0.02614953368902206,-0.005112528800964355,-0.002784013748168945,-0.005106568336486816,XArbitraryZVertical,0.1016203526370099,-0.6565994210046606,0.5488793185599974,0.5072297498799523,-0.7776481509208679,0.6176979541778564,-0.1171010062098503,0,0,0,-1,-1,64658.66040075,unknown,2,2025-04-18T11:40:47.659+03:00,2025-04-17T15:44:39.500+03:00,7521,1.123721,0,0,6201.632,4,10,2025-04-18T11:40:37.342+03:00,766658458.0735135,0,107.96,100.559,1,0.55,2025-04-18T11:40:54.294+03:00,101,1.683333333333333,2025-04-18T08:51:18.885+03:00,0.03057091307199995,1
2025-04-18T11:40:59.714+03:00,1744965658.052891,40.95365802376528,29.14099035342986,93.56898,-1,-1,-1,-1,30,26.11647419390102,-9999,64670.7117625,-0.7835693359375,0.62939453125,-0.1179351806640625,64670.7016875,1.071428096826519,-1.420783735303772,-0.6662132630457834,0.03022597916424274,0.0451439805328846,0.03554303571581841,-0.001424551010131836,0.005552232265472412,-0.001708373427391052,XArbitraryZVertical,0.1014271356429781,-0.656479962277504,0.5490684105887413,0.5072183242591087,-0.7773382067680359,0.6180134415626526,-0.1174931898713112,0,0,0,-1,-1,64658.66040075,unknown,2,2025-04-18T11:40:47.659+03:00,2025-04-17T15:44:39.500+03:00,7521,1.123721,0,0,6201.632,4,10,2025-04-18T11:40:37.342+03:00,766658458.0735135,0,107.96,100.559,1,0.55,2025-04-18T11:40:54.294+03:00,101,1.683333333333333,2025-04-18T08:51:18.885+03:00,0.03057091307199995,1
2025-04-18T11:40:59.725+03:00,1744965658.052891,40.95365802376528,29.14099035342986,93.56898,-1,-1,-1,-1,30,26.11647419390102,-9999,64670.7218385,-0.781341552734375,0.6217803955078125,-0.119140625,64670.7117625,1.07186994170471,-1.419932145022123,-0.6665546031544172,0.03428290411829948,0.07266335934400558,0.0223360862582922,-0.006906211376190186,0.0117078423500061,-0.0001016184687614441,XArbitraryZVertical,0.1012145395448083,-0.6562727364780455,0.5492924127902672,0.5072865039864217,-0.7770293354988098,0.6182817220687866,-0.1181234270334244,0,0,0,-1,-1,64658.66040075,unknown,2,2025-04-18T11:40:47.659+03:00,2025-04-17T15:44:39.500+03:00,7521,1.123721,0,0,6201.632,4,10,2025-04-18T11:40:37.342+03:00,766658458.0735135,0,107.96,100.559,1,0.55,2025-04-18T11:40:54.294+03:00,101,1.683333333333333,2025-04-18T08:51:18.885+03:00,0.03057091307199995,1
2025-04-18T11:40:59.735+03:00,1744965658.052891,40.95365802376528,29.14099035342986,93.56898,-1,-1,-1,-1,30,26.11647419390102,-9999,64670.73191350001,-0.7765045166015625,0.614898681640625,-0.1205291748046875,64670.7218385,1.072301802134535,-1.41895492336951,-0.6667013625419055,0.03971255570650101,0.0713360384106636,0.008289243094623089,-0.005540013313293457,0.004924416542053223,1.831352710723877e-05,XArbitraryZVertical,0.1010345761863354,-0.6560164091059979,0.5494809254613167,0.5074497331178484,-0.7768238186836243,0.618397057056427,-0.1188689693808556,0,0,0,-1,-1,64658.66040075,unknown,2,2025-04-18T11:40:47.659+03:00,2025-04-17T15:44:39.500+03:00,7521,1.123721,0,0,6201.632,4,10,2025-04-18T11:40:37.342+03:00,766658458.0735135,0,107.96,100.559,1,0.55,2025-04-18T11:40:54.294+03:00,101,1.683333333333333,2025-04-18T08:51:18.885+03:00,0.03057091307199995,1
2025-04-18T11:40:59.745+03:00,1744965658.052891,40.95365802376528,29.14099035342986,93.56898,-1,-1,-1,-1,30,26.11647419390102,-9999,64670.74198950001,-0.7693939208984375,0.607391357421875,-0.129486083984375,64670.73191350001,1.072774699652237,-1.418045108855765,-0.6666541514888645,0.0340317040681839,0.04893665388226509,-0.0008956335368566215,-0.0002484917640686035,-0.003247618675231934,-0.0008268952369689941,XArbitraryZVertical,0.100956741017694,-0.6557573197960603,0.5496373717695466,0.507630748610559,-0.7767443656921387,0.6183599829673767,-0.1195801496505737,0,0,0,-1,-1,64658.66040075,unknown,2,2025-04-18T11:40:47.659+03:00,2025-04-17T15:44:39.500+03:00,7521,1.123721,0,0,6201.632,4,10,2025-04-18T11:40:37.342+03:00,766658458.0735135,0,107.96,100.559,1,0.55,2025-04-18T11:40:54.294+03:00,101,1.683333333333333,2025-04-18T08:51:18.885+03:00,0.03057091307199995,1
2025-04-18T11:40:59.755+03:00,1744965658.052891,40.95365802376528,29.14099035342986,93.56898,-1,-1,-1,-1,30,26.11647419390102,-9999,64670.7520645,-0.7719268798828125,0.58966064453125,-0.131256103515625,64670.74198950001,1.072965779397615,-1.417475420646028,-0.6665253559016082,-0.004695718642324209,0.0413152202963829,-0.0002844380796886981,0.007559120655059814,-0.009631454944610596,-0.008489899337291718,XArbitraryZVertical,0.1009095599758396,-0.6555912378291413,0.5496887601492529,0.5077988985015921,-0.7767547369003296,0.6182587146759033,-0.1200347766280174,0,0,0,-1,-1,64658.66040075,unknown,2,2025-04-18T11:40:47.659+03:00,2025-04-17T15:44:39.500+03:00,7521,1.123721,0,0,6201.632,4,10,2025-04-18T11:40:37.342+03:00,766658458.0735135,0,107.96,100.559,1,0.55,2025-04-18T11:40:54.294+03:00,101,1.683333333333333,2025-04-18T08:51:18.885+03:00,0.03057091307199995,1
2025-04-18T11:40:59.765+03:00,1744965658.052891,40.95365802376528,29.14099035342986,93.56898,-1,-1,-1,-1,30,26.11647419390102,-9999,64670.7621395,-0.7669219970703125,0.5835723876953125,-0.1233673095703125,64670.7520645,1.072539934264619,-1.417390426624575,-0.6664535396200172,-0.06546419113874435,0.02434402704238892,-0.002049681032076478,0.006036460399627686,-0.02623748779296875,-0.01166720688343048,XArbitraryZVertical,0.1007726054967628,-0.6555845311442438,0.5495704634998816,0.5079629210138371,-0.7767885327339172,0.618202269077301,-0.1201076060533524,0,0,0,-1,-1,64658.66040075,unknown,2,2025-04-18T11:40:47.659+03:00,2025-04-17T15:44:39.500+03:00,7521,1.123721,0,0,6201.632,4,10,2025-04-18T11:40:37.342+03:00,766658458.0735135,0,107.96,100.559,1,0.55,2025-04-18T11:40:54.294+03:00,101,1.683333333333333,2025-04-18T08:51:18.885+03:00,0.03057091307199995,1
2025-04-18T11:40:59.775+03:00,1744965658.052891,40.95365802376528,29.14099035342986,93.56898,-1,-1,-1,-1,30,26.11647419390102,-9999,64670.7722155,-0.75360107421875,0.5836944580078125,-0.120941162109375,64670.7621395,1.071285160226791,-1.418009502431418,-0.666546223486829,-0.134237676858902,-0.0004404154606163502,0.0007897812756709754,0.008480072021484375,-0.03426027297973633,-0.0043291375041008,XArbitraryZVertical,0.1004977599737322,-0.6558134138197651,0.5492392456562032,0.5080799094317715,-0.7768058776855469,0.6182751655578613,-0.1196179315447807,0,0,0,-1,-1,64658.66040075,unknown,2,2025-04-18T11:40:47.659+03:00,2025-04-17T15:44:39.500+03:00,7521,1.123721,0,0,6201.632,4,10,2025-04-18T11:40:37.342+03:00,766658458.0735135,0,107.96,100.559,1,0.55,2025-04-18T11:40:54.294+03:00,101,1.683333333333333,2025-04-18T08:51:18.885+03:00,0.03057091307199995,1
2025-04-18T11:40:59.786+03:00,1744965658.052891,40.95365802376528,29.14099035342986,93.56898,-1,-1,-1,-1,30,26.11647419390102,-9999,64670.78229050001,-0.75048828125,0.5874786376953125,-0.1226348876953125,64670.7722155,1.068995610345635,-1.419561844609844,-0.6668441784418289,-0.2357498407363892,-0.02469402179121971,0.006867147982120514,0.02151370048522949,-0.03513520956039429,-0.002160206437110901,XArbitraryZVertical,0.1000646094959021,-0.6563497355702648,0.5486397496698946,0.5081207640815042,-0.7768086791038513,0.6185092926025391,-0.1183841973543167,0,0,0,-1,-1,64658.66040075,unknown,2,2025-04-18T11:40:47.659+03:00,2025-04-17T15:44:39.500+03:00,7521,1.123721,0,0,6201.632,4,10,2025-04-18T11:40:37.342+03:00,766658458.0735135,0,107.96,100.559,1,0.55,2025-04-18T11:40:54.294+03:00,101,1.683333333333333,2025-04-18T08:51:18.885+03:00,0.03057091307199995,1
2025-04-18T11:40:59.796+03:00,1744965658.052891,40.95365802376528,29.14099035342986,93.56898,-1,-1,-1,-1,30,26.11647419390102,-9999,64670.79236650001,-0.758087158203125,0.59002685546875,-0.1191864013671875,64670.78229050001,1.065186745504722,-1.422175765543914,-0.6674711164899315,-0.3692205548286438,-0.02594970539212227,0.02365864627063274,0.02702158689498901,-0.03231662511825562,-0.006125390529632568,XArbitraryZVertical,0.09930284032198299,-0.6572602475309739,0.5476685164277514,0.5081409516253248,-0.7767317891120911,0.6190018057823181,-0.1162958294153214,0,0,0,-1,-1,64658.66040075,unknown,2,2025-04-18T11:40:47.659+03:00,2025-04-17T15:44:39.500+03:00,7521,1.123721,0,0,6201.632,4,10,2025-04-18T11:40:37.342+03:00,766658458.0735135,0,107.96,100.559,1,0.55,2025-04-18T11:40:54.294+03:00,101,1.683333333333333,2025-04-18T08:51:18.885+03:00,0.03057091307199995,1
2025-04-18T11:40:59.807+03:00,1744965658.052891,40.95365802376528,29.14099035342986,93.56898,-1,-1,-1,-1,30,26.11647419390102,-9999,64670.8024415,-0.75396728515625,0.588775634765625,-0.1168670654296875,64670.79236650001,1.059978647550341,-1.425849538581525,-0.6683653124044276,-0.4554677307605743,-0.06600277870893478,0.02896835468709469,0.01940351724624634,-0.02961593866348267,-0.005733251571655273,XArbitraryZVertical,0.09827023363734345,-0.6585303360406023,0.5463455784831096,0.5081214154916032,-0.7766057252883911,0.6197038292884827,-0.1133615151047707,0,0,0,-1,-1,64658.66040075,unknown,2,2025-04-18T11:40:47.659+03:00,2025-04-17T15:44:39.500+03:00,7521,1.123721,0,0,6201.632,4,10,2025-04-18T11:40:37.342+03:00,766658458.0735135,0,107.96,100.559,1,0.55,2025-04-18T11:40:54.294+03:00,101,1.683333333333333,2025-04-18T08:51:18.885+03:00,0.03057091307199995,1
2025-04-18T11:40:59.816+03:00,1744965658.052891,40.95365802376528,29.14099035342986,93.56898,-1,-1,-1,-1,30,26.11647419390102,-9999,64670.8125165,-0.747314453125,0.587738037109375,-0.1145782470703125,64670.8024415,1.053747320832187,-1.430514766865956,-0.6693091236302018,-0.5277417302131653,-0.09691488742828369,0.02011227980256081,0.02120596170425415,-0.03133296966552734,-0.007394671440124512,XArbitraryZVertical,0.0971465259877874,-0.6601021489618213,0.5447277762201786,0.5080348234253121,-0.7765465974807739,0.6204442977905273,-0.1096554100513458,0,0,0,-1,-1,64658.66040075,unknown,2,2025-04-18T11:40:47.659+03:00,2025-04-17T15:44:39.500+03:00,7521,1.123721,0,0,6201.632,4,10,2025-04-18T11:40:37.342+03:00,766658458.0735135,0,107.96,100.559,1,0.55,2025-04-18T11:40:54.294+03:00,101,1.683333333333333,2025-04-18T08:51:18.885+03:00,0.03057091307199995,1
2025-04-18T11:40:59.826+03:00,1744965658.052891,40.95365802376528,29.14099035342986,93.56898,-1,-1,-1,-1,30,26.11647419390102,-9999,64670.8225925,-0.74615478515625,0.58587646484375,-0.12371826171875,64670.8125165,1.046710159609336,-1.436062929151925,-0.6701696746208288,-0.5871803760528564,-0.1449680477380753,0.001509633613750339,0.02981799840927124,-0.03367084264755249,-0.008938372135162354,XArbitraryZVertical,0.09601750649100294,-0.6619243509877278,0.5428500513806312,0.507888439884401,-0.7766136527061462,0.62111896276474,-0.1052735820412636,0,0,0,-1,-1,64658.66040075,unknown,2,2025-04-18T11:40:47.659+03:00,2025-04-17T15:44:39.500+03:00,7521,1.123721,0,0,6201.632,4,10,2025-04-18T11:40:37.342+03:00,766658458.0735135,0,107.96,100.559,1,0.55,2025-04-18T11:40:54.294+03:00,101,1.683333333333333,2025-04-18T08:51:18.885+03:00,0.03057091307199995,1
2025-04-18T11:40:59.844+03:00,1744965658.052891,40.95365802376528,29.14099035342986,93.56898,-1,-1,-1,-1,30,26.11647419390102,-9999,64670.83266750001,-0.7332763671875,0.5821380615234375,-0.132415771484375,64670.8225925,1.038825079043529,-1.442715295761323,-0.6708466743381556,-0.653635561466217,-0.2131604105234146,-0.02597365528345108,0.03034323453903198,-0.03511685132980347,-0.02267514914274216,XArbitraryZVertical,0.09496067998221214,-0.6640458234376588,0.5406715456804589,0.5076414652421384,-0.7768794894218445,0.6216493844985962,-0.10005122423172,0,0,0,-1,-1,64658.66040075,unknown,2,2025-04-18T11:40:47.659+03:00,2025-04-17T15:44:39.500+03:00,7521,1.123721,0,0,6201.632,4,10,2025-04-18T11:40:37.342+03:00,766658458.0735135,0,107.96,100.559,1,0.55,2025-04-18T11:40:54.294+03:00,101,1.683333333333333,2025-04-18T08:51:18.885+03:00,0.03057091307199995,1
2025-04-18T11:40:59.846+03:00,1744965658.052891,40.95365802376528,29.14099035342986,93.56898,-1,-1,-1,-1,30,26.11647419390102,-9999,64670.8427435,-0.727813720703125,0.5768890380859375,-0.1373443603515625,64670.83266750001,1.029905488374579,-1.45070691301128,-0.6713593629308899,-0.7588267922401428,-0.2793866395950317,-0.03995301946997643,0.04223030805587769,-0.0393635630607605,-0.03791242092847824,XArbitraryZVertical,0.09396363136148136,-0.6665359282769165,0.538138934773187,0.5072545430884811,-0.7773377299308777,0.6220508813858032,-0.09380138665437698,0,0,0,-1,-1,64658.66040075,unknown,2,2025-04-18T11:40:47.659+03:00,2025-04-17T15:44:39.500+03:00,7521,1.123721,0,0,6201.632,4,10,2025-04-18T11:40:37.342+03:00,766658458.0735135,0,107.96,100.559,1,0.55,2025-04-18T11:40:54.294+03:00,101,1.683333333333333,2025-04-18T08:51:18.885+03:00,0.03057091307199995,1
2025-04-18T11:40:59.856+03:00,1744965658.052891,40.95365802376528,29.14099035342986,93.56898,-1,-1,-1,-1,30,26.11647419390102,-9999,64670.8528185,-0.7422637939453125,0.58917236328125,-0.147369384765625,64670.8427435,1.019342749177092,-1.460273048526722,-0.671776702200154,-0.8742671012878418,-0.3129925131797791,-0.06144499778747559,0.05038708448410034,-0.04496979713439941,-0.04965382069349289,XArbitraryZVertical,0.09285164896469417,-0.6694866282680411,0.5351034324045048,0.5067845464315544,-0.7779414057731628,0.6223776340484619,-0.08633245527744293,0,0,0,-1,-1,64658.66040075,unknown,2,2025-04-18T11:40:47.659+03:00,2025-04-17T15:44:39.500+03:00,7521,1.123721,0,0,6201.632,4,10,2025-04-18T11:40:37.342+03:00,766658458.0735135,0,107.96,100.559,1,0.55,2025-04-18T11:40:54.294+03:00,101,1.683333333333333,2025-04-18T08:51:18.885+03:00,0.03057091307199995,1
2025-04-18T11:40:59.866+03:00,1744965658.052891,40.95365802376528,29.14099035342986,93.56898,-1,-1,-1,-1,30,26.11647419390102,-9999,64670.8628935,-0.755645751953125,0.6221771240234375,-0.1426849365234375,64670.8528185,1.007671126213163,-1.470769986195632,-0.6720435394304605,-0.9338967800140381,-0.3325861394405365,-0.0770830437541008,0.03893923759460449,-0.03619116544723511,-0.06856793165206909,XArbitraryZVertical,0.09163868086047658,-0.6727032922581496,0.531720941340735,0.5063058250412504,-0.7786396145820618,0.6225864887237549,-0.07814526557922363,0,0,0,-1,-1,64658.66040075,unknown,2,2025-04-18T11:40:47.659+03:00,2025-04-17T15:44:39.500+03:00,7521,1.123721,0,0,6201.632,4,10,2025-04-18T11:40:37.342+03:00,766658458.0735135,0,107.96,100.559,1,0.55,2025-04-18T11:40:54.294+03:00,101,1.683333333333333,2025-04-18T08:51:18.885+03:00,0.03057091307199995,1
2025-04-18T11:40:59.876+03:00,1744965658.052891,40.95365802376528,29.14099035342986,93.56898,-1,-1,-1,-1,30,26.11647419390102,-9999,64670.87296950001,-0.7639312744140625,0.6416168212890625,-0.157440185546875,64670.8628935,0.9951410469408376,-1.482017334979796,-0.6721686681874829,-1.010958313941956,-0.3412043750286102,-0.08114916086196899,0.0245392918586731,-0.00380319356918335,-0.07425492256879807,XArbitraryZVertical,0.09034840071415499,-0.6761280825838302,0.5280662864271619,0.5058004136546091,-0.7793916463851929,0.6226843595504761,-0.06937596201896667,0,0,0,-1,-1,64658.66040075,unknown,2,2025-04-18T11:40:47.659+03:00,2025-04-17T15:44:39.500+03:00,7521,1.123721,0,0,6201.632,4,10,2025-04-18T11:40:37.342+03:00,766658458.0735135,0,107.96,100.559,1,0.55,2025-04-18T11:40:54.294+03:00,101,1.683333333333333,2025-04-18T08:51:18.885+03:00,0.03057091307199995,1
2025-04-18T11:40:59.886+03:00,1744965658.052891,40.95365802376528,29.14099035342986,93.56898,-1,-1,-1,-1,30,26.11647419390102,-9999,64670.88304450001,-0.7790069580078125,0.6503448486328125,-0.1728057861328125,64670.87296950001,0.9808982020946693,-1.494241392165049,-0.672214442502213,-1.195715427398682,-0.3268939554691315,-0.09336750954389572,0.01825112104415894,0.01662313938140869,-0.09404332190752029,XArbitraryZVertical,0.08871855462198852,-0.6798589977447949,0.5239286741676554,0.5053906477226642,-0.7801531553268433,0.6227201819419861,-0.05984152108430862,0,0,0,-1,-1,64658.66040075,unknown,2,2025-04-18T11:40:47.659+03:00,2025-04-17T15:44:39.500+03:00,7521,1.123721,0,0,6201.632,4,10,2025-04-18T11:40:37.342+03:00,766658458.0735135,0,107.96,100.559,1,0.55,2025-04-18T11:40:54.294+03:00,101,1.683333333333333,2025-04-18T08:51:18.885+03:00,0.03057091307199995,1
2025-04-18T11:40:59.896+03:00,1744965658.052891,40.95365802376528,29.14099035342986,93.56898,-1,-1,-1,-1,30,26.11647419390102,-9999,64670.8931205,-0.7703704833984375,0.6525421142578125,-0.1689910888671875,64670.88304450001,0.9643193872269564,-1.508126666203302,-0.6721565220634244,-1.361946225166321,-0.3802999258041382,-0.09563226252794266,0.002700567245483398,0.02709013223648071,-0.1233727335929871,XArbitraryZVertical,0.08670690160332409,-0.6840899499414501,0.5191186872870028,0.5049937289415957,-0.7809445858001709,0.6226748824119568,-0.04900570586323738,0,0,0,-1,-1,64658.66040075,unknown,2,2025-04-18T11:40:47.659+03:00,2025-04-17T15:44:39.500+03:00,7521,1.123721,0,0,6201.632,4,10,2025-04-18T11:40:37.342+03:00,766658458.0735135,0,107.96,100.559,1,0.55,2025-04-18T11:40:54.294+03:00,101,1.683333333333333,2025-04-18T08:51:18.885+03:00,0.03057091307199995,1
2025-04-18T11:40:59.906+03:00,1744965658.052891,40.95365802376528,29.14099035342986,93.56898,-1,-1,-1,-1,30,26.11647419390102,-9999,64670.9031955,-0.7613677978515625,0.645904541015625,-0.159423828125,64670.8931205,0.9461005967468893,-1.523569891335486,-0.6720836660067414,-1.439364910125732,-0.4375920593738556,-0.07408878207206726,0.00853651762008667,0.03033632040023804,-0.1325523853302002,XArbitraryZVertical,0.0844679361820882,-0.6887627120385614,0.5138431342961322,0.5044169715309947,-0.7816537618637085,0.6226178407669067,-0.03694218769669533,0,0,0,-1,-1,64658.66040075,unknown,2,2025-04-18T11:40:47.659+03:00,2025-04-17T15:44:39.500+03:00,7521,1.123721,0,0,6201.632,4,10,2025-04-18T11:40:37.342+03:00,766658458.0735135,0,107.96,100.559,1,0.55,2025-04-18T11:40:54.294+03:00,101,1.683333333333333,2025-04-18T08:51:18.885+03:00,0.03057091307199995,1
2025-04-18T11:40:59.916+03:00,1744965658.052891,40.95365802376528,29.14099035342986,93.56898,-1,-1,-1,-1,30,26.11647419390102,-9999,64670.9132705,-0.77679443359375,0.6404571533203125,-0.1364898681640625,64670.9031955,0.9276740109871443,-1.539762816476059,-0.6719379920845396,-1.409062623977661,-0.495656430721283,-0.06727268546819687,0.02137565612792969,0.02459096908569336,-0.1369408369064331,XArbitraryZVertical,0.08229021058810368,-0.6936040624652676,0.5084897940025043,0.5035672710990081,-0.782240092754364,0.6225038766860962,-0.02428345195949078,0,0,0,-1,-1,64658.66040075,unknown,2,2025-04-18T11:40:47.659+03:00,2025-04-17T15:44:39.500+03:00,7521,1.123721,0,0,6201.632,4,10,2025-04-18T11:40:37.342+03:00,766658458.0735135,0,107.96,100.559,1,0.55,2025-04-18T11:40:54.294+03:00,101,1.683333333333333,2025-04-18T08:51:18.885+03:00,0.03057091307199995,1
2025-04-18T11:40:59.926+03:00,1744965658.052891,40.95365802376528,29.14099035342986,93.56898,-1,-1,-1,-1,30,26.11647419390102,-9999,64670.92334650001,-0.7988739013671875,0.656646728515625,-0.0851287841796875,64670.9132705,0.9100268476335428,-1.556080950066311,-0.6714344569243345,-1.315314769744873,-0.5602949857711792,-0.09427244961261749,0.00923997163772583,0.01787436008453369,-0.1302334070205688,XArbitraryZVertical,0.08045455493911531,-0.6984029760740611,0.5032647002347533,0.5024788383893918,-0.7828453183174133,0.6221097111701965,-0.01152069494128227,0,0,0,-1,-1,64658.66040075,unknown,2,2025-04-18T11:40:47.659+03:00,2025-04-17T15:44:39.500+03:00,7521,1.123721,0,0,6201.632,4,10,2025-04-18T11:40:37.342+03:00,766658458.0735135,0,107.96,100.559,1,0.55,2025-04-18T11:40:54.294+03:00,101,1.683333333333333,2025-04-18T08:51:18.885+03:00,0.03057091307199995,1
2025-04-18T11:40:59.937+03:00,1744965658.052891,40.95365802376528,29.14099035342986,93.56898,-1,-1,-1,-1,30,26.11647419390102,-9999,64670.93342150001,-0.7918853759765625,0.6856231689453125,-0.06719970703125,64670.92334650001,0.8945079537169069,-1.571665387788376,-0.6706408960197582,-1.089369535446167,-0.6186323761940002,-0.08748911321163177,-0.01366543769836426,0.03264075517654419,-0.09145534038543701,XArbitraryZVertical,0.07920045565113788,-0.7028995014550384,0.4985517836943701,0.5011043946039042,-0.783423125743866,0.6214882135391235,0.0006808426696807146,0,0,0,-1,-1,64658.66040075,unknown,2,2025-04-18T11:40:47.659+03:00,2025-04-17T15:44:39.500+03:00,7521,1.123721,0,0,6201.632,4,10,2025-04-18T11:40:37.342+03:00,766658458.0735135,0,107.96,100.559,1,0.55,2025-04-18T11:40:54.294+03:00,101,1.683333333333333,2025-04-18T08:51:18.885+03:00,0.03057091307199995,1
2025-04-18T11:40:59.946+03:00,1744965658.052891,40.95365802376528,29.14099035342986,93.56898,-1,-1,-1,-1,30,26.11647419390102,-9999,64670.9434975,-0.7679595947265625,0.715423583984375,-0.069610595703125,64670.93342150001,0.8823857570438558,-1.586038462406779,-0.6692694628189186,-0.7577574253082275,-0.7168027758598328,-0.1473622620105743,-0.0101274847984314,0.06044918298721313,-0.07860386371612549,XArbitraryZVertical,0.07897715028070379,-0.7069224795127319,0.4946043774943276,0.4993893489446379,-0.7841839790344238,0.6204131841659546,0.0119535643607378,0,0,0,-1,-1,64658.66040075,unknown,2,2025-04-18T11:40:47.659+03:00,2025-04-17T15:44:39.500+03:00,7521,1.123721,0,0,6201.632,4,10,2025-04-18T11:40:37.342+03:00,766658458.0735135,0,107.96,100.559,1,0.55,2025-04-18T11:40:54.294+03:00,101,1.683333333333333,2025-04-18T08:51:18.885+03:00,0.03057091307199995,1
2025-04-18T11:40:59.958+03:00,1744965658.052891,40.95365802376528,29.14099035342986,93.56898,-1,-1,-1,-1,30,26.11647419390102,-9999,64670.9535725,-0.6988677978515625,0.677001953125,0.0184783935546875,64670.9434975,0.8740210964491835,-1.600623561821327,-0.6676215099813757,-0.5699427723884583,-1.103290319442749,-0.1571690887212753,0.01291346549987793,0.09399956464767456,-0.09507489204406738,XArbitraryZVertical,0.08018275742496156,-0.7108309223910041,0.4915175942177192,0.4966896377438557,-0.7849471569061279,0.6191199421882629,0.02341974899172783,0,0,0,-1,-1,64658.66040075,unknown,2,2025-04-18T11:40:47.659+03:00,2025-04-17T15:44:39.500+03:00,7521,1.123721,0,0,6201.632,4,10,2025-04-18T11:40:37.342+03:00,766658458.0735135,0,107.96,100.559,1,0.55,2025-04-18T11:40:54.294+03:00,101,1.683333333333333,2025-04-18T08:51:18.885+03:00,0.03057091307199995,1
2025-04-18T11:40:59.967+03:00,1744965658.052891,40.95365802376528,29.14099035342986,93.56898,-1,-1,-1,-1,30,26.11647419390102,-9999,64670.9636475,-0.7834014892578125,0.5554046630859375,0.186370849609375,64670.9535725,0.8696984748656077,-1.611727165901785,-0.6656523799011764,-0.3295391798019409,-0.5228664875030518,-0.1400771588087082,0.07757294178009033,0.0735744833946228,-0.03207683563232422,XArbitraryZVertical,0.08205004099484672,-0.7136943604837697,0.4894839864538509,0.4942809918120362,-0.7858554720878601,0.6175723671913147,0.0321836993098259,0,0,0,-1,-1,64658.66040075,unknown,2,2025-04-18T11:40:47.659+03:00,2025-04-17T15:44:39.500+03:00,7521,1.123721,0,0,6201.632,4,10,2025-04-18T11:40:37.342+03:00,766658458.0735135,0,107.96,100.559,1,0.55,2025-04-18T11:40:54.294+03:00,101,1.683333333333333,2025-04-18T08:51:18.885+03:00,0.03057091307199995,1
2025-04-18T11:40:59.977+03:00,1744965658.052891,40.95365802376528,29.14099035342986,93.56898,-1,-1,-1,-1,30,26.11647419390102,-9999,64670.97372350001,-0.97723388671875,0.5726165771484375,0.2840118408203125,64670.9636475,0.8665998199654622,-1.616881764911506,-0.6647795599616122,-0.1501052528619766,-0.1874864101409912,-0.05234837159514427,0.03327232599258423,-0.05485862493515015,0.1319236755371094,XArbitraryZVertical,0.08250530886524061,-0.715068035771498,0.4882779210319971,0.493411994665233,-0.7862173318862915,0.6168856620788574,0.03625884279608727,0,0,0,-1,-1,64658.66040075,unknown,2,2025-04-18T11:40:47.659+03:00,2025-04-17T15:44:39.500+03:00,7521,1.123721,0,0,6201.632,4,10,2025-04-18T11:40:37.342+03:00,766658458.0735135,0,107.96,100.559,1,0.55,2025-04-18T11:40:54.294+03:00,101,1.683333333333333,2025-04-18T08:51:18.885+03:00,0.03057091307199995,1
2025-04-18T11:40:59.987+03:00,1744965658.052891,40.95365802376528,29.14099035342986,93.56898,-1,-1,-1,-1,30,26.11647419390102,-9999,64670.9837985,-0.8462066650390625,0.53668212890625,0.365570068359375,64670.97372350001,0.8647244051337888,-1.619801429588152,-0.6643156390534246,-0.1536473780870438,-0.1237251311540604,-0.02781673148274422,-0.1870254874229431,-0.04358339309692383,0.2341521978378296,XArbitraryZVertical,0.08270706168314509,-0.7158516855324976,0.4875727291199108,0.4929389649841907,-0.7863938212394714,0.6165204644203186,0.03856818750500679,0,0,0,-1,-1,64658.66040075,unknown,2,2025-04-18T11:40:47.659+03:00,2025-04-17T15:44:39.500+03:00,7521,1.123721,0,0,6201.632,4,10,2025-04-18T11:40:37.342+03:00,766658458.0735135,0,107.96,100.559,1,0.55,2025-04-18T11:40:54.294+03:00,101,1.683333333333333,2025-04-18T08:51:18.885+03:00,0.03057091307199995,1
2025-04-18T11:40:59.997+03:00,1744965658.052891,40.95365802376528,29.14099035342986,93.56898,-1,-1,-1,-1,30,26.11647419390102,-9999,64670.9938745,-0.8729095458984375,0.539764404296875,0.3335418701171875,64670.9837985,0.8628360632120284,-1.621017886277132,-0.6643377325554712,-0.1402716487646103,0.119759164750576,0.0385897234082222,-0.07548379898071289,-0.07518655061721802,0.3193321228027344,XArbitraryZVertical,0.08231980774042476,-0.7162300536630817,0.4870629630720387,0.4929580043198717,-0.7863325476646423,0.616537868976593,0.03952408209443092,0,0,0,-1,-1,64658.66040075,unknown,2,2025-04-18T11:40:47.659+03:00,2025-04-17T15:44:39.500+03:00,7521,1.123721,0,0,6201.632,4,10,2025-04-18T11:40:37.342+03:00,766658458.0735135,0,107.96,100.559,1,0.55,2025-04-18T11:40:54.294+03:00,101,1.683333333333333,2025-04-18T08:51:18.885+03:00,0.03057091307199995,1
2025-04-18T11:41:00.007+03:00,1744965658.052891,40.95365802376528,29.14099035342986,93.56898,-1,-1,-1,-1,30,26.11647419390102,-9999,64671.0039495,-0.8873443603515625,0.572296142578125,0.24737548828125,64670.9938745,0.8614138610679015,-1.619769687183981,-0.6649957744405303,-0.06958596408367157,0.2950945794582367,0.1017567440867424,-0.07573360204696655,-0.08086198568344116,0.306432843208313,XArbitraryZVertical,0.0812793178757311,-0.7159993137783478,0.4869370069959326,0.4935900070452849,-0.7859760522842407,0.6170558333396912,0.03852269053459167,0,0,0,-1,-1,64658.66040075,unknown,2,2025-04-18T11:40:47.659+03:00,2025-04-17T15:44:39.500+03:00,7521,1.123721,0,0,6201.632,4,10,2025-04-18T11:40:37.342+03:00,766658458.0735135,0,107.96,100.559,1,0.55,2025-04-18T11:40:54.294+03:00,101,1.683333333333333,2025-04-18T08:51:18.885+03:00,0.03057091307199995,1
2025-04-18T11:41:00.017+03:00,1744965658.052891,40.95365802376528,29.14099035342986,93.56898,-1,-1,-1,-1,30,26.11647419390102,-9999,64671.01402450001,-0.8506927490234375,0.58160400390625,0.2112274169921875,64671.0039495,0.8610062761659635,-1.616346313867448,-0.6662595005466609,0.0193814542144537,0.4400349855422974,0.1474129110574722,-0.1074835062026978,-0.04923272132873535,0.2189493179321289,XArbitraryZVertical,0.07986283973984702,-0.7152062940973202,0.4873074704486526,0.4946040934339798,-0.785323441028595,0.6180497407913208,0.03579623252153397,0,0,0,-1,-1,64658.66040075,unknown,2,2025-04-18T11:40:47.659+03:00,2025-04-17T15:44:39.500+03:00,7521,1.123721,0,0,6201.632,4,10,2025-04-18T11:40:37.342+03:00,766658458.0735135,0,107.96,100.559,1,0.55,2025-04-18T11:40:54.294+03:00,101,1.683333333333333,2025-04-18T08:51:18.885+03:00,0.03057091307199995,1
2025-04-18T11:41:00.027+03:00,1744965658.052891,40.95365802376528,29.14099035342986,93.56898,-1,-1,-1,-1,30,26.11647419390102,-9999,64671.02410050001,-0.845916748046875,0.5905609130859375,0.1712799072265625,64671.01402450001,0.8618237830823441,-1.610800474025713,-0.6679364467197741,0.1267883330583572,0.5571040511131287,0.1849156767129898,-0.06792837381362915,-0.03780889511108398,0.1829870939254761,XArbitraryZVertical,0.07822154667815337,-0.7138493275972699,0.4881695872070618,0.4959749468001045,-0.7844735383987427,0.6193671822547913,0.0313989445567131,0,0,0,-1,-1,64658.66040075,unknown,2,2025-04-18T11:40:47.659+03:00,2025-04-17T15:44:39.500+03:00,7521,1.123721,0,0,6201.632,4,10,2025-04-18T11:40:37.342+03:00,766658458.0735135,0,107.96,100.559,1,0.55,2025-04-18T11:40:54.294+03:00,101,1.683333333333333,2025-04-18T08:51:18.885+03:00,0.03057091307199995,1
2025-04-18T11:41:00.037+03:00,1744965658.052891,40.95365802376528,29.14099035342986,93.56898,-1,-1,-1,-1,30,26.11647419390102,-9999,64671.0341755,-0.8226318359375,0.617767333984375,0.099761962890625,64671.02410050001,0.8641232236993317,-1.60336369528533,-0.6700553696171369,0.2483134269714355,0.6291609406471252,0.2215123027563095,-0.06394892930984497,-0.03313875198364258,0.1518163681030273,XArbitraryZVertical,0.07648770115626057,-0.7119763483549439,0.4895817336836041,0.4975430219363262,-0.7833716869354248,0.6210293769836426,0.02552137896418571,0,0,0,-1,-1,64658.66040075,unknown,2,2025-04-18T11:40:47.659+03:00,2025-04-17T15:44:39.500+03:00,7521,1.123721,0,0,6201.632,4,10,2025-04-18T11:40:37.342+03:00,766658458.0735135,0,107.96,100.559,1,0.55,2025-04-18T11:40:54.294+03:00,101,1.683333333333333,2025-04-18T08:51:18.885+03:00,0.03057091307199995,1
2025-04-18T11:41:00.047+03:00,1744965658.052891,40.95365802376528,29.14099035342986,93.56898,-1,-1,-1,-1,30,26.11647419390102,-9999,64671.0442515,-0.79180908203125,0.650115966796875,0.005950927734375,64671.0341755,0.8681309039950142,-1.59438802837066,-0.6724896475540736,0.3845752775669098,0.6421160101890564,0.2362587004899979,-0.0441163182258606,-0.009288012981414795,0.09192872047424316,XArbitraryZVertical,0.07486266769364135,-0.7096635149746193,0.4915505660347755,0.4991506921288496,-0.7820556163787842,0.6229354739189148,0.01845344714820385,0,0,0,-1,-1,64658.66040075,unknown,2,2025-04-18T11:40:47.659+03:00,2025-04-17T15:44:39.500+03:00,7521,1.123721,0,0,6201.632,4,10,2025-04-18T11:40:37.342+03:00,766658458.0735135,0,107.96,100.559,1,0.55,2025-04-18T11:40:54.294+03:00,101,1.683333333333333,2025-04-18T08:51:18.885+03:00,0.03057091307199995,1
2025-04-18T11:41:00.058+03:00,1744965658.052891,40.95365802376528,29.14099035342986,93.56898,-1,-1,-1,-1,30,26.11647419390102,-9999,64671.0543265,-0.769622802734375,0.686981201171875,-0.0548095703125,64671.0442515,0.8735293445692952,-1.584731906501563,-0.6747950437977007,0.4617124199867249,0.6086776256561279,0.2042200714349747,-0.01578009128570557,0.0212741494178772,0.006254673935472965,XArbitraryZVertical,0.07359036913305246,-0.7071244423345759,0.493849781164941,0.500671556636908,-0.7807593941688538,0.6247373223304749,0.01088103838264942,0,0,0,-1,-1,64658.66040075,unknown,2,2025-04-18T11:40:47.659+03:00,2025-04-17T15:44:39.500+03:00,7521,1.123721,0,0,6201.632,4,10,2025-04-18T11:40:37.342+03:00,766658458.0735135,0,107.96,100.559,1,0.55,2025-04-18T11:40:54.294+03:00,101,1.683333333333333,2025-04-18T08:51:18.885+03:00,0.03057091307199995,1
2025-04-18T11:41:00.068+03:00,1744965658.052891,40.95365802376528,29.14099035342986,93.56898,-1,-1,-1,-1,30,26.11647419390102,-9999,64671.06440150001,-0.75726318359375,0.713714599609375,-0.0765838623046875,64671.0543265,0.8796450381678996,-1.575038595224652,-0.6767451970955156,0.4801791608333588,0.5514179468154907,0.1731559485197067,0.008291721343994141,0.05725860595703125,-0.05352389812469482,XArbitraryZVertical,0.07266564143050888,-0.7045376983045211,0.496232504405135,0.502095348004145,-0.7796083092689514,0.6262588500976562,0.003307327628135681,0,0,0,-1,-1,64658.66040075,unknown,2,2025-04-18T11:40:47.659+03:00,2025-04-17T15:44:39.500+03:00,7521,1.123721,0,0,6201.632,4,10,2025-04-18T11:40:37.342+03:00,766658458.0735135,0,107.96,100.559,1,0.55,2025-04-18T11:40:54.294+03:00,101,1.683333333333333,2025-04-18T08:51:18.885+03:00,0.03057091307199995,1
2025-04-18T11:41:00.078+03:00,1744965658.052891,40.95365802376528,29.14099035342986,93.56898,-1,-1,-1,-1,30,26.11647419390102,-9999,64671.07447750001,-0.7386627197265625,0.7178802490234375,-0.0799713134765625,64671.06440150001,0.8854775008232904,-1.566247272591789,-0.6782019841674922,0.4124176800251007,0.4623160660266876,0.1149770691990852,0.01917248964309692,0.08464217185974121,-0.07102733850479126,XArbitraryZVertical,0.07201845836104076,-0.702169615514265,0.498382729174317,0.5033744125046291,-0.7786939740180969,0.627393901348114,-0.003542345482856035,0,0,0,-1,-1,64658.66040075,unknown,2,2025-04-18T11:40:47.659+03:00,2025-04-17T15:44:39.500+03:00,7521,1.123721,0,0,6201.632,4,10,2025-04-18T11:40:37.342+03:00,766658458.0735135,0,107.96,100.559,1,0.55,2025-04-18T11:40:54.294+03:00,101,1.683333333333333,2025-04-18T08:51:18.885+03:00,0.03057091307199995,1
2025-04-18T11:41:00.088+03:00,1744965658.052891,40.95365802376528,29.14099035342986,93.56898,-1,-1,-1,-1,30,26.11647419390102,-9999,64671.0845525,-0.72808837890625,0.6974639892578125,-0.0797119140625,64671.07447750001,0.8900731311259459,-1.559329339011328,-0.6790271051498022,0.2924116551876068,0.3388407230377197,0.05473091080784798,0.03748655319213867,0.09024077653884888,-0.07158201932907104,XArbitraryZVertical,0.07161210103077668,-0.7002928606487019,0.4999945946145176,0.5044472850460561,-0.7781329751014709,0.6280362010002136,-0.008923232555389404,0,0,0,-1,-1,64658.66040075,unknown,2,2025-04-18T11:40:47.659+03:00,2025-04-17T15:44:39.500+03:00,7521,1.123721,0,0,6201.632,4,10,2025-04-18T11:40:37.342+03:00,766658458.0735135,0,107.96,100.559,1,0.55,2025-04-18T11:40:54.294+03:00,101,1.683333333333333,2025-04-18T08:51:18.885+03:00,0.03057091307199995,1
2025-04-18T11:41:00.098+03:00,1744965658.052891,40.95365802376528,29.14099035342986,93.56898,-1,-1,-1,-1,30,26.11647419390102,-9999,64671.0946285,-0.7366485595703125,0.66510009765625,-0.079620361328125,64671.0845525,0.8926944303675354,-1.55486611159498,-0.6793242815159757,0.1069781482219696,0.221029132604599,0.01454034820199013,0.05017656087875366,0.07270598411560059,-0.06646424531936646,XArbitraryZVertical,0.07130737854717387,-0.699084176919673,0.5008893534766147,0.505278584253933,-0.7778987288475037,0.6282674670219421,-0.01239314302802086,0,0,0,-1,-1,64658.66040075,unknown,2,2025-04-18T11:40:47.659+03:00,2025-04-17T15:44:39.500+03:00,7521,1.123721,0,0,6201.632,4,10,2025-04-18T11:40:37.342+03:00,766658458.0735135,0,107.96,100.559,1,0.55,2025-04-18T11:40:54.294+03:00,101,1.683333333333333,2025-04-18T08:51:18.885+03:00,0.03057091307199995,1
2025-04-18T11:41:00.108+03:00,1744965658.052891,40.95365802376528,29.14099035342986,93.56898,-1,-1,-1,-1,30,26.11647419390102,-9999,64671.1047035,-0.7418975830078125,0.61956787109375,-0.0818939208984375,64671.0946285,0.8928008574250383,-1.553172907615193,-0.6793162477055992,-0.09838659316301346,0.102677047252655,-0.01512307208031416,0.0426674485206604,0.04163014888763428,-0.06523853540420532,XArbitraryZVertical,0.07092331023896661,-0.6986520640136497,0.5009744754026476,0.5058456262902478,-0.7778817415237427,0.6282612085342407,-0.01371035538613796,0,0,0,-1,-1,64658.66040075,unknown,2,2025-04-18T11:40:47.659+03:00,2025-04-17T15:44:39.500+03:00,7521,1.123721,0,0,6201.632,4,10,2025-04-18T11:40:37.342+03:00,766658458.0735135,0,107.96,100.559,1,0.55,2025-04-18T11:40:54.294+03:00,101,1.683333333333333,2025-04-18T08:51:18.885+03:00,0.03057091307199995,1
2025-04-18T11:41:00.118+03:00,1744965658.052891,40.95365802376528,29.14099035342986,93.56898,-1,-1,-1,-1,30,26.11647419390102,-9999,64671.11477850001,-0.7371978759765625,0.5955810546875,-0.087890625,64671.1047035,0.8902774823060012,-1.554293360312849,-0.6791074076551973,-0.2845652401447296,-0.0101403146982193,-0.03226477652788162,0.03538250923156738,-0.003464877605438232,-0.06890028715133667,XArbitraryZVertical,0.07039586110717379,-0.6990164197803993,0.5002448780939297,0.506138060594809,-0.7780279517173767,0.628098726272583,-0.01284093502908945,0,0,0,-1,-1,64658.66040075,unknown,2,2025-04-18T11:40:47.659+03:00,2025-04-17T15:44:39.500+03:00,7521,1.123721,0,0,6201.632,4,10,2025-04-18T11:40:37.342+03:00,766658458.0735135,0,107.96,100.559,1,0.55,2025-04-18T11:40:54.294+03:00,101,1.683333333333333,2025-04-18T08:51:18.885+03:00,0.03057091307199995,1
2025-04-18T11:41:00.128+03:00,1744965658.052891,40.95365802376528,29.14099035342986,93.56898,-1,-1,-1,-1,30,26.11647419390102,-9999,64671.12485450001,-0.73101806640625,0.60711669921875,-0.1031494140625,64671.11477850001,0.8856450848177704,-1.557858906962666,-0.6787814616161194,-0.416410893201828,-0.1182563975453377,-0.04125986993312836,0.04063290357589722,-0.03169941902160645,-0.07570016384124756,XArbitraryZVertical,0.06978143468684483,-0.7000684582924492,0.4988668417522187,0.5061290778316285,-0.7782732844352722,0.6278450489044189,-0.0100694103166461,0,0,0,-1,-1,64658.66040075,unknown,2,2025-04-18T11:40:47.659+03:00,2025-04-17T15:44:39.500+03:00,7521,1.123721,0,0,6201.632,4,10,2025-04-18T11:40:37.342+03:00,766658458.0735135,0,107.96,100.559,1,0.55,2025-04-18T11:40:54.294+03:00,101,1.683333333333333,2025-04-18T08:51:18.885+03:00,0.03057091307199995,1
2025-04-18T11:41:00.138+03:00,1744965658.052891,40.95365802376528,29.14099035342986,93.56898,-1,-1,-1,-1,30,26.11647419390102,-9999,64671.1349295,-0.7349090576171875,0.6331787109375,-0.095428466796875,64671.12485450001,0.8798544836934846,-1.563121446139653,-0.6784146438567371,-0.4701055586338043,-0.201381117105484,-0.04143457114696503,0.04665786027908325,-0.02325040102005005,-0.09604483842849731,XArbitraryZVertical,0.0691921869021464,-0.7015873144865576,0.4971275865641076,0.5058180359990454,-0.7785457372665405,0.6275594830513,-0.005975362844765186,0,0,0,-1,-1,64658.66040075,unknown,2,2025-04-18T11:40:47.659+03:00,2025-04-17T15:44:39.500+03:00,7521,1.123721,0,0,6201.632,4,10,2025-04-18T11:40:37.342+03:00,766658458.0735135,0,107.96,100.559,1,0.55,2025-04-18T11:40:54.294+03:00,101,1.683333333333333,2025-04-18T08:51:18.885+03:00,0.03057091307199995,1
2025-04-18T11:41:00.157+03:00,1744965658.052891,40.95365802376528,29.14099035342986,93.56898,-1,-1,-1,-1,30,26.11647419390102,-9999,64671.1450045,-0.759033203125,0.6546478271484375,-0.073150634765625,64671.1349295,0.8738162498058746,-1.569138494796356,-0.6780040854494954,-0.4613013565540314,-0.2368160039186478,-0.04438918456435204,0.04554879665374756,0.002536237239837646,-0.09668546915054321,XArbitraryZVertical,0.06870894721715844,-0.7033018550355534,0.4952906792502395,0.5053046649454372,-0.7788252234458923,0.6272398233413696,-0.001291162567213178,0,0,0,-1,-1,64658.66040075,unknown,2,2025-04-18T11:40:47.659+03:00,2025-04-17T15:44:39.500+03:00,7521,1.123721,0,0,6201.632,4,10,2025-04-18T11:40:37.342+03:00,766658458.0735135,0,107.96,100.559,1,0.55,2025-04-18T11:40:54.294+03:00,101,1.683333333333333,2025-04-18T08:51:18.885+03:00,0.03057091307199995,1
2025-04-18T11:41:00.160+03:00,1744965658.052891,40.95365802376528,29.14099035342986,93.56898,-1,-1,-1,-1,30,26.11647419390102,-9999,64671.1550805,-0.7768096923828125,0.657257080078125,-0.0439453125,64671.1450045,0.8678133256079581,-1.575314863213601,-0.6774522428217535,-0.474034458398819,-0.2387340217828751,-0.0648539736866951,0.02356427907943726,0.02590000629425049,-0.07918894290924072,XArbitraryZVertical,0.06831617224939737,-0.7050484052153454,0.4934236557430066,0.5047502074928721,-0.7791643142700195,0.6268098950386047,0.003520706202834845,0,0,0,-1,-1,64658.66040075,unknown,2,2025-04-18T11:40:47.659+03:00,2025-04-17T15:44:39.500+03:00,7521,1.123721,0,0,6201.632,4,10,2025-04-18T11:40:37.342+03:00,766658458.0735135,0,107.96,100.559,1,0.55,2025-04-18T11:40:54.294+03:00,101,1.683333333333333,2025-04-18T08:51:18.885+03:00,0.03057091307199995,1
2025-04-18T11:41:00.168+03:00,1744965658.052891,40.95365802376528,29.14099035342986,93.56898,-1,-1,-1,-1,30,26.11647419390102,-9999,64671.16515550001,-0.76715087890625,0.636749267578125,-0.006683349609375,64671.1550805,0.8611085532357362,-1.581986612452504,-0.6766431410588438,-0.5741400122642517,-0.256921797990799,-0.08787208050489426,0.003934562206268311,0.0322069525718689,-0.05628621578216553,XArbitraryZVertical,0.06787583629469292,-0.7069336578877823,0.4912988691711591,0.5042451991934128,-0.7796304225921631,0.6261792778968811,0.008724651299417019,0,0,0,-1,-1,64658.66040075,unknown,2,2025-04-18T11:40:47.659+03:00,2025-04-17T15:44:39.500+03:00,7521,1.123721,0,0,6201.632,4,10,2025-04-18T11:40:37.342+03:00,766658458.0735135,0,107.96,100.559,1,0.55,2025-04-18T11:40:54.294+03:00,101,1.683333333333333,2025-04-18T08:51:18.885+03:00,0.03057091307199995,1
2025-04-18T11:41:00.178+03:00,1744965658.052891,40.95365802376528,29.14099035342986,93.56898,-1,-1,-1,-1,30,26.11647419390102,-9999,64671.1752315,-0.747589111328125,0.61083984375,0.015228271484375,64671.16515550001,0.8526665501288166,-1.590057600175751,-0.6754998609516752,-0.737987756729126,-0.3012807369232178,-0.1209583953022957,0.01120680570602417,0.01494085788726807,-0.02572679333388805,XArbitraryZVertical,0.0672645701131529,-0.7092183799141751,0.4886045962126093,0.5037364887098578,-0.7802498936653137,0.6252874732017517,0.01503046602010727,0,0,0,-1,-1,64658.66040075,unknown,2,2025-04-18T11:40:47.659+03:00,2025-04-17T15:44:39.500+03:00,7521,1.123721,0,0,6201.632,4,10,2025-04-18T11:40:37.342+03:00,766658458.0735135,0,107.96,100.559,1,0.55,2025-04-18T11:40:54.294+03:00,101,1.683333333333333,2025-04-18T08:51:18.885+03:00,0.03057091307199995,1
2025-04-18T11:41:00.188+03:00,1744965658.052891,40.95365802376528,29.14099035342986,93.56898,-1,-1,-1,-1,30,26.11647419390102,-9999,64671.1853065,-0.7344970703125,0.615234375,-0.00128173828125,64671.1752315,0.8422283637986634,-1.599884378760283,-0.673939929349599,-0.8777921795845032,-0.3550002872943878,-0.1500091552734375,0.03170984983444214,-0.01078808307647705,-0.008793950080871582,XArbitraryZVertical,0.06649290054334471,-0.7119981342691898,0.4852424562826624,0.5031671448602666,-0.7810385227203369,0.6240693330764771,0.0227252971380949,0,0,0,-1,-1,64658.66040075,unknown,2,2025-04-18T11:40:47.659+03:00,2025-04-17T15:44:39.500+03:00,7521,1.123721,0,0,6201.632,4,10,2025-04-18T11:40:37.342+03:00,766658458.0735135,0,107.96,100.559,1,0.55,2025-04-18T11:40:54.294+03:00,101,1.683333333333333,2025-04-18T08:51:18.885+03:00,0.03057091307199995,1
2025-04-18T11:41:00.199+03:00,1744965658.052891,40.95365802376528,29.14099035342986,93.56898,-1,-1,-1,-1,30,26.11647419390102,-9999,64671.1953815,-0.728668212890625,0.6528778076171875,-0.0406951904296875,64671.1853065,0.8305900498044094,-1.611092773021463,-0.6719602065176628,-0.931443452835083,-0.4327427446842194,-0.1783398538827896,0.04634135961532593,-0.01017081737518311,-0.02841472998261452,XArbitraryZVertical,0.06573785032304848,-0.7151519604920935,0.4814240239085453,0.5024610888388888,-0.7819676399230957,0.6225212216377258,0.03152758255600929,0,0,0,-1,-1,64658.66040075,unknown,2,2025-04-18T11:40:47.659+03:00,2025-04-17T15:44:39.500+03:00,7521,1.123721,0,0,6201.632,4,10,2025-04-18T11:40:37.342+03:00,766658458.0735135,0,107.96,100.559,1,0.55,2025-04-18T11:40:54.294+03:00,101,1.683333333333333,2025-04-18T08:51:18.885+03:00,0.03057091307199995,1
2025-04-18T11:41:00.208+03:00,1744965658.052891,40.95365802376528,29.14099035342986,93.56898,-1,-1,-1,-1,30,26.11647419390102,-9999,64671.20545750001,-0.7353515625,0.69024658203125,-0.0825653076171875,64671.1953815,0.8185906754129237,-1.623297339901152,-0.6695655209140036,-0.951092541217804,-0.5064245462417603,-0.2122801542282104,0.05356466770172119,0.02716654539108276,-0.07694375514984131,XArbitraryZVertical,0.06519187576762142,-0.7185564441889131,0.4773724026075918,0.5015399331541024,-0.7830110788345337,0.6206454038619995,0.04114668816328049,0,0,0,-1,-1,64658.66040075,unknown,2,2025-04-18T11:40:47.659+03:00,2025-04-17T15:44:39.500+03:00,7521,1.123721,0,0,6201.632,4,10,2025-04-18T11:40:37.342+03:00,766658458.0735135,0,107.96,100.559,1,0.55,2025-04-18T11:40:54.294+03:00,101,1.683333333333333,2025-04-18T08:51:18.885+03:00,0.03057091307199995,1
2025-04-18T11:41:00.219+03:00,1744965658.052891,40.95365802376528,29.14099035342986,93.56898,-1,-1,-1,-1,30,26.11647419390102,-9999,64671.21553250001,-0.7547607421875,0.687530517578125,-0.113067626953125,64671.20545750001,0.8067713706340545,-1.63606881073517,-0.6668246550573348,-0.9211181402206421,-0.5606939196586609,-0.2140927016735077,0.05076354742050171,0.06813621520996094,-0.1288601160049438,XArbitraryZVertical,0.0649153128066909,-0.7220893373678927,0.4732529218239544,0.5004044364122729,-0.7841161489486694,0.6184939742088318,0.0512540191411972,0,0,0,-1,-1,64658.66040075,unknown,2,2025-04-18T11:40:47.659+03:00,2025-04-17T15:44:39.500+03:00,7521,1.123721,0,0,6201.632,4,10,2025-04-18T11:40:37.342+03:00,766658458.0735135,0,107.96,100.559,1,0.55,2025-04-18T11:40:54.294+03:00,101,1.683333333333333,2025-04-18T08:51:18.885+03:00,0.03057091307199995,1
