loggingTime(txt),locationTimestamp_since1970(s),locationLatitude(WGS84),locationLongitude(WGS84),locationAltitude(m),locationSpeed(m/s),locationSpeedAccuracy(m/s),locationCourse(°),locationCourseAccuracy(°),locationVerticalAccuracy(m),locationHorizontalAccuracy(m),locationFloor(Z),accelerometerTimestamp_sinceReboot(s),accelerometerAccelerationX(G),accelerometerAccelerationY(G),accelerometerAccelerationZ(G),motionTimestamp_sinceReboot(s),motionYaw(rad),motionRoll(rad),motionPitch(rad),motionRotationRateX(rad/s),motionRotationRateY(rad/s),motionRotationRateZ(rad/s),motionUserAccelerationX(G),motionUserAccelerationY(G),motionUserAccelerationZ(G),motionAttitudeReferenceFrame(txt),motionQuaternionX(R),motionQuaternionY(R),motionQuaternionZ(R),motionQuaternionW(R),motionGravityX(G),motionGravityY(G),motionGravityZ(G),motionMagneticFieldX(µT),motionMagneticFieldY(µT),motionMagneticFieldZ(µT),motionHeading(°),motionMagneticFieldCalibrationAccuracy(Z),activityTimestamp_sinceReboot(s),activity(txt),activityActivityConfidence(Z),activityActivityStartDate(txt),pedometerStartDate(txt),pedometerNumberofSteps(N),pedometerAverageActivePace(s/m),pedometerCurrentPace(s/m),pedometerCurrentCadence(steps/s),pedometerDistance(m),pedometerFloorAscended(N),pedometerFloorDescended(N),pedometerEndDate(txt),altimeterTimestamp_sinceReboot(s),altimeterReset(bool),altimeterRelativeAltitude(m),altimeterPressure(kPa),batteryState(N),batteryLevel(R),heartRateBPMTimestamp(txt),heartRateBPM(N),heartRateBPS(R),heartRateVariabilityTimestamp(txt),heartRateVariability(ms),label
2025-04-18T10:36:49.812+03:00,1744961806.632765,40.95359955957566,29.14097773549451,92.97792,-1,-1,-1,-1,30,24.65132846138212,-9999,61449.70325066667,-0.6984100341796875,0.6414031982421875,-0.3625946044921875,61449.69317466667,1.31641559080044,-1.091053392479275,-0.6799797523465485,0.06544702500104904,-0.02199464105069637,-0.003875093068927526,-0.008603394031524658,0.0005867481231689453,0.01783108711242676,XArbitraryZVertical,0.07370399662457795,-0.5613554738034687,0.6298646854938922,0.5317126725677574,-0.6898066997528076,0.6287772655487061,-0.3588955104351044,0,0,0,-1,-1,61449.50048666667,unknown,2,2025-04-18T10:36:49.579+03:00,2025-04-17T15:44:39.500+03:00,7155,1.074305,0,0,5905.219,4,10,2025-04-18T10:36:49.579+03:00,766654609.6785992,0,108.39,100.5556,1,0.7,2025-04-18T10:36:45.418+03:00,109,1.816666666666667,2025-04-18T08:51:18.885+03:00,0.03057091307199995,1
2025-04-18T10:36:49.814+03:00,1744961806.632765,40.95359955957566,29.14097773549451,92.97792,-1,-1,-1,-1,30,24.65132846138212,-9999,61449.71332766667,-0.6753997802734375,0.6371002197265625,-0.346221923828125,61449.70325066667,1.317309399328895,-1.090665692500756,-0.679713027420768,0.08207746595144272,-0.00318972859531641,0.008519956842064857,-0.0124695897102356,0.0100257396697998,-0.002270817756652832,XArbitraryZVertical,0.07393185123891934,-0.5611719013462634,0.6300882660684904,0.5316098756672099,-0.6898162364959717,0.6285698413848877,-0.3592403531074524,0,0,0,-1,-1,61449.50048666667,unknown,2,2025-04-18T10:36:49.579+03:00,2025-04-17T15:44:39.500+03:00,7155,1.074305,0,0,5905.219,4,10,2025-04-18T10:36:49.579+03:00,766654609.6785992,0,108.39,100.5556,1,0.7,2025-04-18T10:36:45.418+03:00,109,1.816666666666667,2025-04-18T08:51:18.885+03:00,0.03057091307199995,1
2025-04-18T10:36:49.815+03:00,1744961806.632765,40.95359955957566,29.14097773549451,92.97792,-1,-1,-1,-1,30,24.65132846138212,-9999,61449.72340366667,-0.68756103515625,0.63568115234375,-0.345794677734375,61449.71332766667,1.318305202622135,-1.090056014983905,-0.6794672351626253,0.07175665348768234,-0.002700772136449814,0.01556108798831701,0.01415109634399414,0.01104086637496948,0.01076385378837585,XArbitraryZVertical,0.0741104425068403,-0.5609291470339524,0.6303494381433699,0.5315315310503643,-0.6897339820861816,0.628378689289093,-0.3597322702407837,0,0,0,-1,-1,61449.50048666667,unknown,2,2025-04-18T10:36:49.579+03:00,2025-04-17T15:44:39.500+03:00,7155,1.074305,0,0,5905.219,4,10,2025-04-18T10:36:49.579+03:00,766654609.6785992,0,108.39,100.5556,1,0.7,2025-04-18T10:36:45.418+03:00,109,1.816666666666667,2025-04-18T08:51:18.885+03:00,0.03057091307199995,1
2025-04-18T10:36:49.818+03:00,1744961806.632765,40.95359955957566,29.14097773549451,92.97792,-1,-1,-1,-1,30,24.65132846138212,-9999,61449.73348066667,-0.68353271484375,0.63067626953125,-0.35247802734375,61449.72340366667,1.319173629224968,-1.089424167901437,-0.6793521905563988,0.05694201961159706,0.01940453052520752,0.02228383906185627,0.00234532356262207,0.006720602512359619,0.01552075147628784,XArbitraryZVertical,0.07419746987930254,-0.5607084562992374,0.6305914643969852,0.5314652917317849,-0.6895707249641418,0.6282891631126404,-0.3602015376091003,0,0,0,-1,-1,61449.50048666667,unknown,2,2025-04-18T10:36:49.579+03:00,2025-04-17T15:44:39.500+03:00,7155,1.074305,0,0,5905.219,4,10,2025-04-18T10:36:49.579+03:00,766654609.6785992,0,108.39,100.5556,1,0.7,2025-04-18T10:36:45.418+03:00,109,1.816666666666667,2025-04-18T08:51:18.885+03:00,0.03057091307199995,1
2025-04-18T10:36:49.827+03:00,1744961806.632765,40.95359955957566,29.14097773549451,92.97792,-1,-1,-1,-1,30,24.65132846138212,-9999,61449.74355666667,-0.6894683837890625,0.6287384033203125,-0.3558807373046875,61449.73348066667,1.319915530022187,-1.088654804575769,-0.6793504384583914,0.04160860553383827,0.04073085635900497,0.02889407239854336,0.006265044212341309,0.003807544708251953,0.009688794612884521,XArbitraryZVertical,0.07416349966749521,-0.5604761993149601,0.6308169666027079,0.5314472894110213,-0.6892942786216736,0.6282877922058105,-0.3607324063777924,0,0,0,-1,-1,61449.50048666667,unknown,2,2025-04-18T10:36:49.579+03:00,2025-04-17T15:44:39.500+03:00,7155,1.074305,0,0,5905.219,4,10,2025-04-18T10:36:49.579+03:00,766654609.6785992,0,108.39,100.5556,1,0.7,2025-04-18T10:36:45.418+03:00,109,1.816666666666667,2025-04-18T08:51:18.885+03:00,0.03057091307199995,1
2025-04-18T10:36:49.837+03:00,1744961806.632765,40.95359955957566,29.14097773549451,92.97792,-1,-1,-1,-1,30,24.65132846138212,-9999,61449.75363366667,-0.687744140625,0.6261444091796875,-0.357086181640625,61449.74355666667,1.320516883395299,-1.087942252653369,-0.6794052102976462,0.03669853508472443,0.02644246444106102,0.03257615864276886,0.0003163814544677734,0.0002400875091552734,0.005967646837234497,XArbitraryZVertical,0.07408688547538798,-0.5602743923856657,0.6310089439755699,0.531442807132098,-0.6890065670013428,0.628330409526825,-0.3612074851989746,0,0,0,-1,-1,61449.50048666667,unknown,2,2025-04-18T10:36:49.579+03:00,2025-04-17T15:44:39.500+03:00,7155,1.074305,0,0,5905.219,4,10,2025-04-18T10:36:49.579+03:00,766654609.6785992,0,108.39,100.5556,1,0.7,2025-04-18T10:36:45.418+03:00,109,1.816666666666667,2025-04-18T08:51:18.885+03:00,0.03057091307199995,1
2025-04-18T10:36:49.847+03:00,1744961806.632765,40.95359955957566,29.14097773549451,92.97792,-1,-1,-1,-1,30,24.65132846138212,-9999,61449.76370966667,-0.6833038330078125,0.6243743896484375,-0.35443115234375,61449.75363366667,1.321105011429566,-1.087408267441466,-0.6795960046429458,0.03395308181643486,0.01626306399703026,0.04671301692724228,0.0002308487892150879,-0.002136111259460449,0.003975719213485718,XArbitraryZVertical,0.07401225652056501,-0.5601449644890431,0.631205047438777,0.5313567273714789,-0.6887074112892151,0.6284788250923157,-0.3615196049213409,0,0,0,-1,-1,61449.50048666667,unknown,2,2025-04-18T10:36:49.579+03:00,2025-04-17T15:44:39.500+03:00,7155,1.074305,0,0,5905.219,4,10,2025-04-18T10:36:49.579+03:00,766654609.6785992,0,108.39,100.5556,1,0.7,2025-04-18T10:36:45.418+03:00,109,1.816666666666667,2025-04-18T08:51:18.885+03:00,0.03057091307199995,1
2025-04-18T10:36:49.858+03:00,1744961806.632765,40.95359955957566,29.14097773549451,92.97792,-1,-1,-1,-1,30,24.65132846138212,-9999,61449.77378666667,-0.6877593994140625,0.62725830078125,-0.3576202392578125,61449.76370966667,1.321737279964448,-1.086925595593578,-0.6799195045450078,0.03695326671004295,0.01584002189338207,0.04416603222489357,0.005323708057403564,-0.004111886024475098,0.006777048110961914,XArbitraryZVertical,0.07391676084361738,-0.5600514266444055,0.6314248008979667,0.5312075997057172,-0.6883528828620911,0.6287304162979126,-0.3617574274539948,0,0,0,-1,-1,61449.50048666667,unknown,2,2025-04-18T10:36:49.579+03:00,2025-04-17T15:44:39.500+03:00,7155,1.074305,0,0,5905.219,4,10,2025-04-18T10:36:49.579+03:00,766654609.6785992,0,108.39,100.5556,1,0.7,2025-04-18T10:36:45.418+03:00,109,1.816666666666667,2025-04-18T08:51:18.885+03:00,0.03057091307199995,1
2025-04-18T10:36:49.868+03:00,1744961806.632765,40.95359955957566,29.14097773549451,92.97792,-1,-1,-1,-1,30,24.65132846138212,-9999,61449.78386266667,-0.6873626708984375,0.6297454833984375,-0.3669891357421875,61449.77378666667,1.322293743041363,-1.086477916717062,-0.6801038793343092,0.03828591108322144,0.01469486206769943,0.03441247344017029,0.0009544491767883301,-0.001859664916992188,0.005551010370254517,XArbitraryZVertical,0.07386277229300414,-0.5599451120454224,0.6316084451408955,0.5311087464546804,-0.6880881786346436,0.6288737654685974,-0.3620115220546722,0,0,0,-1,-1,61449.50048666667,unknown,2,2025-04-18T10:36:49.579+03:00,2025-04-17T15:44:39.500+03:00,7155,1.074305,0,0,5905.219,4,10,2025-04-18T10:36:49.579+03:00,766654609.6785992,0,108.39,100.5556,1,0.7,2025-04-18T10:36:45.418+03:00,109,1.816666666666667,2025-04-18T08:51:18.885+03:00,0.03057091307199995,1
2025-04-18T10:36:49.878+03:00,1744961806.632765,40.95359955957566,29.14097773549451,92.97792,-1,-1,-1,-1,30,24.65132846138212,-9999,61449.79393966667,-0.676055908203125,0.62408447265625,-0.36749267578125,61449.78386266667,1.322894179015896,-1.086113004402267,-0.6802439247749059,0.03176329657435417,-0.0120917446911335,0.03753942251205444,-0.0006899833679199219,0.0008849501609802246,-0.003806143999099731,XArbitraryZVertical,0.0738635108031537,-0.5598511966931937,0.6317959838702177,0.5309847843532924,-0.6878782510757446,0.6289826631546021,-0.3622216284275055,0,0,0,-1,-1,61449.50048666667,unknown,2,2025-04-18T10:36:49.579+03:00,2025-04-17T15:44:39.500+03:00,7155,1.074305,0,0,5905.219,4,10,2025-04-18T10:36:49.579+03:00,766654609.6785992,0,108.39,100.5556,1,0.7,2025-04-18T10:36:45.418+03:00,109,1.816666666666667,2025-04-18T08:51:18.885+03:00,0.03057091307199995,1
2025-04-18T10:36:49.888+03:00,1744961806.632765,40.95359955957566,29.14097773549451,92.97792,-1,-1,-1,-1,30,24.65132846138212,-9999,61449.80401566667,-0.6759490966796875,0.6197509765625,-0.36651611328125,61449.79393966667,1.32353828784896,-1.085873217815215,-0.6804948372388746,0.04877983033657074,-0.007633878849446774,0.03635884448885918,0.009718894958496094,-0.004299819469451904,-0.005683213472366333,XArbitraryZVertical,0.07387491549543483,-0.5598089182182571,0.6320020176115227,0.5307824184989195,-0.6876516342163086,0.6291776895523071,-0.3623129427433014,0,0,0,-1,-1,61449.50048666667,unknown,2,2025-04-18T10:36:49.579+03:00,2025-04-17T15:44:39.500+03:00,7155,1.074305,0,0,5905.219,4,10,2025-04-18T10:36:49.579+03:00,766654609.6785992,0,108.39,100.5556,1,0.7,2025-04-18T10:36:45.418+03:00,109,1.816666666666667,2025-04-18T08:51:18.885+03:00,0.03057091307199995,1
2025-04-18T10:36:49.898+03:00,1744961806.632765,40.95359955957566,29.14097773549451,92.97792,-1,-1,-1,-1,30,24.65132846138212,-9999,61449.81409266667,-0.685394287109375,0.6260986328125,-0.369110107421875,61449.80401566667,1.324244128636583,-1.08557522127751,-0.6806070607789014,0.0455835722386837,-0.01325467973947525,0.03044932521879673,0.01339364051818848,-0.009758114814758301,-0.004672020673751831,XArbitraryZVertical,0.07393662677105922,-0.5597239729071716,0.6322120232296436,0.5306132570736223,-0.687481164932251,0.6292649507522583,-0.3624849021434784,0,0,0,-1,-1,61449.50048666667,unknown,2,2025-04-18T10:36:49.579+03:00,2025-04-17T15:44:39.500+03:00,7155,1.074305,0,0,5905.219,4,10,2025-04-18T10:36:49.579+03:00,766654609.6785992,0,108.39,100.5556,1,0.7,2025-04-18T10:36:45.418+03:00,109,1.816666666666667,2025-04-18T08:51:18.885+03:00,0.03057091307199995,1
2025-04-18T10:36:49.908+03:00,1744961806.632765,40.95359955957566,29.14097773549451,92.97792,-1,-1,-1,-1,30,24.65132846138212,-9999,61449.82416866667,-0.6831207275390625,0.623260498046875,-0.3694000244140625,61449.81409266667,1.324895152219014,-1.0853710556666,-0.6807703938193105,0.03595917299389839,-0.01837966777384281,0.03692879527807236,0.002044022083282471,-0.003918826580047607,-0.007173597812652588,XArbitraryZVertical,0.07399359647458884,-0.5596751620613425,0.6324092585880986,0.5304218049891402,-0.6873162984848022,0.6293918490409851,-0.3625773191452026,0,0,0,-1,-1,61449.50048666667,unknown,2,2025-04-18T10:36:49.579+03:00,2025-04-17T15:44:39.500+03:00,7155,1.074305,0,0,5905.219,4,10,2025-04-18T10:36:49.579+03:00,766654609.6785992,0,108.39,100.5556,1,0.7,2025-04-18T10:36:45.418+03:00,109,1.816666666666667,2025-04-18T08:51:18.885+03:00,0.03057091307199995,1
2025-04-18T10:36:49.918+03:00,1744961806.632765,40.95359955957566,29.14097773549451,92.97792,-1,-1,-1,-1,30,24.65132846138212,-9999,61449.83424566667,-0.6909637451171875,0.6234893798828125,-0.371429443359375,61449.82416866667,1.325428373967762,-1.085159575313833,-0.6809552436358804,0.02506584674119949,-0.00860473420470953,0.03557141497731209,0.004138052463531494,-0.005618870258331299,-0.006182312965393066,XArbitraryZVertical,0.07400728023465304,-0.5596326767684517,0.632577687519857,0.5302639172785727,-0.687136709690094,0.6295354962348938,-0.362668365240097,0,0,0,-1,-1,61449.50048666667,unknown,2,2025-04-18T10:36:49.579+03:00,2025-04-17T15:44:39.500+03:00,7155,1.074305,0,0,5905.219,4,10,2025-04-18T10:36:49.579+03:00,766654609.6785992,0,108.39,100.5556,1,0.7,2025-04-18T10:36:45.418+03:00,109,1.816666666666667,2025-04-18T08:51:18.885+03:00,0.03057091307199995,1
2025-04-18T10:36:49.928+03:00,1744961806.632765,40.95359955957566,29.14097773549451,92.97792,-1,-1,-1,-1,30,24.65132846138212,-9999,61449.84432166667,-0.684661865234375,0.6289825439453125,-0.37042236328125,61449.83424566667,1.325878653101895,-1.085000647040496,-0.681174903819177,0.01631070487201214,0.007724171504378319,0.03849290311336517,-0.002740561962127686,-0.006872892379760742,-0.008273899555206299,XArbitraryZVertical,0.07400149140349177,-0.5596135204946084,0.6327257404188776,0.5301082028623233,-0.6869567036628723,0.6297061443328857,-0.3627129793167114,0,0,0,-1,-1,61449.50048666667,unknown,2,2025-04-18T10:36:49.579+03:00,2025-04-17T15:44:39.500+03:00,7155,1.074305,0,0,5905.219,4,10,2025-04-18T10:36:49.579+03:00,766654609.6785992,0,108.39,100.5556,1,0.7,2025-04-18T10:36:45.418+03:00,109,1.816666666666667,2025-04-18T08:51:18.885+03:00,0.03057091307199995,1
2025-04-18T10:36:49.938+03:00,1744961806.632765,40.95359955957566,29.14097773549451,92.97792,-1,-1,-1,-1,30,24.65132846138212,-9999,61449.85439866667,-0.6829071044921875,0.6299591064453125,-0.3686981201171875,61449.84432166667,1.326089662265148,-1.084725221439049,-0.6814798072702222,-0.01217999216169119,0.01174214854836464,0.03197231888771057,0.001140177249908447,-0.001357138156890869,-0.007625102996826172,XArbitraryZVertical,0.07386017796886321,-0.5595877308200611,0.6328234537135532,0.5300385824508407,-0.6866870522499084,0.6299430131912231,-0.3628124892711639,0,0,0,-1,-1,61449.50048666667,unknown,2,2025-04-18T10:36:49.579+03:00,2025-04-17T15:44:39.500+03:00,7155,1.074305,0,0,5905.219,4,10,2025-04-18T10:36:49.579+03:00,766654609.6785992,0,108.39,100.5556,1,0.7,2025-04-18T10:36:45.418+03:00,109,1.816666666666667,2025-04-18T08:51:18.885+03:00,0.03057091307199995,1
2025-04-18T10:36:49.948+03:00,1744961806.632765,40.95359955957566,29.14097773549451,92.97792,-1,-1,-1,-1,30,24.65132846138212,-9999,61449.86447466667,-0.664031982421875,0.627655029296875,-0.35614013671875,61449.85439866667,1.326130180645891,-1.084838112902434,-0.681883945778706,-0.01370278745889664,-0.02336736954748631,0.04269393905997276,0.003076910972595215,0.0002821683883666992,-0.006188809871673584,XArbitraryZVertical,0.07375722146638278,-0.559689069025729,0.6328718891156256,0.529888078674198,-0.6865028738975525,0.6302568316459656,-0.3626160323619843,0,0,0,-1,-1,61449.50048666667,unknown,2,2025-04-18T10:36:49.579+03:00,2025-04-17T15:44:39.500+03:00,7155,1.074305,0,0,5905.219,4,10,2025-04-18T10:36:49.579+03:00,766654609.6785992,0,108.39,100.5556,1,0.7,2025-04-18T10:36:45.418+03:00,109,1.816666666666667,2025-04-18T08:51:18.885+03:00,0.03057091307199995,1
2025-04-18T10:36:49.958+03:00,1744961806.632765,40.95359955957566,29.14097773549451,92.97792,-1,-1,-1,-1,30,24.65132846138212,-9999,61449.87455166667,-0.6727142333984375,0.6309814453125,-0.358642578125,61449.86447466667,1.326268569993181,-1.084897677337744,-0.6822855215640259,-0.006417310796678066,-0.003293392714112997,0.03560240566730499,0.02001017332077026,-0.001921713352203369,0.005309730768203735,XArbitraryZVertical,0.07366580716329628,-0.5597722062826931,0.6329479395480453,0.5297219481277644,-0.68630051612854,0.6305685639381409,-0.3624568581581116,0,0,0,-1,-1,61449.50048666667,unknown,2,2025-04-18T10:36:49.579+03:00,2025-04-17T15:44:39.500+03:00,7155,1.074305,0,0,5905.219,4,10,2025-04-18T10:36:49.579+03:00,766654609.6785992,0,108.39,100.5556,1,0.7,2025-04-18T10:36:45.418+03:00,109,1.816666666666667,2025-04-18T08:51:18.885+03:00,0.03057091307199995,1
2025-04-18T10:36:49.968+03:00,1744961806.632765,40.95359955957566,29.14097773549451,92.97792,-1,-1,-1,-1,30,24.65132846138212,-9999,61449.88462766667,-0.682586669921875,0.638397216796875,-0.3643341064453125,61449.87455166667,1.326454770374281,-1.084797985292524,-0.6825553390787377,0.002736240159720182,-0.01022267155349255,0.02422964572906494,0.01596313714981079,-0.0009560585021972656,0.005023986101150513,XArbitraryZVertical,0.07358616360352827,-0.559787597723213,0.6330288270990569,0.5296202310784408,-0.6861140131950378,0.6307779550552368,-0.3624458312988281,0,0,0,-1,-1,61449.50048666667,unknown,2,2025-04-18T10:36:49.579+03:00,2025-04-17T15:44:39.500+03:00,7155,1.074305,0,0,5905.219,4,10,2025-04-18T10:36:49.579+03:00,766654609.6785992,0,108.39,100.5556,1,0.7,2025-04-18T10:36:45.418+03:00,109,1.816666666666667,2025-04-18T08:51:18.885+03:00,0.03057091307199995,1
2025-04-18T10:36:49.978+03:00,1744961806.632765,40.95359955957566,29.14097773549451,92.97792,-1,-1,-1,-1,30,24.65132846138212,-9999,61449.89470466667,-0.6775665283203125,0.632171630859375,-0.3640899658203125,61449.88462766667,1.326710502662862,-1.084784919754819,-0.6826767341152336,0.01170703116804361,-0.02672927640378475,0.01731737703084946,0.002813935279846191,0.007692992687225342,-0.002235472202301025,XArbitraryZVertical,0.07360854953924893,-0.5597966262862009,0.6331095718035727,0.5295110478457742,-0.686041533946991,0.6308721303939819,-0.3624190390110016,0,0,0,-1,-1,61449.50048666667,unknown,2,2025-04-18T10:36:49.579+03:00,2025-04-17T15:44:39.500+03:00,7155,1.074305,0,0,5905.219,4,10,2025-04-18T10:36:49.579+03:00,766654609.6785992,0,108.39,100.5556,1,0.7,2025-04-18T10:36:45.418+03:00,109,1.816666666666667,2025-04-18T08:51:18.885+03:00,0.03057091307199995,1
2025-04-18T10:36:49.989+03:00,1744961806.632765,40.95359955957566,29.14097773549451,92.97792,-1,-1,-1,-1,30,24.65132846138212,-9999,61449.90478066667,-0.684844970703125,0.629852294921875,-0.3675079345703125,61449.89470466667,1.327020538978047,-1.08488021088311,-0.6826901878745714,0.01917000859975815,-0.03348837792873383,0.01020141132175922,0.009203910827636719,0.002616643905639648,-0.001373976469039917,XArbitraryZVertical,0.07372049260497079,-0.5598128567565287,0.633189524674697,0.5293827246735352,-0.686068594455719,0.6308825612068176,-0.3623497188091278,0,0,0,-1,-1,61449.50048666667,unknown,2,2025-04-18T10:36:49.579+03:00,2025-04-17T15:44:39.500+03:00,7155,1.074305,0,0,5905.219,4,10,2025-04-18T10:36:49.579+03:00,766654609.6785992,0,108.39,100.5556,1,0.7,2025-04-18T10:36:45.418+03:00,109,1.816666666666667,2025-04-18T08:51:18.885+03:00,0.03057091307199995,1
2025-04-18T10:36:49.999+03:00,1744961806.632765,40.95359955957566,29.14097773549451,92.97792,-1,-1,-1,-1,30,24.65132846138212,-9999,61449.914855625,-0.6890411376953125,0.6267852783203125,-0.368255615234375,61449.90478066667,1.327349706252656,-1.08497006166875,-0.6826108343952976,0.03107021003961563,-0.0416383184492588,0.001207982655614614,0.002276837825775146,-0.0004956722259521484,-0.004738748073577881,XArbitraryZVertical,0.07387059156029038,-0.5598101917533423,0.6332651391492166,0.529273991596659,-0.6861453056335449,0.6308209896087646,-0.3623113632202148,0,0,0,-1,-1,61449.50048666667,unknown,2,2025-04-18T10:36:49.579+03:00,2025-04-17T15:44:39.500+03:00,7155,1.074305,0,0,5905.219,4,10,2025-04-18T10:36:49.579+03:00,766654609.6785992,0,108.39,100.5556,1,0.7,2025-04-18T10:36:45.418+03:00,109,1.816666666666667,2025-04-18T08:51:18.885+03:00,0.03057091307199995,1
2025-04-18T10:36:50.014+03:00,1744961806.632765,40.95359955957566,29.14097773549451,92.97792,-1,-1,-1,-1,30,24.65132846138212,-9999,61449.92493162501,-0.6804351806640625,0.6259613037109375,-0.36322021484375,61449.914855625,1.327829161145521,-1.085159974574214,-0.6824581546150027,0.04029912501573563,-0.05461776629090309,0.007317540235817432,-0.003260672092437744,-0.003322124481201172,-0.006639838218688965,XArbitraryZVertical,0.07412154002581527,-0.5598151216834243,0.6333691936226276,0.5291092714504474,-0.6862993240356445,0.6307024955749512,-0.3622260391712189,0,0,0,-1,-1,61449.50048666667,unknown,2,2025-04-18T10:36:49.579+03:00,2025-04-17T15:44:39.500+03:00,7155,1.074305,0,0,5905.219,4,10,2025-04-18T10:36:49.579+03:00,766654609.6785992,0,108.39,100.5556,1,0.7,2025-04-18T10:36:45.418+03:00,109,1.816666666666667,2025-04-18T08:51:18.885+03:00,0.03057091307199995,1
2025-04-18T10:36:50.042+03:00,1744961806.632765,40.95359955957566,29.14097773549451,92.97792,-1,-1,-1,-1,30,24.65132846138212,-9999,61449.93500862501,-0.680206298828125,0.6240081787109375,-0.361663818359375,61449.92493162501,1.328380882645325,-1.085310731601254,-0.6823155445471056,0.04082050919532776,-0.04762836918234825,0.009185847826302052,0.004746973514556885,-0.004737317562103271,-0.001543939113616943,XArbitraryZVertical,0.07437666704808281,-0.5598087675214265,0.6334948067571848,0.5289296775583331,-0.6864334344863892,0.630591869354248,-0.3621644973754883,0,0,0,-1,-1,61449.50048666667,unknown,2,2025-04-18T10:36:49.579+03:00,2025-04-17T15:44:39.500+03:00,7155,1.074305,0,0,5905.219,4,10,2025-04-18T10:36:49.579+03:00,766654609.6785992,0,108.39,100.5556,1,0.7,2025-04-18T10:36:45.418+03:00,109,1.816666666666667,2025-04-18T08:51:18.885+03:00,0.03057091307199995,1
2025-04-18T10:36:50.045+03:00,1744961806.632765,40.95359955957566,29.14097773549451,92.97792,-1,-1,-1,-1,30,24.65132846138212,-9999,61449.945084625,-0.6796112060546875,0.6262969970703125,-0.3612060546875,61449.93500862501,1.328986287807279,-1.085318038985599,-0.6821755925610153,0.05377758666872978,-0.03203529492020607,0.008782645687460899,0.006353557109832764,-0.00563579797744751,0.001070976257324219,XArbitraryZVertical,0.07460032410949133,-0.5597628471210201,0.6336401642511612,0.5287726944894628,-0.686514139175415,0.6304832100868225,-0.3622007071971893,0,0,0,-1,-1,61449.50048666667,unknown,2,2025-04-18T10:36:49.579+03:00,2025-04-17T15:44:39.500+03:00,7155,1.074305,0,0,5905.219,4,10,2025-04-18T10:36:49.579+03:00,766654609.6785992,0,108.39,100.5556,1,0.7,2025-04-18T10:36:45.418+03:00,109,1.816666666666667,2025-04-18T08:51:18.885+03:00,0.03057091307199995,1
2025-04-18T10:36:50.047+03:00,1744961806.632765,40.95359955957566,29.14097773549451,92.97792,-1,-1,-1,-1,30,24.65132846138212,-9999,61449.955160625,-0.6808624267578125,0.62896728515625,-0.36566162109375,61449.945084625,1.329763138658776,-1.084880903161665,-0.6819946727680738,0.07312770932912827,0.01752760075032711,0.002665430773049593,0.006204485893249512,-0.004366159439086914,0.001012325286865234,XArbitraryZVertical,0.07474628732956989,-0.5595855372789973,0.633843194002349,0.5286964485757092,-0.6864566206932068,0.6303427815437317,-0.3625540435314178,0,0,0,-1,-1,61449.50048666667,unknown,2,2025-04-18T10:36:49.579+03:00,2025-04-17T15:44:39.500+03:00,7155,1.074305,0,0,5905.219,4,10,2025-04-18T10:36:49.579+03:00,766654609.6785992,0,108.39,100.5556,1,0.7,2025-04-18T10:36:45.418+03:00,109,1.816666666666667,2025-04-18T08:51:18.885+03:00,0.03057091307199995,1
2025-04-18T10:36:50.049+03:00,1744961806.632765,40.95359955957566,29.14097773549451,92.97792,-1,-1,-1,-1,30,24.65132846138212,-9999,61449.965237625,-0.6878509521484375,0.636016845703125,-0.3731536865234375,61449.955160625,1.330727708954298,-1.083953916967955,-0.6816251132094453,0.09164892882108688,0.04209206625819206,-0.009112132713198662,0.006104469299316406,-0.001271605491638184,-0.000775456428527832,XArbitraryZVertical,0.0748592776820967,-0.5592374223810102,0.6340948072688996,0.5287471154921555,-0.6863260865211487,0.630055844783783,-0.3632991909980774,0,0,0,-1,-1,61449.50048666667,unknown,2,2025-04-18T10:36:49.579+03:00,2025-04-17T15:44:39.500+03:00,7155,1.074305,0,0,5905.219,4,10,2025-04-18T10:36:49.579+03:00,766654609.6785992,0,108.39,100.5556,1,0.7,2025-04-18T10:36:45.418+03:00,109,1.816666666666667,2025-04-18T08:51:18.885+03:00,0.03057091307199995,1
2025-04-18T10:36:50.062+03:00,1744961806.632765,40.95359955957566,29.14097773549451,92.97792,-1,-1,-1,-1,30,24.65132846138212,-9999,61449.975313625,-0.685516357421875,0.638092041015625,-0.3555755615234375,61449.965237625,1.331621902006686,-1.082946079400251,-0.6811599273644587,0.06627073884010315,0.04317530617117882,-0.009825261309742928,-0.001708924770355225,0.005605161190032959,-0.00882720947265625,XArbitraryZVertical,0.07496213628948911,-0.5588529853079518,0.6343211992642133,0.52886741853255,-0.6862184405326843,0.6296945214271545,-0.3641280233860016,0,0,0,-1,-1,61449.50048666667,unknown,2,2025-04-18T10:36:49.579+03:00,2025-04-17T15:44:39.500+03:00,7155,1.074305,0,0,5905.219,4,10,2025-04-18T10:36:49.579+03:00,766654609.6785992,0,108.39,100.5556,1,0.7,2025-04-18T10:36:45.418+03:00,109,1.816666666666667,2025-04-18T08:51:18.885+03:00,0.03057091307199995,1
2025-04-18T10:36:50.080+03:00,1744961806.632765,40.95359955957566,29.14097773549451,92.97792,-1,-1,-1,-1,30,24.65132846138212,-9999,61449.98539062501,-0.67822265625,0.6337432861328125,-0.3504791259765625,61449.975313625,1.33232779182715,-1.082068067040588,-0.6808474678172282,0.06893923133611679,0.03673364967107773,-0.003192125353962183,-0.0009244084358215332,0.00944894552230835,0.006378620862960815,XArbitraryZVertical,0.07499670674943373,-0.5585374964673544,0.6345087720776432,0.5289706677157096,-0.686072051525116,0.6294517517089844,-0.3648227155208588,0,0,0,-1,-1,61449.50048666667,unknown,2,2025-04-18T10:36:49.579+03:00,2025-04-17T15:44:39.500+03:00,7155,1.074305,0,0,5905.219,4,10,2025-04-18T10:36:49.579+03:00,766654609.6785992,0,108.39,100.5556,1,0.7,2025-04-18T10:36:45.418+03:00,109,1.816666666666667,2025-04-18T08:51:18.885+03:00,0.03057091307199995,1
2025-04-18T10:36:50.081+03:00,1744961806.632765,40.95359955957566,29.14097773549451,92.97792,-1,-1,-1,-1,30,24.65132846138212,-9999,61449.99546662501,-0.6739349365234375,0.632537841796875,-0.37176513671875,61449.98539062501,1.333180636161242,-1.081215737990121,-0.6804554183319952,0.08055507391691208,0.02659732848405838,-0.006564119830727577,0.007267653942108154,0.005420207977294922,0.01699745655059814,XArbitraryZVertical,0.07510965908555436,-0.5582085938909513,0.6347262236648932,0.5290410510034035,-0.6859786510467529,0.6291470527648926,-0.3655233979225159,0,0,0,-1,-1,61449.50048666667,unknown,2,2025-04-18T10:36:49.579+03:00,2025-04-17T15:44:39.500+03:00,7155,1.074305,0,0,5905.219,4,10,2025-04-18T10:36:49.579+03:00,766654609.6785992,0,108.39,100.5556,1,0.7,2025-04-18T10:36:45.418+03:00,109,1.816666666666667,2025-04-18T08:51:18.885+03:00,0.03057091307199995,1
2025-04-18T10:36:50.089+03:00,1744961806.632765,40.95359955957566,29.14097773549451,92.97792,-1,-1,-1,-1,30,24.65132846138212,-9999,61450.005543625,-0.6777496337890625,0.630523681640625,-0.36328125,61449.99546662501,1.333931757777023,-1.080447075572305,-0.6800372520295808,0.05633681640028954,0.02296104840934277,-0.005415232386440039,0.01182663440704346,0.003380179405212402,-0.004446268081665039,XArbitraryZVertical,0.07523030785533065,-0.5579007013702181,0.6349111232929489,0.5291267210735445,-0.6859294772148132,0.6288219690322876,-0.3661744296550751,0,0,0,-1,-1,61449.50048666667,unknown,2,2025-04-18T10:36:49.579+03:00,2025-04-17T15:44:39.500+03:00,7155,1.074305,0,0,5905.219,4,10,2025-04-18T10:36:49.579+03:00,766654609.6785992,0,108.39,100.5556,1,0.7,2025-04-18T10:36:45.418+03:00,109,1.816666666666667,2025-04-18T08:51:18.885+03:00,0.03057091307199995,1
2025-04-18T10:36:50.099+03:00,1744961806.632765,40.95359955957566,29.14097773549451,92.97792,-1,-1,-1,-1,30,24.65132846138212,-9999,61450.015619625,-0.6722869873046875,0.6251373291015625,-0.349578857421875,61450.005543625,1.334403084865385,-1.080051334053424,-0.6799078180288491,0.02022708207368851,-0.002167674247175455,0.01883141882717609,0.008182883262634277,0.002260088920593262,0.0006547868251800537,XArbitraryZVertical,0.07528412319543562,-0.5577546195508716,0.6350375152244025,0.5291213397090612,-0.6858562231063843,0.6287213563919067,-0.3664841651916504,0,0,0,-1,-1,61449.50048666667,unknown,2,2025-04-18T10:36:49.579+03:00,2025-04-17T15:44:39.500+03:00,7155,1.074305,0,0,5905.219,4,10,2025-04-18T10:36:49.579+03:00,766654609.6785992,0,108.39,100.5556,1,0.7,2025-04-18T10:36:45.418+03:00,109,1.816666666666667,2025-04-18T08:51:18.885+03:00,0.03057091307199995,1
2025-04-18T10:36:50.109+03:00,1744961806.632765,40.95359955957566,29.14097773549451,92.97792,-1,-1,-1,-1,30,24.65132846138212,-9999,61450.025696625,-0.6703643798828125,0.6187896728515625,-0.353271484375,61450.015619625,1.334673877140134,-1.07991226458513,-0.6800688273910742,0.00523268710821867,-0.004037213046103716,0.02818657085299492,0.01254397630691528,-0.002869963645935059,0.01544243097305298,XArbitraryZVertical,0.07525578078036656,-0.557737074628227,0.635130781983811,0.5290319696615597,-0.6857160329818726,0.6288465261459351,-0.3665318489074707,0,0,0,-1,-1,61449.50048666667,unknown,2,2025-04-18T10:36:49.579+03:00,2025-04-17T15:44:39.500+03:00,7155,1.074305,0,0,5905.219,4,10,2025-04-18T10:36:49.579+03:00,766654609.6785992,0,108.39,100.5556,1,0.7,2025-04-18T10:36:45.418+03:00,109,1.816666666666667,2025-04-18T08:51:18.885+03:00,0.03057091307199995,1
2025-04-18T10:36:50.119+03:00,1744961806.632765,40.95359955957566,29.14097773549451,92.97792,-1,-1,-1,-1,30,24.65132846138212,-9999,61450.035772625,-0.679473876953125,0.6184234619140625,-0.37042236328125,61450.025696625,1.334977097746599,-1.079694749621056,-0.6802980460754052,0.01932806707918644,0.009885326027870178,0.03276723995804787,0.0154803991317749,-0.009731590747833252,0.01512685418128967,XArbitraryZVertical,0.07518632528196881,-0.5577100743023654,0.6352424915225309,0.5289361157890916,-0.6855090856552124,0.6290247440338135,-0.36661297082901,0,0,0,-1,-1,61449.50048666667,unknown,2,2025-04-18T10:36:49.579+03:00,2025-04-17T15:44:39.500+03:00,7155,1.074305,0,0,5905.219,4,10,2025-04-18T10:36:49.579+03:00,766654609.6785992,0,108.39,100.5556,1,0.7,2025-04-18T10:36:45.418+03:00,109,1.816666666666667,2025-04-18T08:51:18.885+03:00,0.03057091307199995,1
2025-04-18T10:36:50.129+03:00,1744961806.632765,40.95359955957566,29.14097773549451,92.97792,-1,-1,-1,-1,30,24.65132846138212,-9999,61450.04584962501,-0.6759185791015625,0.6208648681640625,-0.3746795654296875,61450.035772625,1.33551609472904,-1.079265133417066,-0.6804556674977804,0.03843704611063004,0.006157966330647469,0.0282174963504076,0.006812572479248047,-0.01104426383972168,-0.001639038324356079,XArbitraryZVertical,0.07514171952725238,-0.557605052438936,0.6354171887708671,0.5288433435388874,-0.6852641105651855,0.6291472911834717,-0.3668606579303741,0,0,0,-1,-1,61449.50048666667,unknown,2,2025-04-18T10:36:49.579+03:00,2025-04-17T15:44:39.500+03:00,7155,1.074305,0,0,5905.219,4,10,2025-04-18T10:36:49.579+03:00,766654609.6785992,0,108.39,100.5556,1,0.7,2025-04-18T10:36:45.418+03:00,109,1.816666666666667,2025-04-18T08:51:18.885+03:00,0.03057091307199995,1
2025-04-18T10:36:50.140+03:00,1744961806.632765,40.95359955957566,29.14097773549451,92.97792,-1,-1,-1,-1,30,24.65132846138212,-9999,61450.05592562501,-0.680572509765625,0.62591552734375,-0.3679351806640625,61450.04584962501,1.336282053461394,-1.078599554399184,-0.6804633634862122,0.06480254232883453,0.03373439982533455,0.02964584901928902,0.008578181266784668,-0.008486688137054443,-0.00780758261680603,XArbitraryZVertical,0.07514079817881764,-0.5574016736038864,0.6356454883616102,0.5287837278846815,-0.6850156784057617,0.6291532516479492,-0.3673144578933716,0,0,0,-1,-1,61449.50048666667,unknown,2,2025-04-18T10:36:49.579+03:00,2025-04-17T15:44:39.500+03:00,7155,1.074305,0,0,5905.219,4,10,2025-04-18T10:36:49.579+03:00,766654609.6785992,0,108.39,100.5556,1,0.7,2025-04-18T10:36:45.418+03:00,109,1.816666666666667,2025-04-18T08:51:18.885+03:00,0.03057091307199995,1
2025-04-18T10:36:50.150+03:00,1744961806.632765,40.95359955957566,29.14097773549451,92.97792,-1,-1,-1,-1,30,24.65132846138212,-9999,61450.066002625,-0.6891937255859375,0.6283721923828125,-0.3622283935546875,61450.05592562501,1.33710104182503,-1.077672692096718,-0.6804614726928345,0.05205212533473969,0.05142178386449814,0.02361192367970943,0.005964994430541992,-0.003999114036560059,-0.0001684725284576416,XArbitraryZVertical,0.07507504372494109,-0.5571255110164689,0.6358966358361069,0.5287821812625482,-0.6846760511398315,0.6291517615318298,-0.3679498136043549,0,0,0,-1,-1,61449.50048666667,unknown,2,2025-04-18T10:36:49.579+03:00,2025-04-17T15:44:39.500+03:00,7155,1.074305,0,0,5905.219,4,10,2025-04-18T10:36:49.579+03:00,766654609.6785992,0,108.39,100.5556,1,0.7,2025-04-18T10:36:45.418+03:00,109,1.816666666666667,2025-04-18T08:51:18.885+03:00,0.03057091307199995,1
2025-04-18T10:36:50.160+03:00,1744961806.632765,40.95359955957566,29.14097773549451,92.97792,-1,-1,-1,-1,30,24.65132846138212,-9999,61450.076078625,-0.68768310546875,0.6276702880859375,-0.360870361328125,61450.066002625,1.337703779244833,-1.076921914780374,-0.6805040607770887,0.04008008167147636,0.03146904706954956,0.02204621955752373,-0.0048331618309021,-0.001438260078430176,0.006527841091156006,XArbitraryZVertical,0.07498843763640854,-0.5569122378716342,0.6360884659244682,0.5287882809311452,-0.6843758821487427,0.629184901714325,-0.3684509992599487,0,0,0,-1,-1,61449.50048666667,unknown,2,2025-04-18T10:36:49.579+03:00,2025-04-17T15:44:39.500+03:00,7155,1.074305,0,0,5905.219,4,10,2025-04-18T10:36:49.579+03:00,766654609.6785992,0,108.39,100.5556,1,0.7,2025-04-18T10:36:45.418+03:00,109,1.816666666666667,2025-04-18T08:51:18.885+03:00,0.03057091307199995,1
2025-04-18T10:36:50.170+03:00,1744961806.632765,40.95359955957566,29.14097773549451,92.97792,-1,-1,-1,-1,30,24.65132846138212,-9999,61450.086155625,-0.683197021484375,0.625030517578125,-0.3628082275390625,61450.076078625,1.338298719681664,-1.076359302897965,-0.6805927276977809,0.03290685638785362,0.005136244464665651,0.02761994861066341,-0.004082620143890381,-0.001110494136810303,0.00813746452331543,XArbitraryZVertical,0.07494229482518808,-0.5567575067334666,0.6362757774995276,0.5287323314071712,-0.6841193437576294,0.6292538046836853,-0.3688094615936279,0,0,0,-1,-1,61449.50048666667,unknown,2,2025-04-18T10:36:49.579+03:00,2025-04-17T15:44:39.500+03:00,7155,1.074305,0,0,5905.219,4,10,2025-04-18T10:36:49.579+03:00,766654609.6785992,0,108.39,100.5556,1,0.7,2025-04-18T10:36:45.418+03:00,109,1.816666666666667,2025-04-18T08:51:18.885+03:00,0.03057091307199995,1
2025-04-18T10:36:50.180+03:00,1744961806.632765,40.95359955957566,29.14097773549451,92.97792,-1,-1,-1,-1,30,24.65132846138212,-9999,61450.096231625,-0.6851043701171875,0.6256561279296875,-0.3629913330078125,61450.086155625,1.338790169501312,-1.076071715662457,-0.6806804177737624,0.02718459069728851,-0.009073784574866295,0.02213333733379841,0.0007218122482299805,-0.004947543144226074,0.006019234657287598,XArbitraryZVertical,0.07495509376016986,-0.5566792011364274,0.6364252798781204,0.5286330526413281,-0.6839646697044373,0.6293219327926636,-0.3689799904823303,0,0,0,-1,-1,61449.50048666667,unknown,2,2025-04-18T10:36:49.579+03:00,2025-04-17T15:44:39.500+03:00,7155,1.074305,0,0,5905.219,4,10,2025-04-18T10:36:49.579+03:00,766654609.6785992,0,108.39,100.5556,1,0.7,2025-04-18T10:36:45.418+03:00,109,1.816666666666667,2025-04-18T08:51:18.885+03:00,0.03057091307199995,1
2025-04-18T10:36:50.190+03:00,1744961806.632765,40.95359955957566,29.14097773549451,92.97792,-1,-1,-1,-1,30,24.65132846138212,-9999,61450.10630862501,-0.6827392578125,0.6253662109375,-0.36370849609375,61450.096231625,1.339173589649462,-1.076006347985362,-0.6807944509228022,0.01932267285883427,-0.01460863091051579,0.02490808442234993,-0.000845491886138916,-0.00369340181350708,0.006426632404327393,XArbitraryZVertical,0.07499875344912486,-0.5566685404243532,0.6365405124332987,0.5284993644782404,-0.6838774085044861,0.6294105648994446,-0.3689906597137451,0,0,0,-1,-1,61449.50048666667,unknown,2,2025-04-18T10:36:49.579+03:00,2025-04-17T15:44:39.500+03:00,7155,1.074305,0,0,5905.219,4,10,2025-04-18T10:36:49.579+03:00,766654609.6785992,0,108.39,100.5556,1,0.7,2025-04-18T10:36:45.418+03:00,109,1.816666666666667,2025-04-18T08:51:18.885+03:00,0.03057091307199995,1
2025-04-18T10:36:50.200+03:00,1744961806.632765,40.95359955957566,29.14097773549451,92.97792,-1,-1,-1,-1,30,24.65132846138212,-9999,61450.11638462501,-0.6834259033203125,0.6250457763671875,-0.3682708740234375,61450.10630862501,1.339472054137014,-1.075979521169455,-0.6809900153015913,0.007707829587161541,-0.01709815301001072,0.03013533726334572,0.001096189022064209,-0.004165768623352051,0.005028426647186279,XArbitraryZVertical,0.0750008583231086,-0.5566862761374064,0.6366400043366899,0.5283604991178538,-0.6837591528892517,0.6295624971389771,-0.3689505159854889,0,0,0,-1,-1,61449.50048666667,unknown,2,2025-04-18T10:36:49.579+03:00,2025-04-17T15:44:39.500+03:00,7155,1.074305,0,0,5905.219,4,10,2025-04-18T10:36:49.579+03:00,766654609.6785992,0,108.39,100.5556,1,0.7,2025-04-18T10:36:45.418+03:00,109,1.816666666666667,2025-04-18T08:51:18.885+03:00,0.03057091307199995,1
2025-04-18T10:36:50.210+03:00,1744961806.632765,40.95359955957566,29.14097773549451,92.97792,-1,-1,-1,-1,30,24.65132846138212,-9999,61450.126461625,-0.6753692626953125,0.6280364990234375,-0.362762451171875,61450.11638462501,1.339707592870275,-1.076129118059126,-0.681274679005434,-0.006977639626711607,-0.0409957654774189,0.03857409954071045,0.0003527998924255371,-0.00489044189453125,0.0008280277252197266,XArbitraryZVertical,0.07500856589092658,-0.5567693646424076,0.6367251512073275,0.5281693250735078,-0.6836566925048828,0.6297836899757385,-0.3687631785869598,0,0,0,-1,-1,61449.50048666667,unknown,2,2025-04-18T10:36:49.579+03:00,2025-04-17T15:44:39.500+03:00,7155,1.074305,0,0,5905.219,4,10,2025-04-18T10:36:49.579+03:00,766654609.6785992,0,108.39,100.5556,1,0.7,2025-04-18T10:36:45.418+03:00,109,1.816666666666667,2025-04-18T08:51:18.885+03:00,0.03057091307199995,1
2025-04-18T10:36:50.220+03:00,1744961806.632765,40.95359955957566,29.14097773549451,92.97792,-1,-1,-1,-1,30,24.65132846138212,-9999,61450.136537625,-0.682098388671875,0.6261138916015625,-0.3656463623046875,61450.126461625,1.339883303748638,-1.076419177077217,-0.6816508070864379,-0.01305723749101162,-0.04204651340842247,0.0436892956495285,0.007132887840270996,-0.002329170703887939,0.005735814571380615,XArbitraryZVertical,0.07501052075691424,-0.5569086072587662,0.6367983717757121,0.5279339394887927,-0.6835550665855408,0.6300758123397827,-0.3684524595737457,0,0,0,-1,-1,61449.50048666667,unknown,2,2025-04-18T10:36:49.579+03:00,2025-04-17T15:44:39.500+03:00,7155,1.074305,0,0,5905.219,4,10,2025-04-18T10:36:49.579+03:00,766654609.6785992,0,108.39,100.5556,1,0.7,2025-04-18T10:36:45.418+03:00,109,1.816666666666667,2025-04-18T08:51:18.885+03:00,0.03057091307199995,1
2025-04-18T10:36:50.231+03:00,1744961806.632765,40.95359955957566,29.14097773549451,92.97792,-1,-1,-1,-1,30,24.65132846138212,-9999,61450.146614625,-0.69671630859375,0.6239166259765625,-0.3703765869140625,61450.136537625,1.339974838343288,-1.076748091703209,-0.6820934311750869,-0.01729326136410236,-0.03583069518208504,0.03971372917294502,0.002857983112335205,-0.004000306129455566,0.003745943307876587,XArbitraryZVertical,0.0749768238209098,-0.5570734436714123,0.636854559495151,0.5276969678560347,-0.6834306120872498,0.6304194331169128,-0.3680953085422516,0,0,0,-1,-1,61449.50048666667,unknown,2,2025-04-18T10:36:49.579+03:00,2025-04-17T15:44:39.500+03:00,7155,1.074305,0,0,5905.219,4,10,2025-04-18T10:36:49.579+03:00,766654609.6785992,0,108.39,100.5556,1,0.7,2025-04-18T10:36:45.418+03:00,109,1.816666666666667,2025-04-18T08:51:18.885+03:00,0.03057091307199995,1
2025-04-18T10:36:50.241+03:00,1744961806.632765,40.95359955957566,29.14097773549451,92.97792,-1,-1,-1,-1,30,24.65132846138212,-9999,61450.156690625,-0.702850341796875,0.6245269775390625,-0.3745880126953125,61450.146614625,1.339950989331171,-1.077013252627207,-0.6825369520439788,-0.02018725126981735,-0.007896467112004757,0.03685246035456657,-0.01212227344512939,-0.006374001502990723,-0.002884984016418457,XArbitraryZVertical,0.07489040455803897,-0.5572258879243646,0.6368827835598797,0.5275140821167602,-0.6832818388938904,0.6307636499404907,-0.3677814602851868,0,0,0,-1,-1,61449.50048666667,unknown,2,2025-04-18T10:36:49.579+03:00,2025-04-17T15:44:39.500+03:00,7155,1.074305,0,0,5905.219,4,10,2025-04-18T10:36:49.579+03:00,766654609.6785992,0,108.39,100.5556,1,0.7,2025-04-18T10:36:45.418+03:00,109,1.816666666666667,2025-04-18T08:51:18.885+03:00,0.03057091307199995,1
2025-04-18T10:36:50.251+03:00,1744961806.632765,40.95359955957566,29.14097773549451,92.97792,-1,-1,-1,-1,30,24.65132846138212,-9999,61450.16676762501,-0.6937713623046875,0.6253509521484375,-0.3726959228515625,61450.156690625,1.339859397184461,-1.077086124325226,-0.6829948795046562,-0.02578228525817394,0.006520023103803396,0.04277666285634041,-0.01956725120544434,-0.007171750068664551,-0.00638282299041748,XArbitraryZVertical,0.07471846915502399,-0.5573327156558202,0.6369017716040828,0.52740274003871,-0.6830542683601379,0.6311189532279968,-0.3675947785377502,0,0,0,-1,-1,61449.50048666667,unknown,2,2025-04-18T10:36:49.579+03:00,2025-04-17T15:44:39.500+03:00,7155,1.074305,0,0,5905.219,4,10,2025-04-18T10:36:49.579+03:00,766654609.6785992,0,108.39,100.5556,1,0.7,2025-04-18T10:36:45.418+03:00,109,1.816666666666667,2025-04-18T08:51:18.885+03:00,0.03057091307199995,1
2025-04-18T10:36:50.261+03:00,1744961806.632765,40.95359955957566,29.14097773549451,92.97792,-1,-1,-1,-1,30,24.65132846138212,-9999,61450.17684362501,-0.6906585693359375,0.6232147216796875,-0.3714752197265625,61450.16676762501,1.339834008702675,-1.077013140287849,-0.6834555204950832,-0.02329256385564804,0.01550546288490295,0.04261937364935875,-0.01193082332611084,-0.005240142345428467,-0.005448490381240845,XArbitraryZVertical,0.0745175278700929,-0.5573990692091799,0.6369439120656628,0.5273101956197663,-0.6827713847160339,0.6314761638641357,-0.3675068318843842,0,0,0,-1,-1,61449.50048666667,unknown,2,2025-04-18T10:36:49.579+03:00,2025-04-17T15:44:39.500+03:00,7155,1.074305,0,0,5905.219,4,10,2025-04-18T10:36:49.579+03:00,766654609.6785992,0,108.39,100.5556,1,0.7,2025-04-18T10:36:45.418+03:00,109,1.816666666666667,2025-04-18T08:51:18.885+03:00,0.03057091307199995,1
2025-04-18T10:36:50.271+03:00,1744961806.632765,40.95359955957566,29.14097773549451,92.97792,-1,-1,-1,-1,30,24.65132846138212,-9999,61450.186920625,-0.697418212890625,0.6267242431640625,-0.37286376953125,61450.17684362501,1.339848672806897,-1.076827603633988,-0.6838825531640798,-0.01446445100009441,0.02748089842498302,0.03678997978568077,-0.007582545280456543,-0.009370684623718262,-0.004061102867126465,XArbitraryZVertical,0.07430435117249033,-0.5574280666256929,0.63699738966914,0.5272450463810542,-0.6824657320976257,0.631807267665863,-0.3675056397914886,0,0,0,-1,-1,61449.50048666667,unknown,2,2025-04-18T10:36:49.579+03:00,2025-04-17T15:44:39.500+03:00,7155,1.074305,0,0,5905.219,4,10,2025-04-18T10:36:49.579+03:00,766654609.6785992,0,108.39,100.5556,1,0.7,2025-04-18T10:36:45.418+03:00,109,1.816666666666667,2025-04-18T08:51:18.885+03:00,0.03057091307199995,1
2025-04-18T10:36:50.281+03:00,1744961806.632765,40.95359955957566,29.14097773549451,92.97792,-1,-1,-1,-1,30,24.65132846138212,-9999,61450.196996625,-0.6880340576171875,0.6239013671875,-0.3692626953125,61450.186920625,1.339861351598466,-1.076528808701228,-0.6842625326567766,-0.0203925147652626,0.03174315392971039,0.03528469428420067,-0.0154111385345459,-0.005743682384490967,-0.004947662353515625,XArbitraryZVertical,0.07407198953056271,-0.5574186417478857,0.6370497796849531,0.5272243634993136,-0.6821444630622864,0.6321017146110535,-0.3675955832004547,0,0,0,-1,-1,61449.50048666667,unknown,2,2025-04-18T10:36:49.579+03:00,2025-04-17T15:44:39.500+03:00,7155,1.074305,0,0,5905.219,4,10,2025-04-18T10:36:49.579+03:00,766654609.6785992,0,108.39,100.5556,1,0.7,2025-04-18T10:36:45.418+03:00,109,1.816666666666667,2025-04-18T08:51:18.885+03:00,0.03057091307199995,1
2025-04-18T10:36:50.291+03:00,1744961806.632765,40.95359955957566,29.14097773549451,92.97792,-1,-1,-1,-1,30,24.65132846138212,-9999,61450.207072625,-0.687591552734375,0.62164306640625,-0.3679046630859375,61450.196996625,1.339833909739893,-1.076139754865394,-0.6846388271160836,-0.01617193780839443,0.05071498081088066,0.03284071013331413,-0.007218718528747559,-0.007927298545837402,-0.002720117568969727,XArbitraryZVertical,0.07380104699786669,-0.557386228882124,0.6370944783952948,0.5272425634687755,-0.6817919611930847,0.6323933005332947,-0.3677479922771454,0,0,0,-1,-1,61449.50048666667,unknown,2,2025-04-18T10:36:49.579+03:00,2025-04-17T15:44:39.500+03:00,7155,1.074305,0,0,5905.219,4,10,2025-04-18T10:36:49.579+03:00,766654609.6785992,0,108.39,100.5556,1,0.7,2025-04-18T10:36:45.418+03:00,109,1.816666666666667,2025-04-18T08:51:18.885+03:00,0.03057091307199995,1
2025-04-18T10:36:50.301+03:00,1744961806.632765,40.95359955957566,29.14097773549451,92.97792,-1,-1,-1,-1,30,24.65132846138212,-9999,61450.217149625,-0.6828460693359375,0.620147705078125,-0.371826171875,61450.207072625,1.339885266424326,-1.075589022480479,-0.6849802262672704,-0.01311629265546799,0.05120280757546425,0.02902236953377724,-0.005871772766113281,-0.01087725162506104,0.0006808042526245117,XArbitraryZVertical,0.07351341462062823,-0.5573018576840215,0.6371623119868443,0.5272900354014638,-0.681399405002594,0.6326577067375183,-0.3680208325386047,0,0,0,-1,-1,61449.50048666667,unknown,2,2025-04-18T10:36:49.579+03:00,2025-04-17T15:44:39.500+03:00,7155,1.074305,0,0,5905.219,4,10,2025-04-18T10:36:49.579+03:00,766654609.6785992,0,108.39,100.5556,1,0.7,2025-04-18T10:36:45.418+03:00,109,1.816666666666667,2025-04-18T08:51:18.885+03:00,0.03057091307199995,1
2025-04-18T10:36:50.311+03:00,1744961806.632765,40.95359955957566,29.14097773549451,92.97792,-1,-1,-1,-1,30,24.65132846138212,-9999,61450.22722562501,-0.6748046875,0.6194610595703125,-0.367401123046875,61450.217149625,1.339809402567293,-1.07513605529658,-0.6853247661656212,-0.02886329777538776,0.04990877583622932,0.02846070751547813,-0.003377020359039307,-0.01260888576507568,-0.004515945911407471,XArbitraryZVertical,0.07322036243362466,-0.557248529345488,0.6371932104029415,0.5273497220834641,-0.6810407638549805,0.632924497127533,-0.3682257235050201,0,0,0,-1,-1,61449.50048666667,unknown,2,2025-04-18T10:36:49.579+03:00,2025-04-17T15:44:39.500+03:00,7155,1.074305,0,0,5905.219,4,10,2025-04-18T10:36:49.579+03:00,766654609.6785992,0,108.39,100.5556,1,0.7,2025-04-18T10:36:45.418+03:00,109,1.816666666666667,2025-04-18T08:51:18.885+03:00,0.03057091307199995,1
2025-04-18T10:36:50.321+03:00,1744961806.632765,40.95359955957566,29.14097773549451,92.97792,-1,-1,-1,-1,30,24.65132846138212,-9999,61450.23730262501,-0.672332763671875,0.6238555908203125,-0.3672027587890625,61450.22722562501,1.339568151813087,-1.075020123871385,-0.6856603795802005,-0.03824774548411369,0.01020663697272539,0.02800837159156799,0.005823314189910889,-0.01357060670852661,0.0005736351013183594,XArbitraryZVertical,0.07299186316902941,-0.5572884316435323,0.6371671972879887,0.5273706461956094,-0.6808111667633057,0.6331843137741089,-0.3682035803794861,0,0,0,-1,-1,61449.50048666667,unknown,2,2025-04-18T10:36:49.579+03:00,2025-04-17T15:44:39.500+03:00,7155,1.074305,0,0,5905.219,4,10,2025-04-18T10:36:49.579+03:00,766654609.6785992,0,108.39,100.5556,1,0.7,2025-04-18T10:36:45.418+03:00,109,1.816666666666667,2025-04-18T08:51:18.885+03:00,0.03057091307199995,1
2025-04-18T10:36:50.331+03:00,1744961806.632765,40.95359955957566,29.14097773549451,92.97792,-1,-1,-1,-1,30,24.65132846138212,-9999,61450.247378625,-0.669097900390625,0.623992919921875,-0.36993408203125,61450.23730262501,1.339251429053497,-1.075149007883223,-0.6859867580490437,-0.04084379225969315,0.008231636136770248,0.02291827090084553,0.008145630359649658,-0.009779632091522217,0.0003876090049743652,XArbitraryZVertical,0.07282369341450945,-0.5573938740075532,0.6371114199820317,0.5273499180616317,-0.6806768178939819,0.6334368586540222,-0.3680175542831421,0,0,0,-1,-1,61449.50048666667,unknown,2,2025-04-18T10:36:49.579+03:00,2025-04-17T15:44:39.500+03:00,7155,1.074305,0,0,5905.219,4,10,2025-04-18T10:36:49.579+03:00,766654609.6785992,0,108.39,100.5556,1,0.7,2025-04-18T10:36:45.418+03:00,109,1.816666666666667,2025-04-18T08:51:18.885+03:00,0.03057091307199995,1
2025-04-18T10:36:50.342+03:00,1744961806.632765,40.95359955957566,29.14097773549451,92.97792,-1,-1,-1,-1,30,24.65132846138212,-9999,61450.257455625,-0.6734619140625,0.6227874755859375,-0.3702392578125,61450.247378625,1.338924325306152,-1.075251667470961,-0.6863227135807605,-0.03848157078027725,0.01605174317955971,0.02094673365354538,0.01164305210113525,-0.009566426277160645,-0.002209573984146118,XArbitraryZVertical,0.07264068079569078,-0.5574944622230672,0.6370548262250015,0.5273373150645054,-0.6805274486541748,0.6336967945098877,-0.3678465187549591,0,0,0,-1,-1,61449.50048666667,unknown,2,2025-04-18T10:36:49.579+03:00,2025-04-17T15:44:39.500+03:00,7155,1.074305,0,0,5905.219,4,10,2025-04-18T10:36:49.579+03:00,766654609.6785992,0,108.39,100.5556,1,0.7,2025-04-18T10:36:45.418+03:00,109,1.816666666666667,2025-04-18T08:51:18.885+03:00,0.03057091307199995,1
2025-04-18T10:36:50.351+03:00,1744961806.632765,40.95359955957566,29.14097773549451,92.97792,-1,-1,-1,-1,30,24.65132846138212,-9999,61450.267531625,-0.670440673828125,0.624114990234375,-0.3663787841796875,61450.257455625,1.33861841261813,-1.075236272459703,-0.6866160865956459,-0.03677581623196602,0.02439409494400024,0.02006922289729118,0.007292807102203369,-0.01023602485656738,-0.003233641386032104,XArbitraryZVertical,0.07244187432197231,-0.5575553276251034,0.6370038988851683,0.5273615762437422,-0.6803580522537231,0.6339237093925476,-0.3677684664726257,0,0,0,-1,-1,61449.50048666667,unknown,2,2025-04-18T10:36:49.579+03:00,2025-04-17T15:44:39.500+03:00,7155,1.074305,0,0,5905.219,4,10,2025-04-18T10:36:49.579+03:00,766654609.6785992,0,108.39,100.5556,1,0.7,2025-04-18T10:36:45.418+03:00,109,1.816666666666667,2025-04-18T08:51:18.885+03:00,0.03057091307199995,1
2025-04-18T10:36:50.361+03:00,1744961806.632765,40.95359955957566,29.14097773549451,92.97792,-1,-1,-1,-1,30,24.65132846138212,-9999,61450.277608625,-0.6653594970703125,0.6259613037109375,-0.36260986328125,61450.267531625,1.338317063395431,-1.075233333149649,-0.6869214027306653,-0.0376490019261837,0.01484726183116436,0.02221696078777313,0.008525311946868896,-0.01030427217483521,0.0001858174800872803,XArbitraryZVertical,0.07224374987044715,-0.5576214047099239,0.6369548879751541,0.5273781140255006,-0.6801866888999939,0.6341598033905029,-0.3676784336566925,0,0,0,-1,-1,61449.50048666667,unknown,2,2025-04-18T10:36:49.579+03:00,2025-04-17T15:44:39.500+03:00,7155,1.074305,0,0,5905.219,4,10,2025-04-18T10:36:49.579+03:00,766654609.6785992,0,108.39,100.5556,1,0.7,2025-04-18T10:36:45.418+03:00,109,1.816666666666667,2025-04-18T08:51:18.885+03:00,0.03057091307199995,1
2025-04-18T10:36:50.372+03:00,1744961806.632765,40.95359955957566,29.14097773549451,92.97792,-1,-1,-1,-1,30,24.65132846138212,-9999,61450.287684625,-0.6646881103515625,0.6260223388671875,-0.359832763671875,61450.277608625,1.3380529167777,-1.075374722600631,-0.6872372404693461,-0.03178977966308594,-0.008303064852952957,0.02332430332899094,0.01433670520782471,-0.008030712604522705,0.004358440637588501,XArbitraryZVertical,0.0720980414949061,-0.5577260652113037,0.6369115257875229,0.5273397750571928,-0.6800624132156372,0.6344040036201477,-0.3674870133399963,0,0,0,-1,-1,61449.50048666667,unknown,2,2025-04-18T10:36:49.579+03:00,2025-04-17T15:44:39.500+03:00,7155,1.074305,0,0,5905.219,4,10,2025-04-18T10:36:49.579+03:00,766654609.6785992,0,108.39,100.5556,1,0.7,2025-04-18T10:36:45.418+03:00,109,1.816666666666667,2025-04-18T08:51:18.885+03:00,0.03057091307199995,1
2025-04-18T10:36:50.382+03:00,1744961806.632765,40.95359955957566,29.14097773549451,92.97792,-1,-1,-1,-1,30,24.65132846138212,-9999,61450.29776162501,-0.668975830078125,0.6265106201171875,-0.3602142333984375,61450.287684625,1.337902337149381,-1.075618297145624,-0.6875104312242664,-0.01822450198233128,-0.01766867004334927,0.02796283178031445,0.01502132415771484,-0.008089244365692139,0.006963789463043213,XArbitraryZVertical,0.07203234253791917,-0.5578457186279928,0.6368902061600257,0.5272479362278616,-0.6799994111061096,0.6346151232719421,-0.3672389984130859,0,0,0,-1,-1,61449.50048666667,unknown,2,2025-04-18T10:36:49.579+03:00,2025-04-17T15:44:39.500+03:00,7155,1.074305,0,0,5905.219,4,10,2025-04-18T10:36:49.579+03:00,766654609.6785992,0,108.39,100.5556,1,0.7,2025-04-18T10:36:45.418+03:00,109,1.816666666666667,2025-04-18T08:51:18.885+03:00,0.03057091307199995,1
2025-04-18T10:36:50.392+03:00,1744961806.632765,40.95359955957566,29.14097773549451,92.97792,-1,-1,-1,-1,30,24.65132846138212,-9999,61450.30783762501,-0.678558349609375,0.629486083984375,-0.36505126953125,61450.29776162501,1.337887496593686,-1.075822018662075,-0.6877836203902713,-0.01736829616129398,-0.01303956285119057,0.03024995513260365,0.01114416122436523,-0.008620798587799072,0.006407201290130615,XArbitraryZVertical,0.07199179408128294,-0.5579499348232715,0.6369061161573812,0.5271240057867222,-0.6799216270446777,0.6348262429237366,-0.3670181035995483,0,0,0,-1,-1,61449.50048666667,unknown,2,2025-04-18T10:36:49.579+03:00,2025-04-17T15:44:39.500+03:00,7155,1.074305,0,0,5905.219,4,10,2025-04-18T10:36:49.579+03:00,766654609.6785992,0,108.39,100.5556,1,0.7,2025-04-18T10:36:45.418+03:00,109,1.816666666666667,2025-04-18T08:51:18.885+03:00,0.03057091307199995,1
2025-04-18T10:36:50.402+03:00,1744961806.632765,40.95359955957566,29.14097773549451,92.97792,-1,-1,-1,-1,30,24.65132846138212,-9999,61450.317914625,-0.6953125,0.6307373046875,-0.3754119873046875,61450.30783762501,1.337819843855961,-1.075833101720623,-0.6881279677918813,-0.02926097437739372,0.02289546653628349,0.03329497575759888,0.0037384033203125,-0.006140232086181641,0.00303041934967041,XArbitraryZVertical,0.07184879461176388,-0.558018271584185,0.6369221124331297,0.5270518644412205,-0.6797333359718323,0.6350922584533691,-0.3669067323207855,0,0,0,-1,-1,61449.50048666667,unknown,2,2025-04-18T10:36:49.579+03:00,2025-04-17T15:44:39.500+03:00,7155,1.074305,0,0,5905.219,4,10,2025-04-18T10:36:49.579+03:00,766654609.6785992,0,108.39,100.5556,1,0.7,2025-04-18T10:36:45.418+03:00,109,1.816666666666667,2025-04-18T08:51:18.885+03:00,0.03057091307199995,1
2025-04-18T10:36:50.412+03:00,1744961806.632765,40.95359955957566,29.14097773549451,92.97792,-1,-1,-1,-1,30,24.65132846138212,-9999,61450.327990625,-0.6940460205078125,0.62890625,-0.374725341796875,61450.317914625,1.337704951091865,-1.075598573070378,-0.6885869287405322,-0.03550342470407486,0.02937334030866623,0.04235744848847389,-0.01352620124816895,-0.004785656929016113,-0.007217884063720703,XArbitraryZVertical,0.07157189694656933,-0.5580445082048547,0.6369458273206264,0.5270331208293413,-0.6793907284736633,0.6354467272758484,-0.3669275939464569,0,0,0,-1,-1,61449.50048666667,unknown,2,2025-04-18T10:36:49.579+03:00,2025-04-17T15:44:39.500+03:00,7155,1.074305,0,0,5905.219,4,10,2025-04-18T10:36:49.579+03:00,766654609.6785992,0,108.39,100.5556,1,0.7,2025-04-18T10:36:45.418+03:00,109,1.816666666666667,2025-04-18T08:51:18.885+03:00,0.03057091307199995,1
2025-04-18T10:36:50.422+03:00,1744961806.632765,40.95359955957566,29.14097773549451,92.97792,-1,-1,-1,-1,30,24.65132846138212,-9999,61450.338067625,-0.6800689697265625,0.6294403076171875,-0.368133544921875,61450.327990625,1.337579258550685,-1.07542368098182,-0.6891925913803219,-0.04589394479990005,0.0186627060174942,0.05483465641736984,-0.01594328880310059,-0.007206380367279053,-0.008624851703643799,XArbitraryZVertical,0.07125658582561686,-0.5581136211772146,0.6369790427790231,0.5269624930908142,-0.6789878010749817,0.6359142661094666,-0.3668633699417114,0,0,0,-1,-1,61449.50048666667,unknown,2,2025-04-18T10:36:49.579+03:00,2025-04-17T15:44:39.500+03:00,7155,1.074305,0,0,5905.219,4,10,2025-04-18T10:36:49.579+03:00,766654609.6785992,0,108.39,100.5556,1,0.7,2025-04-18T10:36:45.418+03:00,109,1.816666666666667,2025-04-18T08:51:18.885+03:00,0.03057091307199995,1
2025-04-18T10:36:50.432+03:00,1744961806.632765,40.95359955957566,29.14097773549451,92.97792,-1,-1,-1,-1,30,24.65132846138212,-9999,61450.348143625,-0.6820068359375,0.63153076171875,-0.3683624267578125,61450.338067625,1.337404055156247,-1.075331117483429,-0.6899560953456438,-0.05568106099963188,0.01840411312878132,0.06694378703832626,-0.001954555511474609,-0.007139265537261963,-0.001758694648742676,XArbitraryZVertical,0.07089515233210049,-0.5582349495693673,0.6370118418227663,0.5268429787790522,-0.6785264015197754,0.6365033388137817,-0.3666952252388,0,0,0,-1,-1,61449.50048666667,unknown,2,2025-04-18T10:36:49.579+03:00,2025-04-17T15:44:39.500+03:00,7155,1.074305,0,0,5905.219,4,10,2025-04-18T10:36:49.579+03:00,766654609.6785992,0,108.39,100.5556,1,0.7,2025-04-18T10:36:45.418+03:00,109,1.816666666666667,2025-04-18T08:51:18.885+03:00,0.03057091307199995,1
2025-04-18T10:36:50.442+03:00,1744961806.632765,40.95359955957566,29.14097773549451,92.97792,-1,-1,-1,-1,30,24.65132846138212,-9999,61450.35822062501,-0.68426513671875,0.6261749267578125,-0.366546630859375,61450.348143625,1.337163891274314,-1.075289050672977,-0.6908530118085505,-0.0679059699177742,0.01335402764379978,0.07597686350345612,-0.003769457340240479,-0.00479435920715332,-0.001315087080001831,XArbitraryZVertical,0.0704821011641248,-0.5583960690377923,0.6370388480680496,0.5266950291354849,-0.6780085563659668,0.637194812297821,-0.3664522171020508,0,0,0,-1,-1,61449.50048666667,unknown,2,2025-04-18T10:36:49.579+03:00,2025-04-17T15:44:39.500+03:00,7155,1.074305,0,0,5905.219,4,10,2025-04-18T10:36:49.579+03:00,766654609.6785992,0,108.39,100.5556,1,0.7,2025-04-18T10:36:45.418+03:00,109,1.816666666666667,2025-04-18T08:51:18.885+03:00,0.03057091307199995,1
2025-04-18T10:36:50.452+03:00,1744961806.632765,40.95359955957566,29.14097773549451,92.97792,-1,-1,-1,-1,30,24.65132846138212,-9999,61450.36829662501,-0.6763458251953125,0.62188720703125,-0.36431884765625,61450.35822062501,1.336776493721997,-1.075415199449806,-0.691899737233879,-0.08410704880952835,0.007123295683413744,0.07674012333154678,-0.007468938827514648,-0.0113532543182373,-0.0008938610553741455,XArbitraryZVertical,0.07002591382917533,-0.5586337467166318,0.637035910517824,0.5265073560536516,-0.6774675846099854,0.6380012035369873,-0.3660494089126587,0,0,0,-1,-1,61449.50048666667,unknown,2,2025-04-18T10:36:49.579+03:00,2025-04-17T15:44:39.500+03:00,7155,1.074305,0,0,5905.219,4,10,2025-04-18T10:36:49.579+03:00,766654609.6785992,0,108.39,100.5556,1,0.7,2025-04-18T10:36:45.418+03:00,109,1.816666666666667,2025-04-18T08:51:18.885+03:00,0.03057091307199995,1
